~Version information
VERS.                            2.00: CWLS LAS  -  VERSION 2.00
WRAP.                              NO: One line per depth step
~Well information
#MNEM.UNIT                  DATA TYPE  INFORMATION
#===.================================:==================
STRT.M                       1092.800: First depth in file
STOP.M                       1157.900: Last depth in file
STEP.M                          0.100: Depth increment
NULL.                        -999.25 : Null values
DATE.                       25/2/2018: LOG DATE
TIME.                                : LOG TIME
WELL.                            9671: Well name
GRP.                                 : Group name
FLD.                             UZEN: Field name
ISS.                                 : Well surveys
SRVC.                        AO"UPGF": Service Company
~Curve information
#MNEM.UNIT                   API CODE   CURVE DESCRIPTION
#===.================================:==================
DEPT.M                               : Depth curve
Tau60.ÏÍÒ                            : : Tau60
“au30.ÏÍÒ                            : : “au30
IN60.ËÏÔ/ÏËÌ                         : : IN60
IN30.ËÏÔ/ÏËÌ                         : : IN30
SIGMA.                               : SIGMA
 Ì(»√Õ).‰.Â.                         : :  Ì(»√Õ)
#
~Other information
#------------------ REMARKS AREA -----------------------
#=======================================================
# The file is generated by the program EditKar v2003.01
#Number of Curves = 6
~A Log Data Section
# ...
1142.40 139.0000 136.0000  763.0000 4075.0000  33.4550   0.0000 
1142.50 142.6080 138.5770  774.3490 4100.7778  32.8330   0.0000 
1142.60 146.0000 141.0000  785.0000 4125.0000  32.2690   0.0000 
1142.70 152.7060 142.0310  887.0800 4120.3569  32.0350   0.0000 
1142.80 159.0000 143.0000  983.0000 4116.0000  31.8180   0.0000 
1142.90 164.1580 149.1900 1036.6500 4523.0239  30.4970   0.0000 
1143.00 169.0000 155.0000 1087.0000 4905.0000  29.3540   0.0000 
1143.10 162.2890 160.6770 1102.9919 5135.2109  28.3170   0.0000 
1143.20 156.0000 166.0000 1118.0000 5351.0000  27.4090   0.0000 
1143.30 150.3250 164.9680 1089.6100 5304.5708  27.5810   0.0000 
1143.40 145.0000 164.0000 1063.0000 5261.0000  27.7430   0.0000 
1143.50 142.4220 159.3600  984.0710 4955.7900  28.5510   0.0000 
1143.60 140.0000 155.0000  910.0000 4669.0000  29.3540   0.0000 
1143.70 137.4200 149.8410  881.1280 4328.5239  30.3650   0.0000 
1143.80 135.0000 145.0000  854.0000 4009.0000  31.3790   0.0000 
1143.90 135.5150 141.9040  867.4120 4172.5322  32.0630   0.0000 
1144.00 136.0000 139.0000  880.0000 4326.0000  32.7330   0.0000 
1144.10 134.9670 136.4190  877.4200 4447.2998  33.3530   0.0000 
1144.20 134.0000 134.0000  875.0000 4561.0000  33.9550   0.1130 
1144.30 131.4200 136.0630  876.5480 4494.9678  33.4400   0.1880 
1144.40 129.0000 138.0000  878.0000 4433.0000  32.9710   0.2830 
1144.50 130.0310 137.4840  847.0470 4434.5469  33.0940   0.2120 
1144.60 131.0000 137.0000  818.0000 4436.0000  33.2110   0.2060 
1144.70 129.4520 134.9360  801.5020 4225.5239  33.7190   0.0000 
1144.80 128.0000 133.0000  786.0000 4028.0000  34.2100   0.0000 
1144.90 126.4520 131.9680  781.3570 3946.4919  34.4780   0.0000 
1145.00 125.0000 131.0000  777.0000 3870.0000  34.7320   0.0000 
1145.10 126.0320 131.5160  778.5470 3964.4590  34.5960   0.0000 
1145.20 127.0000 132.0000  780.0000 4053.0000  34.4690   0.0000 
1145.30 125.4520 131.4840  785.6770 4080.8569  34.6040   0.0000 
1145.40 124.0000 131.0000  791.0000 4107.0000  34.7320   0.0000 
1145.50 126.5770 130.4840  765.2060 4103.9072  34.8700   0.0000 
1145.60 129.0000 130.0000  741.0000 4101.0000  35.0000   0.0000 
1145.70 126.4200 130.0000  779.1510 4020.5239  35.0000   0.0000 
1145.80 124.0000 130.0000  815.0000 3945.0000  35.0000   0.0000 
1145.90 120.9040 131.0310  799.0070 4089.9600  34.7240   0.0000 
1146.00 118.0000 132.0000  784.0000 4226.0000  34.4690   0.0000 
1146.10 124.7100 130.9670  768.0070 4057.7290  34.7410   0.0000 
1146.20 131.0000 130.0000  753.0000 3900.0000  35.0000   0.0000 
1146.30 129.4520 128.9680  761.2580 3887.1030  35.2800   0.0000 
1146.40 128.0000 128.0000  769.0000 3875.0000  35.5460   0.0000 
1146.50 124.3910 129.5460  758.6820 4037.4009  35.1220   0.0000 
1146.60 121.0000 131.0000  749.0000 4190.0000  34.7320   0.0000 
1146.70 121.0000 132.0310  773.7460 4064.6431  34.4610   0.0000 
1146.80 121.0000 133.0000  797.0000 3947.0000  34.2100   0.0000 
1146.90 125.1270 130.9360  768.6270 3881.4839  34.7490   0.0000 
1147.00 129.0000 129.0000  742.0000 3820.0000  35.2710   0.0000 
1147.10 130.5480 129.0000  725.4920 3725.0249  35.2710   0.0000 
1147.20 132.0000 129.0000  710.0000 3636.0000  35.2710   0.0000 
1147.30 129.4200 129.0000  731.6790 3783.0239  35.2710   0.0000 
1147.40 127.0000 129.0000  752.0000 3921.0000  35.2710   0.0000 
1147.50 125.4530 129.0000  757.6740 4013.2849  35.2710   0.0000 
1147.60 124.0000 129.0000  763.0000 4100.0000  35.2710   0.0000 
1147.70 131.2220 127.4520  791.3550 4019.0081  35.6990   0.0000 
1147.80 138.0000 126.0000  818.0000 3943.0000  36.1110   0.0000 
1147.90 134.9040 128.5790  823.6740 4033.2781  35.3860   0.0000 
1148.00 132.0000 131.0000  829.0000 4118.0000  34.7320   0.0000 
1148.10 129.4190 131.5160  815.5870 4177.3589  34.5960   0.0000 
1148.20 127.0000 132.0000  803.0000 4233.0000  34.4690   0.0000 
1148.30 127.0000 130.9680  795.7730 4243.3169  34.7410   0.0000 
1148.40 127.0000 130.0000  789.0000 4253.0000  35.0000   0.0000 
1148.50 127.0000 131.5460  791.5790 4168.4482  34.5880   0.0000 
1148.60 127.0000 133.0000  794.0000 4089.0000  34.2100   0.0000 
1148.70 129.0630 132.4840  816.1690 4006.4600  34.3430   0.0000 
1148.80 131.0000 132.0000  837.0000 3929.0000  34.4690   0.0000 
1148.90 131.0000 132.0000  854.0230 4020.8250  34.4690   0.0000 
1149.00 131.0000 132.0000  870.0000 4107.0000  34.4690   0.0700 
1149.10 128.9350 132.0000  864.8410 4240.6880  34.4690   0.0020 
1149.20 127.0000 132.0000  860.0000 4366.0000  34.4690   0.0000 
1149.30 129.0630 130.9680  854.8380 4433.5801  34.7410   0.0000 
1149.40 131.0000 130.0000  850.0000 4497.0000  35.0000   0.2360 
1149.50 129.4530 130.5150  811.8250 4498.5469  34.8610   0.3400 
1149.60 128.0000 131.0000  776.0000 4500.0000  34.7320   0.2720 
1149.70 121.2930 129.9680  657.4210 4282.8169  35.0080   0.0000 
1149.80 115.0000 129.0000  546.0000 4079.0000  35.2710   0.0000 
1149.90 111.9040 127.4520  544.9680 3377.9280  35.6990   0.0000 
1150.00 109.0000 126.0000  544.0000 2720.0000  36.1110   0.0000 
1150.10 112.0970 119.8060  634.7930 2641.0259  37.9780   0.0000 
1150.20 115.0000 114.0000  720.0000 2567.0000  39.9120   0.0000 
1150.30 112.9360 110.9040  708.1280 3071.5239  41.0260   0.0000 
1150.40 111.0000 108.0000  697.0000 3545.0000  42.1290   0.0000 
1150.50 110.4840 109.5460  691.3250 3567.1689  41.5340   0.0000 
1150.60 110.0000 111.0000  686.0000 3588.0000  40.9910   0.0000 
1150.70 113.6110 113.0630  727.2440 3611.7300  40.2420   0.0000 
1150.80 117.0000 115.0000  766.0000 3634.0000  39.5650   0.0000 
1150.90 114.9360 116.0310  758.7770 3785.6670  39.2130   0.0000 
1151.00 113.0000 117.0000  752.0000 3928.0000  38.8880   0.0000 
1151.10 115.5800 115.4510  739.1030 3844.3811  39.4100   0.0000 
1151.20 118.0000 114.0000  727.0000 3766.0000  39.9120   0.0000 
1151.30 119.0310 111.9360  745.0650 3653.5400  40.6480   0.0000 
1151.40 120.0000 110.0000  762.0000 3548.0000  41.3630   0.0000 
1151.50 123.0930 114.6400  773.3490 3728.9609  39.6890   0.0000 
1151.60 126.0000 119.0000  784.0000 3899.0000  38.2350   0.0000 
1151.70 126.5150 121.0630  801.5290 3971.7380  37.5830   0.0000 
1151.80 127.0000 123.0000  818.0000 4040.0000  36.9910   0.0000 
1151.90 123.9040 121.9680  798.3960 3905.8730  37.3040   0.0000 
1152.00 121.0000 121.0000  780.0000 3780.0000  37.6030   0.0000 
1152.10 117.9030 121.0000  801.6660 3689.1541  37.6030   0.0000 
1152.20 115.0000 121.0000  822.0000 3604.0000  37.6030   0.0000 
1152.30 116.0310 119.9680  852.9700 3713.3650  37.9260   0.0000 
1152.40 117.0000 119.0000  882.0000 3816.0000  38.2350   0.0000 
1152.50 125.2480 117.9680  883.5470 3892.3030  38.5690   0.0000 
1152.60 133.0000 117.0000  885.0000 3964.0000  38.8880   0.0000 
1152.70 137.1270 122.6740  968.5200 3988.7620  37.0900   0.0000 
1152.80 141.0000 128.0000 1047.0000 4012.0000  35.5460   0.0000 
1152.90 140.4840 136.2540 1073.8250 4258.0708  33.3930   0.0790 
1153.00 140.0000 144.0000 1099.0000 4489.0000  31.5970   0.1210 
1153.10 138.9670 145.5480 1072.1740 4483.3218  31.2610   0.1380 
1153.20 138.0000 147.0000 1047.0000 4478.0000  30.9520   0.1410 
1153.30 132.8410 145.4520 1017.0620 4361.9292  31.2810   0.0300 
1153.40 128.0000 144.0000  989.0000 4253.0000  31.5970   0.0000 
1153.50 120.2660 138.3280  921.9360 4154.5278  32.8920   0.0000 
1153.60 113.0000 133.0000  859.0000 4062.0000  34.2100   0.0000 
1153.70 109.3880 124.2300  836.8310 3762.7939  36.6250   0.0000 
1153.80 106.0000 116.0000  816.0000 3482.0000  39.2240   0.0000 
1153.90 107.5470 110.3250  799.4920 3388.1111  41.2410   0.0000 
1154.00 109.0000 105.0000  784.0000 3300.0000  43.3330   0.0000 
1154.10 109.0000 105.0000  762.8490 3331.4861  43.3330   0.0000 
1154.20 109.0000 105.0000  743.0000 3361.0000  43.3330   0.0000 
1154.30 112.0950 105.5150  770.8730 3348.6189  43.1210   0.0000 
1154.40 115.0000 106.0000  797.0000 3337.0000  42.9240   0.0000 
1154.50 113.9680 106.5150  799.0630 3412.2710  42.7160   0.0000 
1154.60 113.0000 107.0000  801.0000 3483.0000  42.5230   0.0000 
1154.70 110.4200 106.4840  782.4390 3438.6350  42.7290   0.0000 
