~Version information
VERS.                            2.00: CWLS LAS  -  VERSION 2.00
WRAP.                              NO: One line per depth step
~Well information
#MNEM.UNIT                  DATA TYPE  INFORMATION
#===.================================:==================
STRT.M                       1092.800: First depth in file
STOP.M                       1157.900: Last depth in file
STEP.M                          0.100: Depth increment
NULL.                        -999.25 : Null values
DATE.                       25/2/2018: LOG DATE
TIME.                                : LOG TIME
WELL.                            9671: Well name
GRP.                                 : Group name
FLD.                             UZEN: Field name
ISS.                                 : Well surveys
SRVC.                        AO"UPGF": Service Company
~Curve information
#MNEM.UNIT                   API CODE   CURVE DESCRIPTION
#===.================================:==================
DEPT.M                               : Depth curve
Tau60.ÏÍÒ                            : : Tau60
“au30.ÏÍÒ                            : : “au30
IN60.ËÏÔ/ÏËÌ                         : : IN60
IN30.ËÏÔ/ÏËÌ                         : : IN30
SIGMA.                               : SIGMA
 Ì(»√Õ).‰.Â.                         : :  Ì(»√Õ)
#
~Other information
#------------------ REMARKS AREA -----------------------
#=======================================================
# The file is generated by the program EditKar v2003.01
#Number of Curves = 6
~A Log Data Section
# ...
1117.60 160.0000 157.0000  647.0000 4667.0000  28.9800   0.3150 
1117.70 161.5470 158.0310  666.0750 4472.0000  28.7910   0.3200 
1117.80 163.0000 159.0000  684.0000 4289.0000  28.6160   0.3140 
1117.90 156.8090 156.4200  672.1340 4342.6509  29.0880   0.3080 
1118.00 151.0000 154.0000  661.0000 4393.0000  29.5450   0.2590 
1118.10 147.3860 152.4510  634.1740 4398.1621  29.8450   0.2570 
1118.20 144.0000 151.0000  609.0000 4403.0000  30.1320   0.2270 
1118.30 142.4520 149.9680  617.2580 4299.3101  30.3390   0.2330 
1118.40 141.0000 149.0000  625.0000 4202.0000  30.5360   0.2310 
1118.50 141.5150 147.4530  609.5230 4268.5068  30.8570   0.2100 
1118.60 142.0000 146.0000  595.0000 4331.0000  31.1640   0.1770 
1118.70 139.4200 145.4840  609.9510 4253.6191  31.2740   0.1880 
1118.80 137.0000 145.0000  624.0000 4181.0000  31.3790   0.1500 
1118.90 130.8090 144.4840  652.8880 4267.6660  31.4910   0.1010 
1119.00 125.0000 144.0000  680.0000 4349.0000  31.5970   0.0000 
1119.10 126.0320 142.4510  657.8170 4329.9019  31.9400   0.0030 
1119.20 127.0000 141.0000  637.0000 4312.0000  32.2690   0.0640 
1119.30 137.3170 140.4840  624.6110 4164.9761  32.3880   0.1420 
1119.40 147.0000 140.0000  613.0000 4027.0000  32.5000   0.2460 
1119.50 147.5150 139.4840  657.3650 4091.9600  32.6200   0.2750 
1119.60 148.0000 139.0000  699.0000 4153.0000  32.7330   0.2890 
1119.70 141.8090 137.4520  699.0000 4494.5078  33.1020   0.2070 
1119.80 136.0000 136.0000  699.0000 4815.0000  33.4550   0.1550 
1119.90 136.5150 136.0000  653.0870 4839.2461  33.4550   0.1100 
1120.00 137.0000 136.0000  610.0000 4862.0000  33.4550   0.0900 
1120.10 142.1610 135.4830  594.0070 4427.9019  33.5830   0.2210 
1120.20 147.0000 135.0000  579.0000 4021.0000  33.7030   0.2620 
1120.30 143.9040 136.0310  573.8380 3946.1980  33.4480   0.2180 
1120.40 141.0000 137.0000  569.0000 3876.0000  33.2110   0.1880 
1120.50 135.8440 137.0000  551.9760 3921.8850  33.2110   0.1670 
1120.60 131.0000 137.0000  536.0000 3965.0000  33.2110   0.1070 
1120.70 133.5790 135.9680  527.2350 3877.3010  33.4630   0.1310 
1120.80 136.0000 135.0000  519.0000 3795.0000  33.7030   0.1490 
1120.90 131.8730 136.0310  532.9280 3819.2461  33.4480   0.0820 
1121.00 128.0000 137.0000  546.0000 3842.0000  33.2110   0.0550 
1121.10 130.5800 137.5160  579.5310 3875.5510  33.0870   0.0890 
1121.20 133.0000 138.0000  611.0000 3907.0000  32.9710   0.0800 
1121.30 131.9680 135.9360  614.0970 3995.7300  33.4710   0.0990 
1121.40 131.0000 134.0000  617.0000 4079.0000  33.9550   0.0890 
1121.50 129.9680 133.4840  593.2690 4123.3379  34.0860   0.0910 
1121.60 129.0000 133.0000  571.0000 4165.0000  34.2100   0.1090 
1121.70 133.6420 137.6420  573.0620 3984.4441  33.0560   0.1060 
1121.80 138.0000 142.0000  575.0000 3815.0000  32.0420   0.1360 
1121.90 131.2930 141.4840  577.0630 3862.4600  32.1590   0.0920 
1122.00 125.0000 141.0000  579.0000 3907.0000  32.2690   0.0010 
1122.10 123.4510 137.9030  591.8960 4012.2981  32.9940   0.0000 
1122.20 122.0000 135.0000  604.0000 4111.0000  33.7030   0.0000 
1122.30 127.1580 133.4520  601.9350 4181.6748  34.0940   0.0000 
1122.40 132.0000 132.0000  600.0000 4248.0000  34.4690   0.1300 
1122.50 132.5150 132.5150  597.9360 4210.8799  34.3350   0.1260 
1122.60 133.0000 133.0000  596.0000 4176.0000  34.2100   0.1060 
1122.70 130.9360 135.5790  593.4220 4023.3010  33.5590   0.1060 
1122.80 129.0000 138.0000  591.0000 3880.0000  32.9710   0.0020 
1122.90 126.9360 136.9680  573.9760 3931.0710  33.2190   0.0000 
1123.00 125.0000 136.0000  558.0000 3979.0000  33.4550   0.0000 
1123.10 125.5160 133.9350  548.7140 3859.2490  33.9710   0.0000 
1123.20 126.0000 132.0000  540.0000 3747.0000  34.4690   0.0000 
1123.30 120.8410 129.4200  527.6110 3488.0320  35.1560   0.0000 
1123.40 116.0000 127.0000  516.0000 3245.0000  35.8260   0.0000 
1123.50 117.0310 125.4530  511.8730 3330.0669  36.2680   0.0000 
1123.60 118.0000 124.0000  508.0000 3410.0000  36.6930   0.0000 
1123.70 123.1580 127.0950  541.5110 3558.5710  35.7990   0.0000 
1123.80 128.0000 130.0000  573.0000 3698.0000  35.0000   0.0510 
1123.90 130.5790 130.5150  577.1270 3823.8730  34.8610   0.1160 
1124.00 133.0000 131.0000  581.0000 3942.0000  34.7320   0.1660 
1124.10 134.5480 132.0320  579.4520 3967.8081  34.4610   0.1800 
1124.20 136.0000 133.0000  578.0000 3992.0000  34.2100   0.0880 
1124.30 133.4200 134.0310  591.4200 3966.2061  33.9470   0.0330 
1124.40 131.0000 135.0000  604.0000 3942.0000  33.7030   0.0000 
1124.50 128.9370 135.0000  588.5230 3987.3689  33.7030   0.0000 
1124.60 127.0000 135.0000  574.0000 4030.0000  33.7030   0.0000 
1124.70 120.8090 132.9360  585.3420 3858.2141  34.2260   0.0000 
1124.80 115.0000 131.0000  596.0000 3697.0000  34.7320   0.0000 
1124.90 113.4520 129.4520  591.8730 3723.3101  35.1480   0.0000 
1125.00 112.0000 128.0000  588.0000 3748.0000  35.5460   0.0000 
1125.10 113.0320 126.4510  573.0390 3726.3210  35.9820   0.0000 
1125.20 114.0000 125.0000  559.0000 3706.0000  36.4000   0.0000 
1125.30 115.0310 126.0310  566.2260 3630.6831  36.1020   0.0000 
1125.40 116.0000 127.0000  573.0000 3560.0000  35.8260   0.0000 
1125.50 116.0000 127.5150  574.5470 3649.1919  35.6810   0.0000 
1125.60 116.0000 128.0000  576.0000 3733.0000  35.5460   0.0000 
1125.70 118.0630 126.4520  582.7020 3680.3811  35.9810   0.0000 
1125.80 120.0000 125.0000  589.0000 3631.0000  36.4000   0.0000 
1125.90 123.6110 125.0000  577.6500 3704.7700  36.4000   0.0000 
1126.00 127.0000 125.0000  567.0000 3774.0000  36.4000   0.0000 
1126.10 126.4830 127.0640  555.6500 3770.9031  35.8080   0.0000 
1126.20 126.0000 129.0000  545.0000 3768.0000  35.2710   0.0000 
1126.30 122.9040 128.4840  544.4830 3724.6670  35.4120   0.0000 
1126.40 120.0000 128.0000  544.0000 3684.0000  35.5460   0.0000 
1126.50 122.5770 125.9370  534.7140 3695.8579  36.1280   0.0000 
1126.60 125.0000 124.0000  526.0000 3707.0000  36.6930   0.0000 
1126.70 126.5470 124.5150  535.2800 3642.0000  36.5410   0.0000 
1126.80 128.0000 125.0000  544.0000 3581.0000  36.4000   0.0000 
1126.90 131.6110 129.6420  557.4120 3696.0400  35.0960   0.0000 
1127.00 135.0000 134.0000  570.0000 3804.0000  33.9550   0.0000 
1127.10 135.0000 135.5480  613.8490 3897.9431  33.5670   0.0000 
1127.20 135.0000 137.0000  655.0000 3986.0000  33.2110   0.0000 
1127.30 138.6110 137.0000  673.0650 4151.5952  33.2110   0.0330 
1127.40 142.0000 137.0000  690.0000 4307.0000  33.2110   0.0570 
1127.50 143.0310 139.0620  646.6660 4333.8091  32.7190   0.0670 
1127.60 144.0000 141.0000  606.0000 4359.0000  32.2690   0.1060 
1127.70 143.4840 141.0000  606.5150 4107.2539  32.2690   0.0860 
1127.80 143.0000 141.0000  607.0000 3871.0000  32.2690   0.0020 
1127.90 146.6110 140.4840  613.7060 3909.1750  32.3880   0.0040 
1128.00 150.0000 140.0000  620.0000 3945.0000  32.5000   0.0000 
1128.10 148.4510 138.4510  612.7770 3943.4509  32.8630   0.0000 
1128.20 147.0000 137.0000  606.0000 3942.0000  33.2110   0.0000 
1128.30 150.0950 137.0000  606.0000 3986.8811  33.2110   0.0940 
1128.40 153.0000 137.0000  606.0000 4029.0000  33.2110   0.2170 
1128.50 145.7820 139.0620  595.1660 4079.5249  32.7190   0.1770 
1128.60 139.0000 141.0000  585.0000 4127.0000  32.2690   0.1240 
1128.70 136.9360 142.5470  597.3730 4005.7700  31.9190   0.1190 
1128.80 135.0000 144.0000  609.0000 3892.0000  31.5970   0.1350 
1128.90 134.4840 141.9360  613.6420 3947.7141  32.0560   0.0290 
1129.00 134.0000 140.0000  618.0000 4000.0000  32.5000   0.0180 
1129.10 137.0970 139.4830  632.4440 4005.6780  32.6200   0.1330 
1129.20 140.0000 139.0000  646.0000 4011.0000  32.7330   0.0760 
1129.30 136.9040 140.0310  661.4850 4065.6831  32.4920   0.0370 
1129.40 134.0000 141.0000  676.0000 4117.0000  32.2690   0.0280 
1129.50 130.9060 140.4840  744.6110 4163.3999  32.3870   0.0000 
1129.60 128.0000 140.0000  809.0000 4207.0000  32.5000   0.0000 
1129.70 130.0630 137.9360  821.8890 4558.8252  32.9860   0.0000 
1129.80 132.0000 136.0000  834.0000 4889.0000  33.4550   0.0000 
1129.90 134.0630 135.4840  750.9440 4895.1899  33.5830   0.0000 
