~Version information
VERS.                            2.00: CWLS LAS  -  VERSION 2.00
WRAP.                              NO: One line per depth step
~Well information
#MNEM.UNIT                  DATA TYPE  INFORMATION
#===.================================:==================
STRT.M                       1092.800: First depth in file
STOP.M                       1157.900: Last depth in file
STEP.M                          0.100: Depth increment
NULL.                        -999.25 : Null values
DATE.                       25/2/2018: LOG DATE
TIME.                                : LOG TIME
WELL.                            9671: Well name
GRP.                                 : Group name
FLD.                             UZEN: Field name
ISS.                                 : Well surveys
SRVC.                        AO"UPGF": Service Company
~Curve information
#MNEM.UNIT                   API CODE   CURVE DESCRIPTION
#===.================================:==================
DEPT.M                               : Depth curve
Tau60.ÏÍÒ                            : : Tau60
“au30.ÏÍÒ                            : : “au30
IN60.ËÏÔ/ÏËÌ                         : : IN60
IN30.ËÏÔ/ÏËÌ                         : : IN30
SIGMA.                               : SIGMA
 Ì(»√Õ).‰.Â.                         : :  Ì(»√Õ)
#
~Other information
#------------------ REMARKS AREA -----------------------
#=======================================================
# The file is generated by the program EditKar v2003.01
#Number of Curves = 6
~A Log Data Section
# ...
1130.00 136.0000 135.0000  673.0000 4901.0000  33.7030   0.0000 
1130.10 136.0000 135.5160  661.6500 4429.7378  33.5750   0.0000 
1130.20 136.0000 136.0000  651.0000 3988.0000  33.4550   0.0000 
1130.30 137.0310 136.5150  654.0970 4040.6189  33.3290   0.0000 
1130.40 138.0000 137.0000  657.0000 4090.0000  33.2110   0.0000 
1130.50 136.9680 137.0000  635.8490 4143.1021  33.2110   0.0000 
1130.60 136.0000 137.0000  616.0000 4193.0000  33.2110   0.0000 
1130.70 136.0000 139.0630  617.0310 4083.6350  32.7180   0.0000 
1130.80 136.0000 141.0000  618.0000 3981.0000  32.2690   0.0000 
1130.90 137.0310 139.4520  632.9600 4030.0081  32.6270   0.0000 
1131.00 138.0000 138.0000  647.0000 4076.0000  32.9710   0.0000 
1131.10 147.8070 136.9670  680.0150 4124.0029  33.2190   0.0000 
1131.20 157.0000 136.0000  711.0000 4169.0000  33.4550   0.0000 
1131.30 161.1270 141.1580  739.9050 4270.1108  32.2330   0.0000 
1131.40 165.0000 146.0000  767.0000 4365.0000  31.1640   0.0000 
1131.50 159.3280 149.6080  743.2690 4492.8579  30.4120   0.0000 
1131.60 154.0000 153.0000  721.0000 4613.0000  29.7380   0.0000 
1131.70 146.7770 153.0000  700.8930 4518.5952  29.7380   0.0000 
1131.80 140.0000 153.0000  682.0000 4430.0000  29.7380   0.0000 
1131.90 138.9680 147.8410  670.6500 4365.5161  30.7760   0.0000 
1132.00 138.0000 143.0000  660.0000 4305.0000  31.8180   0.0000 
1132.10 135.9350 138.3540  647.1030 4190.9268  32.8860   0.0000 
1132.20 134.0000 134.0000  635.0000 4084.0000  33.9550   0.0000 
1132.30 130.9040 135.0310  646.3550 3979.7939  33.6950   0.0000 
1132.40 128.0000 136.0000  657.0000 3882.0000  33.4550   0.0000 
1132.50 127.4840 134.4530  641.5230 3935.1021  33.8400   0.0000 
1132.60 127.0000 133.0000  627.0000 3985.0000  34.2100   0.0000 
1132.70 129.5790 133.5150  615.1420 3882.3411  34.0780   0.0000 
1132.80 132.0000 134.0000  604.0000 3786.0000  33.9550   0.0000 
1132.90 133.0310 134.5150  602.4520 3857.7061  33.8250   0.0000 
1133.00 134.0000 135.0000  601.0000 3925.0000  33.7030   0.0000 
1133.10 137.0970 135.0000  601.0000 3935.3230  33.7030   0.0000 
1133.20 140.0000 135.0000  601.0000 3945.0000  33.7030   0.0000 
1133.30 138.9680 136.0310  607.1940 3957.8970  33.4480   0.0000 
1133.40 138.0000 137.0000  613.0000 3970.0000  33.2110   0.0000 
1133.50 138.0000 136.4840  585.6580 4078.2671  33.3370   0.0000 
1133.60 138.0000 136.0000  560.0000 4180.0000  33.4550   0.0000 
1133.70 133.8730 133.9360  573.4040 3954.0481  33.9710   0.0000 
1133.80 130.0000 132.0000  586.0000 3742.0000  34.4690   0.0000 
1133.90 129.4840 128.3880  597.8650 3722.9131  35.4390   0.0000 
1134.00 129.0000 125.0000  609.0000 3705.0000  36.4000   0.0000 
1134.10 132.6130 125.5160  622.9280 3738.5510  36.2500   0.0000 
1134.20 136.0000 126.0000  636.0000 3770.0000  36.1110   0.0000 
1134.30 136.0000 128.5790  646.8390 3921.1509  35.3860   0.0000 
1134.40 136.0000 131.0000  657.0000 4063.0000  34.7320   0.0000 
1134.50 129.2970 132.5460  632.2380 4087.2310  34.3270   0.0000 
1134.60 123.0000 134.0000  609.0000 4110.0000  33.9550   0.0000 
1134.70 128.6740 132.9680  620.3420 3885.0791  34.2180   0.0000 
1134.80 134.0000 132.0000  631.0000 3674.0000  34.4690   0.0000 
1134.90 135.5470 130.9680  601.5950 3750.8650  34.7410   0.0000 
1135.00 137.0000 130.0000  574.0000 3823.0000  35.0000   0.0000 
1135.10 136.4830 130.0000  551.3010 3653.6970  35.0000   0.0000 
1135.20 136.0000 130.0000  530.0000 3495.0000  35.0000   0.0000 
1135.30 141.1580 130.0000  553.7430 3453.2141  35.0000   0.0000 
1135.40 146.0000 130.0000  576.0000 3414.0000  35.0000   0.0000 
1135.50 146.0000 129.4840  584.2540 3630.5339  35.1390   0.0000 
1135.60 146.0000 129.0000  592.0000 3834.0000  35.2710   0.0000 
1135.70 141.8730 129.5150  654.8980 3844.8330  35.1300   0.0000 
1135.80 138.0000 130.0000  714.0000 3855.0000  35.0000   0.0000 
1135.90 145.7380 133.0950  741.8570 4105.1982  34.1860   0.0000 
1136.00 153.0000 136.0000  768.0000 4340.0000  33.4550   0.0000 
1136.10 159.1940 138.5800  776.2540 4436.5229  32.8320   0.0000 
1136.20 165.0000 141.0000  784.0000 4527.0000  32.2690   0.0000 
1136.30 169.1270 144.0950  812.9050 4580.6509  31.5760   0.0000 
1136.40 173.0000 147.0000  840.0000 4631.0000  30.9520   0.0000 
1136.50 170.4220 150.6080  834.3250 4686.1650  30.2100   0.0000 
1136.60 168.0000 154.0000  829.0000 4738.0000  29.5450   0.0000 
1136.70 162.8410 155.5470  844.9820 4553.3169  29.2510   0.0000 
1136.80 158.0000 157.0000  860.0000 4380.0000  28.9800   0.0000 
1136.90 144.0710 151.3250  832.6580 4416.1108  30.0670   0.0000 
1137.00 131.0000 146.0000  807.0000 4450.0000  31.1640   0.0000 
1137.10 128.4190 141.8700  774.5000 4380.8340  32.0710   0.0000 
1137.20 126.0000 138.0000  744.0000 4316.0000  32.9710   0.0000 
1137.30 132.1900 134.9040  722.3200 4269.0562  33.7270   0.0000 
1137.40 138.0000 132.0000  702.0000 4225.0000  34.4690   0.0000 
1137.50 136.9680 130.9680  659.6980 4182.7241  34.7410   0.0000 
1137.60 136.0000 130.0000  620.0000 4143.0000  35.0000   0.0000 
1137.70 134.9680 132.0630  642.1690 3956.7700  34.4530   0.0000 
1137.80 134.0000 134.0000  663.0000 3782.0000  33.9550   0.0000 
1137.90 134.5150 133.4840  669.7060 3814.5000  34.0860   0.0000 
1138.00 135.0000 133.0000  676.0000 3845.0000  34.2100   0.0000 
1138.10 138.6130 133.0000  688.3810 3831.0630  34.2100   0.0000 
1138.20 142.0000 133.0000  700.0000 3818.0000  34.2100   0.0000 
1138.30 141.4840 133.5150  703.6130 3916.5320  34.0780   0.0000 
1138.40 141.0000 134.0000  707.0000 4009.0000  33.9550   0.0000 
1138.50 136.8750 134.5150  687.9120 4014.6709  33.8250   0.0000 
1138.60 133.0000 135.0000  670.0000 4020.0000  33.7030   0.0000 
1138.70 136.6110 133.9680  666.3910 3903.4131  33.9630   0.0000 
1138.80 140.0000 133.0000  663.0000 3794.0000  34.2100   0.0000 
1138.90 142.5790 130.9360  644.9440 3852.2939  34.7490   0.0000 
1139.00 145.0000 129.0000  628.0000 3907.0000  35.2710   0.0000 
1139.10 141.3860 129.5160  649.1500 3852.2859  35.1300   0.0000 
1139.20 138.0000 130.0000  669.0000 3801.0000  35.0000   0.0000 
1139.30 132.3250 133.6110  681.9040 3940.2859  34.0540   0.0000 
1139.40 127.0000 137.0000  694.0000 4071.0000  33.2110   0.0000 
1139.50 125.4530 135.4530  741.4600 4150.3960  33.5900   0.0000 
1139.60 124.0000 134.0000  786.0000 4225.0000  33.9550   0.0000 
1139.70 122.4520 132.4520  794.2490 4429.2861  34.3520   0.0000 
1139.80 121.0000 131.0000  802.0000 4621.0000  34.7320   0.0000 
1139.90 124.6110 131.0000  752.4760 4615.8408  34.7320   0.0000 
1140.00 128.0000 131.0000  706.0000 4611.0000  34.7320   0.0000 
1140.10 128.5160 131.0000  718.8960 4226.9712  34.7320   0.0000 
1140.20 129.0000 131.0000  731.0000 3867.0000  34.7320   0.0000 
1140.30 129.0000 131.5150  739.7740 3966.5630  34.5960   0.0000 
1140.40 129.0000 132.0000  748.0000 4060.0000  34.4690   0.0000 
1140.50 135.1860 132.5150  741.2930 4084.7471  34.3350   0.0000 
1140.60 141.0000 133.0000  735.0000 4108.0000  34.2100   0.0000 
1140.70 145.1270 132.4840  742.7330 3982.6431  34.3430   0.0000 
1140.80 149.0000 132.0000  750.0000 3865.0000  34.4690   0.0000 
1140.90 148.4840 131.4840  775.7930 3992.9360  34.6040   0.0000 
1141.00 148.0000 131.0000  800.0000 4113.0000  34.7320   0.0000 
1141.10 146.4510 131.0000  839.7220 4303.4658  34.7320   0.0850 
1141.20 145.0000 131.0000  877.0000 4482.0000  34.7320   0.0000 
1141.30 147.0630 134.0950  886.8070 4581.5640  33.9310   0.0000 
1141.40 149.0000 137.0000  896.0000 4675.0000  33.2110   0.1780 
1141.50 141.7820 139.0620  840.8010 4562.6079  32.7190   0.0950 
1141.60 135.0000 141.0000  789.0000 4457.0000  32.2690   0.0280 
1141.70 130.8730 140.4840  777.6570 4272.8340  32.3880   0.0000 
1141.80 127.0000 140.0000  767.0000 4100.0000  32.5000   0.0000 
1141.90 127.5150 138.9680  775.2540 4201.6270  32.7410   0.0000 
1142.00 128.0000 138.0000  783.0000 4297.0000  32.9710   0.0000 
1142.10 130.0640 137.4830  786.6110 4243.8340  33.0940   0.0000 
1142.20 132.0000 137.0000  790.0000 4194.0000  33.2110   0.0000 
1142.30 135.6110 136.4840  776.0630 4132.6108  33.3370   0.0000 
