~Version information
VERS.                            2.00: CWLS LAS  -  VERSION 2.00
WRAP.                              NO: One line per depth step
~Well information
#MNEM.UNIT                  DATA TYPE  INFORMATION
#===.================================:==================
STRT.M                       1092.800: First depth in file
STOP.M                       1157.900: Last depth in file
STEP.M                          0.100: Depth increment
NULL.                        -999.25 : Null values
DATE.                       25/2/2018: LOG DATE
TIME.                                : LOG TIME
WELL.                            9671: Well name
GRP.                                 : Group name
FLD.                             UZEN: Field name
ISS.                                 : Well surveys
SRVC.                        AO"UPGF": Service Company
~Curve information
#MNEM.UNIT                   API CODE   CURVE DESCRIPTION
#===.================================:==================
DEPT.M                               : Depth curve
Tau60.ÏÍÒ                            : : Tau60
“au30.ÏÍÒ                            : : “au30
IN60.ËÏÔ/ÏËÌ                         : : IN60
IN30.ËÏÔ/ÏËÌ                         : : IN30
SIGMA.                               : SIGMA
 Ì(»√Õ).‰.Â.                         : :  Ì(»√Õ)
#
~Other information
#------------------ REMARKS AREA -----------------------
#=======================================================
# The file is generated by the program EditKar v2003.01
#Number of Curves = 6
~A Log Data Section
# ...
1105.20 147.0000 138.0000  579.0000 4059.0000  32.9710   0.0000 
1105.30 149.0630 138.5150  551.6430 4016.6980  32.8480   0.0000 
1105.40 151.0000 139.0000  526.0000 3977.0000  32.7330   0.0000 
1105.50 154.6080 139.5150  492.4680 3958.9561  32.6120   0.0000 
1105.60 158.0000 140.0000  461.0000 3942.0000  32.5000   0.0000 
1105.70 149.7460 137.4200  490.3860 3866.1670  33.1100   0.0000 
1105.80 142.0000 135.0000  518.0000 3795.0000  33.7030   0.0000 
1105.90 144.5790 133.9680  527.8010 3900.7539  33.9630   0.0000 
1106.00 147.0000 133.0000  537.0000 4000.0000  34.2100   0.0000 
1106.10 147.0000 133.0000  542.6740 4017.5500  34.2100   0.0000 
1106.20 147.0000 133.0000  548.0000 4034.0000  34.2100   0.0000 
1106.30 147.0000 135.0630  555.2260 4109.3169  33.6870   0.0000 
1106.40 147.0000 137.0000  562.0000 4180.0000  33.2110   0.0000 
1106.50 145.4530 138.0310  538.7850 4202.1689  32.9630   0.0000 
1106.60 144.0000 139.0000  517.0000 4223.0000  32.7330   0.0000 
1106.70 145.0310 139.0000  520.6080 4084.7461  32.7330   0.0000 
1106.80 146.0000 139.0000  524.0000 3955.0000  32.7330   0.0000 
1106.90 144.9680 142.6110  518.3250 4055.0791  31.9040   0.0000 
1107.00 144.0000 146.0000  513.0000 4149.0000  31.1640   0.0000 
1107.10 145.5480 148.5800  538.7930 4111.8359  30.6230   0.0000 
1107.20 147.0000 151.0000  563.0000 4077.0000  30.1320   0.0000 
1107.30 153.7060 148.9360  570.2260 4179.1431  30.5490   0.0000 
1107.40 160.0000 147.0000  577.0000 4275.0000  30.9520   0.0000 
1107.50 156.3910 146.4840  555.3330 4448.7432  31.0610   0.0000 
1107.60 153.0000 146.0000  535.0000 4612.0000  31.1640   0.0000 
1107.70 151.9680 145.4840  542.2170 4454.1431  31.2740   0.0000 
1107.80 151.0000 145.0000  549.0000 4306.0000  31.3790   0.0000 
1107.90 149.4520 145.5150  541.2610 4380.8018  31.2680   0.0000 
1108.00 148.0000 146.0000  534.0000 4451.0000  31.1640   0.0000 
1108.10 145.9350 147.5480  564.4360 4441.1929  30.8370   0.0000 
1108.20 144.0000 149.0000  593.0000 4432.0000  30.5360   0.0000 
1108.30 151.2220 144.8730  604.8710 4331.9199  31.4060   0.4990 
1108.40 158.0000 141.0000  616.0000 4238.0000  32.2690   0.4140 
1108.50 152.3280 143.0620  590.2060 4359.6719  31.8040   0.2060 
1108.60 147.0000 145.0000  566.0000 4474.0000  31.3790   0.0000 
1108.70 142.8730 149.6420  566.5150 4416.7378  30.4050   0.0000 
1108.80 139.0000 154.0000  567.0000 4363.0000  29.5450   0.1050 
1108.90 134.3570 151.4200  550.4920 4271.6899  30.0480   0.0880 
1109.00 130.0000 149.0000  535.0000 4186.0000  30.5360   0.1010 
1109.10 127.4190 143.3220  536.5470 4031.1489  31.7460   0.0540 
1109.20 125.0000 138.0000  538.0000 3886.0000  32.9710   0.0190 
1109.30 131.7060 135.4200  546.2580 3836.4761  33.5990   0.1440 
1109.40 138.0000 133.0000  554.0000 3790.0000  34.2100   0.2150 
1109.50 139.0310 136.0930  617.4520 3918.8899  33.4320   0.2250 
1109.60 140.0000 139.0000  677.0000 4040.0000  32.7330   0.2330 
1109.70 144.1270 141.0630  681.6400 4457.3408  32.2550   0.2630 
1109.80 148.0000 143.0000  686.0000 4849.0000  31.8180   0.2640 
1109.90 153.1580 144.0310  616.3570 4872.2139  31.5900   0.3640 
1110.00 158.0000 145.0000  551.0000 4894.0000  31.3790   0.4130 
1110.10 152.3220 147.0640  551.0000 4573.9761  30.9380   0.3470 
1110.20 147.0000 149.0000  551.0000 4274.0000  30.5360   0.2790 
1110.30 148.5470 149.0000  578.3560 4331.2622  30.5360   0.2940 
1110.40 150.0000 149.0000  604.0000 4385.0000  30.5360   0.2920 
1110.50 156.1860 148.4840  583.3650 4426.2451  30.6420   0.3130 
1110.60 162.0000 148.0000  564.0000 4465.0000  30.7430   0.3520 
1110.70 160.4520 148.0000  559.3600 4428.3730  30.7430   0.3930 
1110.80 159.0000 148.0000  555.0000 4394.0000  30.7430   0.3710 
1110.90 148.6820 146.9680  554.4840 4394.5161  30.9590   0.2820 
1111.00 139.0000 146.0000  554.0000 4395.0000  31.1640   0.2030 
1111.10 139.5160 147.0320  552.4520 4224.6650  30.9450   0.2200 
1111.20 140.0000 148.0000  551.0000 4065.0000  30.7430   0.2510 
1111.30 140.0000 147.4840  580.4210 4078.9280  30.8500   0.2080 
1111.40 140.0000 147.0000  608.0000 4092.0000  30.9520   0.1800 
1111.50 136.9060 148.5460  581.1740 4236.8721  30.6300   0.0920 
1111.60 134.0000 150.0000  556.0000 4373.0000  30.3330   0.0000 
1111.70 137.0950 148.4520  545.1730 4261.0562  30.6490   0.0090 
1111.80 140.0000 147.0000  535.0000 4156.0000  30.9520   0.0580 
1111.90 148.2540 145.9680  519.5230 3976.9919  31.1710   0.2360 
1112.00 156.0000 145.0000  505.0000 3809.0000  31.3790   0.3190 
1112.10 160.1290 148.0970  490.0390 3660.8601  30.7230   0.3250 
1112.20 164.0000 151.0000  476.0000 3522.0000  30.1320   0.3540 
1112.30 160.3880 152.0310  495.0980 3722.1589  29.9270   0.3610 
1112.40 157.0000 153.0000  513.0000 3910.0000  29.7380   0.3380 
1112.50 146.1730 153.0000  527.9600 4062.6050  29.7380   0.2550 
1112.60 136.0000 153.0000  542.0000 4206.0000  29.7380   0.1750 
1112.70 138.0630 153.0000  566.2310 4202.3892  29.7380   0.2320 
1112.80 140.0000 153.0000  589.0000 4199.0000  29.7380   0.1240 
1112.90 140.0000 151.4520  590.0310 4243.3652  30.0420   0.1060 
1113.00 140.0000 150.0000  591.0000 4285.0000  30.3330   0.1180 
1113.10 151.3550 147.9350  603.8960 4247.8359  30.7560   0.2870 
1113.20 162.0000 146.0000  616.0000 4213.0000  31.1640   0.3420 
1113.30 163.5470 146.5150  631.4850 4321.8491  31.0540   0.3780 
1113.40 165.0000 147.0000  646.0000 4424.0000  30.9520   0.4580 
1113.50 159.3280 147.0000  625.3650 4560.1069  30.9520   0.3940 
1113.60 154.0000 147.0000  606.0000 4688.0000  30.9520   0.3360 
1113.70 158.1270 149.0630  597.7510 4542.5239  30.5230   0.3690 
1113.80 162.0000 151.0000  590.0000 4406.0000  30.1320   0.4080 
1113.90 158.9040 153.0630  562.6580 4351.3169  29.7260   0.3930 
1114.00 156.0000 155.0000  537.0000 4300.0000  29.3540   0.3720 
1114.10 146.1920 154.4830  559.6980 4242.1890  29.4520   0.3050 
1114.20 137.0000 154.0000  581.0000 4188.0000  29.5450   0.2200 
1114.30 134.9360 153.4840  619.1960 4299.4292  29.6440   0.1530 
1114.40 133.0000 153.0000  655.0000 4404.0000  29.7380   0.1330 
1114.50 138.1550 149.9060  637.4600 4498.3472  30.3520   0.1890 
1114.60 143.0000 147.0000  621.0000 4587.0000  30.9520   0.2280 
1114.70 148.1580 145.9680  625.6400 4357.9521  31.1710   0.2910 
1114.80 153.0000 145.0000  630.0000 4143.0000  31.3790   0.3520 
1114.90 154.5470 146.0310  625.8730 4236.8892  31.1570   0.2970 
1115.00 156.0000 147.0000  622.0000 4325.0000  30.9520   0.0580 
1115.10 152.9030 149.0640  627.6740 4415.3301  30.5230   0.5090 
1115.20 150.0000 151.0000  633.0000 4500.0000  30.1320   0.4870 
1115.30 147.9360 153.5790  651.5820 4516.5078  29.6260   0.5250 
1115.40 146.0000 156.0000  669.0000 4532.0000  29.1660   0.5240 
1115.50 142.9060 152.3910  651.4600 4601.0850  29.8570   0.5010 
1115.60 140.0000 149.0000  635.0000 4666.0000  30.5360   0.3980 
1115.70 149.2850 146.4200  624.1730 4396.1982  31.0740   0.2810 
1115.80 158.0000 144.0000  614.0000 4143.0000  31.5970   0.1160 
1115.90 167.2850 143.4840  602.6500 4161.0562  31.7100   0.4850 
1116.00 176.0000 143.0000  592.0000 4178.0000  31.8180   0.1990 
1116.10 173.9350 148.1610  629.6580 4324.5918  30.7090   0.0000 
1116.20 172.0000 153.0000  665.0000 4462.0000  29.7380   0.0000 
1116.30 177.1580 158.1580  718.1650 4615.7300  28.7680   0.0000 
1116.40 182.0000 163.0000  768.0000 4760.0000  27.9140   0.0000 
1116.50 168.5950 164.0310  719.5070 4804.3379  27.7380   0.0000 
1116.60 156.0000 165.0000  674.0000 4846.0000  27.5750   0.0000 
1116.70 145.6820 165.0000  626.0530 4582.9048  27.5750   0.0000 
1116.80 136.0000 165.0000  581.0000 4336.0000  27.5750   0.0000 
1116.90 141.6740 159.8410  573.7770 4166.2778  28.4650   0.0000 
1117.00 147.0000 155.0000  567.0000 4007.0000  29.3540   0.0000 
1117.10 149.5800 147.7730  591.7610 3863.5049  30.7900   0.0000 
1117.20 152.0000 141.0000  615.0000 3729.0000  32.2690   0.0000 
1117.30 157.1580 145.1270  641.3240 3981.7781  31.3510   0.0000 
1117.40 162.0000 149.0000  666.0000 4219.0000  30.5360   0.2660 
1117.50 160.9680 153.1240  656.1980 4449.9702  29.7140   0.3260 
