~Version information
VERS.                            2.00: CWLS LAS  -  VERSION 2.00
WRAP.                              NO: One line per depth step
~Well information
#MNEM.UNIT                  DATA TYPE  INFORMATION
#===.================================:==================
STRT.M                       1092.800: First depth in file
STOP.M                       1157.900: Last depth in file
STEP.M                          0.100: Depth increment
NULL.                        -999.25 : Null values
DATE.                       25/2/2018: LOG DATE
TIME.                                : LOG TIME
WELL.                            9671: Well name
GRP.                                 : Group name
FLD.                             UZEN: Field name
ISS.                                 : Well surveys
SRVC.                        AO"UPGF": Service Company
~Curve information
#MNEM.UNIT                   API CODE   CURVE DESCRIPTION
#===.================================:==================
DEPT.M                               : Depth curve
Tau60.ÏÍÒ                            : : Tau60
“au30.ÏÍÒ                            : : “au30
IN60.ËÏÔ/ÏËÌ                         : : IN60
IN30.ËÏÔ/ÏËÌ                         : : IN30
SIGMA.                               : SIGMA
 Ì(»√Õ).‰.Â.                         : :  Ì(»√Õ)
#
~Other information
#------------------ REMARKS AREA -----------------------
#=======================================================
# The file is generated by the program EditKar v2003.01
#Number of Curves = 6
~A Log Data Section
1092.80 122.0000  -999.25   -999.25   -999.25  -999.25  -999.25 
1092.90 122.0000  -999.25   -999.25   -999.25  -999.25  -999.25 
1093.00 122.0000  -999.25  404.0000   -999.25  -999.25  -999.25 
1093.10 127.1610  -999.25  404.0000   -999.25  -999.25  -999.25 
1093.20 132.0000 126.0000  404.0000 3475.0000  36.1110  -999.25 
1093.30 134.5790 126.0000  412.7740 3475.0000  36.1110  -999.25 
1093.40 137.0000 126.0000  421.0000 3475.0000  36.1110  -999.25 
1093.50 132.3600 125.4840  422.0310 3552.3340  36.2590  -999.25 
1093.60 128.0000 125.0000  423.0000 3625.0000  36.4000  -999.25 
1093.70 122.3250 121.9040  417.8440 3456.8250  37.3240  -999.25 
1093.80 117.0000 119.0000  413.0000 3299.0000  38.2350  -999.25 
1093.90 117.0000 116.9360  404.2300 3292.2939  38.9100  -999.25 
1094.00 117.0000 115.0000  396.0000 3286.0000  39.5650  -999.25 
1094.10 111.3220 114.4830  407.3490 3283.9351  39.7430  -999.25 
1094.20 106.0000 114.0000  418.0000 3282.0000  39.9120  -999.25 
1094.30 107.5470 115.5470  400.4500 3343.3889  39.3770  -999.25 
1094.40 109.0000 117.0000  384.0000 3401.0000  38.8880  -999.25 
1094.50 110.0310 115.4530  362.8490 3315.9331  39.4090  -999.25 
1094.60 111.0000 114.0000  343.0000 3236.0000  39.9120  -999.25 
1094.70 107.3880 113.4840  363.1060 3113.2219  40.0930  -999.25 
1094.80 104.0000 113.0000  382.0000 2998.0000  40.2650  -999.25 
1094.90 100.9040 113.5150  375.8090 3121.8091  40.0820  -999.25 
1095.00  98.0000 114.0000  370.0000 3238.0000  39.9120  -999.25 
1095.10 114.5170 112.4510  374.1270 3208.0620  40.4610  -999.25 
1095.20 130.0000 111.0000  378.0000 3180.0000  40.9910  -999.25 
1095.30 138.2540 112.5470  421.3580 3279.0471  40.4270  -999.25 
1095.40 146.0000 114.0000  462.0000 3372.0000  39.9120  -999.25 
1095.50 154.7640 126.8890  508.9440 3689.0681  35.8580  -999.25 
1095.60 163.0000 139.0000  553.0000 3987.0000  32.7330  -999.25 
1095.70 170.2220 148.2850  601.9780 4150.5322  30.6840  -999.25 
1095.80 177.0000 157.0000  648.0000 4304.0000  28.9800  -999.25 
1095.90 162.5550 152.8730  626.8490 4303.4839  29.7630  -999.25 
1096.00 149.0000 149.0000  607.0000 4303.0000  30.5360  -999.25 
1096.10 138.6760 139.1920  556.4440 3994.3311  32.6880  -999.25 
1096.20 129.0000 130.0000  509.0000 3705.0000  35.0000  -999.25 
1096.30 121.2610 125.3570  462.5440 3548.6899  36.2960  -999.25 
1096.40 114.0000 121.0000  419.0000 3402.0000  37.6030  -999.25 
1096.50 114.0000 118.9370  399.9120 3349.4131  38.2550  -999.25 
1096.60 114.0000 117.0000  382.0000 3300.0000  38.8880  -999.25 
1096.70 116.0630 115.4520  376.3280 3220.5559  39.4100  -999.25 
1096.80 118.0000 114.0000  371.0000 3146.0000  39.9120  -999.25 
1096.90 116.9680 115.0310  353.4600 3229.5710  39.5540  -999.25 
1097.00 116.0000 116.0000  337.0000 3308.0000  39.2240  -999.25 
1097.10 119.6130 116.5160  380.3330 3279.0940  39.0500  -999.25 
1097.20 123.0000 117.0000  421.0000 3252.0000  38.8880  -999.25 
1097.30 133.8330 123.1900  465.3900 3355.1741  36.9340  -999.25 
1097.40 144.0000 129.0000  507.0000 3452.0000  35.2710  -999.25 
1097.50 140.9060 134.1550  495.6500 3800.5171  33.9150  -999.25 
1097.60 138.0000 139.0000  485.0000 4128.0000  32.7330  -999.25 
1097.70 133.3570 137.4520  461.7990 4004.7061  33.1020  -999.25 
1097.80 129.0000 136.0000  440.0000 3889.0000  33.4550  -999.25 
1097.90 136.7380 131.8730  436.3880 3739.9131  34.5020  -999.25 
1098.00 144.0000 128.0000  433.0000 3600.0000  35.5460  -999.25 
1098.10 142.4510 129.0320  444.8650 3716.1379  35.2620  -999.25 
1098.20 141.0000 130.0000  456.0000 3825.0000  35.0000  -999.25 
1098.30 126.5550 128.4520  452.3860 3774.9600  35.4210  -999.25 
1098.40 113.0000 127.0000  449.0000 3728.0000  35.8260  -999.25 
1098.50 118.6710 125.9680  423.2060 3654.7910  36.1200  -999.25 
1098.60 124.0000 125.0000  399.0000 3586.0000  36.4000  -999.25 
1098.70 139.9920 123.4520  404.6710 3450.8411  36.8560  -999.25 
1098.80 155.0000 122.0000  410.0000 3324.0000  37.2950  -999.25 
1098.90 162.7380 124.0630  427.0230 3422.5320  36.6740  -999.25 
1099.00 170.0000 126.0000  443.0000 3515.0000  36.1110   0.0000 
1099.10 159.6760 138.9040  495.6190 3801.9900  32.7560   0.0000 
1099.20 150.0000 151.0000  545.0000 4071.0000  30.1320   0.0000 
1099.30 149.4840 156.6740  584.7450 4272.1899  29.0410   0.0000 
1099.40 149.0000 162.0000  622.0000 4461.0000  28.0860   0.0000 
1099.50 145.9060 154.2660  637.9920 4410.9912  29.4940   0.0000 
1099.60 143.0000 147.0000  653.0000 4364.0000  30.9520   0.0000 
1099.70 150.2220 143.9040  660.2170 4636.8970  31.6180   0.0000 
1099.80 157.0000 141.0000  667.0000 4893.0000  32.2690   0.0000 
1099.90 159.5790 147.1900  619.0230 5117.9199  30.9120   0.0000 
1100.00 162.0000 153.0000  574.0000 5329.0000  29.7380   0.0000 
1100.10 150.6440 150.9350  545.1110 4721.9858  30.1450   0.0000 
1100.20 140.0000 149.0000  518.0000 4153.0000  30.5360   0.0000 
1100.30 136.3880 140.2300  498.9010 3875.4600  32.4460   0.0000 
1100.40 133.0000 132.0000  481.0000 3615.0000  34.4690   0.0000 
1100.50 136.0930 133.0310  487.7060 3812.9741  34.2020   0.0000 
1100.60 139.0000 134.0000  494.0000 3999.0000  33.9550   0.0000 
1100.70 144.6740 136.5790  545.0400 4048.5239  33.3140   0.0000 
1100.80 150.0000 139.0000  593.0000 4095.0000  32.7330   0.0000 
1100.90 146.3880 141.5790  594.0310 4125.9521  32.1370   0.0000 
1101.00 143.0000 144.0000  595.0000 4155.0000  31.5970   0.0000 
1101.10 135.2570 141.9350  560.4360 4071.3811  32.0560   0.0000 
1101.20 128.0000 140.0000  528.0000 3993.0000  32.5000   0.0000 
1101.30 122.3250 136.9040  506.3200 3912.0081  33.2340   0.0000 
1101.40 117.0000 134.0000  486.0000 3836.0000  33.9550   0.0000 
1101.50 113.3910 131.9370  461.7540 3816.9241  34.4850   0.0000 
1101.60 110.0000 130.0000  439.0000 3799.0000  35.0000   0.0000 
1101.70 113.0950 126.9040  452.9200 3570.4680  35.8530   0.0000 
1101.80 116.0000 124.0000  466.0000 3356.0000  36.6930   0.0000 
1101.90 121.1580 122.9680  454.1340 3366.3169  37.0010   0.0000 
1102.00 126.0000 122.0000  443.0000 3376.0000  37.2950   0.0000 
1102.10 128.5800 123.0320  441.4520 3374.4509  36.9820   0.0000 
1102.20 131.0000 124.0000  440.0000 3373.0000  36.6930   0.0000 
1102.30 127.3880 126.0630  467.8730 3429.7461  36.0920   0.0000 
1102.40 124.0000 128.0000  494.0000 3483.0000  35.5460   0.0000 
1102.50 131.2170 129.5460  462.0150 3714.4861  35.1220   0.0000 
1102.60 138.0000 131.0000  432.0000 3932.0000  34.7320   0.0000 
1102.70 135.9360 131.0000  421.6880 3693.1509  34.7320   0.0000 
1102.80 134.0000 131.0000  412.0000 3469.0000  34.7320   0.0000 
1102.90 132.9680 130.4840  427.9920 3508.7219  34.8700   0.0000 
1103.00 132.0000 130.0000  443.0000 3546.0000  35.0000   0.0000 
1103.10 134.5800 131.0320  454.8650 3671.9451  34.7240   0.0000 
1103.20 137.0000 132.0000  466.0000 3790.0000  34.4690   0.0000 
1103.30 134.4200 133.5470  475.8070 3886.4680  34.0700   0.0000 
1103.40 132.0000 135.0000  485.0000 3977.0000  33.7030   0.0000 
1103.50 134.0620 136.0310  473.1340 4021.3379  33.4480   0.0000 
1103.60 136.0000 137.0000  462.0000 4063.0000  33.2110   0.0000 
1103.70 134.4520 134.4200  460.4530 3820.5400  33.8490   0.0000 
1103.80 133.0000 132.0000  459.0000 3593.0000  34.4690   0.0000 
1103.90 140.2220 131.4840  471.3810 3706.4919  34.6040   0.0000 
1104.00 147.0000 131.0000  483.0000 3813.0000  34.7320   0.0000 
1104.10 150.0970 135.1290  490.2220 3940.4939  33.6710   0.0000 
1104.20 153.0000 139.0000  497.0000 4060.0000  32.7330   0.0000 
1104.30 156.6110 143.1270  512.4850 4100.7539  31.7890   0.0000 
1104.40 160.0000 147.0000  527.0000 4139.0000  30.9520   0.0000 
1104.50 160.5150 147.0000  517.1980 4206.5381  30.9520   0.0000 
1104.60 161.0000 147.0000  508.0000 4270.0000  30.9520   0.0000 
1104.70 153.7770 146.4840  495.6260 4185.3970  31.0610   0.0000 
1104.80 147.0000 146.0000  484.0000 4106.0000  31.1640   0.0000 
1104.90 143.9040 144.9680  513.9200 4114.2539  31.3860   0.0000 
1105.00 141.0000 144.0000  542.0000 4122.0000  31.5970   0.0000 
1105.10 144.0970 140.9030  561.0870 4089.4810  32.2910   0.0000 
