~Version
 VERS              .         2.0                           : CWLS LOG ASCII STANDARD - VERSION 2.0
 WRAP              .         NO                            : ONE LINE PER DEPTH STEP
 DLM               .         SPACE                         : DELIMITING CHARACTER(SPACE TAB OR COMMA)
~Well Information
#_______________________________________________________________________________
#
#PARAMETER_NAME    .UNIT     VALUE                         : DESCRIPTION
#_______________________________________________________________________________
STRT               .M        917                           : First reference value
STOP               .M        1233.6                        : Last reference value
STEP               .M        0.2                           : Step increment
NULL               .         -9999                         : Missing value
COMP               .                                       : Company
WELL               .         7276                          : Well name
FLD                .         Узень                         : Field
LOC                .                                       : Location
CNTY               .                                       : County
STAT               .                                       : State
CTRY               .                                       : Country
SRVC               .                                       : Service Company
DATE               .                                       : Date
UWI                .                                       : Unique Well ID
API                .                                       : 
Block              .         6а                            : 
Category           .         Нагнетательная                : 
Condition          .         В работе                      : 
Date               .         16.12.1985                    : 
EREF               .m        84.2                          : 100.8
Gorizont           .         15                            : 14
Interpretator      .         Алпанова Н.К.                 : 
Kupol              .         основной                      : osnovnoi
Moii_15_vosst_164  .         15_vosst_164                  : 
Mud                .                                       : 
Mud_density        .                                       : 
Mud_resistivity    .                                       : 
Mud_density        .                                       : 
Mud_resistivity    .                                       : 
NGDU               .         НГДУ-2                        : 
ORIGINALWELLNAME   .         7276                          : 
Spud_date          .         1985                          : 1961
Spud_date          .         1985                          : 1961
Viscosity          .                                       : 
X                  .m        44386.6                       : 46154
Y                  .m        85430.93                      : 85761.93
YEAR               .         2018                          : 
~Parameter Information Block
#_______________________________________________________________________________
#
#PARAMETER_NAME    .UNIT     VALUE                         : DESCRIPTION
#_______________________________________________________________________________
SET                .         LQC_KAZNIPI_Petrel            : 
TLFamily_CALI      .         Caliper                       : 
TLFamily_CILD      .         Conductivity                  : 
TLFamily_COLL      .         Net Reservoir Flag            : 
TLFamily_CSAT      .         Fluid Code                    : 
TLFamily_DEPT      .         Measured Depth                : 
TLFamily_GR        .         Russian Gamma Ray             : 
TLFamily_GZ3       .         Gradient 225                  : 
TLFamily_LLS       .         Lateral Log Resistivity       : 
TLFamily_MINV      .         Micro Gradient Resistivity    : 
TLFamily_MNOR      .         Micro Resistivity             : 
TLFamily_NGLD      .         Neutron Far                   : 
TLFamily_OGZ       .         Gradient Inverted 225         : 
TLFamily_PHIE      .         Effective Porosity            : 
TLFamily_PHIEN     .         Effective Porosity            : 
TLFamily_PHIT      .         Porosity                      : 
TLFamily_PRMB      .         Permeability                  : 
TLFamily_PRMB_DGR  .         Permeability                  : 
TLFamily_RT        .         Formation Resistivity         : 
TLFamily_SOIL_ARCHIE .         Oil Saturation                : 
TLFamily_SOIL_DW   .         Oil Saturation                : 
TLFamily_SP        .         Spontaneous Potential         : 
TLFamily_VSH_FIN   .         Shale Volume                  : 
TLFamily_VSH_GR    .         Shale Volume                  : 
TLFamily_VSH_SP    .         Shale Volume                  : 
~Curve Information
#_______________________________________________________________________________
#
#LOGNAME           .UNIT     LOG_ID                        : DESCRIPTION
#_______________________________________________________________________________
DEPT               .M                                      : Колонка глубины 
CALI               .м                                      : Каверномер 
CILD               .мСм/м                                  : Индукционный каротаж 
COLL               .unitless                               :  
CSAT               .unitless                               :  
GR                 .мкР/ч                                  : Гамма каротаж 
GZ3                .Ом·м                                   :  
LLS                .Ом·м                                   : Боковой каротаж 
MINV               .Ом·м                                   : Микро-градиент зонд 
MNOR               .Ом·м                                   : Микро-потенциал зонд 
NGLD               .у.е.                                   : Показания зонда НГК-60 аппаратуры ДРСТ-3-90 
OGZ                .Ом·м                                   :  
PHIE               .м3/м3                                  : Описание 
PHIEN              .v/v                                    :  
PHIT               .м3/м3                                  : Описание 
PRMB               .mD                                     :  
PRMB_DGR           .mD                                     :  
RT                 .ohmm                                   : Description 
SOIL_ARCHIE        .v/v                                    :  
SOIL_DW            .v/v                                    :  
SP                 .мВ                                     : Потенциал самополяризации 
VSH_FIN            .unitless                               : Описание 
VSH_GR             .unitless                               : Shale volume 
VSH_SP             .unitless                               : Shale Volume 
~Ascii
# ...
1145.6     0.213      249.959    1          2          5.18629    4.039999999999999 3.742      1.486      2.161      2.161211   4.469999999999999 0.2690672  0.2690672  0.3253679  269.7341   23.23755   3.742      0.6223045  0.6821604  45.932     0.170608   0.179578   0.1616381 
1145.8     0.213      247.419    1          2          5.149323   4.446      4.354      2.248      1.336      2.165946   4.928      0.2690459  0.2690459  0.3249763  269.4895   24.68716   4.354      0.6481954  0.7051291  46.27      0.1694858  0.175195   0.1637767 
1146       0.214      244.879    1          2          5.110632   4.878      5.013      1.861      2.091      2.177098   5.283000000000001 0.2689014  0.2689014  0.324054   267.8336   26.30134   5.013      0.6705561  0.7246799  46.228     0.1671289  0.1707221  0.1635357 
1146.2     0.215      238.529    1          2          5.087587   5.208000000000001 6.666      2.464      2.098      2.182935   5.207      0.2690645  0.2690645  0.3235713  269.7033   27.31249   6.666      0.711947   0.7611001  46.016     0.1651721  0.1681125  0.1622316 
1146.4     0.215      230.909    1          2          5.098553   5.436999999999999 4.95       1.435      2.377      2.172956   4.674000000000001 0.2695059  0.2695059  0.3243966  274.8287   26.82659   4.95       0.6692427  0.7233652  46.186     0.1663352  0.1693492  0.1633211 
1146.6     0.213      230.909    1          2          5.15605    5.436999999999999 4.331      2.032      1.678      2.147896   4.674000000000001 0.2698905  0.2698905  0.326469   279.3732   24.41679   4.331      0.6482813  0.7055186  46.736     0.17145    0.1759846  0.1669155 
1146.8     0.213      233.449    1          2          5.249131   5.259000000000001 3.715      2.438      1.247      2.117694   4.242      0.2696998  0.2696998  0.3289667  277.1108   20.96592   3.715      0.6217932000000001 0.6833411  47.456     0.1795964  0.187282   0.1719109 
1147       0.21       250.594    1          2          5.341065   4.852      3.479      2.146      1.869      2.091176   3.988      0.2692648  0.2692648  0.3311597  272.0161   18.03661   3.479      0.6094145  0.6738086  48.006     0.1875606  0.1991518  0.1759693 
1147.2     0.206      274.089    1          2          5.397253   4.573      3.233      1.918      2.377      2.071594   4.293      0.2693561  0.2693561  0.3327792  273.0775   16.45164   3.233      0.5958586  0.6626275  48.218     0.1921912  0.2067737  0.1776087 
1147.4     0.206      291.869    1          2          5.415557   4.344      3.402      1.638      2.098      2.060587   4.724000000000001 0.2696258  0.2696258  0.3336895  276.2373   15.96598   3.402      0.605751   0.6717717  48.387     0.1941323  0.2093193  0.1789453 
1147.6     0.207      299.489    1          2          5.422867   4.344      3.853      1.689      1.793      2.060548   4.724000000000001 0.2694006  0.2694006  0.3336927  273.597    15.77607   3.853      0.6278517  0.6914723  48.429     0.1948245  0.2103446  0.1793044 
1147.8     0.207      295.679    1          2          5.437689   4.167      3.967      1.575      1.64       2.071949   4.953      0.2682149  0.2682149  0.3327498  260.1051   15.39791   3.967      0.6314961  0.6948728  48.345     0.1955602  0.2124389  0.1786815 
1148       0.208      285.519    1          2          5.448864   4.319      4.176      1.334      1.933      2.091058   5.131      0.2665284  0.2665284  0.3311695  242.0534   15.11878   4.176      0.6382869  0.7009923  48.218     0.1958821  0.2140317  0.1777325 
1148.2     0.208      276.629    1          2          5.442437   4.497      4.363      1.295      1.831      2.110109   5.333999999999999 0.2651536  0.2651536  0.329594   228.2681   15.27869   4.363      0.6440468  0.7060221  48.175     0.195274   0.2131141  0.1774339 
1148.4     0.208      267.739    1          2          5.429736   4.623999999999999 4.395      1.791      1.513      2.119838   5.663999999999999 0.2642612  0.2642612  0.3287894  219.7434   15.59967   4.395      0.6442223  0.7062628  48.472     0.1955402  0.2113126  0.1797679 
1148.6     0.208      258.849    1          2          5.429638   4.623999999999999 4.444      1.854      1.704      2.115992   5.663999999999999 0.2641311  0.2641311  0.3291075  218.5276   15.60217   4.444      0.6459167  0.7079896  48.81      0.1968981  0.2112987  0.1824974 
1148.8     0.208      255.056    1          2          5.435379   4.548      4.591      1.181      1.983      2.104691   6.096      0.2646972  0.2646972  0.3300421  223.8679   15.45625   4.591      0.6519325  0.7134324  48.98      0.1980148  0.2121111  0.1839185 
1149       0.208      248.689    1          2          5.420551   4.319      4.659      1.168      1.564      2.098723   6.096      0.2658157  0.2658157  0.3305356  234.806    15.83599   4.659      0.655593   0.7162815  48.768     0.1961211  0.2100192  0.1822229 
1149.2     0.208      242.339    1          2          5.371248   4.167      4.525      1.537      1.069      2.10812    6.35       0.2666019  0.2666019  0.3297585  242.8127   17.1671    4.525      0.651741   0.7120774  48.429     0.1913837  0.2032105  0.179557  
1149.4     0.208      239.799    1          2          5.301726   4.09       4.363      1.537      1.539      2.134726   6.579      0.266054   0.266054   0.3275581  237.2052   19.23635   4.363      0.6450963  0.7053878  48.324     0.1863761  0.1939832  0.178769  
1149.6     0.208      239.799    1          2          5.241358   4.09       4.268      1.791      1.78       2.174314   6.579      0.26346    0.26346    0.3242843  212.3616   21.2344    4.268      0.6383379  0.6991513  48.768     0.1843161  0.1863114  0.1823207 
1149.8     0.208      242.339    1          2          5.20549    4.167      4.115      2.223      1.818      2.223751   6.933999999999999 0.2586145  0.2586145  0.3201958  172.7137   22.51853   4.115      0.6260923000000001 0.6889274  49.826     0.1866098  0.1818976  0.1913219 
1150       0.208      244.879    1          2          5.186914   4.141      4.053      1.664      2.009      2.287285   7.263999999999999 0.252305   0.252305   0.3149415  131.9652   23.21379   4.053      0.6152301  0.6802315  50.758     0.1898075  0.179653   0.1999619 
1150.2     0.208      246.149    1          2          5.17302    4.039999999999999 3.997      1.842      1.983      2.37373    7.644999999999999 0.2434535  0.2434535  0.3077925  90.47068   23.74783   3.997      0.6004741  0.6687486  51.943     0.1949666  0.1779922  0.2119409 
1150.4     0.208      246.149    1          2          5.159002   3.887      3.825      1.511      1.742      2.494462   13.157     0.2322892  0.2322892  0.297808   56.19764   24.29908   3.825      0.575121   0.6479731  52.747     0.1985418  0.1763322  0.2207515 
1150.6     0.208      242.339    6          6          5.135825   3.887      3.715      1.168      1.729      2.664354   13.157     0.2175526  0.2175526  0.2837579  29.9751    25.23872   3.715      0.5439594  0.6224018  53.34      0.2006221  0.1736214  0.2276227 
1150.8     0.208      238.529    6          6          5.084577   3.786      3.769      0.991      1.348      2.890569   18.669     0.2004519  0.2004519  0.26505    14.45483   27.44742   3.769      0.5135608  0.5963602  53.001     0.1957518  0.1677745  0.2237292 
1151       0.208      233.044    6          6          4.998559   3.811      4.019      1.702      1.285      3.144855   21.59      0.1821355  0.1821355  0.2440205  6.618355   31.59766   4.019      0.4869201  0.5730963  52.366     0.1875301  0.1583999  0.2166603 
1151.2     0.208      222.019    6          6          4.90167    3.912999999999999 24.316     2.565      1.094      3.359491   26.79700000000001 0.1677788  0.1677788  0.2262701  3.587805   37.02857   24.316     0.7631992  0.8123145  51.35      0.1772463  0.1484664  0.2060262 
1151.4     0.208      195.349    6          6          4.827502   4.471      22.601     1.861      2.161      3.46726    28.194     0.1617965  0.1617965  0.2173576  2.779852   41.80853   22.601     0.7470573  0.7976678  50.25      0.1683671  0.1412855  0.1954487 
