~Version
 VERS              .         2.0                           : CWLS LOG ASCII STANDARD - VERSION 2.0
 WRAP              .         NO                            : ONE LINE PER DEPTH STEP
 DLM               .         SPACE                         : DELIMITING CHARACTER(SPACE TAB OR COMMA)
~Well Information
#_______________________________________________________________________________
#
#PARAMETER_NAME    .UNIT     VALUE                         : DESCRIPTION
#_______________________________________________________________________________
STRT               .M        917                           : First reference value
STOP               .M        1233.6                        : Last reference value
STEP               .M        0.2                           : Step increment
NULL               .         -9999                         : Missing value
COMP               .                                       : Company
WELL               .         7276                          : Well name
FLD                .         Узень                         : Field
LOC                .                                       : Location
CNTY               .                                       : County
STAT               .                                       : State
CTRY               .                                       : Country
SRVC               .                                       : Service Company
DATE               .                                       : Date
UWI                .                                       : Unique Well ID
API                .                                       : 
Block              .         6а                            : 
Category           .         Нагнетательная                : 
Condition          .         В работе                      : 
Date               .         16.12.1985                    : 
EREF               .m        84.2                          : 100.8
Gorizont           .         15                            : 14
Interpretator      .         Алпанова Н.К.                 : 
Kupol              .         основной                      : osnovnoi
Moii_15_vosst_164  .         15_vosst_164                  : 
Mud                .                                       : 
Mud_density        .                                       : 
Mud_resistivity    .                                       : 
Mud_density        .                                       : 
Mud_resistivity    .                                       : 
NGDU               .         НГДУ-2                        : 
ORIGINALWELLNAME   .         7276                          : 
Spud_date          .         1985                          : 1961
Spud_date          .         1985                          : 1961
Viscosity          .                                       : 
X                  .m        44386.6                       : 46154
Y                  .m        85430.93                      : 85761.93
YEAR               .         2018                          : 
~Parameter Information Block
#_______________________________________________________________________________
#
#PARAMETER_NAME    .UNIT     VALUE                         : DESCRIPTION
#_______________________________________________________________________________
SET                .         LQC_KAZNIPI_Petrel            : 
TLFamily_CALI      .         Caliper                       : 
TLFamily_CILD      .         Conductivity                  : 
TLFamily_COLL      .         Net Reservoir Flag            : 
TLFamily_CSAT      .         Fluid Code                    : 
TLFamily_DEPT      .         Measured Depth                : 
TLFamily_GR        .         Russian Gamma Ray             : 
TLFamily_GZ3       .         Gradient 225                  : 
TLFamily_LLS       .         Lateral Log Resistivity       : 
TLFamily_MINV      .         Micro Gradient Resistivity    : 
TLFamily_MNOR      .         Micro Resistivity             : 
TLFamily_NGLD      .         Neutron Far                   : 
TLFamily_OGZ       .         Gradient Inverted 225         : 
TLFamily_PHIE      .         Effective Porosity            : 
TLFamily_PHIEN     .         Effective Porosity            : 
TLFamily_PHIT      .         Porosity                      : 
TLFamily_PRMB      .         Permeability                  : 
TLFamily_PRMB_DGR  .         Permeability                  : 
TLFamily_RT        .         Formation Resistivity         : 
TLFamily_SOIL_ARCHIE .         Oil Saturation                : 
TLFamily_SOIL_DW   .         Oil Saturation                : 
TLFamily_SP        .         Spontaneous Potential         : 
TLFamily_VSH_FIN   .         Shale Volume                  : 
TLFamily_VSH_GR    .         Shale Volume                  : 
TLFamily_VSH_SP    .         Shale Volume                  : 
~Curve Information
#_______________________________________________________________________________
#
#LOGNAME           .UNIT     LOG_ID                        : DESCRIPTION
#_______________________________________________________________________________
DEPT               .M                                      : Колонка глубины 
CALI               .м                                      : Каверномер 
CILD               .мСм/м                                  : Индукционный каротаж 
COLL               .unitless                               :  
CSAT               .unitless                               :  
GR                 .мкР/ч                                  : Гамма каротаж 
GZ3                .Ом·м                                   :  
LLS                .Ом·м                                   : Боковой каротаж 
MINV               .Ом·м                                   : Микро-градиент зонд 
MNOR               .Ом·м                                   : Микро-потенциал зонд 
NGLD               .у.е.                                   : Показания зонда НГК-60 аппаратуры ДРСТ-3-90 
OGZ                .Ом·м                                   :  
PHIE               .м3/м3                                  : Описание 
PHIEN              .v/v                                    :  
PHIT               .м3/м3                                  : Описание 
PRMB               .mD                                     :  
PRMB_DGR           .mD                                     :  
RT                 .ohmm                                   : Description 
SOIL_ARCHIE        .v/v                                    :  
SOIL_DW            .v/v                                    :  
SP                 .мВ                                     : Потенциал самополяризации 
VSH_FIN            .unitless                               : Описание 
VSH_GR             .unitless                               : Shale volume 
VSH_SP             .unitless                               : Shale Volume 
~Ascii
# ...
1127.6     0.21       128.039    1          2          5.15698    11.816     5.594      2.108      1.894      2.101485   5.461      0.2753881  0.2753881  0.3303072  353.1938   24.37966   5.594      0.6935097  0.7448143  45.466     0.1664216  0.176094   0.1567491 
1127.8     0.21       131.849    1          2          5.046477   11.181     6.062      1.791      1.983      2.088825   5.588000000000001 0.2784608  0.2784608  0.3313541  402.65     29.21381   6.062      0.7076888  0.7564571  45.508     0.1602828  0.1635557  0.1570099 
1128       0.21       135.659    1          2          4.995349   10.546     5.931      1.46       2.009      2.079492   5.842      0.2798122  0.2798122  0.332126   426.5394   31.76412   5.931      0.7059193  0.7546163  45.847     0.1585266  0.1580605  0.1589927 
1128.2     0.21       138.199    1          2          5.012294   10.038     5.315      1.689      1.564      2.06655    6.223      0.2800325  0.2800325  0.3331963  430.5665   30.89514   5.315      0.6906021  0.7413524  46.397     0.1611023  0.1598609  0.1623437 
1128.4     0.21       142.009    1          2          5.077419   9.403000000000001 5.773      2.235      1.526      2.049144   6.223      0.2800303  0.2800303  0.3346358  430.5254   27.77091   5.773      0.7023714  0.752439   46.651     0.1654712  0.1669737  0.1639686 
1128.6     0.209      144.549    1          2          5.165555   9.403000000000001 7.179      1.867      2.161      2.036355   6.223      0.27891    0.27891    0.3356934  410.438    24.03982   7.179      0.7303693  0.7780278  47.117     0.172071   0.1771062  0.1670358 
1128.8     0.209      147.089    1          2          5.265934   9.022      6.715      1.384      1.882      2.036527   5.969      0.2763877  0.2763877  0.3356792  368.5774   20.39709   6.715      0.7195712  0.7695975  47.54      0.1796714  0.1893973  0.1699455 
1129       0.209      149.629    1          2          5.370883   8.895      6.381      2.083      1.399      2.046595   5.715      0.272321   0.272321   0.3348466  309.887    17.17736   6.381      0.7090442  0.7618187  48.344     0.1894715  0.203161   0.175782  
1129.2     0.209      152.169    1          2          5.457914   9.148999999999999 5.844      1.651      1.742      2.054923   5.715      0.2689487  0.2689487  0.3341579  268.3737   14.89644   5.844      0.6934819  0.7495069  48.873     0.1976036  0.2153304  0.1798767 
1129.4     0.21       153.439    1          2          5.4937     9.276      4.904      1.334      1.615      2.05384    5.842      0.2680332  0.2680332  0.3342474  258.0976   14.04886   4.904      0.6662012000000001 0.7262009  48.98      0.2006491  0.2205433  0.1807548 
1129.6     0.21       154.709    1          2          5.457223   9.276      4.37       1.727      1.285      2.046398   5.842      0.26952    0.26952    0.3348629  274.9933   14.9133    4.37       0.6493385  0.7109372  48.98      0.1980089  0.215231   0.1807868 
1129.8     0.21       155.337    1          2          5.355761   9.148999999999999 5.802      1.473      1.653      2.041935   5.969      0.2722975  0.2722975  0.335232   309.5768   17.60788   5.802      0.6957396  0.7503738  48.915     0.1907106  0.2011178  0.1803034 
1130       0.21       155.979    1          2          5.218396   8.641      5.802      1.372      1.92       2.047331   5.969      0.2748379  0.2748379  0.3347857  345.0035   22.04777   5.802      0.6981906  0.7511591  48.853     0.18166    0.1834736  0.1798463 
1130.2     0.21       158.519    1          2          5.085928   8.006      5.049      1.562      1.209      2.061574   5.207      0.2763841  0.2763841  0.3336079  368.5216   27.38675   5.049      0.6794164  0.7333381  48.726     0.1734053  0.1679262  0.1788844 
1130.4     0.21       158.519    1          2          5.00049    7.371      4.868      2.299      1.907      2.075842   4.699000000000001 0.2770594  0.2770594  0.3324279  379.2897   31.49791   4.868      0.6745694  0.7281514  48.472     0.1677831  0.1586046  0.1769617 
1130.6     0.21       161.059    1          2          4.985507   7.371      5.275      1.511      1.971      2.080916   4.699000000000001 0.2771159  0.2771159  0.3320082  380.2048   32.28      5.275      0.6866591  0.7386817  48.295     0.1663403  0.1570241  0.1756566 
1130.8     0.21       163.599    1          2          5.02681    7.116999999999999 5.183      1.854      1.526      2.076116   4.699000000000001 0.2769814  0.2769814  0.3324052  378.0287   30.16964   5.183      0.6839275  0.7365     48.133     0.1679512  0.1614196  0.1744827 
1131       0.209      166.139    1          2          5.082918   7.371      5.162      2.057      1.856      2.067511   5.080000000000001 0.2772255  0.2772255  0.3331168  381.985    27.52205   5.162      0.6835677  0.7363882  47.667     0.1693677  0.1675886  0.1711468 
1131.2     0.209      169.949    1          2          5.122883   7.752      6.018      2.235      1.831      2.058232   5.080000000000001 0.27758    0.27758    0.3338842  387.8046   25.77912   6.018      0.7058774  0.7563106  47.371     0.1706188  0.172126   0.1691117 
1131.4     0.209      173.759    1          2          5.145196   7.752      5.76       2.019      1.64       2.045496   4.699000000000001 0.2782789  0.2782789  0.3349375  399.5376   24.85451   5.76       0.7004238  0.7516294  47.303     0.1716929  0.1747124  0.1686734 
1131.6     0.209      178.839    1          2          5.163094   7.752      5.087      1.486      1.907      2.026788   4.699000000000001 0.2795408  0.2795408  0.3364846  421.631    24.13688   5.087      0.6836866  0.7369159  47.244     0.1725569  0.1768151  0.1682988 
1131.8     0.209      182.649    1          2          5.193779   7.371      4.868      1.613      1.704      2.005088   4.191      0.280583   0.280583   0.3382792  440.7936   22.95438   4.868      0.6781316  0.7323089  47.371     0.1748371  0.1804793  0.1691949 
1132       0.209      186.459    1          2          5.257518   6.863000000000001 4.79       1.435      1.806      1.986239   3.81       0.2803508  0.2803508  0.339838   436.4501   20.68003   4.79       0.6754487  0.7307588  47.794     0.1802644  0.1883349  0.1721939 
1132.2     0.209      191.539    1          2          5.364529   6.736      4.144      1.816      1.361      1.973386   3.429      0.2786326  0.2786326  0.340901   405.6108   17.35695   4.144      0.650753   0.7103027  48.186     0.1886921  0.2023     0.1750842 
1132.4     0.209      195.349    1          2          5.492164   6.609000000000001 4.144      1.88       1.348      1.966043   3.302000000000001 0.2758536  0.2758536  0.3415083  360.2766   14.08423   4.144      0.6476907  0.7093742  48.514     0.1989536  0.220317   0.1775901 
1132.6     0.209      199.159    1          2          5.592336   6.609000000000001 4.144      1.727      1.717      1.963148   3.302000000000001 0.2724574  0.2724574  0.3417476  311.6951   11.95412   4.144      0.6438689  0.7079727  49.361     0.2099704  0.2355742  0.1843667 
1132.8     0.209      202.969    1          2          5.629711   6.609000000000001 3.581      2.337      1.704      1.963838   3.048      0.2706426  0.2706426  0.3416906  288.4804   11.24466   3.581      0.6163844000000001 0.6849399  49.911     0.2152969  0.2415337  0.1890601 
1133       0.206      208.049    -9999      -9999      5.611161   6.736      3.233      2.299      1.628      1.964574   3.250999999999999 0.2702606  0.2702606  0.3416297  283.8177   11.59135   3.233      0.5970369  0.6681856  50.461     0.2162702  0.2385573  0.1939831 
1133.2     0.202      213.129    -9999      -9999      5.567378   6.863000000000001 2.961      1.968      2.377      1.960103   3.454      0.2711115  0.2711115  0.3419995  294.3074   12.45264   2.961      0.5812193  0.6539547  50.885     0.2148121  0.2316767  0.1979476 
1133.4     0.198      219.479    -9999      -9999      5.51867    6.989999999999999 3.005      1.308      1.971      1.949773   3.277      0.2727177  0.2727177  0.3428538  315.175    13.4862    3.005      0.5862421  0.6578446  51.181     0.2125336  0.2242552  0.200812  
