~Version
 VERS              .         2.0                           : CWLS LOG ASCII STANDARD - VERSION 2.0
 WRAP              .         NO                            : ONE LINE PER DEPTH STEP
 DLM               .         SPACE                         : DELIMITING CHARACTER(SPACE TAB OR COMMA)
~Well Information
#_______________________________________________________________________________
#
#PARAMETER_NAME    .UNIT     VALUE                         : DESCRIPTION
#_______________________________________________________________________________
STRT               .M        917                           : First reference value
STOP               .M        1233.6                        : Last reference value
STEP               .M        0.2                           : Step increment
NULL               .         -9999                         : Missing value
COMP               .                                       : Company
WELL               .         7276                          : Well name
FLD                .         Узень                         : Field
LOC                .                                       : Location
CNTY               .                                       : County
STAT               .                                       : State
CTRY               .                                       : Country
SRVC               .                                       : Service Company
DATE               .                                       : Date
UWI                .                                       : Unique Well ID
API                .                                       : 
Block              .         6а                            : 
Category           .         Нагнетательная                : 
Condition          .         В работе                      : 
Date               .         16.12.1985                    : 
EREF               .m        84.2                          : 100.8
Gorizont           .         15                            : 14
Interpretator      .         Алпанова Н.К.                 : 
Kupol              .         основной                      : osnovnoi
Moii_15_vosst_164  .         15_vosst_164                  : 
Mud                .                                       : 
Mud_density        .                                       : 
Mud_resistivity    .                                       : 
Mud_density        .                                       : 
Mud_resistivity    .                                       : 
NGDU               .         НГДУ-2                        : 
ORIGINALWELLNAME   .         7276                          : 
Spud_date          .         1985                          : 1961
Spud_date          .         1985                          : 1961
Viscosity          .                                       : 
X                  .m        44386.6                       : 46154
Y                  .m        85430.93                      : 85761.93
YEAR               .         2018                          : 
~Parameter Information Block
#_______________________________________________________________________________
#
#PARAMETER_NAME    .UNIT     VALUE                         : DESCRIPTION
#_______________________________________________________________________________
SET                .         LQC_KAZNIPI_Petrel            : 
TLFamily_CALI      .         Caliper                       : 
TLFamily_CILD      .         Conductivity                  : 
TLFamily_COLL      .         Net Reservoir Flag            : 
TLFamily_CSAT      .         Fluid Code                    : 
TLFamily_DEPT      .         Measured Depth                : 
TLFamily_GR        .         Russian Gamma Ray             : 
TLFamily_GZ3       .         Gradient 225                  : 
TLFamily_LLS       .         Lateral Log Resistivity       : 
TLFamily_MINV      .         Micro Gradient Resistivity    : 
TLFamily_MNOR      .         Micro Resistivity             : 
TLFamily_NGLD      .         Neutron Far                   : 
TLFamily_OGZ       .         Gradient Inverted 225         : 
TLFamily_PHIE      .         Effective Porosity            : 
TLFamily_PHIEN     .         Effective Porosity            : 
TLFamily_PHIT      .         Porosity                      : 
TLFamily_PRMB      .         Permeability                  : 
TLFamily_PRMB_DGR  .         Permeability                  : 
TLFamily_RT        .         Formation Resistivity         : 
TLFamily_SOIL_ARCHIE .         Oil Saturation                : 
TLFamily_SOIL_DW   .         Oil Saturation                : 
TLFamily_SP        .         Spontaneous Potential         : 
TLFamily_VSH_FIN   .         Shale Volume                  : 
TLFamily_VSH_GR    .         Shale Volume                  : 
TLFamily_VSH_SP    .         Shale Volume                  : 
~Curve Information
#_______________________________________________________________________________
#
#LOGNAME           .UNIT     LOG_ID                        : DESCRIPTION
#_______________________________________________________________________________
DEPT               .M                                      : Колонка глубины 
CALI               .м                                      : Каверномер 
CILD               .мСм/м                                  : Индукционный каротаж 
COLL               .unitless                               :  
CSAT               .unitless                               :  
GR                 .мкР/ч                                  : Гамма каротаж 
GZ3                .Ом·м                                   :  
LLS                .Ом·м                                   : Боковой каротаж 
MINV               .Ом·м                                   : Микро-градиент зонд 
MNOR               .Ом·м                                   : Микро-потенциал зонд 
NGLD               .у.е.                                   : Показания зонда НГК-60 аппаратуры ДРСТ-3-90 
OGZ                .Ом·м                                   :  
PHIE               .м3/м3                                  : Описание 
PHIEN              .v/v                                    :  
PHIT               .м3/м3                                  : Описание 
PRMB               .mD                                     :  
PRMB_DGR           .mD                                     :  
RT                 .ohmm                                   : Description 
SOIL_ARCHIE        .v/v                                    :  
SOIL_DW            .v/v                                    :  
SP                 .мВ                                     : Потенциал самополяризации 
VSH_FIN            .unitless                               : Описание 
VSH_GR             .unitless                               : Shale volume 
VSH_SP             .unitless                               : Shale Volume 
~Ascii
# ...
1072.6     0.259      440.459    -9999      -9999      6.233146   2.49       2.414      1.702      1.247      1.891091   2.261      0.1445081  0.1445081  0.3477068  1.329836   0.7542201  2.414      0.202733   0.5134087  67.183     0.6157537  0.7280073  0.5035002 
1072.8     0.259      442.999    -9999      -9999      6.196246   2.516      2.343      1.676      1.577      1.87593    2.337      0.1478893  0.1478893  0.3489606  1.536127   0.797361   2.343      0.2076094  0.5113904  67.395     0.6093068  0.7116585  0.5069551 
1073       0.269      442.999    -9999      -9999      6.175889   2.439      2.293      1.791      1.285      1.869923   2.235      0.1496733  0.1496733  0.3494574  1.657565   0.8222076  2.293      0.2078636  0.5087165  67.522     0.6054064  0.7027973  0.5080155 
1073.2     0.262      440.459    -9999      -9999      6.159371   2.363      2.293      1.727      1.336      1.87553    2.108      0.1500103  0.1500103  0.3489936  1.681558   0.8429378  2.293      0.2094135  0.5087146  67.691     0.6029799  0.6956877  0.5102721 
1073.4     0.249      435.379    -9999      -9999      6.140112   2.262      2.414      1.664      1.31       1.892212   2.057      0.1496095  0.1496095  0.347614   1.653063   0.8677678  2.414      0.2264631  0.5195141  67.86      0.6000137  0.6874895  0.5125379 
1073.6     0.257      432.839    -9999      -9999      6.109015   2.262      2.577      1.943      1.399      1.915496   2.057      0.149658   0.149658   0.3456885  1.656483   0.9094139999999999 2.577      0.2500329  0.5333859  67.987     0.5940319  0.6744552  0.5136085 
1073.8     0.257      430.299    -9999      -9999      6.059518   2.287      2.752      1.968      1.513      1.940167   2.083      0.1505763  0.1505763  0.3436482  1.722647   0.9798623  2.752      0.2766669  0.5478121  68.157     0.5850664  0.6542169  0.5159159 
1074       0.26       429.029    -9999      -9999      6.003807   2.414      2.713      1.842      1.272      1.962308   2.21       0.1520066  0.1520066  0.3418171  1.831002   1.065704   2.713      0.2777772  0.5446533  68.326     0.5751835  0.632163   0.518204  
1074.2     0.249      432.839    -9999      -9999      5.972132   2.49       2.485      2.248      1.31       1.978442   2.362      0.1518998  0.1518998  0.3404828  1.822685   1.117823   2.485      0.2469448  0.5229304  68.58      0.5714636  0.6199574  0.5229698 
1074.4     0.244      436.649    -9999      -9999      5.994071   2.541      2.293      2.07       1.475      1.987576   2.464      0.148961   0.148961   0.3397275  1.607967   1.081459   2.293      0.2045655  0.4990284  68.834     0.5780802  0.6283863  0.5277742 
1074.6     0.258      439.189    -9999      -9999      6.077012   2.541      2.327      1.473      1.444      1.995558   2.464      0.1424851  0.1424851  0.3390674  1.219908   0.9543608  2.327      0.1788606  0.493831   69.003     0.595704   0.6612995  0.5301084 
1074.8     0.257      440.459    -9999      -9999      6.188425   2.541      2.275      1.943      1.221      2.011929   2.388      0.133612   0.133612   0.3377135  0.8355569000000001 0.8068165000000001 2.275      0.122306   0.4745822  69.046     0.6184894  0.708241   0.5287379 
1075       0.248      439.189    -9999      -9999      6.262971   2.541      2.178      1.892      1.386      2.041567   2.311      0.1265168  0.1265168  0.3352624  0.6173848  0.7210626  2.178      0.0605743  0.4498011  68.961     0.6325625  0.7414955  0.5236294 
1075.2     0.26       435.379    -9999      -9999      6.243869   2.439      2.07       1.499      1.348      2.082439   2.286      0.1249745  0.1249745  0.3318823  0.5780826  0.7421271  2.07       0.02755173 0.429448   68.876     0.6269932  0.7328283  0.5211581 
1075.4     0.264      429.029    -9999      -9999      6.125525   2.287      2.13       1.778      1.323      2.130823   2.286      0.1298694  0.1298694  0.3278809  0.7122847  0.8870604  2.13       0.07207828 0.4409391  68.792     0.6000351  0.6813442  0.518726  
1075.6     0.264      417.599    -9999      -9999      5.959037   2.287      2.414      1.486      1.247      2.183941   2.286      0.1376299  0.1376299  0.3234881  0.9917377000000001 1.140107   2.414      0.1681403  0.4814722  68.538     0.5632067  0.6149805  0.5114329 
1075.8     0.246      406.169    -9999      -9999      5.819634   2.16       3.305      2.489      1.209      2.236701   2.311      0.1426032  0.1426032  0.3191248  1.226069   1.406717   3.305      0.3040157  0.5589077  68.326     0.534914   0.5644123  0.5054157 
1076       0.225      396.009    -9999      -9999      5.763767   2.084      4.085      3.378      1.247      2.277478   2.413      0.1437477  0.1437477  0.3157526  1.287402   1.530314   4.085      0.3742601  0.6017999  68.03      0.5212269000000001 0.5453334  0.4971205 
1076.2     0.218      387.119    -9999      -9999      5.794136   2.236      3.256      2.121      1.818      2.289942   2.642      0.1417961  0.1417961  0.3147218  1.184582   1.461839   3.256      0.2956468  0.5507683  67.86      0.5240173  0.5556229  0.4924118 
1076.4     0.227      385.849    -9999      -9999      5.858978   2.465      2.615      2.095      1.869      2.265946   2.896      0.1408132  0.1408132  0.3167063  1.135955   1.325714   2.615      0.2145814  0.4993907  67.691     0.5330092  0.5782475  0.4877708 
1076.6     0.227      385.849    -9999      -9999      5.897737   2.465      2.275      1.245      1.691      2.22002    2.896      0.1426905  0.1426905  0.3205044  1.230642   1.250478   2.275      0.1711464  0.4699069  67.606     0.53883    0.5922086  0.4854515 
1076.8     0.233      375.054    -9999      -9999      5.886006   2.719      2.514      1.676      1.552      2.185965   3.200000000000001 0.1465864  0.1465864  0.3233207  1.453093   1.272787   2.514      0.2274432  0.5035198  67.522     0.5355586  0.587948   0.4831693 
1077       0.232      361.719    -9999      -9999      5.835873   2.846      3.072      1.486      1.247      2.193863   3.505      0.1496383  0.1496383  0.3226675  1.655089   1.372702   3.072      0.3093085  0.5537764  67.352     0.524331   0.5700819  0.4785803 
1077.2     0.234      352.829    -9999      -9999      5.765429   2.719      3.093      1.295      1.539      2.247292   3.15       0.1497725  0.1497725  0.318249   1.664596   1.526486   3.093      0.3120508  0.5516168  67.225     0.5105347  0.5458913  0.475178  
1077.4     0.234      345.209    -9999      -9999      5.682522   2.541      3.186      1.587      1.26       2.32315    2.591      0.148165   0.148165   0.3119754  1.554295   1.72969    3.186      0.3151418  0.5508815  67.183     0.4963953  0.5187329000000001 0.4740577 
1077.6     0.234      341.399    -9999      -9999      5.592028   2.541      3.715      2.807      1.552      2.390037   2.591      0.1468962  0.1468962  0.306444   1.472421   1.98249    3.715      0.3579811  0.5780703  67.268     0.4834781  0.4906287  0.4763275 
1077.8     0.222      341.399    -9999      -9999      5.509844   2.439      4.659      3.734      1.844      2.423018   2.565      0.1475993  0.1475993  0.3037164  1.517241   2.24395    4.659      0.4250935  0.6218314  67.395     0.4730822  0.4664271  0.4797372 
1078       0.213      346.479    -9999      -9999      5.467235   2.566      4.237      3.81       2.402      2.408582   2.54       0.1505985  0.1505985  0.3049103  1.724279   2.392807   4.237      0.4093395  0.6074377  67.437     0.4676114  0.4543532  0.4808697 
1078.2     0.222      355.369    -9999      -9999      5.493153   2.922      3.329      1.41       2.936      2.347082   2.591      0.1548568  0.1548568  0.3099963  2.06767    2.301126   3.329      0.3544292  0.5662831  67.352     0.4701199  0.4616595  0.4785803 
1078.4     0.24       371.879    -9999      -9999      5.587865   3.125      2.919      1.334      3.482      2.254      2.692      0.1583536  0.1583536  0.3176942  2.400222   1.99497    2.919      0.3265847  0.5476648  67.268     0.4828503  0.4893731  0.4763275 
1078.6     0.24       387.119    -9999      -9999      5.72204    3.125      2.793      1.435      1.132      2.152363   2.692      0.1598072  0.1598072  0.3260996  2.553731   1.629663   2.793      0.3179452  0.5465525  67.268     0.5039164  0.5315052  0.4763275 
