~Version
 VERS              .         2.0                           : CWLS LOG ASCII STANDARD - VERSION 2.0
 WRAP              .         NO                            : ONE LINE PER DEPTH STEP
 DLM               .         SPACE                         : DELIMITING CHARACTER(SPACE TAB OR COMMA)
~Well Information
#_______________________________________________________________________________
#
#PARAMETER_NAME    .UNIT     VALUE                         : DESCRIPTION
#_______________________________________________________________________________
STRT               .M        917                           : First reference value
STOP               .M        1233.6                        : Last reference value
STEP               .M        0.2                           : Step increment
NULL               .         -9999                         : Missing value
COMP               .                                       : Company
WELL               .         7276                          : Well name
FLD                .         Узень                         : Field
LOC                .                                       : Location
CNTY               .                                       : County
STAT               .                                       : State
CTRY               .                                       : Country
SRVC               .                                       : Service Company
DATE               .                                       : Date
UWI                .                                       : Unique Well ID
API                .                                       : 
Block              .         6а                            : 
Category           .         Нагнетательная                : 
Condition          .         В работе                      : 
Date               .         16.12.1985                    : 
EREF               .m        84.2                          : 100.8
Gorizont           .         15                            : 14
Interpretator      .         Алпанова Н.К.                 : 
Kupol              .         основной                      : osnovnoi
Moii_15_vosst_164  .         15_vosst_164                  : 
Mud                .                                       : 
Mud_density        .                                       : 
Mud_resistivity    .                                       : 
Mud_density        .                                       : 
Mud_resistivity    .                                       : 
NGDU               .         НГДУ-2                        : 
ORIGINALWELLNAME   .         7276                          : 
Spud_date          .         1985                          : 1961
Spud_date          .         1985                          : 1961
Viscosity          .                                       : 
X                  .m        44386.6                       : 46154
Y                  .m        85430.93                      : 85761.93
YEAR               .         2018                          : 
~Parameter Information Block
#_______________________________________________________________________________
#
#PARAMETER_NAME    .UNIT     VALUE                         : DESCRIPTION
#_______________________________________________________________________________
SET                .         LQC_KAZNIPI_Petrel            : 
TLFamily_CALI      .         Caliper                       : 
TLFamily_CILD      .         Conductivity                  : 
TLFamily_COLL      .         Net Reservoir Flag            : 
TLFamily_CSAT      .         Fluid Code                    : 
TLFamily_DEPT      .         Measured Depth                : 
TLFamily_GR        .         Russian Gamma Ray             : 
TLFamily_GZ3       .         Gradient 225                  : 
TLFamily_LLS       .         Lateral Log Resistivity       : 
TLFamily_MINV      .         Micro Gradient Resistivity    : 
TLFamily_MNOR      .         Micro Resistivity             : 
TLFamily_NGLD      .         Neutron Far                   : 
TLFamily_OGZ       .         Gradient Inverted 225         : 
TLFamily_PHIE      .         Effective Porosity            : 
TLFamily_PHIEN     .         Effective Porosity            : 
TLFamily_PHIT      .         Porosity                      : 
TLFamily_PRMB      .         Permeability                  : 
TLFamily_PRMB_DGR  .         Permeability                  : 
TLFamily_RT        .         Formation Resistivity         : 
TLFamily_SOIL_ARCHIE .         Oil Saturation                : 
TLFamily_SOIL_DW   .         Oil Saturation                : 
TLFamily_SP        .         Spontaneous Potential         : 
TLFamily_VSH_FIN   .         Shale Volume                  : 
TLFamily_VSH_GR    .         Shale Volume                  : 
TLFamily_VSH_SP    .         Shale Volume                  : 
~Curve Information
#_______________________________________________________________________________
#
#LOGNAME           .UNIT     LOG_ID                        : DESCRIPTION
#_______________________________________________________________________________
DEPT               .M                                      : Колонка глубины 
CALI               .м                                      : Каверномер 
CILD               .мСм/м                                  : Индукционный каротаж 
COLL               .unitless                               :  
CSAT               .unitless                               :  
GR                 .мкР/ч                                  : Гамма каротаж 
GZ3                .Ом·м                                   :  
LLS                .Ом·м                                   : Боковой каротаж 
MINV               .Ом·м                                   : Микро-градиент зонд 
MNOR               .Ом·м                                   : Микро-потенциал зонд 
NGLD               .у.е.                                   : Показания зонда НГК-60 аппаратуры ДРСТ-3-90 
OGZ                .Ом·м                                   :  
PHIE               .м3/м3                                  : Описание 
PHIEN              .v/v                                    :  
PHIT               .м3/м3                                  : Описание 
PRMB               .mD                                     :  
PRMB_DGR           .mD                                     :  
RT                 .ohmm                                   : Description 
SOIL_ARCHIE        .v/v                                    :  
SOIL_DW            .v/v                                    :  
SP                 .мВ                                     : Потенциал самополяризации 
VSH_FIN            .unitless                               : Описание 
VSH_GR             .unitless                               : Shale volume 
VSH_SP             .unitless                               : Shale Volume 
~Ascii
# ...
1169.6     0.209      472.209    -9999      -9999      6.723907   2.82       4.268      1.753      1.628      1.994577   1.041      0.2066496  0.2066496  0.3391485  18.82825   1.875184   4.268      0.5531402  0.6761595  58.124     0.4015117  0.5019047  0.3011186 
1169.8     0.209      486.179    -9999      -9999      6.808477   2.795      2.939      1.816      1.704      1.928562   1.067      0.2044925  0.2044925  0.3446079  17.17339   1.632748   2.939      0.4627548  0.6118456  59.097     0.4245921  0.5310948  0.3180893 
1170       0.219      495.069    -9999      -9999      6.83721    2.693      2.378      1.499      1.526      1.845968   1.219      0.2069115  0.2069115  0.3514385  19.03972   1.55773    2.378      0.4126581  0.5755406  59.986     0.4379607  0.5413937  0.3345276 
1170.2     0.229      503.959    -9999      -9999      6.784427   2.871      2.275      0.775      1.767      1.764347   1.422      0.2129094  0.2129094  0.3581885  24.58988   1.698313   2.275      0.4150666  0.5758343  61.172     0.4402398  0.522625   0.3578545 
1170.4     0.224      517.294    -9999      -9999      6.656408   4.039999999999999 2.227      1.753      1.361      1.69749    3.785      0.2230374  0.2230374  0.3637176  37.87497   2.094262   2.227      0.4326201  0.5830366  61.891     0.4263034  0.4797627  0.3728442 
1170.6     0.22       528.089    -9999      -9999      6.483149   4.039999999999999 2.378      2.108      0.789      1.659335   3.785      0.23349    0.23349    0.366873   59.15075   2.78104    2.378      0.4713356  0.6059083  62.272     0.4041906  0.4272967  0.3810845 
1170.8     0.22       530.629    -9999      -9999      6.313814   5.538      2.653      2.756      1.247      1.658903   6.121      0.2404467  0.2404467  0.3669088  79.58190999999999 3.669384   2.653      0.510477   0.6313292  62.442     0.3832183  0.3815679  0.3848687 
1171       0.216      525.549    -9999      -9999      6.212678   4.827      2.378      1.511      1.107      1.691118   6.502      0.240807   0.240807   0.3642445  80.81429   4.33006    2.378      0.4853539  0.6091468  62.738     0.374053   0.3566255  0.3914805 
1171.2     0.214      519.199    -9999      -9999      6.229041   3.379      2.084      2.305      1.26       1.739305   4.928      0.2342702  0.2342702  0.3602594  61.1521    4.215618   2.084      0.4391927  0.5750223  63.246     0.3817854  0.3605475  0.4030233 
1171.4     0.231      520.469    -9999      -9999      6.354635   2.668      1.923      3.835      1.64       1.78766    1.651      0.2226076  0.2226076  0.3562605  37.18705   3.432196   1.923      0.3911437  0.5453437  63.881     0.4050087  0.3921229  0.4178946 
1171.6     0.247      524.279    -9999      -9999      6.523443   2.668      2.194      3.2        2.618      1.827772   1.651      0.209874   0.209874   0.3529432  21.60394   2.603516   2.194      0.3975426  0.561725   64.304     0.4335432  0.4389621  0.4281243 
1171.8     0.264      526.819    -9999      -9999      6.668575   2.058      2.503      2.159      1.958      1.857536   1.372      0.1986662  0.1986662  0.3504818  13.39484   2.052962   2.503      0.4059378  0.578855   64.643     0.4600473  0.4836805  0.4364142 
1172       0.264      529.359    -9999      -9999      6.774475   1.5        2.615      1.69       1.304      1.880303   1.397      0.189888   0.189888   0.3485989  9.211789   1.726208   2.615      0.3946528  0.5792079  64.897     0.4809422  0.5191599  0.4427246 
1172.2     0.257      526.819    -9999      -9999      6.869327   2.109      2.378      2.375      0.98       1.903895   1.524      0.1809183  0.1809183  0.3466478  6.283523   1.477947   2.378      0.3398093  0.548789   65.236     0.5022109  0.5531421  0.4512797 
1172.4     0.245      524.279    -9999      -9999      6.978998   2.795      2.293      1.886      1.469      1.934914   1.727      0.1706978  0.1706978  0.3440826  4.063457   1.235066   2.293      0.2935477  0.5279259  65.405     0.5254085  0.5952151  0.455602  
1172.6     0.245      524.279    -9999      -9999      7.0977     2.795      2.378      0.521      1.602      1.970833   1.727      0.1594391  0.1594391  0.3411121  2.513956   1.016953   2.378      0.2629893  0.5216712  65.447     0.5505242  0.6443664  0.4566821 
1172.8     0.244      524.279    -9999      -9999      7.196263   3.176000000000001 2.396      0.61       0.472      1.999783   1.803      0.1506957  0.1506957  0.338718   1.73144    0.8654229  2.396      0.2286167  0.511115   65.236     0.5697646  0.6882494  0.4512797 
1173       0.244      526.819    -9999      -9999      7.249977   3.151      2.558      0.927      0.624      2.010769   1.626      0.1468738  0.1468738  0.3378094  1.471015   0.7925776  2.558      0.2350141  0.521493   64.939     0.5785928  0.7134092  0.4437762 
1173.2     0.24       528.089    -9999      -9999      7.262658   2.973      2.653      2.381      0.574      2.002923   1.499      0.1477354  0.1477354  0.3384583  1.526077   0.7762941  2.653      0.2518143  0.5317237  64.643     0.5779482  0.7194821  0.4364142 
1173.4     0.233      531.899    -9999      -9999      7.268888   2.77       2.503      1.321      1.259      1.983028   1.448      0.1488853  0.1488853  0.3401036  1.602784   0.7684171  2.503      0.2362732  0.5207466  64.643     0.5794495  0.7224848  0.4364142 
1173.6     0.229      531.899    -9999      -9999      7.305253   2.77       2.396      1.549      1.005      1.956973   1.448      0.1475879  0.1475879  0.3422583  1.516507   0.7240087  2.396      0.2144889  0.5105146  64.77      0.5899103  0.7402619  0.4395587 
1173.8     0.232      533.169    -9999      -9999      7.370875   2.465      2.378      1.473      0.891      1.929226   1.524      0.1435317  0.1435317  0.344553   1.275594   0.6502654  2.378      0.1923366  0.5056754  64.982     0.6091555  0.7734558  0.4448553 
1174       0.232      530.629    -9999      -9999      7.424423   2.185      2.327      2.147      0.91       1.907419   1.702      0.1404271  0.1404271  0.3463565  1.117398   0.595692   2.327      0.1683894  0.4979366  65.109     0.6240284  0.8        0.4480568 
1174.2     0.236      526.819    -9999      -9999      7.428882   1.957      2.259      1.943      1.107      1.899801   1.956      0.1405253  0.1405253  0.3469865  1.122092   0.5913597  2.259      0.1572484  0.4911539  65.236     0.6256399  0.8        0.4512797 
1174.4     0.238      523.009    -9999      -9999      7.393347   1.931      2.194      2.032      1.069      1.90817    2.159      0.1419279  0.1419279  0.3462944  1.191262   0.6267796  2.194      0.1529811  0.484888   65.32      0.6192923  0.7851614  0.4534233 
1174.6     0.231      515.389    -9999      -9999      7.359506   1.931      2.163      2.095      1.196      1.926788   2.159      0.1431041  0.1431041  0.3447546  1.252545   0.6624808  2.163      0.1534133  0.4813136  65.363     0.6110622  0.7676001  0.4545242 
1174.8     0.231      505.229    -9999      -9999      7.355612   2.008      2.294      1.943      1.024      1.946663   2.235      0.1416119  0.1416119  0.343111   1.175314   0.6667171  2.294      0.1689009  0.492869   65.405     0.6106033  0.7656048  0.455602  
1175       0.221      495.069    -9999      -9999      7.378145   2.109      2.503      2.007      1.069      1.960298   2.261      0.138389   0.138389   0.3419834  1.024373   0.6425731  2.503      0.1860627  0.5093774  65.447     0.6169527  0.7772232  0.4566821 
1175.2     0.224      488.719    -9999      -9999      7.414549   2.185      2.54       1.638      0.942      1.967073   2.413      0.1341285  0.1341285  0.341423   0.8541662  0.6053981000000001 2.54       0.16933    0.5068888  65.574     0.6281654  0.7963684  0.4599625 
1175.4     0.234      484.909    -9999      -9999      7.461742   2.211      2.558      1.753      0.98       1.974142   2.667      0.1318513  0.1318513  0.3408385  0.7751107  0.5603895  2.558      0.1596383  0.50504    65.828     0.6332945  0.8        0.466589  
1175.6     0.242      479.829    -9999      -9999      7.515154   2.211      2.522      1.676      1.158      1.988793   2.667      0.129716   0.129716   0.3396268  0.7076418  0.5134733  2.522      0.1419147  0.4974413  66.04      0.6360933  0.8        0.4721866 
