~Version
 VERS              .         2.0                           : CWLS LOG ASCII STANDARD - VERSION 2.0
 WRAP              .         NO                            : ONE LINE PER DEPTH STEP
 DLM               .         SPACE                         : DELIMITING CHARACTER(SPACE TAB OR COMMA)
~Well Information
#_______________________________________________________________________________
#
#PARAMETER_NAME    .UNIT     VALUE                         : DESCRIPTION
#_______________________________________________________________________________
STRT               .M        917                           : First reference value
STOP               .M        1233.6                        : Last reference value
STEP               .M        0.2                           : Step increment
NULL               .         -9999                         : Missing value
COMP               .                                       : Company
WELL               .         7276                          : Well name
FLD                .         Узень                         : Field
LOC                .                                       : Location
CNTY               .                                       : County
STAT               .                                       : State
CTRY               .                                       : Country
SRVC               .                                       : Service Company
DATE               .                                       : Date
UWI                .                                       : Unique Well ID
API                .                                       : 
Block              .         6а                            : 
Category           .         Нагнетательная                : 
Condition          .         В работе                      : 
Date               .         16.12.1985                    : 
EREF               .m        84.2                          : 100.8
Gorizont           .         15                            : 14
Interpretator      .         Алпанова Н.К.                 : 
Kupol              .         основной                      : osnovnoi
Moii_15_vosst_164  .         15_vosst_164                  : 
Mud                .                                       : 
Mud_density        .                                       : 
Mud_resistivity    .                                       : 
Mud_density        .                                       : 
Mud_resistivity    .                                       : 
NGDU               .         НГДУ-2                        : 
ORIGINALWELLNAME   .         7276                          : 
Spud_date          .         1985                          : 1961
Spud_date          .         1985                          : 1961
Viscosity          .                                       : 
X                  .m        44386.6                       : 46154
Y                  .m        85430.93                      : 85761.93
YEAR               .         2018                          : 
~Parameter Information Block
#_______________________________________________________________________________
#
#PARAMETER_NAME    .UNIT     VALUE                         : DESCRIPTION
#_______________________________________________________________________________
SET                .         LQC_KAZNIPI_Petrel            : 
TLFamily_CALI      .         Caliper                       : 
TLFamily_CILD      .         Conductivity                  : 
TLFamily_COLL      .         Net Reservoir Flag            : 
TLFamily_CSAT      .         Fluid Code                    : 
TLFamily_DEPT      .         Measured Depth                : 
TLFamily_GR        .         Russian Gamma Ray             : 
TLFamily_GZ3       .         Gradient 225                  : 
TLFamily_LLS       .         Lateral Log Resistivity       : 
TLFamily_MINV      .         Micro Gradient Resistivity    : 
TLFamily_MNOR      .         Micro Resistivity             : 
TLFamily_NGLD      .         Neutron Far                   : 
TLFamily_OGZ       .         Gradient Inverted 225         : 
TLFamily_PHIE      .         Effective Porosity            : 
TLFamily_PHIEN     .         Effective Porosity            : 
TLFamily_PHIT      .         Porosity                      : 
TLFamily_PRMB      .         Permeability                  : 
TLFamily_PRMB_DGR  .         Permeability                  : 
TLFamily_RT        .         Formation Resistivity         : 
TLFamily_SOIL_ARCHIE .         Oil Saturation                : 
TLFamily_SOIL_DW   .         Oil Saturation                : 
TLFamily_SP        .         Spontaneous Potential         : 
TLFamily_VSH_FIN   .         Shale Volume                  : 
TLFamily_VSH_GR    .         Shale Volume                  : 
TLFamily_VSH_SP    .         Shale Volume                  : 
~Curve Information
#_______________________________________________________________________________
#
#LOGNAME           .UNIT     LOG_ID                        : DESCRIPTION
#_______________________________________________________________________________
DEPT               .M                                      : Колонка глубины 
CALI               .м                                      : Каверномер 
CILD               .мСм/м                                  : Индукционный каротаж 
COLL               .unitless                               :  
CSAT               .unitless                               :  
GR                 .мкР/ч                                  : Гамма каротаж 
GZ3                .Ом·м                                   :  
LLS                .Ом·м                                   : Боковой каротаж 
MINV               .Ом·м                                   : Микро-градиент зонд 
MNOR               .Ом·м                                   : Микро-потенциал зонд 
NGLD               .у.е.                                   : Показания зонда НГК-60 аппаратуры ДРСТ-3-90 
OGZ                .Ом·м                                   :  
PHIE               .м3/м3                                  : Описание 
PHIEN              .v/v                                    :  
PHIT               .м3/м3                                  : Описание 
PRMB               .mD                                     :  
PRMB_DGR           .mD                                     :  
RT                 .ohmm                                   : Description 
SOIL_ARCHIE        .v/v                                    :  
SOIL_DW            .v/v                                    :  
SP                 .мВ                                     : Потенциал самополяризации 
VSH_FIN            .unitless                               : Описание 
VSH_GR             .unitless                               : Shale volume 
VSH_SP             .unitless                               : Shale Volume 
~Ascii
# ...
1212.4     -9999      545.869    1          2          -9999      2.236      2.577      1.46       0.904      -9999      2.032      -9999      -9999      -9999      -9999      -9999      2.577      -9999      -9999      47.244     0.196746   -9999      0.1967458 
1212.6     -9999      557.299    1          2          -9999      2.236      2.875      1.473      1.767      -9999      2.032      -9999      -9999      -9999      -9999      -9999      2.875      -9999      -9999      43.392     0.166524   -9999      0.166524  
1212.8     -9999      568.729    1          2          -9999      2.135      2.939      2.045      1.234      -9999      1.93       -9999      -9999      -9999      -9999      -9999      2.939      -9999      -9999      41.444     0.155017   -9999      0.1550171 
1213       -9999      581.429    1          2          -9999      2.033      2.875      1.6        1.59       -9999      1.626      -9999      -9999      -9999      -9999      -9999      2.875      -9999      -9999      41.783     0.157146   -9999      0.1571465 
1213.2     -9999      587.779    1          2          -9999      2.008      2.793      1.181      1.92       -9999      1.168      -9999      -9999      -9999      -9999      -9999      2.793      -9999      -9999      43.095     0.165409   -9999      0.1654085 
1213.4     -9999      586.509    1          2          -9999      1.931      2.732      1.359      1.526      -9999      0.914      -9999      -9999      -9999      -9999      -9999      2.732      -9999      -9999      45.339     0.18204    -9999      0.1820403 
1213.6     -9999      569.999    1          2          -9999      1.931      2.674      1.74       1.437      -9999      0.914      -9999      -9999      -9999      -9999      -9999      2.674      -9999      -9999      46.446     0.19179    -9999      0.19179   
1213.8     -9999      556.029    1          2          -9999      2.058      2.503      1.219      1.564      -9999      0.965      -9999      -9999      -9999      -9999      -9999      2.503      -9999      -9999      47.583     0.202837   -9999      0.2028374 
1214       -9999      544.599    1          2          -9999      2.414      2.293      1.092      1.882      -9999      1.118      -9999      -9999      -9999      -9999      -9999      2.293      -9999      -9999      48.895     0.216904   -9999      0.2169042 
1214.2     -9999      539.44     6          6          -9999      3.074      2.243      1.638      1.424      -9999      1.626      -9999      -9999      -9999      -9999      -9999      2.243      -9999      -9999      49.572     0.225006   -9999      0.2250057 
1214.4     -9999      534.439    6          6          -9999      3.912999999999999 3.853      2.184      1.12       -9999      2.438      -9999      -9999      -9999      -9999      -9999      3.853      -9999      -9999      49.953     0.229985   -9999      0.2299854 
1214.6     -9999      525.549    6          6          -9999      3.912999999999999 11.878     2.692      1.463      -9999      2.438      -9999      -9999      -9999      -9999      -9999      11.878     -9999      -9999      49.911     0.22999    -9999      0.2299904 
1214.8     -9999      535.709    6          6          -9999      4.522      7.716      1.549      2.034      -9999      2.946      -9999      -9999      -9999      -9999      -9999      7.716      -9999      -9999      49.869     0.229995   -9999      0.2299954 
1215       -9999      591.589    6          6          -9999      4.903      3.233      1.702      2.288      -9999      3.174999999999999 -9999      -9999      -9999      -9999      -9999      3.233      -9999      -9999      49.064     0.22114    -9999      0.22114   
1215.2     -9999      618.259    1          3          -9999      5.005      2.327      2.103      2.113      -9999      2.921      -9999      -9999      -9999      -9999      -9999      2.327      -9999      -9999      48.175     0.211898   -9999      0.2118983 
1215.4     -9999      669.059    1          3          -9999      3.989      2.025      2.489      1.945      -9999      2.286      -9999      -9999      -9999      -9999      -9999      2.025      -9999      -9999      47.286     0.203255   -9999      0.2032547 
1215.6     -9999      718.589    1          3          -9999      3.989      1.995      1.626      1.666      -9999      2.286      -9999      -9999      -9999      -9999      -9999      1.995      -9999      -9999      46.397     0.195187   -9999      0.1951872 
1215.8     -9999      769.389    1          3          -9999      2.998      2.025      1.219      2.225      -9999      1.422      -9999      -9999      -9999      -9999      -9999      2.025      -9999      -9999      45.043     0.183774   -9999      0.1837742 
1216       -9999      820.189    1          3          -9999      1.957      1.995      1.816      1.78       -9999      0.864      -9999      -9999      -9999      -9999      -9999      1.995      -9999      -9999      43.857     0.174844   -9999      0.1748437 
1216.2     -9999      869.719    1          3          -9999      1.169      1.995      1.994      1.247      -9999      0.838      -9999      -9999      -9999      -9999      -9999      1.995      -9999      -9999      43.095     0.169686   -9999      0.1696859 
1216.4     -9999      904.009    1          3          -9999      1.169      1.967      1.778      1.615      -9999      0.864      -9999      -9999      -9999      -9999      -9999      1.967      -9999      -9999      43.053     0.169689   -9999      0.1696888 
1216.6     -9999      923.059    1          3          -9999      1.169      1.828      1.422      1.882      -9999      0.864      -9999      -9999      -9999      -9999      -9999      1.828      -9999      -9999      43.265     0.171473   -9999      0.1714729 
1216.8     -9999      944.649    1          3          -9999      1.449      1.923      1.187      1.773      -9999      0.864      -9999      -9999      -9999      -9999      -9999      1.923      -9999      -9999      43.18      0.171171   -9999      0.1711713 
1217       -9999      957.349    1          3          -9999      1.779      2.055      0.927      1.653      -9999      0.8129999999999999 -9999      -9999      -9999      -9999      -9999      2.055      -9999      -9999      42.545     0.167098   -9999      0.1670979 
1217.2     -9999      957.349    1          3          -9999      1.779      1.981      1.092      1.298      -9999      0.787      -9999      -9999      -9999      -9999      -9999      1.981      -9999      -9999      41.952     0.163516   -9999      0.1635158 
1217.4     -9999      953.539    1          3          -9999      1.652      1.896      2.223      0.98       -9999      0.787      -9999      -9999      -9999      -9999      -9999      1.896      -9999      -9999      41.911     0.163525   -9999      0.1635248 
1217.6     -9999      935.759    1          3          -9999      1.652      1.868      1.448      0.688      -9999      0.787      -9999      -9999      -9999      -9999      -9999      1.868      -9999      -9999      41.868     0.163521   -9999      0.1635211 
1217.8     -9999      912.899    1          3          -9999      1.474      1.995      1.397      1.818      -9999      0.8129999999999999 -9999      -9999      -9999      -9999      -9999      1.995      -9999      -9999      43.011     0.171477   -9999      0.1714767 
1218       -9999      890.039    1          3          -9999      1.322      2.147      1.194      1.552      -9999      0.864      -9999      -9999      -9999      -9999      -9999      2.147      -9999      -9999      45.085     0.188048   -9999      0.1880476 
1218.2     -9999      867.179    1          3          -9999      1.271      1.981      1.261      1.525      -9999      0.914      -9999      -9999      -9999      -9999      -9999      1.981      -9999      -9999      47.625     0.212813   -9999      0.2128127 
1218.4     -9999      855.749    1          3          -9999      1.271      1.724      1.321      1.501      -9999      0.991      -9999      -9999      -9999      -9999      -9999      1.724      -9999      -9999      49.234     0.231539   -9999      0.2315393 
