~Version
 VERS              .         2.0                           : CWLS LOG ASCII STANDARD - VERSION 2.0
 WRAP              .         NO                            : ONE LINE PER DEPTH STEP
 DLM               .         SPACE                         : DELIMITING CHARACTER(SPACE TAB OR COMMA)
~Well Information
#_______________________________________________________________________________
#
#PARAMETER_NAME    .UNIT     VALUE                         : DESCRIPTION
#_______________________________________________________________________________
STRT               .M        917                           : First reference value
STOP               .M        1233.6                        : Last reference value
STEP               .M        0.2                           : Step increment
NULL               .         -9999                         : Missing value
COMP               .                                       : Company
WELL               .         7276                          : Well name
FLD                .         Узень                         : Field
LOC                .                                       : Location
CNTY               .                                       : County
STAT               .                                       : State
CTRY               .                                       : Country
SRVC               .                                       : Service Company
DATE               .                                       : Date
UWI                .                                       : Unique Well ID
API                .                                       : 
Block              .         6а                            : 
Category           .         Нагнетательная                : 
Condition          .         В работе                      : 
Date               .         16.12.1985                    : 
EREF               .m        84.2                          : 100.8
Gorizont           .         15                            : 14
Interpretator      .         Алпанова Н.К.                 : 
Kupol              .         основной                      : osnovnoi
Moii_15_vosst_164  .         15_vosst_164                  : 
Mud                .                                       : 
Mud_density        .                                       : 
Mud_resistivity    .                                       : 
Mud_density        .                                       : 
Mud_resistivity    .                                       : 
NGDU               .         НГДУ-2                        : 
ORIGINALWELLNAME   .         7276                          : 
Spud_date          .         1985                          : 1961
Spud_date          .         1985                          : 1961
Viscosity          .                                       : 
X                  .m        44386.6                       : 46154
Y                  .m        85430.93                      : 85761.93
YEAR               .         2018                          : 
~Parameter Information Block
#_______________________________________________________________________________
#
#PARAMETER_NAME    .UNIT     VALUE                         : DESCRIPTION
#_______________________________________________________________________________
SET                .         LQC_KAZNIPI_Petrel            : 
TLFamily_CALI      .         Caliper                       : 
TLFamily_CILD      .         Conductivity                  : 
TLFamily_COLL      .         Net Reservoir Flag            : 
TLFamily_CSAT      .         Fluid Code                    : 
TLFamily_DEPT      .         Measured Depth                : 
TLFamily_GR        .         Russian Gamma Ray             : 
TLFamily_GZ3       .         Gradient 225                  : 
TLFamily_LLS       .         Lateral Log Resistivity       : 
TLFamily_MINV      .         Micro Gradient Resistivity    : 
TLFamily_MNOR      .         Micro Resistivity             : 
TLFamily_NGLD      .         Neutron Far                   : 
TLFamily_OGZ       .         Gradient Inverted 225         : 
TLFamily_PHIE      .         Effective Porosity            : 
TLFamily_PHIEN     .         Effective Porosity            : 
TLFamily_PHIT      .         Porosity                      : 
TLFamily_PRMB      .         Permeability                  : 
TLFamily_PRMB_DGR  .         Permeability                  : 
TLFamily_RT        .         Formation Resistivity         : 
TLFamily_SOIL_ARCHIE .         Oil Saturation                : 
TLFamily_SOIL_DW   .         Oil Saturation                : 
TLFamily_SP        .         Spontaneous Potential         : 
TLFamily_VSH_FIN   .         Shale Volume                  : 
TLFamily_VSH_GR    .         Shale Volume                  : 
TLFamily_VSH_SP    .         Shale Volume                  : 
~Curve Information
#_______________________________________________________________________________
#
#LOGNAME           .UNIT     LOG_ID                        : DESCRIPTION
#_______________________________________________________________________________
DEPT               .M                                      : Колонка глубины 
CALI               .м                                      : Каверномер 
CILD               .мСм/м                                  : Индукционный каротаж 
COLL               .unitless                               :  
CSAT               .unitless                               :  
GR                 .мкР/ч                                  : Гамма каротаж 
GZ3                .Ом·м                                   :  
LLS                .Ом·м                                   : Боковой каротаж 
MINV               .Ом·м                                   : Микро-градиент зонд 
MNOR               .Ом·м                                   : Микро-потенциал зонд 
NGLD               .у.е.                                   : Показания зонда НГК-60 аппаратуры ДРСТ-3-90 
OGZ                .Ом·м                                   :  
PHIE               .м3/м3                                  : Описание 
PHIEN              .v/v                                    :  
PHIT               .м3/м3                                  : Описание 
PRMB               .mD                                     :  
PRMB_DGR           .mD                                     :  
RT                 .ohmm                                   : Description 
SOIL_ARCHIE        .v/v                                    :  
SOIL_DW            .v/v                                    :  
SP                 .мВ                                     : Потенциал самополяризации 
VSH_FIN            .unitless                               : Описание 
VSH_GR             .unitless                               : Shale volume 
VSH_SP             .unitless                               : Shale Volume 
~Ascii
# ...
1091       0.231      431.569    -9999      -9999      6.597387   2.338      2.178      0.826      0.828      1.990629   2.311      0.1344858  0.1344858  0.3394749  0.867285   0.4355563  2.178      0.1092466  0.4660505  65.955     0.6211792  0.8        0.4423584 
1091.2     0.238      429.029    -9999      -9999      6.559386   2.262      2.293      0.737      0.904      2.002206   2.261      0.1338741  0.1338741  0.3385176  0.8449488000000001 0.4612355  2.293      0.127037   0.4778125  65.871     0.6201319  0.8        0.4402637 
1091.4     0.246      423.949    -9999      -9999      6.419768   2.338      2.243      0.952      1.17       2.020204   2.286      0.1327338  0.1327338  0.3370291  0.8048412  0.5692777999999999 2.243      0.111363   0.4688958  65.786     0.6190768  0.8        0.4381536 
1091.6     0.243      417.599    -9999      -9999      6.216084   2.338      2.178      1.486      0.739      2.039159   2.286      0.1442999  0.1442999  0.3354616  1.318083   0.7738697  2.178      0.1622481  0.47572    65.786     0.5792778  0.7204018  0.4381536 
1091.8     0.237      408.074    -9999      -9999      6.029109   2.389      2.93       2.019      0.955      2.056947   2.337      0.155751   0.155751   0.3339905  2.148052   1.025823   2.93       0.3179994  0.5595058  65.786     0.5401196  0.6420856  0.4381536 
1092       0.237      398.549    -9999      -9999      5.911615   2.439      2.713      1.041      1.475      2.077086   2.337      0.1613051  0.1613051  0.332325   2.722195   1.22459    2.713      0.3141753  0.5468783  65.828     0.5182421  0.597289   0.4391951 
1092.2     0.238      393.469    -9999      -9999      5.851722   2.439      2.653      1.676      1.158      2.104939   2.337      0.1623924  0.1623924  0.3300215  2.851403   1.340295   2.653      0.3109832  0.5409906  65.871     0.5079671  0.5756705  0.4402637 
1092.4     0.238      389.659    -9999      -9999      5.809824   2.439      2.522      1.359      1.094      2.140483   2.388      0.1618712  0.1618712  0.3270821  2.788719   1.427673   2.522      0.2924358  0.5260317  65.871     0.5006391  0.5610145  0.4402637 
1092.6     0.232      385.849    -9999      -9999      5.764534   2.439      2.378      1.257      1.12       2.176055   2.388      0.1619939  0.1619939  0.3241403  2.803356   1.528547   2.378      0.2731229  0.5093102  65.744     0.4913526  0.5455907  0.4371145 
1092.8     0.224      378.229    -9999      -9999      5.719344   2.49       2.772      2.223      0.853      2.204806   2.616      0.1626018  0.1626018  0.3217625  2.876992   1.636299   2.772      0.3257827  0.5441126  65.617     0.4823051  0.530624   0.4339863 
1093       0.224      370.609    -9999      -9999      5.684546   2.643      3.378      2.324      1.018      2.231502   2.845      0.1631032  0.1631032  0.3195548  2.939171   1.72442    3.378      0.3871679  0.5857664  65.405     0.4740957  0.5193796000000001 0.4288118 
1093.2     0.229      362.989    -9999      -9999      5.65668    2.744      2.752      1.283      1.094      2.270662   2.972      0.1623323  0.1623323  0.3163163  2.844108   1.7984     2.752      0.3225095  0.5373418  65.151     0.4666181  0.5105469  0.4226893 
1093.4     0.236      354.099    -9999      -9999      5.607197   2.617      2.327      0.8        1.463      2.330505   2.896      0.1610702  0.1610702  0.3113672  2.695066   1.937672   2.327      0.262024   0.4904387  64.855     0.4554455  0.4952312  0.4156598 
1093.6     0.232      343.939    -9999      -9999      5.504672   2.617      2.558      1.804      0.922      2.402011   2.896      0.1609733  0.1609733  0.3054537  2.683949   2.261516   2.558      0.293713   0.5081407  64.643     0.4378192  0.4649444  0.410694  
1093.8     0.222      326.159    -9999      -9999      5.350369   2.363      3.94       2.273      1.704      2.463637   2.87       0.1631536  0.1631536  0.3003572  2.945501   2.853743   3.94       0.4300187  0.6016926  64.558     0.4157684  0.4228176  0.4087193 
1094       0.222      307.109    -9999      -9999      5.180712   2.439      4.591      1.689      2.047      2.491974   3.048      0.1678885  0.1678885  0.2980137  3.604629   3.685378   4.591      0.4825417  0.6333991  64.516     0.3943189  0.3808909  0.4077469 
1094.2     0.217      296.949    -9999      -9999      5.041025   2.541      4.46       1.46       1.64       2.473238   3.327      0.1744554  0.1744554  0.2995632  4.769748   4.54914    4.46       0.4927032  0.6348084  64.558     0.3791147  0.34951    0.4087193 
1094.4     0.218      290.599    -9999      -9999      4.967746   2.414      5.315      2.553      1.653      2.413221   3.454      0.1816363  0.1816363  0.3045266  6.478935   5.080451   5.315      0.5489118  0.6740397  64.643     0.3723948  0.3340956  0.410694  
1094.6     0.221      289.329    -9999      -9999      4.977795   2.414      4.493      3.137      1.285      2.333795   3.454      0.1873732  0.1873732  0.3110952  8.274921000000001 5.004069   4.493      0.5249491  0.6543101  64.77      0.3749152  0.3361686  0.4136618 
1094.8     0.222      294.409    -9999      -9999      5.053071   2.262      3.634      2.591      1.958      2.256489   3.327      0.1908062  0.1908062  0.3174884  9.579708   4.467286   3.634      0.4834458  0.6230292  64.855     0.3838854  0.352111   0.4156598 
1095       0.222      299.489    -9999      -9999      5.148957   2.262      3.116      2.083      1.729      2.194654   3.277      0.1923877  0.1923877  0.3226021  10.24815   3.866082   3.116      0.4487678  0.5981144  64.855     0.394589   0.3735182  0.4156598 
1095.2     0.231      298.219    -9999      -9999      5.233682   2.49       2.982      2.134      1.793      2.157294   3.454      0.1923451  0.1923451  0.3256918  10.22952   3.402555   2.982      0.4371708  0.591495   64.812     0.404081   0.3935142  0.4146478 
1095.4     0.238      296.949    -9999      -9999      5.31343    2.795      3.163      2.464      1.704      2.147579   3.759      0.1902068  0.1902068  0.3264952  9.337892   3.017151   3.163      0.4471644  0.6021774  64.728     0.4129953  0.4133126  0.412678  
1095.6     0.239      296.949    -9999      -9999      5.411191   2.795      3.209      1.905      1.907      2.159394   3.759      0.1851659  0.1851659  0.3255182  7.53146    2.60374    3.209      0.4379005  0.6000886  64.685     0.42531    0.4389467  0.4116732 
1095.8     0.241      298.219    -9999      -9999      5.535554   3.176000000000001 3.329      2.591      1.869      2.18459    4.089      0.1774818  0.1774818  0.3234344  5.4269     2.158648   3.329      0.4267251  0.599195   64.643     0.4422806  0.4738671  0.410694  
1096       0.241      299.489    -9999      -9999      5.673402   3.455000000000001 3.853      2.362      1.755      2.219757   3.988      0.1676498  0.1676498  0.3205261  3.568116   1.753634   3.853      0.4374923  0.6169601  64.643     0.4632615  0.515829   0.410694  
1096.2     0.241      302.029    -9999      -9999      5.797628   3.481      3.742      2.616      2.059      2.260955   3.505      0.1573179  0.1573179  0.317119   2.2965     1.454163   3.742      0.397238   0.5990369  64.685     0.4842459  0.5568185  0.4116732 
1096.4     0.229      302.029    -9999      -9999      5.87946    3.354      3.504      1.968      2.199      2.300665   3.124      0.1489595  0.1489595  0.313835   1.607863   1.285408   3.504      0.3480884  0.574187   64.77      0.4996228  0.5855837  0.4136618 
1096.6     0.232      303.299    -9999      -9999      5.904343   3.354      3.581      2.565      1.907      2.336967   3.124      0.1436411  0.1436411  0.3108329  1.281561   1.238087   3.581      0.3339441  0.5703956  64.982     0.5066418  0.5946216  0.418662  
1096.8     0.232      303.299    -9999      -9999      5.878005   3.176000000000001 3.139      2.451      2.136      2.379264   3.099      0.1410563  0.1410563  0.3073349  1.147792   1.288231   3.139      0.2801748  0.5347246  65.151     0.5038743999999999 0.5850595  0.4226893 
1097       0.236      302.029    -9999      -9999      5.81818    3.201000000000001 3.116      2.527      1.59       2.443645   3.302000000000001 0.1382119  0.1382119  0.3020105  1.016666   1.409805   3.116      0.2647566  0.5242595  65.405     0.4963595  0.5639071  0.4288118 
