~Version
 VERS              .         2.0                           : CWLS LOG ASCII STANDARD - VERSION 2.0
 WRAP              .         NO                            : ONE LINE PER DEPTH STEP
 DLM               .         SPACE                         : DELIMITING CHARACTER(SPACE TAB OR COMMA)
~Well Information
#_______________________________________________________________________________
#
#PARAMETER_NAME    .UNIT     VALUE                         : DESCRIPTION
#_______________________________________________________________________________
STRT               .M        917                           : First reference value
STOP               .M        1233.6                        : Last reference value
STEP               .M        0.2                           : Step increment
NULL               .         -9999                         : Missing value
COMP               .                                       : Company
WELL               .         7276                          : Well name
FLD                .         Узень                         : Field
LOC                .                                       : Location
CNTY               .                                       : County
STAT               .                                       : State
CTRY               .                                       : Country
SRVC               .                                       : Service Company
DATE               .                                       : Date
UWI                .                                       : Unique Well ID
API                .                                       : 
Block              .         6а                            : 
Category           .         Нагнетательная                : 
Condition          .         В работе                      : 
Date               .         16.12.1985                    : 
EREF               .m        84.2                          : 100.8
Gorizont           .         15                            : 14
Interpretator      .         Алпанова Н.К.                 : 
Kupol              .         основной                      : osnovnoi
Moii_15_vosst_164  .         15_vosst_164                  : 
Mud                .                                       : 
Mud_density        .                                       : 
Mud_resistivity    .                                       : 
Mud_density        .                                       : 
Mud_resistivity    .                                       : 
NGDU               .         НГДУ-2                        : 
ORIGINALWELLNAME   .         7276                          : 
Spud_date          .         1985                          : 1961
Spud_date          .         1985                          : 1961
Viscosity          .                                       : 
X                  .m        44386.6                       : 46154
Y                  .m        85430.93                      : 85761.93
YEAR               .         2018                          : 
~Parameter Information Block
#_______________________________________________________________________________
#
#PARAMETER_NAME    .UNIT     VALUE                         : DESCRIPTION
#_______________________________________________________________________________
SET                .         LQC_KAZNIPI_Petrel            : 
TLFamily_CALI      .         Caliper                       : 
TLFamily_CILD      .         Conductivity                  : 
TLFamily_COLL      .         Net Reservoir Flag            : 
TLFamily_CSAT      .         Fluid Code                    : 
TLFamily_DEPT      .         Measured Depth                : 
TLFamily_GR        .         Russian Gamma Ray             : 
TLFamily_GZ3       .         Gradient 225                  : 
TLFamily_LLS       .         Lateral Log Resistivity       : 
TLFamily_MINV      .         Micro Gradient Resistivity    : 
TLFamily_MNOR      .         Micro Resistivity             : 
TLFamily_NGLD      .         Neutron Far                   : 
TLFamily_OGZ       .         Gradient Inverted 225         : 
TLFamily_PHIE      .         Effective Porosity            : 
TLFamily_PHIEN     .         Effective Porosity            : 
TLFamily_PHIT      .         Porosity                      : 
TLFamily_PRMB      .         Permeability                  : 
TLFamily_PRMB_DGR  .         Permeability                  : 
TLFamily_RT        .         Formation Resistivity         : 
TLFamily_SOIL_ARCHIE .         Oil Saturation                : 
TLFamily_SOIL_DW   .         Oil Saturation                : 
TLFamily_SP        .         Spontaneous Potential         : 
TLFamily_VSH_FIN   .         Shale Volume                  : 
TLFamily_VSH_GR    .         Shale Volume                  : 
TLFamily_VSH_SP    .         Shale Volume                  : 
~Curve Information
#_______________________________________________________________________________
#
#LOGNAME           .UNIT     LOG_ID                        : DESCRIPTION
#_______________________________________________________________________________
DEPT               .M                                      : Колонка глубины 
CALI               .м                                      : Каверномер 
CILD               .мСм/м                                  : Индукционный каротаж 
COLL               .unitless                               :  
CSAT               .unitless                               :  
GR                 .мкР/ч                                  : Гамма каротаж 
GZ3                .Ом·м                                   :  
LLS                .Ом·м                                   : Боковой каротаж 
MINV               .Ом·м                                   : Микро-градиент зонд 
MNOR               .Ом·м                                   : Микро-потенциал зонд 
NGLD               .у.е.                                   : Показания зонда НГК-60 аппаратуры ДРСТ-3-90 
OGZ                .Ом·м                                   :  
PHIE               .м3/м3                                  : Описание 
PHIEN              .v/v                                    :  
PHIT               .м3/м3                                  : Описание 
PRMB               .mD                                     :  
PRMB_DGR           .mD                                     :  
RT                 .ohmm                                   : Description 
SOIL_ARCHIE        .v/v                                    :  
SOIL_DW            .v/v                                    :  
SP                 .мВ                                     : Потенциал самополяризации 
VSH_FIN            .unitless                               : Описание 
VSH_GR             .unitless                               : Shale volume 
VSH_SP             .unitless                               : Shale Volume 
~Ascii
917.0      0.247      229.639    -9999      -9999      -9999      4.116000175476074 3.555      1.029      1.704      -9999      8.127999999999998 -9999      -9999      -9999      -9999      -9999      3.555      -9999      -9999      64.728     -9999      0.06029356 0.800000011920929
917.2000000000001 0.233      223.289    -9999      -9999      -9999      4.140999794006348 3.555      1.029      1.704      -9999      9.651999999999999 -9999      -9999      -9999      -9999      -9999      3.555      -9999      -9999      64.601     -9999      0.05981186 0.800000011920929
917.4      0.234      215.669    -9999      -9999      -9999      4.597999999999999 3.555      1.029      1.704      -9999      11.303     -9999      -9999      -9999      -9999      -9999      3.555      -9999      -9999      64.474     -9999      0.05353006 0.800000011920929
917.6      0.238      206.779    -9999      -9999      -9999      4.597999999999999 3.555      1.029      1.704      -9999      11.303     -9999      -9999      -9999      -9999      -9999      3.555      -9999      -9999      64.262     -9999      0.04596313 0.800000011920929
917.8      0.237      197.889    -9999      -9999      -9999      5.081      3.555      1.029      1.704      -9999      11.938     -9999      -9999      -9999      -9999      -9999      3.555      -9999      -9999      63.796     -4999.4091796875 -9999      0.1822474 
918        0.227      187.729    -9999      -9999      5.304326   4.802      3.555      1.029      1.704      3.116396   9.779      0.1873545  0.1873545  0.2463741  8.26832389831543 23.04154014587402 3.555      0.4697258  0.5539083  63.373     0.1788472  0.1802002  0.1774942 
918.2000000000001 0.216      182.649    -9999      -9999      5.134157   4.573      3.555      1.029      1.704      3.278334   8.000999999999998 0.1776665  0.1776665  0.2329818  5.469819068908691 30.18998908996582 3.555      0.4446288  0.5288164  63.034     0.167622   0.1613752  0.1738687 
918.4      0.216      178.839    -9999      -9999      4.974548   4.268      3.555      1.029      1.704      3.528676   7.873999999999999 0.1605632  0.1605632  0.2122785  2.637411117553711 38.89841079711914 3.555      0.3934451  0.4810984  62.442     0.1567131  0.1455097  0.1679165 
918.6      0.215      167.409    -9999      -9999      4.838386   4.268      3.555      1.029      1.704      3.877771   7.873999999999999 0.134753   0.134753   0.1834083  0.8772231  48.28720855712891 3.555      0.2934283  0.3921133  61.764     0.1474405  0.1332138  0.1616672 
918.8      0.215      153.439    6          6          4.725679   4.294      3.555      1.029      1.704      4.29368    8.763      0.1025584  0.1025584  0.1490127  0.2222224  57.75056076049805 3.555      0.1037634  0.2313534  61.299     0.1407706  0.123826   0.1577151 
919        0.215      140.739    6          6          4.619411   4.852      3.555      1.029      1.704      4.704253   8.636000000000001 0.07057492999999999 0.07057492999999999 0.1150583  0.05680375 68.36609649658203 3.555      0          0          60.833     0.134798   0.1155813  0.1540146 
919.2000000000001 0.214      129.309    6          6          4.498066   7.318      3.555      1.029      1.704      5.007579   7.239      0.04750221 0.04750221 0.08997319 0.02123314 82.89385986328125 3.555      0          0          60.367     0.1286999  0.106836   0.1505639 
919.4      0.214      124.229    6          6          4.348256   9.784000000000001 3.555      1.029      1.704      5.11098    6.223      0.04138458 0.04138458 0.08142199 0.0163569  105.1559982299805 3.555      0          0          59.648     0.1213255  0.09694644 0.1457045 
919.6      0.214      130.579    6          6          4.166499   9.784000000000001 3.555      1.029      1.704      4.989908   6.223      0.05385146 0.05385146 0.09143459 0.02783669 140.3383941650391 3.555      0          0          58.97      0.1138883  0.08616886 0.1416077 
919.8      0.213      136.929    6          6          3.957902   12.451     3.555      1.029      1.704      4.705671   5.207      0.07957809 0.07957809 0.114941   0.08339448000000001 195.4470062255859 3.555      0          0.005923633 58.505     0.1071604  0.07526805 0.1390528 
920        0.212      155.979    6          6          3.732741   14.864     3.555      1.029      1.704      4.353966   4.064      0.1105324  0.1105324  0.144027   0.312239   279.4495849609375 3.555      0.1603458  0.239824   58.293     0.1014986  0.06504394 0.1379533 
920.2000000000001 0.213      173.759    6          6          3.499272   15.88      3.555      1.029      1.704      4.001482   3.81       0.1412248  0.1412248  0.1731774  1.156072   404.8630065917969 3.555      0.3217145  0.3837073  58.252     0.09682593 0.05590663 0.1377452 
920.4      0.213      195.349    6          6          3.261276   14.229     3.555      1.029      1.704      3.671429   3.174999999999999 0.1698759  0.1698759  0.2004728  3.923487   590.791015625 3.555      0.4225105  0.4761936  58.208     0.09271786 0.04791211 0.1375236 
920.6      0.213      224.559    1          3          3.024463   14.229     3.555      1.029      1.704      3.372593   3.174999999999999 0.1957839  0.1957839  0.2251865  11.84545   860.4865112304688 3.555      0.4896666  0.5387495  58.124     0.08909873 0.04109229 0.1371052 
920.8      0.213      260.119    1          3          2.808447   11.308     3.555      1.029      1.704      3.120531   2.286      0.2175845  0.2175845  0.2460321  30.01589   1212.586059570313 3.555      0.5344996  0.5808895  58.039     0.0862048  0.03572165 0.1366879 
921        0.211      289.329    1          3          2.644122   7.879      3.555      1.029      1.704      2.932383   2.159      0.23374    0.23374    0.2615919  59.78473   1574.10595703125 3.555      0.5626501  0.6075508  58.039     0.08439965000000001 0.03211135 0.1366879 
921.2000000000001 0.208      312.189    1          3          2.554872   6.609000000000001 3.555      1.029      1.704      2.813594   2.286      0.2438279  0.2438279  0.2714157  91.92676   1813.77099609375 3.555      0.5784523  0.6226267  58.081     0.08359958000000001 0.03030584 0.1368933 
921.4      0.208      343.939    1          3          2.540235   5.466      3.555      1.029      1.704      2.756341   2.54       0.2485407  0.2485407  0.2761506  112.3916   1856.420043945313 3.555      0.5854226  0.6293909  58.166     0.08366661 0.03001958 0.1373136 
921.6      0.208      369.339    1          3          2.576876   5.466      3.555      1.029      1.704      2.745866   2.54       0.2492174  0.2492174  0.2770169  115.6829   1751.489990234375 3.555      0.5864034  0.6304845  58.251     0.08424076 0.03074133 0.1377402 
921.8      0.211      375.689    1          3          2.630902   4.450000000000001 3.555      1.029      1.704      2.764501   2.286      0.2474249  0.2474249  0.2754757  107.1685   1607.5     3.555      0.5837948  0.6281561  58.335     0.0850026  0.03183727 0.1381679 
922        0.213      378.229    1          3          2.672283   3.942      3.555      1.029      1.704      2.797538   2.286      0.2445321  0.2445321  0.2727436  94.72948   1505.266967773438 3.555      0.5795098  0.6241428  58.356     0.08548946 0.03270308 0.1382758 
922.2000000000001 0.214      375.689    1          3          2.687282   4.196      3.555      1.029      1.704      2.839837   2.286      0.2409625  0.2409625  0.2692455  81.35201000000001 1469.840942382813 3.555      0.5740898  0.6189666  58.378     0.08570598 0.03302266 0.1383893 
922.4      0.214      370.609    1          3          2.682045   4.450000000000001 3.555      1.029      1.704      2.892653   2.159      0.2365771  0.2365771  0.2648776  67.47456   1482.114990234375 3.555      0.5672217000000001 0.6123497  58.42      0.08575892 0.03291072 0.1386071 
922.6      0.214      359.179    1          3          2.669389   4.450000000000001 3.555      1.029      1.704      2.953      2.159      0.2316308  0.2316308  0.2598869  54.64152   1512.201049804688 3.555      0.5591837  0.604549   58.42      0.08562443 0.03264176 0.1386071 
