~Version
 VERS              .         2.0                           : CWLS LOG ASCII STANDARD - VERSION 2.0
 WRAP              .         NO                            : ONE LINE PER DEPTH STEP
 DLM               .         SPACE                         : DELIMITING CHARACTER(SPACE TAB OR COMMA)
~Well Information
#_______________________________________________________________________________
#
#PARAMETER_NAME    .UNIT     VALUE                         : DESCRIPTION
#_______________________________________________________________________________
STRT               .M        917                           : First reference value
STOP               .M        1233.6                        : Last reference value
STEP               .M        0.2                           : Step increment
NULL               .         -9999                         : Missing value
COMP               .                                       : Company
WELL               .         7276                          : Well name
FLD                .         Узень                         : Field
LOC                .                                       : Location
CNTY               .                                       : County
STAT               .                                       : State
CTRY               .                                       : Country
SRVC               .                                       : Service Company
DATE               .                                       : Date
UWI                .                                       : Unique Well ID
API                .                                       : 
Block              .         6а                            : 
Category           .         Нагнетательная                : 
Condition          .         В работе                      : 
Date               .         16.12.1985                    : 
EREF               .m        84.2                          : 100.8
Gorizont           .         15                            : 14
Interpretator      .         Алпанова Н.К.                 : 
Kupol              .         основной                      : osnovnoi
Moii_15_vosst_164  .         15_vosst_164                  : 
Mud                .                                       : 
Mud_density        .                                       : 
Mud_resistivity    .                                       : 
Mud_density        .                                       : 
Mud_resistivity    .                                       : 
NGDU               .         НГДУ-2                        : 
ORIGINALWELLNAME   .         7276                          : 
Spud_date          .         1985                          : 1961
Spud_date          .         1985                          : 1961
Viscosity          .                                       : 
X                  .m        44386.6                       : 46154
Y                  .m        85430.93                      : 85761.93
YEAR               .         2018                          : 
~Parameter Information Block
#_______________________________________________________________________________
#
#PARAMETER_NAME    .UNIT     VALUE                         : DESCRIPTION
#_______________________________________________________________________________
SET                .         LQC_KAZNIPI_Petrel            : 
TLFamily_CALI      .         Caliper                       : 
TLFamily_CILD      .         Conductivity                  : 
TLFamily_COLL      .         Net Reservoir Flag            : 
TLFamily_CSAT      .         Fluid Code                    : 
TLFamily_DEPT      .         Measured Depth                : 
TLFamily_GR        .         Russian Gamma Ray             : 
TLFamily_GZ3       .         Gradient 225                  : 
TLFamily_LLS       .         Lateral Log Resistivity       : 
TLFamily_MINV      .         Micro Gradient Resistivity    : 
TLFamily_MNOR      .         Micro Resistivity             : 
TLFamily_NGLD      .         Neutron Far                   : 
TLFamily_OGZ       .         Gradient Inverted 225         : 
TLFamily_PHIE      .         Effective Porosity            : 
TLFamily_PHIEN     .         Effective Porosity            : 
TLFamily_PHIT      .         Porosity                      : 
TLFamily_PRMB      .         Permeability                  : 
TLFamily_PRMB_DGR  .         Permeability                  : 
TLFamily_RT        .         Formation Resistivity         : 
TLFamily_SOIL_ARCHIE .         Oil Saturation                : 
TLFamily_SOIL_DW   .         Oil Saturation                : 
TLFamily_SP        .         Spontaneous Potential         : 
TLFamily_VSH_FIN   .         Shale Volume                  : 
TLFamily_VSH_GR    .         Shale Volume                  : 
TLFamily_VSH_SP    .         Shale Volume                  : 
~Curve Information
#_______________________________________________________________________________
#
#LOGNAME           .UNIT     LOG_ID                        : DESCRIPTION
#_______________________________________________________________________________
DEPT               .M                                      : Колонка глубины 
CALI               .м                                      : Каверномер 
CILD               .мСм/м                                  : Индукционный каротаж 
COLL               .unitless                               :  
CSAT               .unitless                               :  
GR                 .мкР/ч                                  : Гамма каротаж 
GZ3                .Ом·м                                   :  
LLS                .Ом·м                                   : Боковой каротаж 
MINV               .Ом·м                                   : Микро-градиент зонд 
MNOR               .Ом·м                                   : Микро-потенциал зонд 
NGLD               .у.е.                                   : Показания зонда НГК-60 аппаратуры ДРСТ-3-90 
OGZ                .Ом·м                                   :  
PHIE               .м3/м3                                  : Описание 
PHIEN              .v/v                                    :  
PHIT               .м3/м3                                  : Описание 
PRMB               .mD                                     :  
PRMB_DGR           .mD                                     :  
RT                 .ohmm                                   : Description 
SOIL_ARCHIE        .v/v                                    :  
SOIL_DW            .v/v                                    :  
SP                 .мВ                                     : Потенциал самополяризации 
VSH_FIN            .unitless                               : Описание 
VSH_GR             .unitless                               : Shale volume 
VSH_SP             .unitless                               : Shale Volume 
~Ascii
# ...
1030       0.217      282.979    -9999      -9999      3.885504   3.151      4.331      2.159      0.802      3.109172   3.607      0.1433113  0.1433113  0.2469715  1.26366    8.703173   4.331      0.3895831  0.5498509  64.728     0.3141218  0.2681714  0.3600722 
1030.2     0.215      276.629    -9999      -9999      3.631474   3.328      3.997      1.956      1.361      3.200825   3.353      0.1467512  0.1467512  0.2393918  1.463346   13.70936   3.997      0.3791164  0.5270637  63.585     0.2807288  0.2227574  0.3387003 
1030.4     0.214      270.279    -9999      -9999      3.444098   3.379      3.939      2.019      1.577      3.239345   3.353      0.1505606  0.1505606  0.2362062  1.721494   19.16802   3.939      0.3886416  0.5247034  62.78      0.2595322  0.1942653  0.3247991 
1030.6     0.214      269.009    -9999      -9999      3.32966    3.379      4.055      2.934      1.285      3.238182   3.353      0.1556605  0.1556605  0.2363023  2.139779   23.52213   4.055      0.4141578  0.5379524  61.891     0.2443691  0.1786876  0.3100506 
1030.8     0.214      267.739    -9999      -9999      3.262558   3.76       4.176      3.315      2.936      3.221215   3.531      0.1607843  0.1607843  0.2377055  2.662399   26.5219    4.176      0.4382562  0.5522447  61.002     0.2330946  0.170141   0.2960482 
1031       0.214      269.009    -9999      -9999      3.216494   4.268      4.868      2.413      2.466      3.198627   3.785      0.1666348  0.1666348  0.2395736  3.416951   28.79975   4.868      0.4932766  0.5932055  59.775     0.2210266  0.1645118  0.2775413 
1031.2     0.214      276.629    -9999      -9999      3.190263   4.649000000000001 5.594      3.454      2.364      3.162696   4.039000000000001 0.171948   0.171948   0.242545   4.286      30.18324   5.594      0.5380783  0.6280993  58.97      0.2139304  0.1613899  0.2664708 
1031.4     0.214      288.059    -9999      -9999      3.202295   5.081      5.237      3.34       2.148      3.101833   3.937      0.1775011  0.1775011  0.2475784  5.431358   29.54054   5.237      0.5365685  0.6251907  58.589     0.2123555  0.1628146  0.2618965 
1031.6     0.214      305.839    -9999      -9999      3.26835    5.081      4.205      2.578      2.453      3.010509   3.937      0.1821488  0.1821488  0.2551309  6.622096   26.2485    4.205      0.4977298  0.5933954  59.182     0.2211579  0.1708624  0.2714534 
1031.8     0.214      324.889    -9999      -9999      3.391423   4.294      3.378      3.823      2.326      2.888531   3.937      0.1862715  0.1862715  0.2652185  7.895121   21.0619    3.378      0.4541146  0.5606394  60.41      0.2392333  0.186933   0.2915335 
1032       0.213      340.129    -9999      -9999      3.568296   3.532      2.835      3.442      2.517      2.742758   3.708      0.1885911  0.1885911  0.2772739  8.716108   15.34957   2.835      0.4136805  0.5351751  62.272     0.2687358  0.2127118  0.3247598 
1032.2     0.215      350.289    -9999      -9999      3.786265   3.1        2.275      2.921      3.063      2.594336   2.896      0.1893498  0.1893498  0.2895484  9.002745000000001 10.39369   2.275      0.3521655  0.4950756  63.923     0.3036323  0.249421   0.3578437 
1032.4     0.234      350.289    -9999      -9999      4.010824   2.998      2.243      3.264      2.466      2.482091   3.048      0.1874138  0.1874138  0.298831   8.289269000000001 6.955441   2.243      0.3419813  0.4988661  64.982     0.3376281  0.2938765  0.3813796 
1032.6     0.234      347.32     -9999      -9999      4.19203    2.998      2.067      0.521      2.047      2.461134   3.048      0.1799003  0.1799003  0.3005642  6.016562   5.029874   2.067      0.2914535  0.4711555  65.574     0.3656482  0.3354633  0.395833  
1032.8     0.275      343.939    -9999      -9999      4.289048   3.455000000000001 1.868      0.419      1.094      2.586271   3.404      0.164778   0.164778   0.2902154  3.156792   4.228538   1.868      0.1979329  0.4116523  65.701     0.3801134  0.3600972  0.4001295 
1033       0.262      326.159    -9999      -9999      4.286573   4.471      2.327      0.483      0.523      2.874835   4.216      0.1420462  0.1420462  0.2663511  1.197289   4.247294   2.327      0.1766516  0.4113305  65.362     0.3766815  0.3594471  0.393916  
1033.2     0.24       305.839    -9999      -9999      4.193419   4.776      3.688      0.394      0.497      3.272539   5.207      0.1149794  0.1149794  0.233461   0.3774466  5.017396   3.688      0.2025647  0.4498562  64.77      0.3590353  0.3358037  0.3822668 
1033.4     0.235      280.439    -9999      -9999      4.027259   4.700000000000001 7.716      2.032      0.51       3.664637   4.902      0.08911318 0.08911318 0.2010345  0.1252421  6.753932   7.716      0.2958837  0.5403619  64.643     0.3391555  0.2974257  0.3808853 
1033.6     0.235      263.929    -9999      -9999      3.806027   4.700000000000001 7.716      3.848      0.866      3.929516   4.902      0.07415352 0.07415352 0.179129   0.06617000000000001 10.0327    7.716      0.1736666  0.4709305  64.685     0.3181076  0.2530474  0.3831678 
1033.8     0.22       252.499    -9999      -9999      3.567939   4.471      6.966      3.835      3.482      3.994749   3.988      0.07473674 0.07473674 0.1737343  0.06783655 15.35936   6.966      0.138944   0.4339585  64.812     0.2999925  0.2126564  0.3873287 
1034       0.21       244.879    -9999      -9999      3.392637   4.014      6.196      2.984      3.799      3.863764   3.607      0.08877981 0.08877981 0.1845668  0.123474   21.0162    6.196      0.2169781  0.4582614  65.024     0.2902635  0.1870988  0.3934281 
1034.2     0.211      244.879    -9999      -9999      3.360332   3.963      5.393      3.734      3.215      3.602326   3.327      0.1102593  0.1102593  0.2061876  0.3086226  22.2664    5.393      0.3080033  0.5010154  65.193     0.2906919  0.1827358  0.398648  
1034.4     0.211      246.149    -9999      -9999      3.47655    4.243      3.939      3.531      3.037      3.300286   3.327      0.1320112  0.1320112  0.2311663  0.7804159000000001 18.08705   3.939      0.3144681  0.4925027  65.278     0.30047    0.1989248  0.4020152 
1034.6     0.211      248.689    -9999      -9999      3.66356    4.243      4.728      1.575      3.456      3.032328   3.327      0.149129   0.149129   0.2533264  1.619531   12.94469   4.728      0.4341504  0.5823682  65.278     0.3157498  0.2280395  0.4034601 
1034.8     0.212      253.769    -9999      -9999      3.831419   3.989      7.069      1.372      3.279      2.828234   3.632      0.1605376  0.1605376  0.2702051  2.634538   9.587221   7.069      0.5606136000000001 0.6809599  65.363     0.3323255  0.2577842  0.4068668 
1035       0.215      259.71     -9999      -9999      3.940065   3.582      5.907      3.861      0.561      2.669069   3.302000000000001 0.1691356  0.1691356  0.283368   3.801541   7.893912   5.907      0.5432162  0.6678114  65.574     0.3461587  0.2790743  0.4132431 
1035.2     0.211      265.199    -9999      -9999      4.003078   3.684      4.832      3.848      1.945      2.517745   2.718      0.1784094  0.1784094  0.2958825  5.645893   7.052474   4.832      0.5208646  0.6496745  65.786     0.3559792  0.2922187  0.4197396 
1035.4     0.229      295.679    -9999      -9999      4.055074   4.344      3.049      0.572      3.012      2.363778   2.997      0.187512   0.187512   0.3086155  8.324047999999999 6.426126   3.049      0.4305256  0.5784673  66.167     0.3669806  0.3035299  0.4304312 
1035.6     0.229      329.969    -9999      -9999      4.114954   4.344      2.275      0.381      1.856      2.23698    2.997      0.1937795  0.1937795  0.3191018  10.87488   5.773406   2.275      0.3650829  0.5279359  66.59      0.3797645  0.3170998  0.4424291 
1035.8     0.248      329.969    -9999      -9999      4.17174    4.141      1.868      0.546      0.688      2.179972   3.378      0.1938865  0.1938865  0.3238163  10.92464   5.215778   1.868      0.3038878  0.4837183  67.098     0.3937266  0.3305285  0.4569247 
