~Version
 VERS              .         2.0                           : CWLS LOG ASCII STANDARD - VERSION 2.0
 WRAP              .         NO                            : ONE LINE PER DEPTH STEP
 DLM               .         SPACE                         : DELIMITING CHARACTER(SPACE TAB OR COMMA)
~Well Information
#_______________________________________________________________________________
#
#PARAMETER_NAME    .UNIT     VALUE                         : DESCRIPTION
#_______________________________________________________________________________
STRT               .M        917                           : First reference value
STOP               .M        1233.6                        : Last reference value
STEP               .M        0.2                           : Step increment
NULL               .         -9999                         : Missing value
COMP               .                                       : Company
WELL               .         7276                          : Well name
FLD                .         Узень                         : Field
LOC                .                                       : Location
CNTY               .                                       : County
STAT               .                                       : State
CTRY               .                                       : Country
SRVC               .                                       : Service Company
DATE               .                                       : Date
UWI                .                                       : Unique Well ID
API                .                                       : 
Block              .         6а                            : 
Category           .         Нагнетательная                : 
Condition          .         В работе                      : 
Date               .         16.12.1985                    : 
EREF               .m        84.2                          : 100.8
Gorizont           .         15                            : 14
Interpretator      .         Алпанова Н.К.                 : 
Kupol              .         основной                      : osnovnoi
Moii_15_vosst_164  .         15_vosst_164                  : 
Mud                .                                       : 
Mud_density        .                                       : 
Mud_resistivity    .                                       : 
Mud_density        .                                       : 
Mud_resistivity    .                                       : 
NGDU               .         НГДУ-2                        : 
ORIGINALWELLNAME   .         7276                          : 
Spud_date          .         1985                          : 1961
Spud_date          .         1985                          : 1961
Viscosity          .                                       : 
X                  .m        44386.6                       : 46154
Y                  .m        85430.93                      : 85761.93
YEAR               .         2018                          : 
~Parameter Information Block
#_______________________________________________________________________________
#
#PARAMETER_NAME    .UNIT     VALUE                         : DESCRIPTION
#_______________________________________________________________________________
SET                .         LQC_KAZNIPI_Petrel            : 
TLFamily_CALI      .         Caliper                       : 
TLFamily_CILD      .         Conductivity                  : 
TLFamily_COLL      .         Net Reservoir Flag            : 
TLFamily_CSAT      .         Fluid Code                    : 
TLFamily_DEPT      .         Measured Depth                : 
TLFamily_GR        .         Russian Gamma Ray             : 
TLFamily_GZ3       .         Gradient 225                  : 
TLFamily_LLS       .         Lateral Log Resistivity       : 
TLFamily_MINV      .         Micro Gradient Resistivity    : 
TLFamily_MNOR      .         Micro Resistivity             : 
TLFamily_NGLD      .         Neutron Far                   : 
TLFamily_OGZ       .         Gradient Inverted 225         : 
TLFamily_PHIE      .         Effective Porosity            : 
TLFamily_PHIEN     .         Effective Porosity            : 
TLFamily_PHIT      .         Porosity                      : 
TLFamily_PRMB      .         Permeability                  : 
TLFamily_PRMB_DGR  .         Permeability                  : 
TLFamily_RT        .         Formation Resistivity         : 
TLFamily_SOIL_ARCHIE .         Oil Saturation                : 
TLFamily_SOIL_DW   .         Oil Saturation                : 
TLFamily_SP        .         Spontaneous Potential         : 
TLFamily_VSH_FIN   .         Shale Volume                  : 
TLFamily_VSH_GR    .         Shale Volume                  : 
TLFamily_VSH_SP    .         Shale Volume                  : 
~Curve Information
#_______________________________________________________________________________
#
#LOGNAME           .UNIT     LOG_ID                        : DESCRIPTION
#_______________________________________________________________________________
DEPT               .M                                      : Колонка глубины 
CALI               .м                                      : Каверномер 
CILD               .мСм/м                                  : Индукционный каротаж 
COLL               .unitless                               :  
CSAT               .unitless                               :  
GR                 .мкР/ч                                  : Гамма каротаж 
GZ3                .Ом·м                                   :  
LLS                .Ом·м                                   : Боковой каротаж 
MINV               .Ом·м                                   : Микро-градиент зонд 
MNOR               .Ом·м                                   : Микро-потенциал зонд 
NGLD               .у.е.                                   : Показания зонда НГК-60 аппаратуры ДРСТ-3-90 
OGZ                .Ом·м                                   :  
PHIE               .м3/м3                                  : Описание 
PHIEN              .v/v                                    :  
PHIT               .м3/м3                                  : Описание 
PRMB               .mD                                     :  
PRMB_DGR           .mD                                     :  
RT                 .ohmm                                   : Description 
SOIL_ARCHIE        .v/v                                    :  
SOIL_DW            .v/v                                    :  
SP                 .мВ                                     : Потенциал самополяризации 
VSH_FIN            .unitless                               : Описание 
VSH_GR             .unitless                               : Shale volume 
VSH_SP             .unitless                               : Shale Volume 
~Ascii
# ...
1109.2     0.218      321.079    8          2          5.268237   2.82       5.802      2.223      1.577      2.983515   3.404      0.1410789  0.1410789  0.2573633  1.148898   20.32033   5.802      0.4605224  0.6183035  68.665     0.3523771  0.1896891  0.5150651000000001
1109.4     0.217      308.379    8          2          5.162001   2.947      10.49      3.924      1.767      2.953632   3.454      0.1458992  0.1458992  0.2598346  1.411123   24.18009   10.49      0.6031996  0.7214762  68.622     0.3452589  0.176686   0.5138318 
1109.6     0.221      290.599    8          2          5.188053   2.947      8.801      3.632      3.075      2.82785    3.454      0.1557893  0.1557893  0.2702368  2.151558   23.17057   8.801      0.5930495  0.7106564  68.622     0.3468108  0.1797897  0.5138318 
1109.8     0.219      279.169    8          2          5.331799   3.024      6.474      1.842      3.672      2.63983    3.48       0.1677444  0.1677444  0.2857861  3.58254    18.3123    6.474      0.5592874  0.6832674  68.749     0.357702   0.197922   0.517482  
1110       0.219      282.979    8          2          5.550407   3.024      6.107      1.384      2.885      2.437688   3.277      0.1787172  0.1787172  0.3025032  5.720491   12.80343   6.107      0.5713708  0.6927093  68.876     0.3751093  0.2290635  0.5211552 
1110.2     0.214      290.599    8          2          5.801538   2.744      5.275      1.664      1.272      2.260919   3.023      0.18602    0.18602    0.317122   7.810872   8.487667   5.275      0.5566154  0.6837056  68.961     0.3972788  0.2709311  0.5236265 
1110.4     0.215      304.569    -9999      -9999      6.046017   2.617      3.555      1.562      1.793      2.127898   2.819      0.1890846  0.1890846  0.3281228  8.901493   5.688264   3.555      0.4739541  0.6249952  68.961     0.421328   0.3190294  0.5236265 
1110.6     0.225      327.429    -9999      -9999      6.23334    2.617      2.713      1.765      1.539      2.03667    2.819      0.1894054  0.1894054  0.3356674  9.024127999999999 4.186057   2.713      0.403694   0.5768701  69.003     0.4432182  0.361585   0.5248514 
1110.8     0.237      341.399    -9999      -9999      6.313104   2.668      2.54       1.892      1.437      1.973845   2.997      0.1913337  0.1913337  0.340863   9.797670999999999 3.673653   2.54       0.3903703  0.5684738  69.003     0.4531192  0.3813869  0.5248514 
1111       0.237      355.369    -9999      -9999      6.273984   2.998      2.653      2.629      1.653      1.928652   3.682999999999999 0.1966953  0.1966953  0.3446005  12.31496   3.916601   2.653      0.4169018  0.5850946  69.003     0.4481974  0.3715433  0.5248514 
1111.2     0.227      368.069    -9999      -9999      6.155816   4.141      3.555      3.251      1.501      1.903469   4.166      0.2036361  0.2036361  0.3466831  16.55743   4.752471   3.555      0.5068488  0.6477571  68.961     0.4334757  0.343325   0.5236265 
1111.4     0.216      375.689    -9999      -9999      6.018669   4.471      4.025      2.997      1.958      1.908195   3.912      0.2084092  0.2084092  0.3462923  20.29564   5.948699   4.025      0.5440567  0.671785   68.919     0.4178273  0.3132505  0.5224041 
1111.6     0.22       382.039    -9999      -9999      5.905482   4.471      2.615      1.664      2.314      1.945201   3.912      0.209522   0.209522   0.3432319  21.28208   7.159632   2.615      0.4443685  0.5915019  68.834     0.4051814  0.2904249  0.5199379 
1111.8     0.248      383.309    -9999      -9999      5.826324   4.802      2.343      1.016      0.472      2.002532   3.505      0.2084562  0.2084562  0.3384906  20.33636   8.150171   2.343      0.4123762  0.5639417  68.58      0.3940435  0.2754574  0.5126297 
1112       0.248      379.499    -9999      -9999      5.771404   4.827      2.752      1.905      0.815      2.060148   3.174999999999999 0.2063246  0.2063246  0.3337258  18.56908   8.916855   2.752      0.4502099  0.5925421  68.368     0.3860641  0.2655284  0.5065999 
1112.2     0.25       361.719    -9999      -9999      5.728835   4.319      3.027      1.27       1.183      2.100181   2.692      0.2060047  0.2060047  0.3304151  18.31744   9.56039    3.027      0.4735305  0.6089258  67.987     0.3770011  0.2580793  0.4959229 
1112.4     0.245      358.554    -9999      -9999      5.682081   3.76       3.29       2.159      1.717      2.116305   2.54       0.2071508  0.2071508  0.3290816  19.23509   10.32082   3.29       0.4961573  0.6248161  67.73      0.3694871  0.2501386  0.4888356 
1112.6     0.24       355.369    -9999      -9999      5.603915   3.76       3.555      3.124      1.653      2.119264   2.54       0.2101348  0.2101348  0.3288369  21.84561   11.72967   3.555      0.5201588  0.6409916  67.479     0.3597033  0.2374046  0.482002  
1112.8     0.234      354.099    -9999      -9999      5.474597   3.303      4.299      2.585      2.223      2.132105   2.896      0.2154674  0.2154674  0.3277749  27.42437   14.49513   4.299      0.5705712  0.6762134  66.76      0.3403258  0.2177452  0.4629064 
1113       0.244      355.369    -9999      -9999      5.300805   3.608      3.796      2.057      2.783      2.174271   3.835      0.2186074  0.2186074  0.3242878  31.35426   19.26537   3.796      0.5504496  0.6552791  66.125     0.3202437  0.1938638  0.4466236 
1113.2     0.244      355.369    -9999      -9999      5.106616   4.37       2.982      0.724      1.374      2.247332   5.207      0.2178571  0.2178571  0.3182456  30.36687   26.47484   2.982      0.4950292  0.6061665  65.786     0.3042078  0.1702644  0.4381512 
1113.4     0.248      351.559    -9999      -9999      4.918894   4.750999999999999 2.466      0.559      1.12       2.334792   4.42       0.2146247  0.2146247  0.3110127  26.45623   35.99907   2.466      0.4407042  0.5583058  65.617     0.2920848  0.1501857  0.4339839 
1113.6     0.235      337.589    -9999      -9999      4.770175   4.750999999999999 2.396      2.388      0.599      2.413482   4.42       0.2106359  0.2106359  0.304505   22.31755   45.92202   2.396      0.4237564  0.5427718  65.574     0.2844518  0.1359739  0.4329296 
1113.8     0.23       317.269    -9999      -9999      4.698436   3.887      4.363      3.188      0.98       2.467206   3.048      0.2068992  0.2068992  0.300062   19.02975   51.64435   4.363      0.5581976  0.6556993  65.659     0.2823117  0.1296074  0.435016  
1114       0.23       286.789    -9999      -9999      4.723622   3.201000000000001 4.728      2.896      2.834      2.492308   2.819      0.2021026  0.2021026  0.2979861  15.50918   49.55837   4.728      0.5657631  0.6646903  66.231     0.290556   0.1318079  0.4493042 
1114.2     0.23       284.249    -9999      -9999      4.825614   3.151      4.205      1.765      2.263      2.492908   2.794      0.1975441  0.1975441  0.2979365  12.76892   41.93794   4.205      0.5319988  0.6410856  66.929     0.3042194  0.1411073  0.4673314 
1114.4     0.23       281.709    -9999      -9999      4.964329   2.947      6.288      2.311      1.907      2.474581   2.794      0.1947512  0.1947512  0.2994522  11.33503   33.41871   6.288      0.6076888  0.7056758  67.395     0.3172757  0.1548169  0.4797345 
1114.6     0.219      276.629    -9999      -9999      5.120495   2.947      6.152      2.197      1.717      2.443689   2.794      0.191627   0.191627   0.3020069  9.921007   25.88012   6.152      0.5980205  0.7019942  68.03      0.3344845  0.1718514  0.4971177 
1114.8     0.215      274.089    -9999      -9999      5.305517   2.668      4.868      2.807      1.958      2.407101   3.124      0.1885583  0.1885583  0.3050327  8.703942   19.11734   4.868      0.5449929  0.6648031  68.538     0.3529527  0.1944754  0.5114301 
1115       0.225      275.359    -9999      -9999      5.526262   2.922      4.363      3.023      2.161      2.367873   4.674000000000001 0.1845872  0.1845872  0.3082769  7.347844   13.31962   4.363      0.5120332  0.6451575  68.982     0.3748175  0.2253963  0.5242388 
1115.2     0.227      279.169    -9999      -9999      5.756611   4.700000000000001 4.493      2.705      1.983      2.323853   5.867      0.1800831  0.1800831  0.3119173  6.063647   9.13542    4.493      0.508243   0.649359   69.384     0.3994977  0.2629158  0.5360796 
