~Version
 VERS              .         2.0                           : CWLS LOG ASCII STANDARD - VERSION 2.0
 WRAP              .         NO                            : ONE LINE PER DEPTH STEP
 DLM               .         SPACE                         : DELIMITING CHARACTER(SPACE TAB OR COMMA)
~Well Information
#_______________________________________________________________________________
#
#PARAMETER_NAME    .UNIT     VALUE                         : DESCRIPTION
#_______________________________________________________________________________
STRT               .M        917                           : First reference value
STOP               .M        1233.6                        : Last reference value
STEP               .M        0.2                           : Step increment
NULL               .         -9999                         : Missing value
COMP               .                                       : Company
WELL               .         7276                          : Well name
FLD                .         Узень                         : Field
LOC                .                                       : Location
CNTY               .                                       : County
STAT               .                                       : State
CTRY               .                                       : Country
SRVC               .                                       : Service Company
DATE               .                                       : Date
UWI                .                                       : Unique Well ID
API                .                                       : 
Block              .         6а                            : 
Category           .         Нагнетательная                : 
Condition          .         В работе                      : 
Date               .         16.12.1985                    : 
EREF               .m        84.2                          : 100.8
Gorizont           .         15                            : 14
Interpretator      .         Алпанова Н.К.                 : 
Kupol              .         основной                      : osnovnoi
Moii_15_vosst_164  .         15_vosst_164                  : 
Mud                .                                       : 
Mud_density        .                                       : 
Mud_resistivity    .                                       : 
Mud_density        .                                       : 
Mud_resistivity    .                                       : 
NGDU               .         НГДУ-2                        : 
ORIGINALWELLNAME   .         7276                          : 
Spud_date          .         1985                          : 1961
Spud_date          .         1985                          : 1961
Viscosity          .                                       : 
X                  .m        44386.6                       : 46154
Y                  .m        85430.93                      : 85761.93
YEAR               .         2018                          : 
~Parameter Information Block
#_______________________________________________________________________________
#
#PARAMETER_NAME    .UNIT     VALUE                         : DESCRIPTION
#_______________________________________________________________________________
SET                .         LQC_KAZNIPI_Petrel            : 
TLFamily_CALI      .         Caliper                       : 
TLFamily_CILD      .         Conductivity                  : 
TLFamily_COLL      .         Net Reservoir Flag            : 
TLFamily_CSAT      .         Fluid Code                    : 
TLFamily_DEPT      .         Measured Depth                : 
TLFamily_GR        .         Russian Gamma Ray             : 
TLFamily_GZ3       .         Gradient 225                  : 
TLFamily_LLS       .         Lateral Log Resistivity       : 
TLFamily_MINV      .         Micro Gradient Resistivity    : 
TLFamily_MNOR      .         Micro Resistivity             : 
TLFamily_NGLD      .         Neutron Far                   : 
TLFamily_OGZ       .         Gradient Inverted 225         : 
TLFamily_PHIE      .         Effective Porosity            : 
TLFamily_PHIEN     .         Effective Porosity            : 
TLFamily_PHIT      .         Porosity                      : 
TLFamily_PRMB      .         Permeability                  : 
TLFamily_PRMB_DGR  .         Permeability                  : 
TLFamily_RT        .         Formation Resistivity         : 
TLFamily_SOIL_ARCHIE .         Oil Saturation                : 
TLFamily_SOIL_DW   .         Oil Saturation                : 
TLFamily_SP        .         Spontaneous Potential         : 
TLFamily_VSH_FIN   .         Shale Volume                  : 
TLFamily_VSH_GR    .         Shale Volume                  : 
TLFamily_VSH_SP    .         Shale Volume                  : 
~Curve Information
#_______________________________________________________________________________
#
#LOGNAME           .UNIT     LOG_ID                        : DESCRIPTION
#_______________________________________________________________________________
DEPT               .M                                      : Колонка глубины 
CALI               .м                                      : Каверномер 
CILD               .мСм/м                                  : Индукционный каротаж 
COLL               .unitless                               :  
CSAT               .unitless                               :  
GR                 .мкР/ч                                  : Гамма каротаж 
GZ3                .Ом·м                                   :  
LLS                .Ом·м                                   : Боковой каротаж 
MINV               .Ом·м                                   : Микро-градиент зонд 
MNOR               .Ом·м                                   : Микро-потенциал зонд 
NGLD               .у.е.                                   : Показания зонда НГК-60 аппаратуры ДРСТ-3-90 
OGZ                .Ом·м                                   :  
PHIE               .м3/м3                                  : Описание 
PHIEN              .v/v                                    :  
PHIT               .м3/м3                                  : Описание 
PRMB               .mD                                     :  
PRMB_DGR           .mD                                     :  
RT                 .ohmm                                   : Description 
SOIL_ARCHIE        .v/v                                    :  
SOIL_DW            .v/v                                    :  
SP                 .мВ                                     : Потенциал самополяризации 
VSH_FIN            .unitless                               : Описание 
VSH_GR             .unitless                               : Shale volume 
VSH_SP             .unitless                               : Shale Volume 
~Ascii
# ...
1011.4     0.289      417.599    -9999      -9999      4.978046   2.668      2.275      0.495      0.599      1.998058   2.591      0.1608934  0.1608934  0.3388606  2.674812   1.232966   2.275      0.2534419  0.5106344  70.739     0.5392947  0.5956288  0.4829606 
1011.6     0.282      415.059    -9999      -9999      4.942      2.668      2.21       0.47       0.599      1.964211   2.591      0.1660583  0.1660583  0.3416598  3.333958   1.315084   2.21       0.2637596  0.5119203  70.781     0.5321258  0.5801515  0.4841001 
1011.8     0.273      412.519    -9999      -9999      4.852443   2.795      2.449      0.457      0.586      1.939804   2.642      0.1737561  0.1737561  0.3436782  4.629595   1.543563   2.449      0.3255462  0.5459884  70.866     0.5149153  0.5434172  0.4864135 
1012       0.272      408.709    -9999      -9999      4.741343   2.719      2.596      0.432      0.599      1.932626   2.565      0.1805744  0.1805744  0.3442718  6.192052   1.882915   2.596      0.3653806  0.5660086  71.035     0.4960526  0.5010622  0.4910431 
1012.2     0.272      402.359    -9999      -9999      4.645355   2.592      2.378      0.483      0.497      1.946205   2.438      0.1842743  0.1842743  0.3431488  7.250458   2.235621   2.378      0.3502936  0.5492225  71.205     0.4814379  0.4671359  0.4957399 
1012.4     0.276      397.279    -9999      -9999      4.577156   2.566      2.414      0.521      0.51       1.975976   2.413      0.1849743  0.1849743  0.3406868  7.470176   2.525675   2.414      0.3569853  0.5512961  71.332     0.471856   0.4444368  0.4992751 
1012.6     0.282      392.199    -9999      -9999      4.530031   2.566      2.327      0.483      0.663      2.013789   2.413      0.1841346  0.1841346  0.3375596  7.207388   2.747805   2.327      0.3432164  0.5395946  71.374     0.4649244  0.4293995  0.5004492 
1012.8     0.287      387.119    -9999      -9999      4.498669   2.617      2.414      0.47       0.637      2.054461   2.489      0.1823756  0.1823756  0.3341961  6.68646    2.906355   2.414      0.3490125  0.543492   71.374     0.4600622  0.4196753  0.5004492 
1013       0.274      383.309    -9999      -9999      4.478117   2.719      2.835      0.47       0.523      2.097207   2.616      0.1798722  0.1798722  0.330661   6.00934    3.015191   2.835      0.3890035  0.5737138  71.374     0.4569358  0.4134223  0.5004492 
1013.2     0.274      380.769    -9999      -9999      4.455658   2.82       2.897      0.508      0.485      2.142456   2.692      0.1774337  0.1774337  0.3269189  5.415772   3.138785   2.897      0.3879418  0.5730941  71.332     0.4529856  0.406696   0.4992751 
1013.4     0.259      379.499    -9999      -9999      4.422235   2.871      2.919      0.508      0.548      2.187255   2.642      0.175545   0.175545   0.323214   4.99664    3.332156   2.919      0.3843999  0.569948   71.289     0.4474818  0.396888   0.4980757 
1013.6     0.254      379.499    -9999      -9999      4.390461   2.871      2.939      0.483      0.586      2.223833   2.642      0.1742152  0.1742152  0.320189   4.721136   3.527026   2.939      0.3822918  0.5676694  71.247     0.4423448  0.3877831  0.4969066 
1013.8     0.26       380.769    -9999      -9999      4.389767   2.846      2.919      0.559      0.675      2.243714   2.565      0.1724105  0.1724105  0.3185448  4.371391   3.531406   2.919      0.3746637  0.5630521  71.289     0.4428312  0.3875867  0.4980757 
1014       0.261      382.039    -9999      -9999      4.442741   2.719      2.875      0.533      0.726      2.242413   2.54       0.1696036  0.1696036  0.3186524  3.878177   3.212148   2.875      0.3611221  0.556981   71.374     0.4516632  0.4028772  0.5004492 
1014.2     0.261      383.309    -9999      -9999      4.547774   2.643      2.772      0.483      0.802      2.221582   2.54       0.1654377  0.1654377  0.3203752  3.246871   2.661964   2.772      0.3358595  0.5459446  71.501     0.4695076  0.4350007  0.5040145 
1014.4     0.272      385.849    -9999      -9999      4.677084   2.719      2.713      0.572      0.726      2.18829    2.489      0.1606856  0.1606856  0.3231284  2.65122    2.11227    2.713      0.3118732  0.5382817  71.586     0.4922509  0.4780883  0.5064134 
1014.6     0.273      388.389    -9999      -9999      4.790566   2.719      2.875      0.559      0.853      2.151447   2.489      0.1567192  0.1567192  0.3261753  2.238611   1.724221   2.875      0.3156117  0.5497896  71.628     0.5135033  0.5194041  0.5076025 
1014.8     0.271      392.199    -9999      -9999      4.856812   2.846      2.793      0.521      0.751      2.116923   2.413      0.1557223  0.1557223  0.3290305  2.145419   1.531546   2.793      0.3023883  0.5445865  71.543     0.5251763  0.5451541  0.5051986000000001
1015       0.273      396.009    -9999      -9999      4.871985   2.897      2.634      0.495      0.65       2.085492   2.337      0.1581029  0.1581029  0.3316298  2.374688   1.490539   2.634      0.2923473  0.5360067  71.374     0.5258393  0.5512293  0.5004492 
1015.2     0.274      399.819    -9999      -9999      4.860482   2.897      2.54       0.483      0.574      2.055818   2.311      0.1624833  0.1624833  0.3340839  2.862478   1.521527   2.54       0.2971075  0.5345222  71.12      0.5200018  0.5466171  0.4933865 
1015.4     0.274      402.359    -9999      -9999      4.851179   2.795      2.414      0.521      0.701      2.028714   2.362      0.1661027  0.1661027  0.3363253  3.340278   1.547059   2.414      0.293805   0.5284869  70.951     0.5158262  0.5429155  0.4887369 
1015.6     0.274      403.629    -9999      -9999      4.85516    2.795      2.243      0.483      0.802      2.009448   2.362      0.1683882  0.1683882  0.3379186  3.682276   1.536081   2.243      0.2776815  0.5148169  70.739     0.5137286  0.5444964  0.4829606 
1015.8     0.276      401.089    -9999      -9999      4.866252   2.744      2.13       0.445      0.599      2.006017   2.489      0.1688839  0.1688839  0.3382024  3.760958   1.505904   2.13       0.2618381  0.5029323  70.527     0.5130861  0.5489257  0.4772464 
1016       0.286      397.279    -9999      -9999      4.874313   2.693      2.697      0.445      0.65       2.02249    2.591      0.1681031  0.1681031  0.3368401  3.637768   1.484345   2.697      0.3365557  0.5563734  70.273     0.5113243  0.5521674  0.4704813 
1016.2     0.281      394.739    -9999      -9999      4.869734   2.846      2.855      0.432      0.536      2.052049   2.54       0.1661459  0.1661459  0.3343955  3.34644    1.496554   2.855      0.3474233  0.5649325  70.231     0.5098473  0.5503235  0.4693712 
1016.4     0.281      394.739    -9999      -9999      4.848982   3.049      2.732      0.406      0.497      2.078801   2.388      0.1651163  0.1651163  0.3321832  3.202668   1.553148   2.732      0.3301805  0.552357   70.273     0.5062633  0.5420452  0.4704813 
1016.6     0.27       396.009    -9999      -9999      4.826917   3.049      2.713      0.406      0.459      2.089289   2.388      0.1649333  0.1649333  0.3313158  3.177777   1.615676   2.713      0.3273341  0.5498764  70.443     0.5041893  0.5333793  0.4749994 
1016.8     0.26       397.279    -9999      -9999      4.829875   2.922      2.793      0.508      0.574      2.082014   2.184      0.1647835  0.1647835  0.3319175  3.157531   1.60715    2.793      0.3359197  0.5567108  70.57      0.5064666  0.5345328  0.4784004 
1017       0.272      398.549    -9999      -9999      4.872654   2.77       2.693      0.521      0.624      2.065282   2.134      0.1624274  0.1624274  0.3333012  2.855668   1.488757   2.693      0.3159334  0.5472231  70.781     0.5177993  0.5514985  0.4841001 
1017.2     0.267      399.819    -9999      -9999      4.948775   2.744      2.54       0.521      0.764      2.047439   2.108      0.1579354  0.1579354  0.3347768  2.357784   1.299244   2.54       0.2795115  0.5300705  70.951     0.5358832  0.5830294  0.4887369 
1017.4     0.267      401.089    -9999      -9999      5.039194   2.795      2.485      0.597      0.624      2.029996   2.159      0.1522342  0.1522342  0.3362193  1.848866   1.105222   2.485      0.2483857  0.5195519  71.078     0.5575306  0.6228338  0.4922273 
