~Version
 VERS              .         2.0                           : CWLS LOG ASCII STANDARD - VERSION 2.0
 WRAP              .         NO                            : ONE LINE PER DEPTH STEP
 DLM               .         SPACE                         : DELIMITING CHARACTER(SPACE TAB OR COMMA)
~Well Information
#_______________________________________________________________________________
#
#PARAMETER_NAME    .UNIT     VALUE                         : DESCRIPTION
#_______________________________________________________________________________
STRT               .M        917                           : First reference value
STOP               .M        1233.6                        : Last reference value
STEP               .M        0.2                           : Step increment
NULL               .         -9999                         : Missing value
COMP               .                                       : Company
WELL               .         7276                          : Well name
FLD                .         Узень                         : Field
LOC                .                                       : Location
CNTY               .                                       : County
STAT               .                                       : State
CTRY               .                                       : Country
SRVC               .                                       : Service Company
DATE               .                                       : Date
UWI                .                                       : Unique Well ID
API                .                                       : 
Block              .         6а                            : 
Category           .         Нагнетательная                : 
Condition          .         В работе                      : 
Date               .         16.12.1985                    : 
EREF               .m        84.2                          : 100.8
Gorizont           .         15                            : 14
Interpretator      .         Алпанова Н.К.                 : 
Kupol              .         основной                      : osnovnoi
Moii_15_vosst_164  .         15_vosst_164                  : 
Mud                .                                       : 
Mud_density        .                                       : 
Mud_resistivity    .                                       : 
Mud_density        .                                       : 
Mud_resistivity    .                                       : 
NGDU               .         НГДУ-2                        : 
ORIGINALWELLNAME   .         7276                          : 
Spud_date          .         1985                          : 1961
Spud_date          .         1985                          : 1961
Viscosity          .                                       : 
X                  .m        44386.6                       : 46154
Y                  .m        85430.93                      : 85761.93
YEAR               .         2018                          : 
~Parameter Information Block
#_______________________________________________________________________________
#
#PARAMETER_NAME    .UNIT     VALUE                         : DESCRIPTION
#_______________________________________________________________________________
SET                .         LQC_KAZNIPI_Petrel            : 
TLFamily_CALI      .         Caliper                       : 
TLFamily_CILD      .         Conductivity                  : 
TLFamily_COLL      .         Net Reservoir Flag            : 
TLFamily_CSAT      .         Fluid Code                    : 
TLFamily_DEPT      .         Measured Depth                : 
TLFamily_GR        .         Russian Gamma Ray             : 
TLFamily_GZ3       .         Gradient 225                  : 
TLFamily_LLS       .         Lateral Log Resistivity       : 
TLFamily_MINV      .         Micro Gradient Resistivity    : 
TLFamily_MNOR      .         Micro Resistivity             : 
TLFamily_NGLD      .         Neutron Far                   : 
TLFamily_OGZ       .         Gradient Inverted 225         : 
TLFamily_PHIE      .         Effective Porosity            : 
TLFamily_PHIEN     .         Effective Porosity            : 
TLFamily_PHIT      .         Porosity                      : 
TLFamily_PRMB      .         Permeability                  : 
TLFamily_PRMB_DGR  .         Permeability                  : 
TLFamily_RT        .         Formation Resistivity         : 
TLFamily_SOIL_ARCHIE .         Oil Saturation                : 
TLFamily_SOIL_DW   .         Oil Saturation                : 
TLFamily_SP        .         Spontaneous Potential         : 
TLFamily_VSH_FIN   .         Shale Volume                  : 
TLFamily_VSH_GR    .         Shale Volume                  : 
TLFamily_VSH_SP    .         Shale Volume                  : 
~Curve Information
#_______________________________________________________________________________
#
#LOGNAME           .UNIT     LOG_ID                        : DESCRIPTION
#_______________________________________________________________________________
DEPT               .M                                      : Колонка глубины 
CALI               .м                                      : Каверномер 
CILD               .мСм/м                                  : Индукционный каротаж 
COLL               .unitless                               :  
CSAT               .unitless                               :  
GR                 .мкР/ч                                  : Гамма каротаж 
GZ3                .Ом·м                                   :  
LLS                .Ом·м                                   : Боковой каротаж 
MINV               .Ом·м                                   : Микро-градиент зонд 
MNOR               .Ом·м                                   : Микро-потенциал зонд 
NGLD               .у.е.                                   : Показания зонда НГК-60 аппаратуры ДРСТ-3-90 
OGZ                .Ом·м                                   :  
PHIE               .м3/м3                                  : Описание 
PHIEN              .v/v                                    :  
PHIT               .м3/м3                                  : Описание 
PRMB               .mD                                     :  
PRMB_DGR           .mD                                     :  
RT                 .ohmm                                   : Description 
SOIL_ARCHIE        .v/v                                    :  
SOIL_DW            .v/v                                    :  
SP                 .мВ                                     : Потенциал самополяризации 
VSH_FIN            .unitless                               : Описание 
VSH_GR             .unitless                               : Shale volume 
VSH_SP             .unitless                               : Shale Volume 
~Ascii
# ...
952        0.215      134.389    -9999      -9999      3.243255   8.006      6.018      2.654      3.418      4.009823   8.000999999999998 0.06124916 0.06124916 0.1724876  0.03816287 27.45360946655273 6.018      0          0.3426267  71.586     0.3370863  0.1677591  0.5064136 
952.2000000000001 0.215      134.389    -9999      -9999      3.189877   8.26       7.12       1.968      1.996      3.95827    8.127999999999998 0.06696679 0.06696679 0.1767511  0.04870186 30.20408058166504 7.12       0.06222779 0.423617   71.501     0.3326796  0.1613444  0.5040147 
952.4      0.215      131.849    -9999      -9999      3.149604   8.641      9.608      1.613      2.415      3.922043   8.763      0.07171437999999999 0.07171437999999999 0.1797471  0.05963241 32.46015930175781 9.608      0.2324382  0.5211022  71.289     0.3273717  0.1566676  0.4980759 
952.6      0.215      130.579    -9999      -9999      3.156837   8.641      10.188     3.797      2.593      3.872686   8.763      0.07681961 0.07681961 0.1838288  0.07413846 32.04291915893555 10.188     0.296675   0.5528905  71.035     0.3242704  0.1574975  0.4910433 
952.8      0.215      130.579    -9999      -9999      3.200491   9.276      7.494      3.01       1.59       3.778804   8.255000000000001 0.08469451 0.08469451 0.1915929  0.1037304  29.63603019714356 7.494      0.2538427  0.5101168  70.824     0.3239346  0.1626002  0.4852691 
953        0.215      130.579    -9999      -9999      3.242547   10.292     6.196      1.6        2.491      3.640499   7.620000000000001 0.09624234 0.09624234 0.2030308  0.169746   27.48838043212891 6.196      0.2701304  0.5047799  70.612     0.3236012  0.1676724  0.4795301 
953.2000000000001 0.217      133.119    -9999      -9999      3.261443   11.181     7.604      2.731      1.691      3.489418   6.984999999999999 0.1094734  0.1094734  0.2155251  0.2984491  26.57480049133301 7.604      0.4073609  0.5898767  70.358     0.321369   0.1700026  0.4727354 
953.4      0.217      138.199    -9999      -9999      3.268215   11.943     8.242      2.019      3.075      3.360212   6.477000000000001 0.1214933  0.1214933  0.2262104  0.4983199  26.25486946105957 8.242      0.4788468  0.6327183  70.019     0.3173248  0.1708455  0.463804  
953.6      0.217      142.009    -9999      -9999      3.280409   11.943     6.864      2.413      2.237      3.27068    6.477000000000001 0.1297327  0.1297327  0.2336148  0.7081457  25.68837928771973 6.864      0.4636713  0.6153627  69.765     0.3147941  0.172374   0.4572142 
953.8      0.216      147.089    -9999      -9999      3.293878   12.07      5.2        1.473      1.628      3.222824   6.35       0.1339475  0.1339475  0.2375725  0.8476003  25.07687950134277 5.2        0.4058192  0.5680376  69.638     0.314015   0.1740781  0.453952  
954        0.213      149.629    -9999      -9999      3.298373   11.435     5.512      3.188      2.669      3.205935   6.35       0.1350679  0.1350679  0.2389692  0.8890859  24.87605094909668 5.512      0.4260252  0.5832994  69.681     0.3148523  0.1746506  0.4550541 
954.2000000000001 0.211      154.709    -9999      -9999      3.304225   10.292     7.224      2.565      3.139      3.201507   6.223      0.134592   0.134592   0.2393354  0.8712205  24.61701965332031 7.224      0.4928875  0.6358399  69.85      0.3174042  0.1753987  0.4594098 
954.4      0.211      161.059    -9999      -9999      3.331575   9.657      6.152      2.032      2.148      3.197008   6.096      0.133288   0.133288   0.2397074  0.8240893  23.44171905517578 6.152      0.448528   0.6042415  70.104     0.3224832  0.1789376  0.4660287 
954.6      0.211      166.139    -9999      -9999      3.379622   9.657      5.2        3.302      2.809      3.193441   6.096      0.1312375  0.1312375  0.2400024  0.7550827  21.51122093200684 5.2        0.3951469  0.5672298  70.4       0.3295907  0.1853286  0.4738528 
954.8      0.211      171.219    -9999      -9999      3.426384   9.911      5.931      2.819      2.453      3.199823   5.842      0.1287105  0.1287105  0.2394747  0.677936   19.78510093688965 5.931      0.4216408  0.5911334  70.612     0.335649   0.191768   0.4795301 
955        0.212      175.029    -9999      -9999      3.453918   10.165     5.974      3.772      2.872      3.228791   5.715      0.124918   0.124918   0.237079   0.5766903  18.83426094055176 5.974      0.4083863  0.5852937  70.781     0.3398819  0.1956636  0.4841001 
955.2000000000001 0.211      178.839    -9999      -9999      3.457296   10.038     4.693      3.048      2.669      3.293302   5.842      0.1193103  0.1193103  0.231744   0.4540195  18.7208309173584 4.693      0.3104007  0.5170122  70.824     0.340708   0.1961469  0.4852691 
955.4      0.211      181.379    -9999      -9999      3.433121   9.276      3.967      1.943      2.098      3.393252   6.223      0.1116109  0.1116109  0.2234781  0.3269353  19.54809951782227 3.967      0.2091749  0.4488207  70.824     0.3389916  0.1927139  0.4852691 
955.6      0.211      182.649    -9999      -9999      3.381188   9.276      5.162      2.426      3.075      3.504189   6.223      0.1040008  0.1040008  0.2143036  0.2363228  21.45101928710938 5.162      0.2567597  0.4905589  70.739     0.3342507  0.1855409  0.4829606 
955.8      0.211      182.649    -9999      -9999      3.323205   8.386999999999999 7.224      2.807      2.567      3.587135   6.477000000000001 0.09878993 0.09878993 0.207444   0.1892288  23.79533958435059 7.224      0.3361363  0.5519116  70.654     0.3292546  0.177847   0.4806621 
956        0.21       180.109    -9999      -9999      3.297386   8.26       6.335      2.248      2.314      3.610574   6.857999999999999 0.09777292 0.09777292 0.2055056  0.1811965  24.92000961303711 6.335      0.2875479  0.5168134  70.57      0.3264626  0.1745247  0.4784004 
956.2000000000001 0.211      178.839    -9999      -9999      3.321338   8.26       6.814      3.81       2.758      3.567068   6.857999999999999 0.1012386  0.1012386  0.2091035  0.2100595  23.87491989135742 6.814      0.3320783  0.5451584  70.485     0.3268632  0.1776047  0.4761217 
956.4      0.211      177.569    -9999      -9999      3.375991   8.386999999999999 7.44       3.747      2.364      3.476257   6.604      0.1084859  0.1084859  0.2166136  0.2861412  21.65136909484863 7.44       0.3965225  0.5852184  70.273     0.3276596  0.1848378  0.4704813 
956.6      0.212      177.569    -9999      -9999      3.430928   8.386999999999999 6.381      3.315      2.72       3.371841   6.604      0.1167886  0.1167886  0.2252487  0.4077248  19.62491989135742 6.381      0.391782   0.5750136  70.062     0.3286669  0.1924055  0.4649282 
956.8      0.212      177.569    -9999      -9999      3.471415   8.132999999999999 6.196      3.379      2.399      3.281719   5.842      0.1240199  0.1240199  0.2327018  0.5550183  18.25392913818359 6.196      0.4147634  0.5869721  69.892     0.3293392  0.1981802  0.4604982 
957        0.212      181.379    -9999      -9999      3.499161   8.006      5.049      3.442      2.085      3.217889   5.461      0.128988   0.128988   0.2379806  0.6860073  17.37009048461914 5.049      0.37742    0.5555401  69.808     0.3302806  0.2022374  0.4583237 
957.2000000000001 0.211      185.189    -9999      -9999      3.519723   7.752      4.395      2.07       1.92       3.181818   5.080000000000001 0.1316492  0.1316492  0.2409637  0.7684597  16.74284934997559 4.395      0.3472572  0.5309806  69.765     0.3312559  0.2052976  0.4572142 
957.4      0.211      190.269    -9999      -9999      3.531587   7.498      5.237      3.302      2.783      3.172988   5.080000000000001 0.1320846  0.1320846  0.2416939  0.7828619  16.39129066467285 5.237      0.4005248  0.5716804  69.765     0.3321493  0.2070843  0.4572142 
957.6      0.211      194.079    -9999      -9999      3.523903   7.498      4.832      2.388      2.314      3.187262   5.080000000000001 0.1310954  0.1310954  0.2405135  0.7505224  16.61812973022461 4.832      0.3733602  0.5514424  69.765     0.3315698  0.2059253  0.4572142 
