~Version
 VERS              .         2.0                           : CWLS LOG ASCII STANDARD - VERSION 2.0
 WRAP              .         NO                            : ONE LINE PER DEPTH STEP
 DLM               .         SPACE                         : DELIMITING CHARACTER(SPACE TAB OR COMMA)
~Well Information
#_______________________________________________________________________________
#
#PARAMETER_NAME    .UNIT     VALUE                         : DESCRIPTION
#_______________________________________________________________________________
STRT               .M        917                           : First reference value
STOP               .M        1233.6                        : Last reference value
STEP               .M        0.2                           : Step increment
NULL               .         -9999                         : Missing value
COMP               .                                       : Company
WELL               .         7276                          : Well name
FLD                .         Узень                         : Field
LOC                .                                       : Location
CNTY               .                                       : County
STAT               .                                       : State
CTRY               .                                       : Country
SRVC               .                                       : Service Company
DATE               .                                       : Date
UWI                .                                       : Unique Well ID
API                .                                       : 
Block              .         6а                            : 
Category           .         Нагнетательная                : 
Condition          .         В работе                      : 
Date               .         16.12.1985                    : 
EREF               .m        84.2                          : 100.8
Gorizont           .         15                            : 14
Interpretator      .         Алпанова Н.К.                 : 
Kupol              .         основной                      : osnovnoi
Moii_15_vosst_164  .         15_vosst_164                  : 
Mud                .                                       : 
Mud_density        .                                       : 
Mud_resistivity    .                                       : 
Mud_density        .                                       : 
Mud_resistivity    .                                       : 
NGDU               .         НГДУ-2                        : 
ORIGINALWELLNAME   .         7276                          : 
Spud_date          .         1985                          : 1961
Spud_date          .         1985                          : 1961
Viscosity          .                                       : 
X                  .m        44386.6                       : 46154
Y                  .m        85430.93                      : 85761.93
YEAR               .         2018                          : 
~Parameter Information Block
#_______________________________________________________________________________
#
#PARAMETER_NAME    .UNIT     VALUE                         : DESCRIPTION
#_______________________________________________________________________________
SET                .         LQC_KAZNIPI_Petrel            : 
TLFamily_CALI      .         Caliper                       : 
TLFamily_CILD      .         Conductivity                  : 
TLFamily_COLL      .         Net Reservoir Flag            : 
TLFamily_CSAT      .         Fluid Code                    : 
TLFamily_DEPT      .         Measured Depth                : 
TLFamily_GR        .         Russian Gamma Ray             : 
TLFamily_GZ3       .         Gradient 225                  : 
TLFamily_LLS       .         Lateral Log Resistivity       : 
TLFamily_MINV      .         Micro Gradient Resistivity    : 
TLFamily_MNOR      .         Micro Resistivity             : 
TLFamily_NGLD      .         Neutron Far                   : 
TLFamily_OGZ       .         Gradient Inverted 225         : 
TLFamily_PHIE      .         Effective Porosity            : 
TLFamily_PHIEN     .         Effective Porosity            : 
TLFamily_PHIT      .         Porosity                      : 
TLFamily_PRMB      .         Permeability                  : 
TLFamily_PRMB_DGR  .         Permeability                  : 
TLFamily_RT        .         Formation Resistivity         : 
TLFamily_SOIL_ARCHIE .         Oil Saturation                : 
TLFamily_SOIL_DW   .         Oil Saturation                : 
TLFamily_SP        .         Spontaneous Potential         : 
TLFamily_VSH_FIN   .         Shale Volume                  : 
TLFamily_VSH_GR    .         Shale Volume                  : 
TLFamily_VSH_SP    .         Shale Volume                  : 
~Curve Information
#_______________________________________________________________________________
#
#LOGNAME           .UNIT     LOG_ID                        : DESCRIPTION
#_______________________________________________________________________________
DEPT               .M                                      : Колонка глубины 
CALI               .м                                      : Каверномер 
CILD               .мСм/м                                  : Индукционный каротаж 
COLL               .unitless                               :  
CSAT               .unitless                               :  
GR                 .мкР/ч                                  : Гамма каротаж 
GZ3                .Ом·м                                   :  
LLS                .Ом·м                                   : Боковой каротаж 
MINV               .Ом·м                                   : Микро-градиент зонд 
MNOR               .Ом·м                                   : Микро-потенциал зонд 
NGLD               .у.е.                                   : Показания зонда НГК-60 аппаратуры ДРСТ-3-90 
OGZ                .Ом·м                                   :  
PHIE               .м3/м3                                  : Описание 
PHIEN              .v/v                                    :  
PHIT               .м3/м3                                  : Описание 
PRMB               .mD                                     :  
PRMB_DGR           .mD                                     :  
RT                 .ohmm                                   : Description 
SOIL_ARCHIE        .v/v                                    :  
SOIL_DW            .v/v                                    :  
SP                 .мВ                                     : Потенциал самополяризации 
VSH_FIN            .unitless                               : Описание 
VSH_GR             .unitless                               : Shale volume 
VSH_SP             .unitless                               : Shale Volume 
~Ascii
# ...
993.2000000000001 0.211      307.109    -9999      -9999      4.954304   4.37       4.493      3.543      1.996      2.491015   2.515      0.1269559  0.1269559  0.298093   0.6290559  1.286458   4.493      0.333226   0.5876994  69.554     0.5185974  0.5853887  0.4518061 
993.4      0.215      313.459    -9999      -9999      4.972549   4.243      3.504      1.194      1.488      2.420199   2.261      0.1315166  0.1315166  0.3039495  0.7641255  1.245151   3.504      0.2733983  0.5447982  69.554     0.522524   0.5932419  0.4518061 
993.6      0.227      321.079    -9999      -9999      4.926874   4.243      2.855      0.928      1.458      2.345044   2.261      0.1402297  0.1402297  0.3101649  1.108032   1.351151   2.855      0.2435558  0.5138419  69.723     0.5149551  0.5737772  0.456133  
993.8      0.233      328.699    -9999      -9999      4.839494   3.76       2.466      0.622      1.424      2.278419   2.184      0.1494087  0.1494087  0.3156747  1.638966   1.579734   2.466      0.2332643  0.4948352  70.231     0.5038364  0.5383016000000001 0.4693712 
994        0.251      340.129    -9999      -9999      4.752933   3.455000000000001 2.54       0.47       1.031      2.223838   2.286      0.1575013  0.1575013  0.3201886  2.314537   1.844285   2.54       0.2777824  0.5164233  70.654     0.4929918  0.5053215  0.4806621 
994.2000000000001 0.248      354.099    -9999      -9999      4.70326    3.633      2.961      0.483      0.675      2.174669   2.464      0.163016   0.163016   0.3242549  2.928261   2.01565    2.961      0.3477778  0.56142    70.993     0.4886027  0.4873168  0.4898887 
994.4      0.251      368.069    -9999      -9999      4.693695   3.786      3.116      0.508      0.891      2.128018   2.54       0.1674338  0.1674338  0.3281129  3.535402   2.050435   3.116      0.3778676  0.5799161  70.993     0.4869063  0.4839238  0.4898887 
994.6      0.251      379.499    -9999      -9999      4.695529   3.786      2.875      0.546      0.789      2.088224   2.54       0.17138    0.17138    0.3314039  4.183427   2.04372    2.875      0.3668937  0.5692304  70.824     0.4849208  0.4845725  0.4852691 
994.8      0.257      392.199    -9999      -9999      4.679543   3.608      2.577      0.775      0.955      2.05575    2.413      0.1755622  0.1755622  0.3340895  5.000299   2.102999   2.577      0.3473835  0.5514625  70.697     0.4803857  0.4789478  0.4818237 
995        0.263      407.439    -9999      -9999      4.640669   3.354      2.598      0.66       0.98       2.021555   2.311      0.1806024  0.1806024  0.3369174  6.19944    2.254436   2.598      0.3656954  0.5604452  70.697     0.4736818  0.46554    0.4818237 
995.2000000000001 0.251      417.599    -9999      -9999      4.588906   3.251999999999999 2.275      0.432      0.866      1.976649   2.286      0.1871661  0.1871661  0.3406312  8.202159999999999 2.473144   2.275      0.3455876  0.5398754  70.697     0.4650456  0.4482676  0.4818237 
995.4      0.239      436.649    -9999      -9999      4.528546   3.074      1.995      0.597      0.663      1.925961   2.235      0.1939795  0.1939795  0.344823   10.96803   2.755112   1.995      0.3253276  0.5190916  70.824     0.4571017  0.4289342  0.4852691 
995.6      0.239      454.429    -9999      -9999      4.458671   3.074      1.712      0.584      0.548      1.891502   2.235      0.1999727  0.1999727  0.3476728  14.16241   3.121912   1.712      0.2940713  0.4896179  70.908     0.4475762  0.407592   0.4875603 
995.8      0.245      460.779    -9999      -9999      4.389436   2.693      1.627      0.508      0.612      1.901887   2.057      0.2018555  0.2018555  0.3468139  15.3466    3.533501   1.627      0.2828757  0.4776201  71.035     0.439268   0.3874928  0.4910431 
996        0.274      458.239    -9999      -9999      4.340603   2.287      1.896      0.356      0.586      1.9762     1.981      0.1975635  0.1975635  0.3406683  12.77946   3.856026   1.896      0.3199497  0.5066569  71.12      0.4336511  0.3739156  0.4933865 
996.2000000000001 0.286      448.079    -9999      -9999      4.319784   2.439      2.466      0.381      0.434      2.109919   2.032      0.1866622  0.1866622  0.3296097  8.027782999999999 4.002331   2.466      0.3684009  0.5486745  71.289     0.4331742  0.3682728  0.4980757 
996.4      0.278      427.759    -9999      -9999      4.314301   2.871      3.504      0.381      0.409      2.268063   2.515      0.1730416  0.1730416  0.3165312  4.490646   4.041776   3.504      0.4278565  0.6002223  71.459     0.434817   0.366801   0.5028329 
996.6      0.278      408.709    -9999      -9999      4.313331   2.871      4.299      0.445      0.447      2.393861   2.515      0.1620903  0.1620903  0.3061277  2.814899   4.0488     4.299      0.449747   0.6221199  71.586     0.4364772  0.366541   0.5064134 
996.8      0.243      394.739    -9999      -9999      4.325672   3.176000000000001 4.363      0.61       0.434      2.438955   2.972      0.1574205  0.1574205  0.3023984  2.306574   3.9604     4.363      0.4394581  0.6177623  71.67      0.4393271  0.36986    0.5087941 
997        0.231      387.119    -9999      -9999      4.367331   3.379      3.661      0.483      0.599      2.393016   2.819      0.158935   0.158935   0.3061976  2.460483   3.676016   3.661      0.3964165  0.5874334  71.755     0.4462501  0.3812868  0.5112133 
997.2000000000001 0.254      385.849    -9999      -9999      4.441681   3.227      2.939      0.66       1.044      2.284901   2.438      0.1639643  0.1639643  0.3151387  3.049125   3.218244   2.939      0.3487895  0.553013   71.84      0.4581041  0.4025654  0.5136427 
997.4      0.29       388.389    -9999      -9999      4.535879   2.897      2.54       1.003      1.463      2.157862   2.159      0.1695408  0.1695408  0.3256449  3.867815   2.71921    2.54       0.3226609  0.534815   71.882     0.4730424  0.4312377  0.5148472 
997.6      0.29       394.739    -9999      -9999      4.627224   2.897      2.449      0.673      1.463      2.044136   2.159      0.1740367  0.1740367  0.33505    4.68533    2.309311   2.449      0.3264934  0.5391387  71.882     0.4879189  0.4609907  0.5148472 
997.8      0.29       404.899    -9999      -9999      4.695435   2.617      2.378      0.749      1.018      1.956253   2.108      0.1776178  0.1776178  0.3423178  5.45847    2.044064   2.378      0.3291376  0.5420452  71.84      0.499091   0.4845392  0.5136427 
998        0.283      415.059    -9999      -9999      4.736894   2.516      2.309      0.521      0.739      1.891556   2.159      0.1809111  0.1809111  0.3476683  6.281598   1.89796    2.309      0.3306006  0.5429129  71.755     0.5053249  0.4994365  0.5112133 
998.2000000000001 0.284      427.759    -9999      -9999      4.766903   2.49       2.259      0.483      0.612      1.842278   2.083      0.1835594  0.1835594  0.3517436  7.032723   1.798766   2.259      0.3321946  0.5437461  71.67      0.5096492  0.5105043  0.5087941 
998.4      0.319      436.649    -9999      -9999      4.804455   2.566      2.178      0.597      0.574      1.803766   2.032      0.184402   0.184402   0.3549286  7.290065   1.681913   2.178      0.3233575  0.5387163  71.67      0.5167471  0.5247000000000001 0.5087941 
998.6      0.319      442.999    -9999      -9999      4.850607   2.566      2.101      0.47       0.536      1.776621   2.032      0.1834771  0.1834771  0.3571735  7.008073   1.548642   2.101      0.308811   0.5312387  71.713     0.5263527  0.5426888  0.5100167 
998.8      0.316      446.809    -9999      -9999      4.8848     2.668      1.995      0.445      0.485      1.764777   2.032      0.1817967  0.1817967  0.3581529  6.523408   1.456761   1.995      0.2861164  0.5180449  71.797     0.5344127  0.5564129  0.5124125000000001
999        0.313      450.619    -9999      -9999      4.885105   2.795      2.04       0.457      0.396      1.770202   2.083      0.1807268  0.1807268  0.3577043  6.232425   1.455967   2.04       0.2899086  0.5219365  71.924     0.5362954  0.5565369  0.5160539 
