~Version
 VERS              .         2.0                           : CWLS LOG ASCII STANDARD - VERSION 2.0
 WRAP              .         NO                            : ONE LINE PER DEPTH STEP
 DLM               .         SPACE                         : DELIMITING CHARACTER(SPACE TAB OR COMMA)
~Well Information
#_______________________________________________________________________________
#
#PARAMETER_NAME    .UNIT     VALUE                         : DESCRIPTION
#_______________________________________________________________________________
STRT               .M        917                           : First reference value
STOP               .M        1233.6                        : Last reference value
STEP               .M        0.2                           : Step increment
NULL               .         -9999                         : Missing value
COMP               .                                       : Company
WELL               .         7276                          : Well name
FLD                .         Узень                         : Field
LOC                .                                       : Location
CNTY               .                                       : County
STAT               .                                       : State
CTRY               .                                       : Country
SRVC               .                                       : Service Company
DATE               .                                       : Date
UWI                .                                       : Unique Well ID
API                .                                       : 
Block              .         6а                            : 
Category           .         Нагнетательная                : 
Condition          .         В работе                      : 
Date               .         16.12.1985                    : 
EREF               .m        84.2                          : 100.8
Gorizont           .         15                            : 14
Interpretator      .         Алпанова Н.К.                 : 
Kupol              .         основной                      : osnovnoi
Moii_15_vosst_164  .         15_vosst_164                  : 
Mud                .                                       : 
Mud_density        .                                       : 
Mud_resistivity    .                                       : 
Mud_density        .                                       : 
Mud_resistivity    .                                       : 
NGDU               .         НГДУ-2                        : 
ORIGINALWELLNAME   .         7276                          : 
Spud_date          .         1985                          : 1961
Spud_date          .         1985                          : 1961
Viscosity          .                                       : 
X                  .m        44386.6                       : 46154
Y                  .m        85430.93                      : 85761.93
YEAR               .         2018                          : 
~Parameter Information Block
#_______________________________________________________________________________
#
#PARAMETER_NAME    .UNIT     VALUE                         : DESCRIPTION
#_______________________________________________________________________________
SET                .         LQC_KAZNIPI_Petrel            : 
TLFamily_CALI      .         Caliper                       : 
TLFamily_CILD      .         Conductivity                  : 
TLFamily_COLL      .         Net Reservoir Flag            : 
TLFamily_CSAT      .         Fluid Code                    : 
TLFamily_DEPT      .         Measured Depth                : 
TLFamily_GR        .         Russian Gamma Ray             : 
TLFamily_GZ3       .         Gradient 225                  : 
TLFamily_LLS       .         Lateral Log Resistivity       : 
TLFamily_MINV      .         Micro Gradient Resistivity    : 
TLFamily_MNOR      .         Micro Resistivity             : 
TLFamily_NGLD      .         Neutron Far                   : 
TLFamily_OGZ       .         Gradient Inverted 225         : 
TLFamily_PHIE      .         Effective Porosity            : 
TLFamily_PHIEN     .         Effective Porosity            : 
TLFamily_PHIT      .         Porosity                      : 
TLFamily_PRMB      .         Permeability                  : 
TLFamily_PRMB_DGR  .         Permeability                  : 
TLFamily_RT        .         Formation Resistivity         : 
TLFamily_SOIL_ARCHIE .         Oil Saturation                : 
TLFamily_SOIL_DW   .         Oil Saturation                : 
TLFamily_SP        .         Spontaneous Potential         : 
TLFamily_VSH_FIN   .         Shale Volume                  : 
TLFamily_VSH_GR    .         Shale Volume                  : 
TLFamily_VSH_SP    .         Shale Volume                  : 
~Curve Information
#_______________________________________________________________________________
#
#LOGNAME           .UNIT     LOG_ID                        : DESCRIPTION
#_______________________________________________________________________________
DEPT               .M                                      : Колонка глубины 
CALI               .м                                      : Каверномер 
CILD               .мСм/м                                  : Индукционный каротаж 
COLL               .unitless                               :  
CSAT               .unitless                               :  
GR                 .мкР/ч                                  : Гамма каротаж 
GZ3                .Ом·м                                   :  
LLS                .Ом·м                                   : Боковой каротаж 
MINV               .Ом·м                                   : Микро-градиент зонд 
MNOR               .Ом·м                                   : Микро-потенциал зонд 
NGLD               .у.е.                                   : Показания зонда НГК-60 аппаратуры ДРСТ-3-90 
OGZ                .Ом·м                                   :  
PHIE               .м3/м3                                  : Описание 
PHIEN              .v/v                                    :  
PHIT               .м3/м3                                  : Описание 
PRMB               .mD                                     :  
PRMB_DGR           .mD                                     :  
RT                 .ohmm                                   : Description 
SOIL_ARCHIE        .v/v                                    :  
SOIL_DW            .v/v                                    :  
SP                 .мВ                                     : Потенциал самополяризации 
VSH_FIN            .unitless                               : Описание 
VSH_GR             .unitless                               : Shale volume 
VSH_SP             .unitless                               : Shale Volume 
~Ascii
# ...
1188       0.255      500.149    -9999      -9999      7.058693   2.287      1.9        0.47       0.497      1.730045   2.515      0.2013192  0.2013192  0.3610252  14.99954   2.510091   1.9        0.3409712  0.5340527  65.532     0.4839577  0.4455615  0.522354  
1188.2     0.25       482.369    -9999      -9999      7.117233   2.135      2.549      0.356      0.485      1.742146   2.515      0.2022122  0.2022122  0.3600246  15.58184   2.301125   2.549      0.4280677  0.5977532  64.516     0.4782192  0.4616596  0.4947789 
1188.4     0.246      464.589    -9999      -9999      7.191368   1.804      2.693      0.66       0.383      1.768318   2.642      0.1982593  0.1982593  0.3578601  13.1644    2.061267   2.693      0.4329617  0.6041413  64.093     0.4836388  0.4828839  0.4843938 
1188.6     0.251      462.049    -9999      -9999      7.291006   1.804      2.577      1.054      0.383      1.798561   2.642      0.1902186  0.1902186  0.355359   9.342623   1.777797   2.577      0.3998695  0.5869135  64.177     0.5004254  0.5129547  0.4878962 
1188.8     0.251      453.159    -9999      -9999      7.385587   1.677      2.449      0.61       1.132      1.832101   2.794      0.1795259  0.1795259  0.3525852  5.92124    1.544868   2.449      0.3535841  0.5644855  64.77      0.5244223  0.5432298  0.5056148 
1189       0.251      441.729    -9999      -9999      7.419422   1.754      2.309      1.295      0.663      1.873612   2.997      0.1714236  0.1714236  0.3491523  4.191198   1.469172   2.309      0.3082057  0.5406355  65.32      0.5385718  0.5544888  0.5226548 
1189.2     0.25       426.489    -9999      -9999      7.362208   1.855      2.194      1.143      0.891      1.923746   3.226      0.167289   0.167289   0.3450062  3.513632   1.599438   2.194      0.2761918  0.5207908  65.913     0.5385369  0.5355838000000001 0.54149   
1189.4     0.241      417.599    -9999      -9999      7.239669   1.957      2.732      1.587      1.272      1.978384   3.429      0.1688777  0.1688777  0.3404877  3.759959   1.918612   2.732      0.3523301  0.5686426  65.913     0.5200301000000001 0.4972343  0.5428259 
1189.6     0.239      417.599    -9999      -9999      7.114117   1.957      3.116      2.045      1.018      2.03425    3.429      0.1708873  0.1708873  0.3358676  4.096425   2.311796   3.116      0.3973342  0.5945669  65.744     0.4999402  0.4607882  0.5390921 
1189.8     0.235      417.599    -9999      -9999      7.041481   1.982      2.596      2.108      1.64       2.089414   3.531      0.1725428  0.1725428  0.3313055  4.396122   2.575067   2.596      0.3489133  0.553772   65.151     0.4810989  0.4409359  0.5212618999999999
1190       0.232      408.709    -9999      -9999      7.030945   1.906      2.378      1.708      1.375      2.140424   3.023      0.1720326  0.1720326  0.3270869  4.301489   2.615671   2.378      0.3198031  0.5295709  64.474     0.4698616  0.438128   0.5015952 
1190.2     0.232      398.549    -9999      -9999      7.04578    1.804      2.293      1.168      1.018      2.183104   2.692      0.1723018  0.1723018  0.3235573  4.351161   2.558684   2.293      0.3090268  0.5180573  63.5       0.4583502  0.4420865  0.4746138 
1190.4     0.232      388.389    -9999      -9999      7.055452   1.881      2.275      1.41       0.789      2.214756   2.819      0.173131   0.173131   0.3209397  4.507799   2.522199   2.275      0.3093607  0.5146815  62.611     0.447905   0.4446868  0.4511232 
1190.6     0.224      373.149    -9999      -9999      7.080744   1.881      2.343      1.398      0.973      2.234815   2.819      0.1728406  0.1728406  0.3192808  4.452311   2.429238   2.343      0.3178435  0.5199543  62.018     0.4437581  0.4515583  0.4359579 
1190.8     0.22       356.639    -9999      -9999      7.155017   2.008      2.343      1.384      1.183      2.244142   3.099      0.1722163  0.1722163  0.3185095  4.335333   2.175578   2.343      0.3156903  0.5185642  61.129     0.4433125  0.4723579  0.4142671 
1191       0.215      341.399    8          2          7.25715    2.058      2.693      1.384      1.602      2.244507   3.353      0.1715444  0.1715444  0.3184793  4.212856   1.869451   2.693      0.3567826  0.5502202  59.986     0.4452573  0.5025325000000001 0.387982  
1191.2     0.211      322.349    8          2          7.327399   2.058      3.715      1.403      1.615      2.240066   3.759      0.1766639  0.1766639  0.3188466  5.240862   1.684279   3.715      0.4609017  0.6217383  57.531     0.4308565  0.5243988000000001 0.3373142 
1191.4     0.207      307.109    8          2          7.334258   2.185      5.049      1.422      1.628      2.238315   4.496      0.1855528  0.1855528  0.3189914  7.65679    1.667212   5.049      0.5527279000000001 0.6818999  54.356     0.4043592  0.5265842  0.2821341 
1191.6     0.207      296.949    8          2          7.295953   2.185      6.018      2.146      1.78       2.245844   4.496      0.1931417  0.1931417  0.3183687  10.58307   1.764785   6.018      0.6022319  0.7129515  51.731     0.3794758  0.5144956000000001 0.244456  
1191.8     0.209      288.059    8          2          7.252993   2.592      5.512      1.816      1.983      2.262901   5.385      0.1989064  0.1989064  0.3169581  13.53279   1.881028   5.512      0.5959783  0.7028291  49.191     0.3577325  0.5012674  0.2141976 
1192       0.209      281.709    8          2          7.237162   3.151      4.693      1.499      2.034      2.285206   5.969      0.2010011  0.2010011  0.3151134  14.79742   1.925767   4.693      0.568258   0.678197   47.286     0.345795   0.4964791  0.195111  
1192.2     0.208      277.899    8          2          7.255663   3.684      4.115      1.689      1.64       2.309911   6.121      0.2012471  0.2012471  0.3130704  14.95349   1.873583   4.115      0.5412802  0.6551837  44.958     0.3388584  0.5020798  0.175637  
1192.4     0.208      270.279    8          2          7.281281   3.912999999999999 3.825      1.283      1.894      2.336892   5.867      0.199025   0.199025   0.3108391  13.60139   1.803656   3.825      0.520663   0.6392031  43.857     0.3388306  0.5099388  0.1677224 
1192.6     0.208      258.849    8          2          7.266003   3.912999999999999 3.428      1.473      1.374      2.36569    5.867      0.1978933  0.1978933  0.3084574  12.96051   1.845039   3.428      0.4928571  0.6162518  43.434     0.3350427  0.5052370000000001 0.1648483 
1192.8     0.208      249.959    8          2          7.17371    3.608      3.402      1.397      1.386      2.394657   5.588000000000001 0.1996342  0.1996342  0.3060618  13.95945   2.116025   3.402      0.4949098  0.6143881  43.815     0.3225079  0.4777417  0.1672741 
1193       0.209      243.609    8          2          7.004974   3.354      4.525      1.676      1.704      2.421873   5.461      0.2042908  0.2042908  0.3038111  17.02627   2.718506   4.525      0.5669749  0.6673452  44.492     0.3015767  0.4312833  0.1718701 
1193.2     0.209      235.989    8          2          6.795579   3.125      5.2        2.299      1.704      2.443796   5.69       0.2103651  0.2103651  0.301998   22.06129   3.709876   5.2        0.6045479  0.6923327  45         0.2776754  0.3798619  0.175489  
1193.4     0.208      228.369    1          2          6.596369   2.947      5.315      1.41       2.072      2.454354   5.994000000000001 0.2171489  0.2171489  0.3011249  29.46338   4.98678    5.315      0.619258   0.6991513  44.577     0.2544727  0.336644   0.1723015 
1193.6     0.208      219.479    1          2          6.44883    2.947      4.976      2.718      2.301      2.451248   5.994000000000001 0.2229966  0.2229966  0.3013818  37.80907   6.208139   4.976      0.6162829  0.6926515  43.857     0.237531   0.3078375  0.1672244 
1193.8     0.208      211.859    1          2          6.362137   2.897      5.2        2.68       1.628      2.445901   6.019999999999999 0.2269927  0.2269927  0.301824   44.83459   7.060984   5.2        0.6298998  0.7018248  42.968     0.2267615  0.2920749  0.1614481 
