~Version
 VERS              .         2.0                           : CWLS LOG ASCII STANDARD - VERSION 2.0
 WRAP              .         NO                            : ONE LINE PER DEPTH STEP
 DLM               .         SPACE                         : DELIMITING CHARACTER(SPACE TAB OR COMMA)
~Well Information
#_______________________________________________________________________________
#
#PARAMETER_NAME    .UNIT     VALUE                         : DESCRIPTION
#_______________________________________________________________________________
STRT               .M        917                           : First reference value
STOP               .M        1233.6                        : Last reference value
STEP               .M        0.2                           : Step increment
NULL               .         -9999                         : Missing value
COMP               .                                       : Company
WELL               .         7276                          : Well name
FLD                .         Узень                         : Field
LOC                .                                       : Location
CNTY               .                                       : County
STAT               .                                       : State
CTRY               .                                       : Country
SRVC               .                                       : Service Company
DATE               .                                       : Date
UWI                .                                       : Unique Well ID
API                .                                       : 
Block              .         6а                            : 
Category           .         Нагнетательная                : 
Condition          .         В работе                      : 
Date               .         16.12.1985                    : 
EREF               .m        84.2                          : 100.8
Gorizont           .         15                            : 14
Interpretator      .         Алпанова Н.К.                 : 
Kupol              .         основной                      : osnovnoi
Moii_15_vosst_164  .         15_vosst_164                  : 
Mud                .                                       : 
Mud_density        .                                       : 
Mud_resistivity    .                                       : 
Mud_density        .                                       : 
Mud_resistivity    .                                       : 
NGDU               .         НГДУ-2                        : 
ORIGINALWELLNAME   .         7276                          : 
Spud_date          .         1985                          : 1961
Spud_date          .         1985                          : 1961
Viscosity          .                                       : 
X                  .m        44386.6                       : 46154
Y                  .m        85430.93                      : 85761.93
YEAR               .         2018                          : 
~Parameter Information Block
#_______________________________________________________________________________
#
#PARAMETER_NAME    .UNIT     VALUE                         : DESCRIPTION
#_______________________________________________________________________________
SET                .         LQC_KAZNIPI_Petrel            : 
TLFamily_CALI      .         Caliper                       : 
TLFamily_CILD      .         Conductivity                  : 
TLFamily_COLL      .         Net Reservoir Flag            : 
TLFamily_CSAT      .         Fluid Code                    : 
TLFamily_DEPT      .         Measured Depth                : 
TLFamily_GR        .         Russian Gamma Ray             : 
TLFamily_GZ3       .         Gradient 225                  : 
TLFamily_LLS       .         Lateral Log Resistivity       : 
TLFamily_MINV      .         Micro Gradient Resistivity    : 
TLFamily_MNOR      .         Micro Resistivity             : 
TLFamily_NGLD      .         Neutron Far                   : 
TLFamily_OGZ       .         Gradient Inverted 225         : 
TLFamily_PHIE      .         Effective Porosity            : 
TLFamily_PHIEN     .         Effective Porosity            : 
TLFamily_PHIT      .         Porosity                      : 
TLFamily_PRMB      .         Permeability                  : 
TLFamily_PRMB_DGR  .         Permeability                  : 
TLFamily_RT        .         Formation Resistivity         : 
TLFamily_SOIL_ARCHIE .         Oil Saturation                : 
TLFamily_SOIL_DW   .         Oil Saturation                : 
TLFamily_SP        .         Spontaneous Potential         : 
TLFamily_VSH_FIN   .         Shale Volume                  : 
TLFamily_VSH_GR    .         Shale Volume                  : 
TLFamily_VSH_SP    .         Shale Volume                  : 
~Curve Information
#_______________________________________________________________________________
#
#LOGNAME           .UNIT     LOG_ID                        : DESCRIPTION
#_______________________________________________________________________________
DEPT               .M                                      : Колонка глубины 
CALI               .м                                      : Каверномер 
CILD               .мСм/м                                  : Индукционный каротаж 
COLL               .unitless                               :  
CSAT               .unitless                               :  
GR                 .мкР/ч                                  : Гамма каротаж 
GZ3                .Ом·м                                   :  
LLS                .Ом·м                                   : Боковой каротаж 
MINV               .Ом·м                                   : Микро-градиент зонд 
MNOR               .Ом·м                                   : Микро-потенциал зонд 
NGLD               .у.е.                                   : Показания зонда НГК-60 аппаратуры ДРСТ-3-90 
OGZ                .Ом·м                                   :  
PHIE               .м3/м3                                  : Описание 
PHIEN              .v/v                                    :  
PHIT               .м3/м3                                  : Описание 
PRMB               .mD                                     :  
PRMB_DGR           .mD                                     :  
RT                 .ohmm                                   : Description 
SOIL_ARCHIE        .v/v                                    :  
SOIL_DW            .v/v                                    :  
SP                 .мВ                                     : Потенциал самополяризации 
VSH_FIN            .unitless                               : Описание 
VSH_GR             .unitless                               : Shale volume 
VSH_SP             .unitless                               : Shale Volume 
~Ascii
# ...
975.6      0.239      289.329    -9999      -9999      3.791136   3.405      3.049      0.546      0.929      2.597089   3.250999999999999 0.1614509  0.1614509  0.2893208  2.739177   10.30352973937988 3.049      0.3512518  0.5348952  72.221     0.3874845  0.25031    0.524659  
975.8      0.233      288.059    -9999      -9999      3.712044   3.557      4.625      0.628      0.787      2.628179   3.277      0.1614048  0.1614048  0.2867496  2.733804   11.86937046051025 4.625      0.4663349  0.6202733  72.178     0.3798325  0.2362596  0.5234054 
976        0.233      289.329    -9999      -9999      3.656953   3.786      4.085      0.699      0.663      2.657556   3.531      0.1609156  0.1609156  0.2843201  2.677356   13.09856033325195 4.085      0.4328218  0.5933808  72.094     0.3739529  0.2269418  0.520964  
976.2000000000001 0.222      293.139    -9999      -9999      3.652148   3.811      3.504      2.667      0.916      2.678035   3.531      0.1597591  0.1597591  0.2826265  2.548503   13.21164989471436 3.504      0.3866423  0.5581153  72.009     0.3723252  0.2261465  0.5185038 
976.4      0.233      299.489    -9999      -9999      3.700627   3.912999999999999 4.115      3.111      2.237      2.678681   3.353      0.1591629  0.1591629  0.2825731  2.484514   12.11423969268799 4.115      0.4293486  0.5915896  71.84      0.3739703  0.2342978  0.5136427 
976.6      0.228      305.839    -9999      -9999      3.7855     3.912999999999999 4.085      1.041      1.285      2.653438   3.353      0.159179   0.159179   0.2846607  2.48622    10.40791988372803 4.085      0.4274363  0.5919324  71.755     0.3802475  0.2492817  0.5112133 
976.8      0.222      314.729    -9999      -9999      3.886492   3.989      3.742      0.533      1.031      2.604298   3.353      0.1600941  0.1600941  0.2887246  2.585175   8.68779468536377 3.742      0.4063521  0.578242   71.755     0.3897892  0.2683651  0.5112133 
977        0.222      322.349    -9999      -9999      3.993237   3.912999999999999 3.504      1.206      1.424      2.540319   3.250999999999999 0.1617947  0.1617947  0.2940156  2.779637   7.177720069885254 3.504      0.3933685  0.5707182  71.755     0.4006695  0.2901258  0.5112133 
977.2000000000001 0.239      327.429    -9999      -9999      4.106059   3.786      3.256      0.73       1.349      2.474012   3.048      0.1631664  0.1631664  0.2994992  2.9471     5.866006851196289 3.256      0.3767079  0.5610989  71.755     0.4131297  0.3150462  0.5112133 
977.4      0.242      328.699    -9999      -9999      4.220433   3.658999999999999 2.897      0.686      1.132      2.416275   2.972      0.1634121  0.1634121  0.3042741  2.978153   4.780712127685547 2.897      0.3424469  0.5394287  71.755     0.4268543  0.3424954  0.5112133 
977.6      0.245      328.699    -9999      -9999      4.318639   3.658999999999999 2.54       0.508      1.082      2.376873   2.972      0.1624682  0.1624682  0.3075326  2.860644   4.010536193847656 2.54       0.2970509  0.5102069  71.755     0.4395891  0.367965   0.5112133 
977.8      0.244      327.429    -9999      -9999      4.386225   3.506      2.732      0.622      0.815      2.366886   3.073      0.1600239  0.1600239  0.3083585  2.577439   3.553850889205933 2.732      0.3116534  0.525721   71.797     0.4494989  0.3865852  0.5124125000000001
978        0.251      326.159    -9999      -9999      4.428565   3.379      2.752      0.559      0.891      2.392673   3.15       0.155287   0.155287   0.3062259  2.105963   3.294641017913818 2.752      0.2958159  0.5198864  71.924     0.4573905  0.3987271  0.5160539 
978.2000000000001 0.251      323.619    -9999      -9999      4.461694   3.405      2.634      0.483      0.789      2.445927   3.15       0.1484614  0.1484614  0.3018218  1.574068   3.105074882507324 2.634      0.2524849  0.4962264  72.094     0.4647285  0.408493   0.520964  
978.4      0.257      319.809    -9999      -9999      4.486955   3.506      2.615      0.597      0.612      2.508937   3.200000000000001 0.1413857  0.1413857  0.2966109  1.164031   2.967899084091187 2.615      0.2173519  0.4793139  72.221     0.4703794  0.4160998  0.524659  
978.6      0.247      313.459    -9999      -9999      4.48935    3.506      3.91       0.47       0.688      2.570176   3.200000000000001 0.1359985  0.1359985  0.2915465  0.9250838  2.955207109451294 3.91       0.3296865  0.5632198  72.263     0.4713573  0.4168285  0.5258861 
978.8      0.233      305.839    -9999      -9999      4.460186   3.684      4.055      0.66       0.828      2.625984   3.429      0.1332421  0.1332421  0.2869311  0.8224794  3.11346697807312 4.055      0.3291859  0.5634564  72.178     0.4657243  0.4080431  0.5234054 
979        0.232      304.569    -9999      -9999      4.413079   3.836      4.176      0.572      1.196      2.667512   3.505      0.1326932  0.1326932  0.2834967  0.803449   3.387176990509033 4.176      0.3359951  0.5659165  72.051     0.4569804  0.3942426  0.5197181 
979.2000000000001 0.232      304.569    -9999      -9999      4.372622   3.709      4.025      1.473      0.967      2.677901   3.353      0.1345319  0.1345319  0.2826376  0.8689909  3.641385078430176 4.025      0.3324687  0.5593205  71.882     0.4488052  0.3827632  0.5148472 
979.4      0.241      307.109    -9999      -9999      4.351448   3.532      3.428      1.003      1.412      2.647307   3.174999999999999 0.138433   0.138433   0.2851677  1.026295   3.781950950622559 3.428      0.2979325  0.5302559  71.797     0.4446508  0.3768891  0.5124125000000001
979.6      0.242      309.649    -9999      -9999      4.342231   3.532      2.939      0.787      0.955      2.58674    3.174999999999999 0.144057   0.144057   0.2901766  1.304495   3.844818115234375 2.939      0.2710762  0.5056949  71.755     0.4427868  0.3743604  0.5112133 
979.8      0.232      312.189    -9999      -9999      4.331826   3.379      3.093      0.597      0.828      2.522988   3.099      0.1497969  0.1497969  0.2954489  1.666324   3.917043924331665 3.093      0.3121481  0.5305753  71.755     0.4413698  0.3715262  0.5112133 
980        0.225      312.189    -9999      -9999      4.321954   3.582      3.305      0.813      0.955      2.480757   3.226      0.1535319  0.1535319  0.2989414  1.954079   3.986829042434692 3.305      0.3473679  0.5534121  71.797     0.4406347  0.3688568  0.5124125000000001
980.2000000000001 0.218      312.189    -9999      -9999      4.331056   3.608      3.478      0.775      1.209      2.467666   3.277      0.1538069  0.1538069  0.300024   1.977126   3.922446012496948 3.478      0.3637999  0.5659252  71.882     0.4430822  0.3713172  0.5148472 
980.4      0.218      310.919    -9999      -9999      4.374089   3.506      3.504      1.664      1.005      2.474186   3.174999999999999 0.150908   0.150908   0.2994848  1.747189   3.631840944290161 3.504      0.3554257  0.5638708  71.967     0.4502328  0.3831736  0.517292  
980.6      0.224      309.649    -9999      -9999      4.443795   3.506      3.256      2.4        1.729      2.484738   3.174999999999999 0.1465331  0.1465331  0.2986121  1.449796   3.206101894378662 3.256      0.3155202  0.5416045  72.009     0.4608455  0.4031872  0.5185038 
980.8      0.24       310.919    -9999      -9999      4.5193     3.328      3.005      1.016      1.247      2.487791   3.023      0.1427087  0.1427087  0.2983597  1.2316     2.801058053970337 3.005      0.2727012  0.5177532  71.967     0.4716696  0.4260471  0.517292  
981        0.244      313.459    -9999      -9999      4.593813   3.354      3.139      0.597      0.777      2.479974   2.946      0.1400253  0.1400253  0.2990061  1.098417   2.451530933380127 3.139      0.275561   0.5253862  71.84      0.4817599  0.4498771  0.5136427 
981.2000000000001 0.236      315.999    -9999      -9999      4.678871   3.709      3.688      1.181      1.475      2.466009   2.921      0.1370207  0.1370207  0.300161   0.9663057000000001 2.105530977249146 3.688      0.315524   0.5595955  71.713     0.4943646  0.4787125  0.5100167 
