~Version
 VERS              .         2.0                           : CWLS LOG ASCII STANDARD - VERSION 2.0
 WRAP              .         NO                            : ONE LINE PER DEPTH STEP
 DLM               .         SPACE                         : DELIMITING CHARACTER(SPACE TAB OR COMMA)
~Well Information
#_______________________________________________________________________________
#
#PARAMETER_NAME    .UNIT     VALUE                         : DESCRIPTION
#_______________________________________________________________________________
STRT               .M        917                           : First reference value
STOP               .M        1233.6                        : Last reference value
STEP               .M        0.2                           : Step increment
NULL               .         -9999                         : Missing value
COMP               .                                       : Company
WELL               .         7276                          : Well name
FLD                .         Узень                         : Field
LOC                .                                       : Location
CNTY               .                                       : County
STAT               .                                       : State
CTRY               .                                       : Country
SRVC               .                                       : Service Company
DATE               .                                       : Date
UWI                .                                       : Unique Well ID
API                .                                       : 
Block              .         6а                            : 
Category           .         Нагнетательная                : 
Condition          .         В работе                      : 
Date               .         16.12.1985                    : 
EREF               .m        84.2                          : 100.8
Gorizont           .         15                            : 14
Interpretator      .         Алпанова Н.К.                 : 
Kupol              .         основной                      : osnovnoi
Moii_15_vosst_164  .         15_vosst_164                  : 
Mud                .                                       : 
Mud_density        .                                       : 
Mud_resistivity    .                                       : 
Mud_density        .                                       : 
Mud_resistivity    .                                       : 
NGDU               .         НГДУ-2                        : 
ORIGINALWELLNAME   .         7276                          : 
Spud_date          .         1985                          : 1961
Spud_date          .         1985                          : 1961
Viscosity          .                                       : 
X                  .m        44386.6                       : 46154
Y                  .m        85430.93                      : 85761.93
YEAR               .         2018                          : 
~Parameter Information Block
#_______________________________________________________________________________
#
#PARAMETER_NAME    .UNIT     VALUE                         : DESCRIPTION
#_______________________________________________________________________________
SET                .         LQC_KAZNIPI_Petrel            : 
TLFamily_CALI      .         Caliper                       : 
TLFamily_CILD      .         Conductivity                  : 
TLFamily_COLL      .         Net Reservoir Flag            : 
TLFamily_CSAT      .         Fluid Code                    : 
TLFamily_DEPT      .         Measured Depth                : 
TLFamily_GR        .         Russian Gamma Ray             : 
TLFamily_GZ3       .         Gradient 225                  : 
TLFamily_LLS       .         Lateral Log Resistivity       : 
TLFamily_MINV      .         Micro Gradient Resistivity    : 
TLFamily_MNOR      .         Micro Resistivity             : 
TLFamily_NGLD      .         Neutron Far                   : 
TLFamily_OGZ       .         Gradient Inverted 225         : 
TLFamily_PHIE      .         Effective Porosity            : 
TLFamily_PHIEN     .         Effective Porosity            : 
TLFamily_PHIT      .         Porosity                      : 
TLFamily_PRMB      .         Permeability                  : 
TLFamily_PRMB_DGR  .         Permeability                  : 
TLFamily_RT        .         Formation Resistivity         : 
TLFamily_SOIL_ARCHIE .         Oil Saturation                : 
TLFamily_SOIL_DW   .         Oil Saturation                : 
TLFamily_SP        .         Spontaneous Potential         : 
TLFamily_VSH_FIN   .         Shale Volume                  : 
TLFamily_VSH_GR    .         Shale Volume                  : 
TLFamily_VSH_SP    .         Shale Volume                  : 
~Curve Information
#_______________________________________________________________________________
#
#LOGNAME           .UNIT     LOG_ID                        : DESCRIPTION
#_______________________________________________________________________________
DEPT               .M                                      : Колонка глубины 
CALI               .м                                      : Каверномер 
CILD               .мСм/м                                  : Индукционный каротаж 
COLL               .unitless                               :  
CSAT               .unitless                               :  
GR                 .мкР/ч                                  : Гамма каротаж 
GZ3                .Ом·м                                   :  
LLS                .Ом·м                                   : Боковой каротаж 
MINV               .Ом·м                                   : Микро-градиент зонд 
MNOR               .Ом·м                                   : Микро-потенциал зонд 
NGLD               .у.е.                                   : Показания зонда НГК-60 аппаратуры ДРСТ-3-90 
OGZ                .Ом·м                                   :  
PHIE               .м3/м3                                  : Описание 
PHIEN              .v/v                                    :  
PHIT               .м3/м3                                  : Описание 
PRMB               .mD                                     :  
PRMB_DGR           .mD                                     :  
RT                 .ohmm                                   : Description 
SOIL_ARCHIE        .v/v                                    :  
SOIL_DW            .v/v                                    :  
SP                 .мВ                                     : Потенциал самополяризации 
VSH_FIN            .unitless                               : Описание 
VSH_GR             .unitless                               : Shale volume 
VSH_SP             .unitless                               : Shale Volume 
~Ascii
# ...
934.6      0.214      335.049    1          3          2.021788   2.49       2.875      1.981      1.386      2.884323   2.921      0.2397057  0.2397057  0.2655665  77.10617000000001 4228.69580078125 2.875      0.5273246  0.5719913  57.743     0.07836595 0.0214493  0.1352826 
934.8      0.214      331.239    6          6          2.049645   2.592      2.919      1.689      1.31       2.937333   2.819      0.2351927  0.2351927  0.2611826  63.606     4045.718017578125 2.919      0.5228478  0.5676625  57.827     0.07875711000000001 0.02184025 0.135674  
935        0.213      324.889    6          6          2.070674   2.693      3.049      1.46       1.132      2.984159   2.769      0.2312373  0.2312373  0.25731    53.73202   3912.85595703125 3.049      0.5255479  0.5702409  57.87      0.07900833 0.02214008 0.1358766 
935.2000000000001 0.213      321.079    6          6          2.072942   2.82       3.233      1.206      1.678      3.021287   2.794      0.2281615  0.2281615  0.2542396  47.12613   3898.791015625 3.233      0.5330015  0.5773584  57.87      0.07902463 0.02217266 0.1358766 
935.4      0.213      317.269    6          6          2.068056   2.947      3.608      1.727      1.958      3.050267   2.819      0.2258098  0.2258098  0.2518429  42.62885   3929.152099609375 3.608      0.5524219  0.5959635  57.827     0.07888826 0.02210254 0.135674  
935.6      0.213      314.729    6          6          2.067065   2.947      3.796      2.108      1.869      3.072472   2.819      0.2239758  0.2239758  0.2500065  39.42145   3935.343994140625 3.796      0.5598489  0.6030601  57.827     0.07888116000000001 0.02208833 0.135674  
935.8      0.215      313.459    6          6          2.065724   3.151      3.997      2.413      1.971      3.081779   2.87       0.2231759  0.2231759  0.2492369  38.09927   3943.72802734375 3.997      0.5690371  0.6118928  57.87      0.07897287 0.02206914 0.1358766 
936        0.215      313.459    6          6          2.0587     3.278000000000001 3.853      2.146      1.564      3.066095   2.921      0.2244566  0.2244566  0.250534   40.23819   3987.9609375 3.853      0.5637321  0.6068429  57.912     0.07902242 0.02196886 0.136076  
936.2000000000001 0.215      314.729    6          6          2.054713   3.430000000000001 3.661      1.791      1.272      3.018618   2.794      0.2283923  0.2283923  0.2544603  47.59231   4013.2939453125 3.661      0.5598551000000001 0.6031999  57.912     0.07899406000000001 0.02191213 0.136076  
936.4      0.214      321.079    6          6          2.068445   3.481      3.478      1.359      1.488      2.946311   2.667      0.2343397  0.2343397  0.2604401  61.33359   3926.72998046875 3.478      0.5591179  0.602664   57.912     0.07909204 0.0221081  0.136076  
936.6      0.214      331.239    1          3          2.103571   3.481      3.402      1.511      1.424      2.864895   2.667      0.2409888  0.2409888  0.2671732  81.44331   3713.701904296875 3.402      0.5652474  0.6087865  57.912     0.07934670000000001 0.02261741 0.136076  
936.8      0.214      346.479    1          3          2.14816    3.354      3.305      1.575      1.082      2.789778   2.565      0.2470914  0.2470914  0.2733853  105.6552   3459.85302734375 3.305      0.5688005  0.6124423  57.912     0.07967842 0.02328086 0.136076  
937        0.214      359.179    1          3          2.183559   3.251999999999999 3.027      1.219      1.221      2.732528   2.438      0.2517368  0.2517368  0.2781199  128.8058   3270.742919921875 3.027      0.5578805  0.6021787  57.912     0.07994867999999999 0.02382138 0.136076  
937.2000000000001 0.214      373.149    1          3          2.195773   3.1        2.772      1.245      1.259      2.69794    2.286      0.254566   0.254566   0.2809804  145.3245   3207.919921875 2.772      0.5437034  0.5886818  57.912     0.08004338 0.02401078 0.136076  
937.4      0.214      388.389    1          3          2.184644   2.973      2.693      1.511      1.374      2.682921   2.159      0.2558366  0.2558366  0.2822224  153.4167   3265.10888671875 2.693      0.5394715  0.58463    57.912     0.07995707000000001 0.02383815 0.136076  
937.6      0.214      402.359    1          3          2.163704   2.973      2.634      1.575      1.259      2.683549   2.159      0.2558377  0.2558377  0.2821705  153.4239   3375.5009765625 2.634      0.5346610000000001 0.5799604  57.912     0.07979633 0.02351668 0.136076  
937.8      0.214      412.519    1          3          2.146643   2.897      2.558      1.473      1.145      2.701871   2.083      0.2543651  0.2543651  0.2806552  144.0846   3468.199951171875 2.558      0.5258457  0.5713936  57.912     0.07966697 0.02325796 0.136076  
938        0.214      416.329    1          3          2.133116   2.82       2.485      1.651      1.31       2.740518   2.007      0.2512026  0.2512026  0.2774591  125.9038   3543.498046875 2.485      0.5140936  0.5599351  57.912     0.07956543000000001 0.02305487 0.136076  
938.2000000000001 0.214      417.599    1          3          2.110578   2.744      2.396      1.448      1.183      2.793747   1.93       0.2468557  0.2468557  0.2730571  104.5984   3672.614013671875 2.396      0.4981336  0.5443258  57.912     0.07939818999999999 0.0227204  0.136076  
938.4      0.214      417.599    1          3          2.069853   2.77       2.378      1.232      1.107      2.849197   1.88       0.2423677  0.2423677  0.2684714  86.37649999999999 3917.95703125 2.378      0.4882414  0.5345103  57.912     0.07910214 0.0221283  0.136076  
938.6      0.214      417.599    1          3          2.017986   2.77       2.449      1.118      1.666      2.895511   1.88       0.2386583  0.2386583  0.2646413  73.73755   4254.3017578125 2.449      0.4884322  0.5344586  57.912     0.07873624 0.02139649 0.136076  
938.8      0.214      418.869    1          3          1.977958   2.846      2.752      1.854      1.615      2.924011   1.905      0.2363918  0.2363918  0.2622843  66.94334000000001 4533.48583984375 2.752      0.5116403000000001 0.5567746  57.912     0.07846214999999999 0.02084831 0.136076  
939        0.215      423.949    1          3          1.972489   2.922      2.897      1.791      1.361      2.92657    2.032      0.2361923  0.2361923  0.2620726  66.37622   4573.02490234375 2.897      0.5229163  0.5676533  57.912     0.07842525 0.02077452 0.136076  
939.2000000000001 0.215      430.299    1          3          2.002264   2.973      3.027      1.511      1.12       2.898019   2.159      0.2384867  0.2384867  0.2644338  73.19985   4361.85009765625 3.027      0.5365617  0.5809412  57.912     0.07862774 0.02117948 0.136076  
939.4      0.215      435.379    1          3          2.044051   2.998      3.256      1.118      1.221      2.843314   2.311      0.2429148  0.2429148  0.2689579  88.41582   4081.81689453125 3.256      0.559272   0.6029869  57.912     0.07891858 0.02176117 0.136076  
939.6      0.216      440.459    1          3          2.075592   2.998      3.005      1.346      1.361      2.779777   2.311      0.2480952  0.2480952  0.2742125  110.2763   3882.416015625 3.005      0.5506983  0.5949622  57.912     0.07914338999999999 0.0222108  0.136076  
939.8      0.214      444.269    1          3          2.099107   2.998      2.674      1.549      1.12       2.727121   2.362      0.2523935  0.2523935  0.2785671  132.4638   3740.1201171875 2.674      0.5324537  0.5775943  57.912     0.07931402 0.02255204 0.136076  
940        0.213      449.349    1          3          2.13171    2.82       2.485      1.46       1.056      2.695052   2.261      0.254933   0.254933   0.2812192  147.6166   3551.419921875 2.485      0.5202921  0.5660573  57.954     0.07965536 0.02303386 0.1362769 
940.2000000000001 0.213      454.429    1          3          2.173598   2.693      2.577      1.245      1.247      2.682983   2.108      0.2557922  0.2557922  0.2822173  153.1264   3322.886962890625 2.577      0.5297862  0.5753483  57.997     0.08007604 0.02366802 0.1364841 
