~Version
 VERS              .         2.0                           : CWLS LOG ASCII STANDARD - VERSION 2.0
 WRAP              .         NO                            : ONE LINE PER DEPTH STEP
 DLM               .         SPACE                         : DELIMITING CHARACTER(SPACE TAB OR COMMA)
~Well Information
#_______________________________________________________________________________
#
#PARAMETER_NAME    .UNIT     VALUE                         : DESCRIPTION
#_______________________________________________________________________________
STRT               .M        917                           : First reference value
STOP               .M        1233.6                        : Last reference value
STEP               .M        0.2                           : Step increment
NULL               .         -9999                         : Missing value
COMP               .                                       : Company
WELL               .         7276                          : Well name
FLD                .         Узень                         : Field
LOC                .                                       : Location
CNTY               .                                       : County
STAT               .                                       : State
CTRY               .                                       : Country
SRVC               .                                       : Service Company
DATE               .                                       : Date
UWI                .                                       : Unique Well ID
API                .                                       : 
Block              .         6а                            : 
Category           .         Нагнетательная                : 
Condition          .         В работе                      : 
Date               .         16.12.1985                    : 
EREF               .m        84.2                          : 100.8
Gorizont           .         15                            : 14
Interpretator      .         Алпанова Н.К.                 : 
Kupol              .         основной                      : osnovnoi
Moii_15_vosst_164  .         15_vosst_164                  : 
Mud                .                                       : 
Mud_density        .                                       : 
Mud_resistivity    .                                       : 
Mud_density        .                                       : 
Mud_resistivity    .                                       : 
NGDU               .         НГДУ-2                        : 
ORIGINALWELLNAME   .         7276                          : 
Spud_date          .         1985                          : 1961
Spud_date          .         1985                          : 1961
Viscosity          .                                       : 
X                  .m        44386.6                       : 46154
Y                  .m        85430.93                      : 85761.93
YEAR               .         2018                          : 
~Parameter Information Block
#_______________________________________________________________________________
#
#PARAMETER_NAME    .UNIT     VALUE                         : DESCRIPTION
#_______________________________________________________________________________
SET                .         LQC_KAZNIPI_Petrel            : 
TLFamily_CALI      .         Caliper                       : 
TLFamily_CILD      .         Conductivity                  : 
TLFamily_COLL      .         Net Reservoir Flag            : 
TLFamily_CSAT      .         Fluid Code                    : 
TLFamily_DEPT      .         Measured Depth                : 
TLFamily_GR        .         Russian Gamma Ray             : 
TLFamily_GZ3       .         Gradient 225                  : 
TLFamily_LLS       .         Lateral Log Resistivity       : 
TLFamily_MINV      .         Micro Gradient Resistivity    : 
TLFamily_MNOR      .         Micro Resistivity             : 
TLFamily_NGLD      .         Neutron Far                   : 
TLFamily_OGZ       .         Gradient Inverted 225         : 
TLFamily_PHIE      .         Effective Porosity            : 
TLFamily_PHIEN     .         Effective Porosity            : 
TLFamily_PHIT      .         Porosity                      : 
TLFamily_PRMB      .         Permeability                  : 
TLFamily_PRMB_DGR  .         Permeability                  : 
TLFamily_RT        .         Formation Resistivity         : 
TLFamily_SOIL_ARCHIE .         Oil Saturation                : 
TLFamily_SOIL_DW   .         Oil Saturation                : 
TLFamily_SP        .         Spontaneous Potential         : 
TLFamily_VSH_FIN   .         Shale Volume                  : 
TLFamily_VSH_GR    .         Shale Volume                  : 
TLFamily_VSH_SP    .         Shale Volume                  : 
~Curve Information
#_______________________________________________________________________________
#
#LOGNAME           .UNIT     LOG_ID                        : DESCRIPTION
#_______________________________________________________________________________
DEPT               .M                                      : Колонка глубины 
CALI               .м                                      : Каверномер 
CILD               .мСм/м                                  : Индукционный каротаж 
COLL               .unitless                               :  
CSAT               .unitless                               :  
GR                 .мкР/ч                                  : Гамма каротаж 
GZ3                .Ом·м                                   :  
LLS                .Ом·м                                   : Боковой каротаж 
MINV               .Ом·м                                   : Микро-градиент зонд 
MNOR               .Ом·м                                   : Микро-потенциал зонд 
NGLD               .у.е.                                   : Показания зонда НГК-60 аппаратуры ДРСТ-3-90 
OGZ                .Ом·м                                   :  
PHIE               .м3/м3                                  : Описание 
PHIEN              .v/v                                    :  
PHIT               .м3/м3                                  : Описание 
PRMB               .mD                                     :  
PRMB_DGR           .mD                                     :  
RT                 .ohmm                                   : Description 
SOIL_ARCHIE        .v/v                                    :  
SOIL_DW            .v/v                                    :  
SP                 .мВ                                     : Потенциал самополяризации 
VSH_FIN            .unitless                               : Описание 
VSH_GR             .unitless                               : Shale volume 
VSH_SP             .unitless                               : Shale Volume 
~Ascii
# ...
1048       0.267      521.739    -9999      -9999      5.454222   2.465      2.07       1.435      1.463      1.766512   1.6        0.2014625  0.2014625  0.3580094  15.09147   2.440209   2.07       0.3584141  0.5453312  65.913     0.4743848  0.4507283  0.4980412 
1048.2     0.269      524.279    -9999      -9999      5.47109    2.312      2.116      0.635      1.424      1.72429    1.651      0.2035923  0.2035923  0.3615012  16.52651   2.378941   2.116      0.3707869  0.5547864  66.04      0.4785119  0.4554326  0.5015911 
1048.4     0.269      528.089    -9999      -9999      5.480438   2.312      2.378      2.197      0.802      1.684162   1.651      0.2068697  0.2068697  0.3648198  19.00585   2.345655   2.378      0.4125549  0.5849695  65.955     0.4786367  0.4580607  0.4992127 
1048.6     0.258      533.169    -9999      -9999      5.494035   2.312      2.04       1.46       0.396      1.649579   1.651      0.2096777  0.2096777  0.3676798  21.42387   2.298067   2.04       0.3761044  0.556386   65.828     0.4787942  0.4619104  0.4956779 
1048.8     0.26       536.979    -9999      -9999      5.518584   2.389      1.981      0.889      1.869      1.617342   1.575      0.2123387  0.2123387  0.3703459  23.99865   2.21458    1.981      0.3743624  0.554021   65.574     0.4788094  0.4689431  0.4886757 
1049       0.265      542.059    -9999      -9999      5.53174    2.287      1.938      0.991      0.967      1.58701    1.549      0.2149786  0.2149786  0.3728543  26.85855   2.171095   1.938      0.374652   0.5531278  65.405     0.4784112  0.4727559  0.4840665 
1049.2     0.26       549.679    -9999      -9999      5.504286   2.16       1.981      0.851      0.599      1.561202   1.499      0.2193648  0.2193648  0.3749886  32.38372   2.262831   1.981      0.3918516  0.5630416  65.193     0.4715872  0.464834   0.4783404 
1049.4     0.26       557.299    -9999      -9999      5.438167   2.033      1.883      0.584      0.866      1.541004   1.422      0.2248398  0.2248398  0.3766589  40.90124   2.499984   1.883      0.3904283  0.5573817  65.024     0.460058   0.4462961  0.4738199 
1049.6     0.274      563.649    -9999      -9999      5.367291   2.033      1.952      0.914      0.599      1.527782   1.422      0.2301857  0.2301857  0.3777524  51.37543   2.78187    1.952      0.4127781  0.570092   64.77      0.4471719  0.4272446  0.4670991 
1049.8     0.269      572.539    -9999      -9999      5.330503   1.982      1.788      0.66       0.434      1.525838   1.346      0.2328393  0.2328393  0.3779132  57.53176   2.940497   1.788      0.3941693  0.5529843  64.558     0.4396178  0.4176787  0.461557  
1050       0.257      581.429    -9999      -9999      5.356555   2.058      1.686      0.368      0.802      1.536503   1.295      0.2313862  0.2313862  0.3770312  54.07449   2.827256   1.686      0.373833   0.5378563  64.431     0.4413483  0.4244306  0.458266  
1050.2     0.264      586.509    -9999      -9999      5.451629   2.058      1.776      0.724      0.396      1.551452   1.473      0.2259295  0.2259295  0.3757949  42.84693   2.449763   1.776      0.3760945  0.5444955  64.431     0.4541378  0.4500096  0.458266  
1050.4     0.291      590.319    -9999      -9999      5.582217   1.931      1.868      0.864      0.459      1.557224   1.524      0.2191478  0.2191478  0.3753176  32.08541   2.012028   1.868      0.374318   0.5500799  64.452     0.4732418  0.4876747  0.4588088 
1050.6     0.319      599.209    -9999      -9999      5.688811   1.931      2.025      0.813      0.624      1.54645    1.524      0.2144884  0.2144884  0.3762086  26.30287   1.713369   2.025      0.3861874  0.5647975  64.474     0.4900613  0.5207449  0.4593778 
1050.8     0.319      604.289    -9999      -9999      5.73596    1.855      1.868      0.94       0.98       1.522512   1.473      0.2135784  0.2135784  0.3781883  25.30158   1.595824   1.868      0.3601314  0.5475541  64.558     0.4988179  0.5360788  0.461557  
1051       0.318      606.829    -9999      -9999      5.740263   1.855      1.686      0.597      0.967      1.495108   1.448      0.2150634  0.2150634  0.3804546  26.95594   1.585505   1.686      0.3326385  0.5267747  64.685     0.5011852  0.5375008  0.4648697 
1051.2     0.318      600.479    -9999      -9999      5.741656   1.906      1.75       0.762      0.421      1.472985   1.524      0.2162667  0.2162667  0.3822841  28.37545   1.58218    1.75       0.3473839  0.5378743  64.812     0.503083   0.5379617  0.4682043 
1051.4     0.317      595.399    -9999      -9999      5.758027   2.033      1.801      0.572      0.764      1.459894   1.6        0.2164504  0.2164504  0.3833668  28.59855   1.543613   1.801      0.356598   0.5453958  64.812     0.5058072  0.5434101  0.4682043 
1051.6     0.315      596.669    -9999      -9999      5.77282    2.033      1.91       0.419      0.459      1.455186   1.6        0.216751   0.216751   0.3837561  28.96761   1.509573   1.91       0.3748533  0.5590708  64.643     0.5060761  0.5483804  0.4637718 
1051.8     0.314      600.479    -9999      -9999      5.754715   1.982      1.868      0.927      0.434      1.456951   1.575      0.2188734  0.2188734  0.3836102  31.71203   1.551338   1.868      0.3736348  0.5557532  64.347     0.4992023  0.5423035000000001 0.4561012 
1052       0.316      604.289    -9999      -9999      5.689445   1.83       1.736      0.699      0.459      1.463843   1.575      0.2230775  0.2230775  0.3830402  37.9397    1.711732   1.736      0.3623733  0.5422258  64.05      0.4847356  0.5209482  0.4485231 
1052.2     0.316      605.559    -9999      -9999      5.602961   1.627      1.776      0.559      0.967      1.475044   1.626      0.2274837  0.2274837  0.3821139  45.7835    1.950084   1.776      0.3798089  0.5502672  63.839     0.4685762  0.4939416  0.4432107 
1052.4     0.321      602.384    -9999      -9999      5.548289   1.652      1.721      0.419      0.447      1.490645   1.702      0.2292409  0.2292409  0.3808236  49.34641   2.117604   1.721      0.3747897  0.543614   63.754     0.4593417  0.4775962  0.4410872 
1052.6     0.312      596.669    -9999      -9999      5.560994   1.652      1.627      1.08       0.548      1.511736   1.702      0.2265277  0.2265277  0.3790795  43.95418   2.077436   1.627      0.3514006  0.5270747  63.839     0.4622781  0.4813455  0.4432107 
1052.8     0.319      590.319    -9999      -9999      5.630163   1.703      1.776      0.699      0.396      1.538199   1.803      0.2201834  0.2201834  0.376891   33.53431   1.87174    1.776      0.3619376  0.5405971  64.008     0.4748712  0.5022816  0.4474609 
1053       0.314      582.699    -9999      -9999      5.710931   1.779      1.762      0.457      0.624      1.567564   1.854      0.2122872  0.2122872  0.3744624  23.94594   1.657181   1.762      0.338865   0.5302207  64.304     0.4914401  0.5278835  0.4549967 
1053.2     0.314      572.539    -9999      -9999      5.756714   1.83       1.952      0.762      0.358      1.597634   1.829      0.2064085  0.2064085  0.3719757  18.63566   1.54667    1.952      0.3542827  0.5468749  64.516     0.5017186  0.5429711  0.4604662 
1053.4     0.296      561.109    -9999      -9999      5.745275   1.855      1.967      0.495      0.878      1.628261   1.753      0.2026736  0.2026736  0.3694429  15.89153   1.573573   1.967      0.3462837  0.5434662  64.939     0.5053612  0.5391613  0.4715611 
1053.6     0.276      553.489    -9999      -9999      5.694743   1.855      1.883      1.283      0.472      1.660328   1.753      0.2016276  0.2016276  0.3667909  15.19811   1.698117   1.883      0.3297434  0.530395   65.193     0.500495   0.5226496000000001 0.4783404 
1053.8     0.293      544.599    -9999      -9999      5.651852   1.83       1.736      0.82       0.891      1.696443   1.778      0.1999429  0.1999429  0.3638042  14.14446   1.811535   1.736      0.298577   0.5068597  65.405     0.4965492  0.5090319  0.4840665 
1054       0.298      534.439    -9999      -9999      5.648181   1.754      1.788      0.572      0.713      1.741808   1.829      0.196948   0.196948   0.3600525  12.44839   1.821587   1.788      0.2990716  0.5081092  65.278     0.4942559  0.5078831  0.4806288 
