~Version
 VERS              .         2.0                           : CWLS LOG ASCII STANDARD - VERSION 2.0
 WRAP              .         NO                            : ONE LINE PER DEPTH STEP
 DLM               .         SPACE                         : DELIMITING CHARACTER(SPACE TAB OR COMMA)
~Well Information
#_______________________________________________________________________________
#
#PARAMETER_NAME    .UNIT     VALUE                         : DESCRIPTION
#_______________________________________________________________________________
STRT               .M        850                           : First reference value
STOP               .M        1297.8                        : Last reference value
STEP               .M        0.2                           : Step increment
NULL               .         -9999                         : Missing value
COMP               .                                       : Company
WELL               .         1804                          : Well name
FLD                .         УЗЕНЬ                         : Field
LOC                .                                       : Location
CNTY               .                                       : County
STAT               .                                       : State
CTRY               .                                       : Country
SRVC               .                                       : Service Company
DATE               .                                       : Date
UWI                .                                       : Unique Well ID
Block              .         6а                            : 
Category           .         Нефтяная                      : 
Condition          .         Ликвидированная               : 
Date               .         21.02.1974                    : 
EREF               .m        86.9                          : 100.8
Gorizont           .         15                            : 14
Interpretator      .         Алпанова Н.К.                 : 
Kupol              .         основной                      : osnovnoi
METD               .         OGZ3, GZ3, SP, CALI           : Метод
Moii_15_vosst2     .         15_vosst2                     : 
Mud                .                                       : 
Mud_density        .                                       : 
Mud_resistivity    .                                       : 
Mud_density        .                                       : 
Mud_resistivity    .                                       : 
NGDU               .         НГДУ-2                        : 
ORIGINALWELLNAME   .         1804                          : 
SCAL               .         500                           : Масштаб по глубине
Spud_date          .         1974                          : 1961
Spud_date          .         1974                          : 1961
Viscosity          .                                       : 
X                  .m        45120.3                       : 46154
Y                  .m        85617.63                      : 85761.93
YEAR               .         2018                          : 
~Parameter Information Block
#_______________________________________________________________________________
#
#PARAMETER_NAME    .UNIT     VALUE                         : DESCRIPTION
#_______________________________________________________________________________
SET                .         LQC_KAZNIPI_Petrel            : 
TLFamily_CALI      .         Caliper                       : 
TLFamily_CILD      .         Conductivity                  : 
TLFamily_COLL      .         Net Reservoir Flag            : 
TLFamily_CSAT      .         Fluid Code                    : 
TLFamily_DEPT      .         Measured Depth                : 
TLFamily_GR        .         Russian Gamma Ray             : 
TLFamily_GZ1       .         Gradient 045                  : 
TLFamily_GZ2       .         Gradient 105                  : 
TLFamily_GZ3       .         Gradient 225                  : 
TLFamily_GZ4       .         Gradient 425                  : 
TLFamily_GZ5       .         Gradient 850                  : 
TLFamily_LLS       .         Lateral Log Resistivity       : 
TLFamily_MINV      .         Micro Gradient Resistivity    : 
TLFamily_MNOR      .         Micro Resistivity             : 
TLFamily_NGLD      .         Neutron Far                   : 
TLFamily_OGZ       .         Gradient Inverted 225         : 
TLFamily_PHIE      .         Effective Porosity            : 
TLFamily_PHIEN     .         Effective Porosity            : 
TLFamily_PHIT      .         Porosity                      : 
TLFamily_PRMB      .         Permeability                  : 
TLFamily_PRMB_DGR  .         Permeability                  : 
TLFamily_RT        .         Formation Resistivity         : 
TLFamily_SOIL_ARCHIE .         Oil Saturation                : 
TLFamily_SOIL_DW   .         Oil Saturation                : 
TLFamily_SP        .         Spontaneous Potential         : 
TLFamily_VSH_FIN   .         Shale Volume                  : 
TLFamily_VSH_GR    .         Shale Volume                  : 
TLFamily_VSH_SP    .         Shale Volume                  : 
~Curve Information
#_______________________________________________________________________________
#
#LOGNAME           .UNIT     LOG_ID                        : DESCRIPTION
#_______________________________________________________________________________
DEPT               .M                                      : Колонка глубины 
CALI               .м                                      : Каверномер 
CILD               .мСм/м                                  : Индукционный каротаж 
COLL               .unitless                               :  
CSAT               .unitless                               :  
GR                 .мкР/ч                                  : Гамма каротаж 
GZ1                .Ом·м                                   : A0.4M0.1N 
GZ2                .Ом·м                                   : A1.0M0.1N 
GZ3                .Ом·м                                   : A2M0.5N 
GZ4                .Ом·м                                   : A4M0.5N 
GZ5                .Ом·м                                   : A8M1N 
LLS                .Ом·м                                   : Боковой каротаж 
MINV               .Ом·м                                   : Микро-градиент зонд 
MNOR               .Ом·м                                   : Микро-потенциал зонд 
NGLD               .у.е.                                   : Показания зонда НГК-60 аппаратуры ДРСТ-3-90 
OGZ                .Ом·м                                   : N0.5M2A 
PHIE               .м3/м3                                  : Описание 
PHIEN              .v/v                                    :  
PHIT               .м3/м3                                  : Описание 
PRMB               .mD                                     :  
PRMB_DGR           .mD                                     :  
RT                 .ohmm                                   : Description 
SOIL_ARCHIE        .v/v                                    :  
SOIL_DW            .v/v                                    :  
SP                 .мВ                                     : Потенциал самополяризации 
VSH_FIN            .unitless                               : Описание 
VSH_GR             .unitless                               : Shale volume 
VSH_SP             .unitless                               : Shale Volume 
~Ascii
# ...
979.2000000000001 0.254      367.714    -9999      -9999      6.815501   2.194      3.072      3.318      2.959      2.508      2.471      1.127      1.369      1.105383038520813 3.95       0.1899294  0.1899294  0.3196694  9.228096000000001 11.24208   2.471      0.3784653  0.5438821  29.245     0.3931513  0.2415563  0.5447462 
979.4      0.267      364.484    -9999      -9999      6.752233   2.231      3.448      3.318      2.984      2.545      2.612      1.083      2.323      1.109002947807312 3.937      0.1903138  0.1903138  0.3184249  9.380604999999999 11.96286   2.612      0.395507   0.5556818  29.118     0.3882155  0.235504   0.5409269 
979.6      0.257      360.447    -9999      -9999      6.67654    2.294      3.398      3.343      3.047      2.571      2.533      1.817      1.595      1.112064003944397 3.861      0.1910447  0.1910447  0.3173725  9.677633   12.88613   2.533      0.388776   0.5486009  28.992     0.3828115  0.2284621  0.5371609000000001
979.8      0.245      361.255    -9999      -9999      6.59584    2.394      3.072      3.381      3.135      2.583      2.357      1.34       3.667      1.114315032958984 3.798      0.1920889  0.1920889  0.3165985  10.11836   13.94908   2.357      0.3707618  0.5323869  28.866     0.377302   0.2211862  0.5334179 
980        0.235      362.062    -9999      -9999      6.519821   2.432      3.649      3.483      3.185      2.583      2.893      0.983      0.992      1.115542054176331 3.747      0.192763   0.192763   0.3161767  10.41348   15.03047   2.893      0.430189   0.5781779  28.866     0.3739811  0.2145443  0.5334179 
980.2000000000001 0.256      365.292    -9999      -9999      6.458039   2.432      3.975      3.534      3.16       2.583      3.069      2.575      6.028      1.115612030029297 3.721      0.1936054  0.1936054  0.3161528  10.79442   15.9708    3.069      0.4478647  0.5911492  28.866     0.3713557  0.2092935  0.5334179 
980.4      0.26       369.329    -9999      -9999      6.417431   2.457      3.561      3.572      3.135      2.583      2.63       0.914      2.637      1.114416003227234 3.683      0.1945743  0.1945743  0.3165638  11.24983   16.62066   2.63       0.4089595  0.5595696  28.866     0.3696652  0.2059125  0.5334179 
980.6      0.248      379.019    -9999      -9999      6.402703   2.545      3.837      3.572      3.147      2.596      2.963      0.757      1.005      1.111925959587097 3.62       0.1956304  0.1956304  0.3174198  11.76814   16.86283   2.963      0.4437459  0.5866259  28.866     0.3690588  0.2046998  0.5334179 
980.8      0.239      389.516    -9999      -9999      6.414104   2.62       4.113      3.496      3.097      2.596      2.928      1.459      3.077      1.108299016952515 3.544      0.1967226  0.1967226  0.3186668  12.32926   16.67507   2.928      0.4433412  0.5860639  28.866     0.3695279  0.2056379  0.5334179 
981        0.235      399.205    -9999      -9999      6.448071   2.645      3.975      3.419      2.984      2.596      2.761      1.127      2.11       1.103880047798157 3.467      0.1977765  0.1977765  0.3201861  12.89609   16.12791   2.761      0.4304439  0.5758519  28.866     0.3709382  0.2084585  0.5334179 
981.2000000000001 0.234      408.894    -9999      -9999      6.498112   2.432      4.276      3.368      2.834      2.571      2.849      1.096      2.323      1.099110960960388 3.391      0.1984104  0.1984104  0.3218256  13.2495    15.3544    2.849      0.4403302  0.5842623  28.929     0.3739855  0.2126845  0.5352865 
981.4      0.23       418.584    -9999      -9999      6.555705   2.106      4.15       3.318      2.721      2.533      2.471      1.741      3.353      1.094480037689209 3.417      0.1988734  0.1988734  0.3234179  13.51376   14.50995   2.471      0.4028824  0.5553275  28.992     0.3774076  0.2176543  0.5371609000000001
981.6      0.224      425.851    -9999      -9999      6.612381   1.993      3.423      3.267      2.771      2.47       1.926      1.334      1.984      1.090378999710083 3.493      0.1988363  0.1988363  0.3248278  13.49237   13.7243    1.926      0.3287064  0.497599   29.118     0.3817926  0.2226583  0.5409269 
981.8      0.234      419.391    -9999      -9999      6.660699   1.918      3.486      3.203      2.859      2.458      1.881      1.033      1.193      1.087070941925049 3.607      0.1989376  0.1989376  0.3259651  13.5508    13.08819   1.881      0.3215186  0.4927914  29.182     0.3849319  0.2270152  0.5428486 
982        0.259      410.509    -9999      -9999      6.696487   1.868      3.661      3.153      2.846      2.445      2.278      0.763      0.917      1.084658980369568 3.721      0.198912   0.198912   0.3267942  13.53604   12.63612   2.278      0.3797592  0.5397797  29.245     0.3875217  0.2302971  0.5447462 
982.2000000000001 0.257      400.82     -9999      -9999      6.719531   1.805      3.21       3.114      2.696      2.47       2.189      1.328      2.072      1.083135962486267 3.836      0.1990829  0.1990829  0.3273179  13.63505   12.35333   2.189      0.3685231  0.5311288  29.245     0.3885908  0.2324354  0.5447462 
982.4      0.253      393.553    -9999      -9999      6.733909   1.704      2.583      3.191      2.859      2.52       1.777      1.014      1.846      1.08237099647522 3.988      0.1984951  0.1984951  0.3275809  13.29745   12.1801    1.777      0.301813   0.4792392  29.371     0.3911692  0.2337796  0.5485587 
982.6      0.263      386.286    -9999      -9999      6.746272   1.73       2.859      3.292      3.072      2.571      1.918      1.045      1.193      1.082136988639832 4.141      0.1977459  0.1977459  0.3276614  12.87932   12.0331    1.918      0.324165   0.4980606  29.498     0.3936833  0.2349416  0.5524249 
982.8      0.277      383.056    -9999      -9999      6.764582   2.181      3.486      3.356      3.248      2.596      2.576      0.782      1.03       1.082165956497192 4.217      0.1968132  0.1968132  0.3276512  12.37704   11.81862   2.576      0.409095   0.5660576  29.624     0.3964787  0.2366733  0.5562842 
983        0.272      381.441    -9999      -9999      6.798321   2.657      3.561      3.368      3.223      2.621      3.21       1.723      2.261      1.082201957702637 4.102      0.1956282  0.1956282  0.3276388  11.76705   11.4334    3.21       0.4642532  0.6103179  29.75      0.4000322  0.2398976  0.5601668 
983.2000000000001 0.257      381.441    -9999      -9999      6.855328   2.607      3.887      3.343      3.11       2.633      3.298      1.434      3.981      1.082013010978699 3.975      0.1944509  0.1944509  0.3277038  11.19078   10.81081   3.298      0.4682212  0.6146705  29.814     0.4037967  0.2454456  0.5621478 
983.4      0.246      382.248    -9999      -9999      6.940516   2.382      3.724      3.267      3.009      2.646      2.876      1.252      2.662      1.081527948379517 3.823      0.1935371  0.1935371  0.3278707  10.76302   9.943066999999999 2.876      0.4306019  0.5867187  29.75      0.4070716  0.2539764  0.5601668 
983.6      0.241      383.863    -9999      -9999      7.054744   2.206      3.411      3.216      2.997      2.646      2.287      1.371      1.62       1.080873012542725 3.696      0.1921184  0.1921184  0.3280957  10.1311    8.887815   2.287      0.3618816  0.5353779  29.687     0.4120524  0.2658823  0.5582225 
983.8      0.251      386.286    -9999      -9999      7.194642   2.231      3.724      3.191      3.06       2.658      2.278      1.177      1.193      1.080322980880737 3.62       0.189455   0.189455   0.3282849  9.043252000000001 7.746761   2.278      0.3528793  0.5320351  29.75      0.4206968  0.2812268  0.5601668 
984        0.259      387.901    -9999      -9999      7.352062   2.219      4.125      3.191      3.022      2.646      2.401      0.989      1.545      1.080206990242004 3.633      0.1867915  0.1867915  0.3283248  8.072169000000001 6.636982   2.401      0.3608195  0.5416499  29.687     0.4288886  0.2995547  0.5582225 
984.2000000000001 0.263      389.516    -9999      -9999      7.516004   2.219      3.987      3.178      2.959      2.633      2.506      1.817      4.885      1.080757975578308 3.62       0.183243   0.183243   0.3281353  6.938469   5.649885   2.506      0.3629769  0.547788   29.687     0.4390675  0.3199126  0.5582225 
