~Version
 VERS              .         2.0                           : CWLS LOG ASCII STANDARD - VERSION 2.0
 WRAP              .         NO                            : ONE LINE PER DEPTH STEP
 DLM               .         SPACE                         : DELIMITING CHARACTER(SPACE TAB OR COMMA)
~Well Information
#_______________________________________________________________________________
#
#PARAMETER_NAME    .UNIT     VALUE                         : DESCRIPTION
#_______________________________________________________________________________
STRT               .M        850                           : First reference value
STOP               .M        1297.8                        : Last reference value
STEP               .M        0.2                           : Step increment
NULL               .         -9999                         : Missing value
COMP               .                                       : Company
WELL               .         1804                          : Well name
FLD                .         УЗЕНЬ                         : Field
LOC                .                                       : Location
CNTY               .                                       : County
STAT               .                                       : State
CTRY               .                                       : Country
SRVC               .                                       : Service Company
DATE               .                                       : Date
UWI                .                                       : Unique Well ID
Block              .         6а                            : 
Category           .         Нефтяная                      : 
Condition          .         Ликвидированная               : 
Date               .         21.02.1974                    : 
EREF               .m        86.9                          : 100.8
Gorizont           .         15                            : 14
Interpretator      .         Алпанова Н.К.                 : 
Kupol              .         основной                      : osnovnoi
METD               .         OGZ3, GZ3, SP, CALI           : Метод
Moii_15_vosst2     .         15_vosst2                     : 
Mud                .                                       : 
Mud_density        .                                       : 
Mud_resistivity    .                                       : 
Mud_density        .                                       : 
Mud_resistivity    .                                       : 
NGDU               .         НГДУ-2                        : 
ORIGINALWELLNAME   .         1804                          : 
SCAL               .         500                           : Масштаб по глубине
Spud_date          .         1974                          : 1961
Spud_date          .         1974                          : 1961
Viscosity          .                                       : 
X                  .m        45120.3                       : 46154
Y                  .m        85617.63                      : 85761.93
YEAR               .         2018                          : 
~Parameter Information Block
#_______________________________________________________________________________
#
#PARAMETER_NAME    .UNIT     VALUE                         : DESCRIPTION
#_______________________________________________________________________________
SET                .         LQC_KAZNIPI_Petrel            : 
TLFamily_CALI      .         Caliper                       : 
TLFamily_CILD      .         Conductivity                  : 
TLFamily_COLL      .         Net Reservoir Flag            : 
TLFamily_CSAT      .         Fluid Code                    : 
TLFamily_DEPT      .         Measured Depth                : 
TLFamily_GR        .         Russian Gamma Ray             : 
TLFamily_GZ1       .         Gradient 045                  : 
TLFamily_GZ2       .         Gradient 105                  : 
TLFamily_GZ3       .         Gradient 225                  : 
TLFamily_GZ4       .         Gradient 425                  : 
TLFamily_GZ5       .         Gradient 850                  : 
TLFamily_LLS       .         Lateral Log Resistivity       : 
TLFamily_MINV      .         Micro Gradient Resistivity    : 
TLFamily_MNOR      .         Micro Resistivity             : 
TLFamily_NGLD      .         Neutron Far                   : 
TLFamily_OGZ       .         Gradient Inverted 225         : 
TLFamily_PHIE      .         Effective Porosity            : 
TLFamily_PHIEN     .         Effective Porosity            : 
TLFamily_PHIT      .         Porosity                      : 
TLFamily_PRMB      .         Permeability                  : 
TLFamily_PRMB_DGR  .         Permeability                  : 
TLFamily_RT        .         Formation Resistivity         : 
TLFamily_SOIL_ARCHIE .         Oil Saturation                : 
TLFamily_SOIL_DW   .         Oil Saturation                : 
TLFamily_SP        .         Spontaneous Potential         : 
TLFamily_VSH_FIN   .         Shale Volume                  : 
TLFamily_VSH_GR    .         Shale Volume                  : 
TLFamily_VSH_SP    .         Shale Volume                  : 
~Curve Information
#_______________________________________________________________________________
#
#LOGNAME           .UNIT     LOG_ID                        : DESCRIPTION
#_______________________________________________________________________________
DEPT               .M                                      : Колонка глубины 
CALI               .м                                      : Каверномер 
CILD               .мСм/м                                  : Индукционный каротаж 
COLL               .unitless                               :  
CSAT               .unitless                               :  
GR                 .мкР/ч                                  : Гамма каротаж 
GZ1                .Ом·м                                   : A0.4M0.1N 
GZ2                .Ом·м                                   : A1.0M0.1N 
GZ3                .Ом·м                                   : A2M0.5N 
GZ4                .Ом·м                                   : A4M0.5N 
GZ5                .Ом·м                                   : A8M1N 
LLS                .Ом·м                                   : Боковой каротаж 
MINV               .Ом·м                                   : Микро-градиент зонд 
MNOR               .Ом·м                                   : Микро-потенциал зонд 
NGLD               .у.е.                                   : Показания зонда НГК-60 аппаратуры ДРСТ-3-90 
OGZ                .Ом·м                                   : N0.5M2A 
PHIE               .м3/м3                                  : Описание 
PHIEN              .v/v                                    :  
PHIT               .м3/м3                                  : Описание 
PRMB               .mD                                     :  
PRMB_DGR           .mD                                     :  
RT                 .ohmm                                   : Description 
SOIL_ARCHIE        .v/v                                    :  
SOIL_DW            .v/v                                    :  
SP                 .мВ                                     : Потенциал самополяризации 
VSH_FIN            .unitless                               : Описание 
VSH_GR             .unitless                               : Shale volume 
VSH_SP             .unitless                               : Shale Volume 
~Ascii
# ...
1218.4     0.212      598.646    1          3          12.13838   2.056      11.599     2.022      11.348     1.68       1.662      2.475      4.057      1.142858   2.299      0.2130359  0.2130359  0.3067855  24.72295   5.706976   1.662      0.3319916  0.4635915  11.804     0.2840895  0.3186019  0.2495771 
1218.6     0.212      593.801    1          3          11.99681   2.118      11.411     1.997      11.097     1.705      1.786      2.086      3.039      1.145851   2.324      0.2143175  0.2143175  0.3057564  26.11193   6.328223   1.786      0.3575365  0.4828125  11.741     0.2770875  0.3054387  0.2487363 
1218.8     0.212      591.379    1          3          11.87455   2.168      11.16      2.022      10.909     1.705      1.908      2.205      2.512      1.15029    2.337      0.2143165  0.2143165  0.3042303  26.11082   6.918837   1.908      0.3771495  0.4981508  11.867     0.272466   0.2945104  0.2504216 
1219       0.212      588.149    1          3          11.78323   2.231      11.348     2.048      10.658     1.73       2.005      2.375      3.039      1.156126   2.235      0.2133319  0.2133319  0.3022239  25.03702   7.395678   2.005      0.3890304  0.5076016  11.994     0.2693696  0.2866035  0.2521357 
1219.2     0.213      585.727    1          3          11.72757   2.231      11.787     2.136      10.533     1.781      1.943      2.425      3.152      1.163095   2.146      0.2119968  0.2119968  0.2998279  23.65116   7.702317   1.943      0.3765583  0.4961615  11.867     0.266155   0.2818883  0.2504216 
1219.4     0.213      583.304    1          3          11.70445   2.244      12.288     2.175      10.408     1.806      1.873      2.35       3.127      1.170725   2.045      0.2085511  0.2085511  0.2972049  20.41879   7.833361   1.873      0.3566135  0.4806705  12.373     0.268648   0.2799531  0.2573428 
1219.6     0.213      580.882    -9999      -9999      11.70253   2.244      12.915     2.175      10.282     1.831      1.891      2.168      3.039      1.178425   1.994      0.2048991  0.2048991  0.2945575  17.47376   7.844402   1.891      0.3495633  0.4766175  12.815     0.271692   0.2797922  0.2635919 
1219.8     0.213      582.497    -9999      -9999      11.70427   2.269      12.915     2.187      10.282     1.868      1.943      2.149      2.675      1.185676   1.931      0.2014726  0.2014726  0.2920644  15.09802   7.834425   1.943      0.3482885  0.4774579  13.194     0.2745206  0.2799376  0.2691037 
1220       0.213      584.919    -9999      -9999      11.69101   2.231      12.727     2.2        10.408     1.893      1.953      2.312      2.675      1.192144   1.892      0.1984979  0.1984979  0.2898408  13.29907   7.910585   1.953      0.341379   0.4732289  13.573     0.2767966  0.2788339  0.2747593 
1220.2     0.213      592.186    -9999      -9999      11.64711   2.181      12.539     2.213      10.408     1.868      1.9        2.281      3.027      1.197796   1.829      0.1953765  0.1953765  0.2878979  11.64141   8.16817    1.9        0.3235466  0.4603026  14.269     0.2803678  0.2752094  0.2855262 
1220.4     0.213      601.068    -9999      -9999      11.56307   2.168      12.79      2.213      10.282     1.868      1.75       2.136      3.014      1.202905   1.765      0.1963598  0.1963598  0.2861414  12.13998   8.684844999999999 1.75       0.2999983  0.4367883  13.637     0.2720655  0.2684023  0.2757286 
1220.6     0.213      611.565    -9999      -9999      11.43738   2.156      13.041     2.225      10.094     1.843      1.767      2.049      2.562      1.208037   1.765      0.1976215  0.1976215  0.2843767  12.81115   9.51928    1.767      0.3070432  0.4389514  13.068     0.2628946  0.2585339  0.2672554 
1220.8     0.213      631.752    -9999      -9999      11.27511   2.231      13.354     2.162      9.968999   1.831      1.918      2.174      2.587      1.213849   1.727      0.1983907  0.1983907  0.2823788  13.23841   10.71613   1.918      0.3354536  0.460128   12.752     0.2545092  0.2463289  0.2626895 
1221       0.213      661.627    -9999      -9999      11.08538   2.319      13.793     2.06       9.781      1.806      2.049      2.136      2.951      1.220897   1.677      0.2077664  0.2077664  0.2799557  19.74676   12.30768   2.049      0.381137   0.4850292  7.949      0.2187555  0.2327871  0.2047239 
1221.2     0.212      696.348    1          3          10.87888   2.407      13.856     1.984      9.53       1.755      1.988      2.212      2.838      1.229469   1.651      0.2128216  0.2128216  0.2770086  24.49804   14.30971   1.988      0.3853035  0.4792407  3.842      0.194506   0.2188928  0.1701191 
1221.4     0.212      761.752    1          3          10.66598   2.432      13.73      1.882      9.154      1.655      1.767      2.024      2.863      1.239434   1.613      0.2139047  0.2139047  0.2735828  25.65616   16.71518   1.767      0.3532186  0.4448277  1.63       0.1808427  0.2054363  0.1562491 
1221.6     0.212      918.398    1          3          10.45469   2.281      12.351     1.794      8.715      1.58       1.496      1.955      2.462      1.250281   1.575      0.2140649  0.2140649  0.2698533  25.83206   19.5023    1.496      0.3011171  0.3920218  -0.581     0.1690558  0.1928986  0.1452131 
1221.8     0.212      988.646    1          3          10.25132   2.106      10.219     1.705      8.15       1.455      1.285      1.923      2.323      1.261224   1.55       0.2132261  0.2132261  0.2660911  24.92428   22.62288   1.285      0.2468626  0.3375666  -2.161     0.1601971  0.1815545  0.1388397 
1222       0.212      1045.975   1          3          10.06136   1.868      7.837      1.603      7.585999   1.304      1.231      1.785      2.374      1.27142    1.486      0.211946   0.211946   0.2625859  23.60001   25.98717   1.231      0.227495   0.3162577  -3.172     0.1534542  0.1715619  0.1353465 
1222.2     0.212      1055.665   1          3          9.889051   1.73       6.082      1.514      6.834      1.191      1.231      1.697      2.399      1.280233   1.41       0.210871   0.210871   0.259556   22.54243   29.46963   1.231      0.2240662  0.3101856  -4.246     0.1475302  0.1629744  0.1320859 
1222.4     0.212      1055.665   1          3          9.737416   1.617      5.141      1.425      5.643001   1.103      1.144      1.647      2.311      1.287404   1.346      0.2100372  0.2100372  0.2570905  21.75486   32.91838   1.144      0.1941376  0.2792832  -5.258     0.1425858  0.1557735  0.1293981 
1222.6     0.212      1055.665   1          3          9.608966   1.504      4.577      1.336      5.266      1.016      1.047      1.528      2.323      1.293108   1.334      0.209193   0.209193   0.2551294  20.98554   36.15373   1.047      0.1569736  0.2420152  -5.637     0.1392013  0.149923   0.1284796 
1222.8     0.212      1055.665   1          3          9.505864   1.391      4.326      1.235      4.639      0.928      0.977      1.403      2.173      1.297797   1.524      0.208497   0.208497   0.2535174  20.37171   38.97922   0.977      0.1266181  0.2113491  -6.079     0.1364257  0.1453864  0.127465  
1223       0.212      1056.472   1          3          9.429625   1.316      3.824      1.641      3.887      0.991      0.993      1.353      2.122      1.30197    2.439      0.2078025  0.2078025  0.2520826  19.77723   41.20965   0.993      0.1307283  0.2140577  -6.648     0.1341821  0.1421204  0.1262438 
1223.2     0.212      1056.472   1          3          9.381531   1.253      3.26       2.06       4.138      1.016      1.055      1.491      2.235      1.305957   3.569      0.2064935  0.2064935  0.2507121  18.7033    42.68183   1.055      0.1504229  0.2330505  -5.889     0.1339959  0.1400979  0.1278939 
1223.4     0.212      1055.665   1          3          9.362849   1.253      3.511      2.479      4.513999   1.254      1.072      1.553      2.311      1.309705   5.855      0.2048429  0.2048429  0.2494235  17.4319    43.26777   1.072      0.1508572  0.2342913  -4.689     0.1350929  0.13932    0.1308657 
