~Version
 VERS              .         2.0                           : CWLS LOG ASCII STANDARD - VERSION 2.0
 WRAP              .         NO                            : ONE LINE PER DEPTH STEP
 DLM               .         SPACE                         : DELIMITING CHARACTER(SPACE TAB OR COMMA)
~Well Information
#_______________________________________________________________________________
#
#PARAMETER_NAME    .UNIT     VALUE                         : DESCRIPTION
#_______________________________________________________________________________
STRT               .M        850                           : First reference value
STOP               .M        1297.8                        : Last reference value
STEP               .M        0.2                           : Step increment
NULL               .         -9999                         : Missing value
COMP               .                                       : Company
WELL               .         1804                          : Well name
FLD                .         УЗЕНЬ                         : Field
LOC                .                                       : Location
CNTY               .                                       : County
STAT               .                                       : State
CTRY               .                                       : Country
SRVC               .                                       : Service Company
DATE               .                                       : Date
UWI                .                                       : Unique Well ID
Block              .         6а                            : 
Category           .         Нефтяная                      : 
Condition          .         Ликвидированная               : 
Date               .         21.02.1974                    : 
EREF               .m        86.9                          : 100.8
Gorizont           .         15                            : 14
Interpretator      .         Алпанова Н.К.                 : 
Kupol              .         основной                      : osnovnoi
METD               .         OGZ3, GZ3, SP, CALI           : Метод
Moii_15_vosst2     .         15_vosst2                     : 
Mud                .                                       : 
Mud_density        .                                       : 
Mud_resistivity    .                                       : 
Mud_density        .                                       : 
Mud_resistivity    .                                       : 
NGDU               .         НГДУ-2                        : 
ORIGINALWELLNAME   .         1804                          : 
SCAL               .         500                           : Масштаб по глубине
Spud_date          .         1974                          : 1961
Spud_date          .         1974                          : 1961
Viscosity          .                                       : 
X                  .m        45120.3                       : 46154
Y                  .m        85617.63                      : 85761.93
YEAR               .         2018                          : 
~Parameter Information Block
#_______________________________________________________________________________
#
#PARAMETER_NAME    .UNIT     VALUE                         : DESCRIPTION
#_______________________________________________________________________________
SET                .         LQC_KAZNIPI_Petrel            : 
TLFamily_CALI      .         Caliper                       : 
TLFamily_CILD      .         Conductivity                  : 
TLFamily_COLL      .         Net Reservoir Flag            : 
TLFamily_CSAT      .         Fluid Code                    : 
TLFamily_DEPT      .         Measured Depth                : 
TLFamily_GR        .         Russian Gamma Ray             : 
TLFamily_GZ1       .         Gradient 045                  : 
TLFamily_GZ2       .         Gradient 105                  : 
TLFamily_GZ3       .         Gradient 225                  : 
TLFamily_GZ4       .         Gradient 425                  : 
TLFamily_GZ5       .         Gradient 850                  : 
TLFamily_LLS       .         Lateral Log Resistivity       : 
TLFamily_MINV      .         Micro Gradient Resistivity    : 
TLFamily_MNOR      .         Micro Resistivity             : 
TLFamily_NGLD      .         Neutron Far                   : 
TLFamily_OGZ       .         Gradient Inverted 225         : 
TLFamily_PHIE      .         Effective Porosity            : 
TLFamily_PHIEN     .         Effective Porosity            : 
TLFamily_PHIT      .         Porosity                      : 
TLFamily_PRMB      .         Permeability                  : 
TLFamily_PRMB_DGR  .         Permeability                  : 
TLFamily_RT        .         Formation Resistivity         : 
TLFamily_SOIL_ARCHIE .         Oil Saturation                : 
TLFamily_SOIL_DW   .         Oil Saturation                : 
TLFamily_SP        .         Spontaneous Potential         : 
TLFamily_VSH_FIN   .         Shale Volume                  : 
TLFamily_VSH_GR    .         Shale Volume                  : 
TLFamily_VSH_SP    .         Shale Volume                  : 
~Curve Information
#_______________________________________________________________________________
#
#LOGNAME           .UNIT     LOG_ID                        : DESCRIPTION
#_______________________________________________________________________________
DEPT               .M                                      : Колонка глубины 
CALI               .м                                      : Каверномер 
CILD               .мСм/м                                  : Индукционный каротаж 
COLL               .unitless                               :  
CSAT               .unitless                               :  
GR                 .мкР/ч                                  : Гамма каротаж 
GZ1                .Ом·м                                   : A0.4M0.1N 
GZ2                .Ом·м                                   : A1.0M0.1N 
GZ3                .Ом·м                                   : A2M0.5N 
GZ4                .Ом·м                                   : A4M0.5N 
GZ5                .Ом·м                                   : A8M1N 
LLS                .Ом·м                                   : Боковой каротаж 
MINV               .Ом·м                                   : Микро-градиент зонд 
MNOR               .Ом·м                                   : Микро-потенциал зонд 
NGLD               .у.е.                                   : Показания зонда НГК-60 аппаратуры ДРСТ-3-90 
OGZ                .Ом·м                                   : N0.5M2A 
PHIE               .м3/м3                                  : Описание 
PHIEN              .v/v                                    :  
PHIT               .м3/м3                                  : Описание 
PRMB               .mD                                     :  
PRMB_DGR           .mD                                     :  
RT                 .ohmm                                   : Description 
SOIL_ARCHIE        .v/v                                    :  
SOIL_DW            .v/v                                    :  
SP                 .мВ                                     : Потенциал самополяризации 
VSH_FIN            .unitless                               : Описание 
VSH_GR             .unitless                               : Shale volume 
VSH_SP             .unitless                               : Shale Volume 
~Ascii
# ...
1244.4     0.211      534.05     -9999      -9999      12.85656   2.081      13.292     2.098      9.342      1.893      1.802      1.779      3.642      1.088841   2.489      0.1630477  0.1630477  0.3253564  2.932227   3.378826   1.802      0.1881975  0.446387   27.16      0.4918443  0.3946404  0.5890483 
1244.6     0.211      543.739    -9999      -9999      12.80953   1.98       12.79      2.136      9.091001   1.843      1.742      1.948      3.818      1.093705   2.528      0.162282   0.162282   0.3236842  2.838014   3.496828   1.742      0.1718057  0.4341224  27.16      0.4890977  0.3891471  0.5890483 
1244.8     0.211      553.429    -9999      -9999      12.75714   1.868      12.1       2.162      8.903      1.768      1.732      1.986      3.743      1.098976   2.553      0.161805   0.161805   0.3218722  2.780859   3.633123   1.732      0.1674334  0.4298869  27.096     0.4850522  0.3831185  0.5869859 
1245       0.211      562.311    -9999      -9999      12.70045   1.805      11.599     2.213      8.651999   1.693      1.672      1.904      3.705      1.104611   2.515      0.1614269  0.1614269  0.3199347  2.736377   3.786594   1.672      0.151818   0.4170709  27.033     0.4803266  0.3767002  0.5839530000000001
1245.2     0.21       570.385    -9999      -9999      12.63706   1.805      11.285     2.238      8.464      1.618      1.583      1.685      3.328      1.110692   2.451      0.1596584  0.1596584  0.3178441  2.537571   3.965892   1.583      0.1213752  0.3959232  27.223     0.4793507  0.3696508  0.5890506 
1245.4     0.21       577.652    -9999      -9999      12.5597    1.805      11.16      2.276      8.213      1.542      1.575      1.466      2.763      1.117406   2.388      0.1582358  0.1582358  0.3155359  2.388188   4.196262   1.575      0.1123917  0.3895678  27.349     0.476667   0.3612257  0.5921084 
1245.6     0.21       582.497    -9999      -9999      12.45623   1.805      11.223     2.302      8.275999   1.505      1.645      1.904      3.127      1.125053   2.324      0.1572476  0.1572476  0.3129068  2.289632   4.525409   1.645      0.1255628  0.398169   27.412     0.4716944  0.3502573  0.5931314 
1245.8     0.21       584.919    -9999      -9999      12.31455   1.78       11.034     2.276      8.275999   1.505      1.618      1.879      4.433      1.133946   2.273      0.1629887  0.1629887  0.3098495  2.924851   5.01843    1.618      0.1458429  0.3979951  26.212     0.4450328  0.3357754  0.5542902 
1246       0.21       582.497    -9999      -9999      12.12683   1.704      10.658     2.238      8.213      1.505      1.548      1.365      3.579      1.144291   2.21       0.1776412  0.1776412  0.3062927  5.463926   5.755308   1.548      0.1909238  0.4009876  22.989     0.3898529  0.3175066  0.4621991 
1246.2     0.21       574.422    -9999      -9999      11.89374   1.629      10.282     2.251      8.024999   1.517      1.486      1.378      2.851      1.156034   2.312      0.1876352  0.1876352  0.3022555  8.367896999999999 6.822592   1.486      0.213648   0.3971795  20.398     0.3473343  0.2961998  0.3984688 
1246.4     0.21       567.963    1          3          11.62688   1.805      10.846     2.391      7.837      1.517      1.742      1.334      2.662      1.168823   2.477      0.1966678  0.1966678  0.2978586  12.30049   8.289688999999999 1.742      0.2994485  0.4490348  17.618     0.3066387  0.2735548  0.3397227 
1246.6     0.209      567.963    1          3          11.34766   2.043      11.787     2.518      7.585999   1.505      2.454      1.672      2.11       1.181974   2.655      0.2086799  0.2086799  0.2933373  20.5313    10.16345   2.454      0.4335306  0.542919   12.942     0.2565375  0.251713   0.2613619 
1246.8     0.209      576.845    1          3          11.08175   2.357      12.79      2.657      7.962      1.58       2.92       1.992      2.826      1.194568   2.832      0.2108201  0.2108201  0.2890077  22.4935    12.34034   2.92       0.4825317  0.5791121  11.488     0.2369321  0.2325353  0.241329  
1247       0.209      586.534    1          3          10.85262   2.469      12.665     2.848      8.651999   1.693      2.419      2.218      3.265      1.205623   3.023      0.2125177  0.2125177  0.2852068  24.18248   14.58655   2.419      0.4386793  0.5355558  10.035     0.22027    0.2171868  0.2233532 
1247.2     0.209      575.23     1          3          10.6769    2.357      13.918     3.153      10.596     1.818      1.926      2.381      3.567      1.214312   3.887      0.2112992  0.2112992  0.2822196  22.95793   16.58249   1.926      0.3721826  0.4750386  10.098     0.2149103  0.2061059  0.2237146 
1247.4     0.209      562.311    1          3          10.55901   2.695      16.677     3.343      12.915     1.981      2.868      3.785      6.619      1.220188   4.471      0.2078769  0.2078769  0.2801994  19.84005   18.07257   2.868      0.4717208  0.5650417  11.425     0.2191591  0.1989899  0.2393283 
1247.6     0.209      542.124    1          3          10.49088   3.121      19.498     2.975      15.737     2.207      3.536      3.898      5.702      1.223261   4.344      0.2047927  0.2047927  0.2791429  17.39466   18.9939    3.536      0.5148836  0.6049538  12.689     0.2253036  0.1949904  0.2556169 
1247.8     0.208      526.783    1          3          10.4569    3.184      18.621     2.619      17.68      2.458      2.858      3.146      3.441      1.224003   4.152999   0.2017753  0.2017753  0.2788876  15.29415   19.4708    2.858      0.4569447  0.5576238  14.016     0.2336739  0.193026   0.2743217 
1248       0.208      535.665    -9999      -9999      10.43715   2.77       16.238     2.251      14.295     2.232      2.137      1.817      2.838      1.223298   3.887      0.1990081  0.1990081  0.2791301  13.5916    19.7535    2.137      0.3700365  0.4857267  15.28      0.2427941  0.1918931  0.293695  
1248.2     0.207      550.199    -9999      -9999      10.41209   2.331      14.734     1.895      11.661     1.918      1.794      1.998      3.353      1.222286   3.556      0.1961327  0.1961327  0.2794782  12.02297   20.11815   1.794      0.3074103  0.4357263  16.543     0.2525621  0.1904652  0.314659  
1248.4     0.207      558.273    -9999      -9999      10.36738   2.106      14.107     1.705      9.654999   1.605      1.802      2.218      3.542      1.222209   3.277      0.19648    0.19648    0.2795047  12.20239   20.78539   1.802      0.3099191  0.437424   16.607     0.2515898  0.1879445  0.3152352 
1248.6     0.207      563.925    -9999      -9999      10.29461   2.031      14.232     1.755      8.088      1.505      1.794      2.437      3.994      1.224278   3.112      0.1986899  0.1986899  0.2787934  13.4084    21.91921   1.794      0.3151802  0.4379433  15.848     0.2427378  0.1839122  0.3015633 
1248.8     0.207      570.385    -9999      -9999      10.19157   2.068      13.856     1.806      7.21       1.379      1.777      2.23       3.429      1.229557   2.934      0.2020487  0.2020487  0.2769785  15.47353   23.6312    1.777      0.3220838  0.437044   14.269     0.22706    0.1783504  0.2757695 
1249       0.206      586.534    -9999      -9999      10.06061   2.143      12.915     2.34       6.771      1.354      1.829      2.23       3.064      1.238861   2.959      0.2083831  0.2083831  0.2737795  20.273     26.00137   1.829      0.3489393  0.448511   10.477     0.1981709  0.1715237  0.2248182 
1249.2     0.206      606.721    -9999      -9999      9.905843   2.306      12.915     1.349      6.395      1.279      1.988      2.086      3.177      1.25263    2.985      0.2113036  0.2113036  0.269046   22.96219   29.11069   1.988      0.3814591  0.4687754  6.622      0.1749769  0.163792   0.1861618 
1249.4     0.206      639.019    -9999      -9999      9.732064   2.494      13.166     0.752      6.082      1.216      2.119      2.519      3.19       1.270787   2.883      0.2100105  0.2100105  0.2628033  21.7301    33.04721   2.119      0.3964894  0.4770797  3.716      0.1599782  0.1555252  0.1644313 
