~Version
 VERS              .         2.0                           : CWLS LOG ASCII STANDARD - VERSION 2.0
 WRAP              .         NO                            : ONE LINE PER DEPTH STEP
 DLM               .         SPACE                         : DELIMITING CHARACTER(SPACE TAB OR COMMA)
~Well Information
#_______________________________________________________________________________
#
#PARAMETER_NAME    .UNIT     VALUE                         : DESCRIPTION
#_______________________________________________________________________________
STRT               .M        850                           : First reference value
STOP               .M        1297.8                        : Last reference value
STEP               .M        0.2                           : Step increment
NULL               .         -9999                         : Missing value
COMP               .                                       : Company
WELL               .         1804                          : Well name
FLD                .         УЗЕНЬ                         : Field
LOC                .                                       : Location
CNTY               .                                       : County
STAT               .                                       : State
CTRY               .                                       : Country
SRVC               .                                       : Service Company
DATE               .                                       : Date
UWI                .                                       : Unique Well ID
Block              .         6а                            : 
Category           .         Нефтяная                      : 
Condition          .         Ликвидированная               : 
Date               .         21.02.1974                    : 
EREF               .m        86.9                          : 100.8
Gorizont           .         15                            : 14
Interpretator      .         Алпанова Н.К.                 : 
Kupol              .         основной                      : osnovnoi
METD               .         OGZ3, GZ3, SP, CALI           : Метод
Moii_15_vosst2     .         15_vosst2                     : 
Mud                .                                       : 
Mud_density        .                                       : 
Mud_resistivity    .                                       : 
Mud_density        .                                       : 
Mud_resistivity    .                                       : 
NGDU               .         НГДУ-2                        : 
ORIGINALWELLNAME   .         1804                          : 
SCAL               .         500                           : Масштаб по глубине
Spud_date          .         1974                          : 1961
Spud_date          .         1974                          : 1961
Viscosity          .                                       : 
X                  .m        45120.3                       : 46154
Y                  .m        85617.63                      : 85761.93
YEAR               .         2018                          : 
~Parameter Information Block
#_______________________________________________________________________________
#
#PARAMETER_NAME    .UNIT     VALUE                         : DESCRIPTION
#_______________________________________________________________________________
SET                .         LQC_KAZNIPI_Petrel            : 
TLFamily_CALI      .         Caliper                       : 
TLFamily_CILD      .         Conductivity                  : 
TLFamily_COLL      .         Net Reservoir Flag            : 
TLFamily_CSAT      .         Fluid Code                    : 
TLFamily_DEPT      .         Measured Depth                : 
TLFamily_GR        .         Russian Gamma Ray             : 
TLFamily_GZ1       .         Gradient 045                  : 
TLFamily_GZ2       .         Gradient 105                  : 
TLFamily_GZ3       .         Gradient 225                  : 
TLFamily_GZ4       .         Gradient 425                  : 
TLFamily_GZ5       .         Gradient 850                  : 
TLFamily_LLS       .         Lateral Log Resistivity       : 
TLFamily_MINV      .         Micro Gradient Resistivity    : 
TLFamily_MNOR      .         Micro Resistivity             : 
TLFamily_NGLD      .         Neutron Far                   : 
TLFamily_OGZ       .         Gradient Inverted 225         : 
TLFamily_PHIE      .         Effective Porosity            : 
TLFamily_PHIEN     .         Effective Porosity            : 
TLFamily_PHIT      .         Porosity                      : 
TLFamily_PRMB      .         Permeability                  : 
TLFamily_PRMB_DGR  .         Permeability                  : 
TLFamily_RT        .         Formation Resistivity         : 
TLFamily_SOIL_ARCHIE .         Oil Saturation                : 
TLFamily_SOIL_DW   .         Oil Saturation                : 
TLFamily_SP        .         Spontaneous Potential         : 
TLFamily_VSH_FIN   .         Shale Volume                  : 
TLFamily_VSH_GR    .         Shale Volume                  : 
TLFamily_VSH_SP    .         Shale Volume                  : 
~Curve Information
#_______________________________________________________________________________
#
#LOGNAME           .UNIT     LOG_ID                        : DESCRIPTION
#_______________________________________________________________________________
DEPT               .M                                      : Колонка глубины 
CALI               .м                                      : Каверномер 
CILD               .мСм/м                                  : Индукционный каротаж 
COLL               .unitless                               :  
CSAT               .unitless                               :  
GR                 .мкР/ч                                  : Гамма каротаж 
GZ1                .Ом·м                                   : A0.4M0.1N 
GZ2                .Ом·м                                   : A1.0M0.1N 
GZ3                .Ом·м                                   : A2M0.5N 
GZ4                .Ом·м                                   : A4M0.5N 
GZ5                .Ом·м                                   : A8M1N 
LLS                .Ом·м                                   : Боковой каротаж 
MINV               .Ом·м                                   : Микро-градиент зонд 
MNOR               .Ом·м                                   : Микро-потенциал зонд 
NGLD               .у.е.                                   : Показания зонда НГК-60 аппаратуры ДРСТ-3-90 
OGZ                .Ом·м                                   : N0.5M2A 
PHIE               .м3/м3                                  : Описание 
PHIEN              .v/v                                    :  
PHIT               .м3/м3                                  : Описание 
PRMB               .mD                                     :  
PRMB_DGR           .mD                                     :  
RT                 .ohmm                                   : Description 
SOIL_ARCHIE        .v/v                                    :  
SOIL_DW            .v/v                                    :  
SP                 .мВ                                     : Потенциал самополяризации 
VSH_FIN            .unitless                               : Описание 
VSH_GR             .unitless                               : Shale volume 
VSH_SP             .unitless                               : Shale Volume 
~Ascii
# ...
1140.4     0.23       527.59     -9999      -9999      13.58089   1.554      10.972     2.391      16.677     2.571      1.705      1.227      2.349      1.203821   2.566      0.1247214  0.1247214  0.2858262  0.5718754  1.546162   1.705      0          0.3082265  23.81      0.4881964  0.5430439  0.4333489 
1140.6     0.233      530.82     -9999      -9999      13.48578   1.541      10.721     2.352      16.865     2.533      1.705      1.045      2.235      1.202993   2.591      0.1289309  0.1289309  0.2861111  0.6843377000000001 1.660763   1.705      0          0.3171729  23.431     0.4763039  0.5274182  0.4251896 
1140.8     0.23       533.242    -9999      -9999      13.41126   1.529      10.658     2.314      16.74      2.495      1.662      0.933      2.876      1.201865   2.629      0.1328544  0.1328544  0.286499   0.8089914  1.756465   1.662      0          0.3167293  22.989     0.4655896  0.5154893  0.4156898 
1141       0.226      536.472    -9999      -9999      13.36422   1.516      10.658     2.302      16.238     2.495      1.601      1.234      3.165      1.200288   2.731      0.1359096  0.1359096  0.287041   0.9215806  1.819688   1.601      0          0.3106095  22.61      0.4579741  0.5080994  0.4078489 
1141.2     0.224      539.702    -9999      -9999      13.34781   1.491      10.658     2.289      15.737     2.495      1.591      1.296      3.73       1.198043   2.845      0.1383726  0.1383726  0.2878128  1.023657   1.842273   1.591      0          0.314294   22.231     0.452849   0.5055466  0.4001514 
1141.4     0.225      543.739    -9999      -9999      13.36048   1.466      10.596     2.276      14.984     2.52       1.636      1.497      3.554      1.194948   2.959      0.1391897  0.1391897  0.2888769  1.059959   1.824805   1.636      0.01128497 0.3268449  22.167     0.4535975  0.5075172  0.3996779 
1141.6     0.226      546.969    -9999      -9999      13.39835   1.466      10.47      2.276      14.295     2.545      1.672      1.616      3.165      1.190958   3.023      0.138225   0.138225   0.2902488  1.017235   1.773584   1.672      0.01538648 0.3343235  22.483     0.460678   0.5134517  0.4079044 
1141.8     0.227      549.391    -9999      -9999      13.45582   1.466      10.408     2.276      13.417     2.571      1.672      1.578      3.303      1.186231   3.048      0.1354631  0.1354631  0.2918738  0.9041965  1.698589   1.672      0          0.3315371  23.179     0.4739718  0.5225905  0.4253532 
1142       0.228      552.621    -9999      -9999      13.5252    1.466      10.094     2.251      12.853     2.571      1.672      1.359      3.316      1.181145   3.061      0.1331452  0.1331452  0.2936224  0.8190877  1.612273   1.672      0          0.32968    23.684     0.4862944  0.5338386000000001 0.4387502 
1142.2     0.227      552.621    -9999      -9999      13.59537   1.491      9.905999   2.225      12.288     2.596      1.672      1.397      3.479      1.176172   3.099      0.1309261  0.1309261  0.2953321  0.7451215  1.529428   1.672      0          0.3278946  24.126     0.4982     0.5454624  0.4509376 
1142.4     0.226      554.236    -9999      -9999      13.65403   1.504      9.905999   2.187      11.724     2.596      1.672      1.346      3.027      1.171745   3.175      0.1311597  0.1311597  0.2968541  0.7525833  1.463439   1.672      0          0.3305022  24         0.5021042  0.5553748  0.4488337 
1142.6     0.224      552.621    -9999      -9999      13.68743   1.529      9.905999   2.149      11.285     2.583      1.689      1.328      2.336      1.168175   3.239      0.1330925  0.1330925  0.2980813  0.8172497  1.427157   1.689      0          0.3392197  23.558     0.4999659  0.5610973  0.4388345 
1142.8     0.221      550.199    -9999      -9999      13.68235   1.541      10.031     2.111      10.721     2.571      1.715      1.271      2.951      1.165566   3.328      0.137994   0.137994   0.2989783  1.00726    1.432611   1.715      0.02563058 0.3543064  22.547     0.4878312  0.5602241  0.4154384 
1143       0.218      542.932    -9999      -9999      13.62853   1.554      10.157     2.086      10.219     2.571      1.732      1.215      3.529      1.16376    3.645      0.144258   0.144258   0.2995993  1.315727   1.491772   1.732      0.06691381 0.3690175  21.409     0.4707312  0.5510432  0.3904193 
1143.2     0.215      537.28     -9999      -9999      13.52265   1.617      10.219     2.086      9.968999   2.583      1.705      1.503      3.642      1.162422   3.81       0.1548781  0.1548781  0.3000593  2.069548   1.61536    1.705      0.1164018  0.381742   19.261     0.4399432  0.5334218  0.3464646 
1143.4     0.213      524.36     -9999      -9999      13.3688    1.692      10.282     2.111      9.968999   2.608      1.672      1.879      2.939      1.161149   3.988      0.1637564  0.1637564  0.3004968  3.022205   1.81343    1.672      0.1505191  0.3896229  17.807     0.414365   0.5088148  0.3199152 
1143.6     0.213      510.634    -9999      -9999      13.17802   1.805      10.219     2.175      9.968999   2.646      1.697      1.735      1.997      1.159577   4.152999   0.1741028  0.1741028  0.3010374  4.698545   2.093094   1.697      0.2002482  0.4092405  15.975     0.3846505  0.4798719  0.289429  
1143.8     0.213      496.099    -9999      -9999      12.96467   1.842      10.282     2.2        10.031     2.734      1.953      1.321      2.662      1.157497   4.28       0.1835641  0.1835641  0.3017525  7.034122   2.457232   1.953      0.2850028  0.4615876  14.458     0.3581467  0.4494506  0.2668428 
1144       0.213      488.025    1          2          12.74429   1.868      10.47      2.327      10.157     2.871      2.067      1.654      3.152      1.154882   4.509      0.1934953  0.1934953  0.3026515  10.74387   2.899995   2.067      0.3350137  0.4885457  12.562     0.3307763  0.4200509  0.2415018 
1144.2     0.212      462.186    1          2          12.53117   1.918      11.034     2.518      10.094     3.022      1.988      1.992      2.964      1.151878   4.788      0.2021035  0.2021035  0.3036843  15.50973   3.403913   1.988      0.3479353  0.4886595  10.919     0.3078206  0.3934501  0.2221912 
1144.4     0.211      442        1          2          12.3354    1.993      12.414     2.708      10.408     3.235      2.462      1.942      2.926      1.148725   4.992001   0.2097935  0.2097935  0.3047685  21.52991   3.94364    2.462      0.4290684  0.5484297  9.276      0.2878031  0.370501   0.2051051 
1144.6     0.21       418.584    1          2          12.16342   2.219      14.169     2.911      11.097     3.473      3.131      1.948      3.064      1.145672   4.826      0.2163706  0.2163706  0.3058179  28.50144   4.487934   3.131      0.5035002  0.6054203  7.697      0.2710525  0.3514487  0.1906564 
1144.8     0.209      396.783    1          2          12.01863   2.545      16.489     3.026      12.288     3.749      3.756      1.986      2.976      1.142899   4.496      0.2217758  0.2217758  0.3067713  35.89084   5.004043   3.756      0.5538362  0.6440464  6.243      0.2575622  0.3361693  0.1789551 
1145       0.207      374.174    1          2          11.90254   2.921      19.122     3.064      13.668     4.038      3.756      2.011      3.089      1.140571   4.141      0.2252545  0.2252545  0.3075717  41.63108   5.460351   3.756      0.5598433  0.6468738  5.611      0.2494461  0.3244011  0.174491  
1145.2     0.207      355.603    1          2          11.81556   3.159      21.254     3.14       14.608     4.288      3.395      2.08       3.102      1.138799   3.785      0.2278976  0.2278976  0.3081809  46.59883   5.82935    3.395      0.5431341  0.6307954  5.043      0.2432826  0.3158537  0.1707115 
1145.4     0.207      339.453    1          2          11.75649   3.096      22.445     3.254      14.734     4.364      3.008      2.03       3.002      1.137692   3.455      0.2287156  0.2287156  0.3085615  48.25323   6.094043   3.008      0.5179424  0.6086295  5.422      0.2419573  0.310178   0.1737366 
