~Version
 VERS              .         2.0                           : CWLS LOG ASCII STANDARD - VERSION 2.0
 WRAP              .         NO                            : ONE LINE PER DEPTH STEP
 DLM               .         SPACE                         : DELIMITING CHARACTER(SPACE TAB OR COMMA)
~Well Information
#_______________________________________________________________________________
#
#PARAMETER_NAME    .UNIT     VALUE                         : DESCRIPTION
#_______________________________________________________________________________
STRT               .M        850                           : First reference value
STOP               .M        1297.8                        : Last reference value
STEP               .M        0.2                           : Step increment
NULL               .         -9999                         : Missing value
COMP               .                                       : Company
WELL               .         1804                          : Well name
FLD                .         УЗЕНЬ                         : Field
LOC                .                                       : Location
CNTY               .                                       : County
STAT               .                                       : State
CTRY               .                                       : Country
SRVC               .                                       : Service Company
DATE               .                                       : Date
UWI                .                                       : Unique Well ID
Block              .         6а                            : 
Category           .         Нефтяная                      : 
Condition          .         Ликвидированная               : 
Date               .         21.02.1974                    : 
EREF               .m        86.9                          : 100.8
Gorizont           .         15                            : 14
Interpretator      .         Алпанова Н.К.                 : 
Kupol              .         основной                      : osnovnoi
METD               .         OGZ3, GZ3, SP, CALI           : Метод
Moii_15_vosst2     .         15_vosst2                     : 
Mud                .                                       : 
Mud_density        .                                       : 
Mud_resistivity    .                                       : 
Mud_density        .                                       : 
Mud_resistivity    .                                       : 
NGDU               .         НГДУ-2                        : 
ORIGINALWELLNAME   .         1804                          : 
SCAL               .         500                           : Масштаб по глубине
Spud_date          .         1974                          : 1961
Spud_date          .         1974                          : 1961
Viscosity          .                                       : 
X                  .m        45120.3                       : 46154
Y                  .m        85617.63                      : 85761.93
YEAR               .         2018                          : 
~Parameter Information Block
#_______________________________________________________________________________
#
#PARAMETER_NAME    .UNIT     VALUE                         : DESCRIPTION
#_______________________________________________________________________________
SET                .         LQC_KAZNIPI_Petrel            : 
TLFamily_CALI      .         Caliper                       : 
TLFamily_CILD      .         Conductivity                  : 
TLFamily_COLL      .         Net Reservoir Flag            : 
TLFamily_CSAT      .         Fluid Code                    : 
TLFamily_DEPT      .         Measured Depth                : 
TLFamily_GR        .         Russian Gamma Ray             : 
TLFamily_GZ1       .         Gradient 045                  : 
TLFamily_GZ2       .         Gradient 105                  : 
TLFamily_GZ3       .         Gradient 225                  : 
TLFamily_GZ4       .         Gradient 425                  : 
TLFamily_GZ5       .         Gradient 850                  : 
TLFamily_LLS       .         Lateral Log Resistivity       : 
TLFamily_MINV      .         Micro Gradient Resistivity    : 
TLFamily_MNOR      .         Micro Resistivity             : 
TLFamily_NGLD      .         Neutron Far                   : 
TLFamily_OGZ       .         Gradient Inverted 225         : 
TLFamily_PHIE      .         Effective Porosity            : 
TLFamily_PHIEN     .         Effective Porosity            : 
TLFamily_PHIT      .         Porosity                      : 
TLFamily_PRMB      .         Permeability                  : 
TLFamily_PRMB_DGR  .         Permeability                  : 
TLFamily_RT        .         Formation Resistivity         : 
TLFamily_SOIL_ARCHIE .         Oil Saturation                : 
TLFamily_SOIL_DW   .         Oil Saturation                : 
TLFamily_SP        .         Spontaneous Potential         : 
TLFamily_VSH_FIN   .         Shale Volume                  : 
TLFamily_VSH_GR    .         Shale Volume                  : 
TLFamily_VSH_SP    .         Shale Volume                  : 
~Curve Information
#_______________________________________________________________________________
#
#LOGNAME           .UNIT     LOG_ID                        : DESCRIPTION
#_______________________________________________________________________________
DEPT               .M                                      : Колонка глубины 
CALI               .м                                      : Каверномер 
CILD               .мСм/м                                  : Индукционный каротаж 
COLL               .unitless                               :  
CSAT               .unitless                               :  
GR                 .мкР/ч                                  : Гамма каротаж 
GZ1                .Ом·м                                   : A0.4M0.1N 
GZ2                .Ом·м                                   : A1.0M0.1N 
GZ3                .Ом·м                                   : A2M0.5N 
GZ4                .Ом·м                                   : A4M0.5N 
GZ5                .Ом·м                                   : A8M1N 
LLS                .Ом·м                                   : Боковой каротаж 
MINV               .Ом·м                                   : Микро-градиент зонд 
MNOR               .Ом·м                                   : Микро-потенциал зонд 
NGLD               .у.е.                                   : Показания зонда НГК-60 аппаратуры ДРСТ-3-90 
OGZ                .Ом·м                                   : N0.5M2A 
PHIE               .м3/м3                                  : Описание 
PHIEN              .v/v                                    :  
PHIT               .м3/м3                                  : Описание 
PRMB               .mD                                     :  
PRMB_DGR           .mD                                     :  
RT                 .ohmm                                   : Description 
SOIL_ARCHIE        .v/v                                    :  
SOIL_DW            .v/v                                    :  
SP                 .мВ                                     : Потенциал самополяризации 
VSH_FIN            .unitless                               : Описание 
VSH_GR             .unitless                               : Shale volume 
VSH_SP             .unitless                               : Shale Volume 
~Ascii
# ...
1057.2     0.257      693.118    -9999      -9999      11.5753    1.266      1.467      1.755      1.655      1.906      1.196      0.801      2.851      0.9634063000000001 2.528      0.2162104  0.2162104  0.3684809  28.30733   2.583695   1.196      0.2195793  0.428393   21.03      0.4614258  0.4403341  0.4825177 
1057.4     0.26       687.466    -9999      -9999      11.43165   1.328      1.442      1.73       1.655      1.906      1.204      0.676      1.947      0.9682506  2.604      0.217135   0.217135   0.3668154  29.44595   2.859208   1.204      0.2249032  0.4297104  21.093     0.453577   0.4224875  0.4846665 
1057.6     0.265      677.776    -9999      -9999      11.27762   1.341      1.442      1.73       1.63       1.881      1.161      0.701      1.633      0.9736363  2.591      0.2179525  0.2179525  0.3649638  30.49067   3.187352   1.161      0.214138   0.4183495  21.156     0.4454889  0.404154   0.4868239 
1057.8     0.269      668.894    -9999      -9999      11.12161   1.353      1.455      1.743      1.605      1.868      1.161      0.801      1.507      0.9792684  2.54       0.2182989  0.2182989  0.3630275  30.94452   3.558116   1.161      0.2152243  0.4168592  21.283     0.4385715  0.386396   0.4907469 
1058       0.23       661.627    -9999      -9999      10.97345   1.291      1.455      1.743      1.58       1.843      1.258      1.039      2.047      0.9847878  2.502      0.2187047  0.2187047  0.3611299  31.48473   3.950075   1.258      0.2454466  0.438446   21.346     0.4315916  0.3702544  0.4929288 
1058.2     0.252      660.82     -9999      -9999      10.84063   1.241      1.492      1.755      1.53       1.818      1.399      1.29       6.028      0.9899362  2.502      0.2185775  0.2185775  0.3593599  31.31443   4.33802    1.399      0.2817766  0.465801   21.472     0.4266133  0.3563582  0.4968683 
1058.4     0.273      658.398    -9999      -9999      10.72678   1.228      1.48       1.794      1.505      1.793      1.39       1.597      4.044      0.9946077  2.515      0.2176248  0.2176248  0.3577538  30.06748   4.700724   1.39       0.276852   0.4616924  21.725     0.4246336  0.3448632  0.5044039 
1058.6     0.286      647.901    -9999      -9999      10.63048   1.228      1.429      1.806      1.48       1.781      1.214      0.356      1.482      0.9988731  2.553      0.2164547  0.2164547  0.3562874  28.60385   5.03112    1.214      0.2257927  0.4213235  21.978     0.4237355  0.3354293  0.5120417 
1058.8     0.291      633.366    -9999      -9999      10.54708   1.253      1.417      1.844      1.48       1.781      1.196      0.318      0.904      1.002867   2.616      0.2148167  0.2148167  0.3549143  26.6738    5.335981   1.196      0.2151714  0.4138532  22.294     0.4245381  0.3274676  0.5216086 
1059       0.283      618.025    -9999      -9999      10.47251   1.303      1.455      1.87       1.517      1.768      1.258      0.287      0.929      1.006589   2.68       0.2136972  0.2136972  0.3536348  25.43015   5.624137   1.258      0.2300702  0.4260412  22.483     0.4240533  0.3205098  0.5275969 
1059.2     0.273      597.031    -9999      -9999      10.40514   1.366      1.567      1.908      1.542      1.793      1.266      0.249      0.967      1.009855   2.756      0.2132015  0.2132015  0.3525117  24.89813   5.897839   1.266      0.2308028  0.426232   22.547     0.4221523  0.3143508  0.5299538 
1059.4     0.267      577.652    -9999      -9999      10.346     1.491      1.705      1.984      1.592      1.781      1.372      0.318      0.929      1.012351   2.82       0.2125262  0.2125262  0.3516537  24.19132   6.149075   1.372      0.2572362  0.4473345  22.673     0.4215984  0.3090415  0.5341554 
1059.6     0.222      559.081    -9999      -9999      10.29745   1.667      1.868      2.035      1.63       1.793      1.53       0.544      0.929      1.013728   2.845      0.2126815  0.2126815  0.3511802  24.35205   6.363296   1.53       0.2947212  0.4763784  22.673     0.419693   0.3047501  0.5346358 
1059.8     0.246      546.161    -9999      -9999      10.26037   1.868      2.031      2.073      1.643      1.806      1.75       0.638      1.143      1.013824   2.845      0.2134118  0.2134118  0.3511475  25.12251   6.531915   1.75       0.3397867  0.5110415  22.61      0.4173807  0.3015129  0.5332485 
1060       0.261      551.814    -9999      -9999      10.2336    1.767      2.006      2.098      1.643      1.818      2.057      1.002      1.934      1.012782   2.782      0.2140729  0.2140729  0.3515055  25.84084   6.656422   2.057      0.389657   0.5498365  22.61      0.4164627  0.2991972  0.5337283 
1060.2     0.275      555.044    -9999      -9999      10.21361   1.567      1.881      2.124      1.68       1.818      2.27       1.165      2.097      1.011029   2.693      0.2151875  0.2151875  0.3521082  27.09893   6.75094    2.27       0.419865   0.5728068  22.547     0.4149113  0.2974795  0.532343  
1060.4     0.289      554.236    -9999      -9999      10.19603   1.479      1.931      2.136      1.768      1.818      1.848      0.914      1.432      1.009117   2.591      0.2160137  0.2160137  0.3527656  28.07087   6.835153   1.848      0.3632104  0.527792   22.547     0.4143997  0.2959774  0.5328221 
1060.6     0.297      545.354    -9999      -9999      10.17841   1.516      2.031      2.136      1.806      1.806      1.539      0.663      1.331      1.007514   2.515      0.2167329  0.2167329  0.3533166  28.94519   6.920651   1.539      0.3081244  0.4837265  22.547     0.4138901  0.2944788  0.5333014 
1060.8     0.293      536.472    -9999      -9999      10.16068   1.692      2.157      2.124      1.818      1.806      1.425      0.406      1.068      1.006418   2.464      0.2175905  0.2175905  0.3536934  30.02351   7.00777    1.425      0.2851436  0.4646647  22.483     0.412433   0.2929784  0.5318876 
1061       0.28       541.317    -9999      -9999      10.14563   1.83       2.232      2.124      1.818      1.806      1.786      0.469      0.854      1.005753   2.464      0.2182561  0.2182561  0.3539221  30.88806   7.082533   1.786      0.3587249  0.5225899  22.42      0.4111091  0.2917117  0.5305066000000001
1061.2     0.269      550.199    -9999      -9999      10.13811   1.78       2.132      2.111      1.806      1.793      1.856      0.657      1.218      1.005304   2.515      0.2184356  0.2184356  0.3540763  31.12547   7.120186   1.856      0.3706411  0.531956   22.42      0.4110324  0.2910808  0.5309841 
1061.4     0.28       555.851    -9999      -9999      10.14367   1.604      2.019      2.124      1.793      1.793      1.645      0.839      1.168      1.004895   2.591      0.2187271  0.2187271  0.3542171  31.51476   7.092342   1.645      0.3347436  0.5032285  22.357     0.410576   0.2915469  0.5296052 
1061.6     0.289      559.081    -9999      -9999      10.16852   1.529      2.006      2.149      1.806      1.793      1.442      1.114      2.248      1.004534   2.642      0.2181202  0.2181202  0.3543412  30.70959   6.969107   1.442      0.2906148  0.468931   22.42      0.4127907  0.2936411  0.5319403 
1061.8     0.294      556.658    -9999      -9999      10.21888   1.554      2.044      2.175      1.793      1.781      1.372      0.87       1.721      1.004435   2.693      0.2176744  0.2176744  0.3543753  30.1312    6.725909   1.372      0.2725598  0.4551355  22.357     0.4142451  0.297931   0.5305592 
1062       0.288      552.621    -9999      -9999      10.30006   1.604      2.107      2.2        1.806      1.781      1.451      0.632      1.03       1.004948   2.731      0.2165622  0.2165622  0.3541987  28.73524   6.35158    1.451      0.2882529  0.4689266  22.294     0.4170804  0.3049796  0.5291812 
1062.2     0.283      548.584    -9999      -9999      10.41477   1.629      2.144      2.225      1.831      1.743      1.575      0.563      0.929      1.006311   2.743      0.2149395  0.2149395  0.3537301  26.81383   5.857908   1.575      0.3106202  0.4883155  22.167     0.4205777  0.315224   0.5259315 
