~Version
 VERS              .         2.0                           : CWLS LOG ASCII STANDARD - VERSION 2.0
 WRAP              .         NO                            : ONE LINE PER DEPTH STEP
 DLM               .         SPACE                         : DELIMITING CHARACTER(SPACE TAB OR COMMA)
~Well Information
#_______________________________________________________________________________
#
#PARAMETER_NAME    .UNIT     VALUE                         : DESCRIPTION
#_______________________________________________________________________________
STRT               .M        850                           : First reference value
STOP               .M        1297.8                        : Last reference value
STEP               .M        0.2                           : Step increment
NULL               .         -9999                         : Missing value
COMP               .                                       : Company
WELL               .         1804                          : Well name
FLD                .         УЗЕНЬ                         : Field
LOC                .                                       : Location
CNTY               .                                       : County
STAT               .                                       : State
CTRY               .                                       : Country
SRVC               .                                       : Service Company
DATE               .                                       : Date
UWI                .                                       : Unique Well ID
Block              .         6а                            : 
Category           .         Нефтяная                      : 
Condition          .         Ликвидированная               : 
Date               .         21.02.1974                    : 
EREF               .m        86.9                          : 100.8
Gorizont           .         15                            : 14
Interpretator      .         Алпанова Н.К.                 : 
Kupol              .         основной                      : osnovnoi
METD               .         OGZ3, GZ3, SP, CALI           : Метод
Moii_15_vosst2     .         15_vosst2                     : 
Mud                .                                       : 
Mud_density        .                                       : 
Mud_resistivity    .                                       : 
Mud_density        .                                       : 
Mud_resistivity    .                                       : 
NGDU               .         НГДУ-2                        : 
ORIGINALWELLNAME   .         1804                          : 
SCAL               .         500                           : Масштаб по глубине
Spud_date          .         1974                          : 1961
Spud_date          .         1974                          : 1961
Viscosity          .                                       : 
X                  .m        45120.3                       : 46154
Y                  .m        85617.63                      : 85761.93
YEAR               .         2018                          : 
~Parameter Information Block
#_______________________________________________________________________________
#
#PARAMETER_NAME    .UNIT     VALUE                         : DESCRIPTION
#_______________________________________________________________________________
SET                .         LQC_KAZNIPI_Petrel            : 
TLFamily_CALI      .         Caliper                       : 
TLFamily_CILD      .         Conductivity                  : 
TLFamily_COLL      .         Net Reservoir Flag            : 
TLFamily_CSAT      .         Fluid Code                    : 
TLFamily_DEPT      .         Measured Depth                : 
TLFamily_GR        .         Russian Gamma Ray             : 
TLFamily_GZ1       .         Gradient 045                  : 
TLFamily_GZ2       .         Gradient 105                  : 
TLFamily_GZ3       .         Gradient 225                  : 
TLFamily_GZ4       .         Gradient 425                  : 
TLFamily_GZ5       .         Gradient 850                  : 
TLFamily_LLS       .         Lateral Log Resistivity       : 
TLFamily_MINV      .         Micro Gradient Resistivity    : 
TLFamily_MNOR      .         Micro Resistivity             : 
TLFamily_NGLD      .         Neutron Far                   : 
TLFamily_OGZ       .         Gradient Inverted 225         : 
TLFamily_PHIE      .         Effective Porosity            : 
TLFamily_PHIEN     .         Effective Porosity            : 
TLFamily_PHIT      .         Porosity                      : 
TLFamily_PRMB      .         Permeability                  : 
TLFamily_PRMB_DGR  .         Permeability                  : 
TLFamily_RT        .         Formation Resistivity         : 
TLFamily_SOIL_ARCHIE .         Oil Saturation                : 
TLFamily_SOIL_DW   .         Oil Saturation                : 
TLFamily_SP        .         Spontaneous Potential         : 
TLFamily_VSH_FIN   .         Shale Volume                  : 
TLFamily_VSH_GR    .         Shale Volume                  : 
TLFamily_VSH_SP    .         Shale Volume                  : 
~Curve Information
#_______________________________________________________________________________
#
#LOGNAME           .UNIT     LOG_ID                        : DESCRIPTION
#_______________________________________________________________________________
DEPT               .M                                      : Колонка глубины 
CALI               .м                                      : Каверномер 
CILD               .мСм/м                                  : Индукционный каротаж 
COLL               .unitless                               :  
CSAT               .unitless                               :  
GR                 .мкР/ч                                  : Гамма каротаж 
GZ1                .Ом·м                                   : A0.4M0.1N 
GZ2                .Ом·м                                   : A1.0M0.1N 
GZ3                .Ом·м                                   : A2M0.5N 
GZ4                .Ом·м                                   : A4M0.5N 
GZ5                .Ом·м                                   : A8M1N 
LLS                .Ом·м                                   : Боковой каротаж 
MINV               .Ом·м                                   : Микро-градиент зонд 
MNOR               .Ом·м                                   : Микро-потенциал зонд 
NGLD               .у.е.                                   : Показания зонда НГК-60 аппаратуры ДРСТ-3-90 
OGZ                .Ом·м                                   : N0.5M2A 
PHIE               .м3/м3                                  : Описание 
PHIEN              .v/v                                    :  
PHIT               .м3/м3                                  : Описание 
PRMB               .mD                                     :  
PRMB_DGR           .mD                                     :  
RT                 .ohmm                                   : Description 
SOIL_ARCHIE        .v/v                                    :  
SOIL_DW            .v/v                                    :  
SP                 .мВ                                     : Потенциал самополяризации 
VSH_FIN            .unitless                               : Описание 
VSH_GR             .unitless                               : Shale volume 
VSH_SP             .unitless                               : Shale Volume 
~Ascii
# ...
1270.4     -9999      433.118    6          6          -9999      5.303      29.091     4.575      23.448     4.288      6.376      3.955      6.619      -9999      3.417      -9999      -9999      -9999      -9999      -9999      6.376      -9999      -9999      7.633      0.1919741  -9999      0.1919741 
1270.6     -9999      471.068    6          6          -9999      4.4        32.727     4.245      25.705     4.476      4.817      3.955      7.874      -9999      3.074      -9999      -9999      -9999      -9999      -9999      4.817      -9999      -9999      4.664      0.1695978  -9999      0.1695978 
1270.8     -9999      529.205    6          6          -9999      3.046      28.84      3.673      21.881     4          2.752      2.82       7.874      -9999      2.756      -9999      -9999      -9999      -9999      -9999      2.752      -9999      -9999      4.284      0.1679296  -9999      0.1679296 
1271       -9999      588.149    6          6          -9999      2.382      23.26      2.708      14.859     2.972      1.829      1.635      4.019      -9999      2.426      -9999      -9999      -9999      -9999      -9999      1.829      -9999      -9999      3.905      0.1663065  -9999      0.1663065 
1271.2     -9999      649.516    1          3          -9999      1.93       17.994     2.213      10.157     2.031      1.442      2.13       3.554      -9999      2.096      -9999      -9999      -9999      -9999      -9999      1.442      -9999      -9999      3.4        0.1639132  -9999      0.1639132 
1271.4     -9999      693.925    1          3          -9999      1.83       14.671     1.908      7.837      1.567      1.521      2.582      3.378      -9999      1.702      -9999      -9999      -9999      -9999      -9999      1.521      -9999      -9999      3.021      0.162384   -9999      0.162384  
1271.6     -9999      721.379    1          3          -9999      1.905      12.539     1.705      6.458      1.292      1.618      2.481      3.115      -9999      1.727      -9999      -9999      -9999      -9999      -9999      1.618      -9999      -9999      2.641      0.1608851  -9999      0.1608851 
1271.8     -9999      745.603    1          3          -9999      1.98       11.411     1.73       5.705      1.204      1.705      2.538      3.416      -9999      1.753      -9999      -9999      -9999      -9999      -9999      1.705      -9999      -9999      2.199      0.1590561  -9999      0.1590561 
1272       -9999      765.789    1          3          -9999      2.068      10.846     1.768      4.953      1.129      1.802      2.682      3.429      -9999      1.778      -9999      -9999      -9999      -9999      -9999      1.802      -9999      -9999      1.82       0.1576435  -9999      0.1576435 
1272.2     -9999      788.398    1          3          -9999      2.156      10.721     1.794      4.577      1.066      1.864      2.506      3.579      -9999      1.804      -9999      -9999      -9999      -9999      -9999      1.864      -9999      -9999      1.441      0.1562657  -9999      0.1562657 
1272.4     -9999      807.776    1          3          -9999      2.093      10.408     1.819      4.765      1.016      1.829      2.224      3.516      -9999      1.829      -9999      -9999      -9999      -9999      -9999      1.829      -9999      -9999      0.935      0.1542326  -9999      0.1542326 
1272.6     -9999      832.808    1          3          -9999      1.993      9.905999   1.806      4.765      0.966      1.68       2.074      3.14       -9999      1.804      -9999      -9999      -9999      -9999      -9999      1.68       -9999      -9999      0.556      0.1529398  -9999      0.1529398 
1272.8     -9999      850.571    1          3          -9999      1.805      9.091001   1.755      4.513999   0.903      1.53       2.143      2.826      -9999      1.74       -9999      -9999      -9999      -9999      -9999      1.53       -9999      -9999      0.177      0.1516798  -9999      0.1516798 
1273       -9999      860.261    1          3          -9999      1.792      8.527      1.692      4.201      0.84       1.442      2.35       2.851      -9999      1.689      -9999      -9999      -9999      -9999      -9999      1.442      -9999      -9999      -0.076     0.151085   -9999      0.151085  
1273.2     -9999      864.298    1          3          -9999      1.755      7.585999   1.641      4.075      0.803      1.486      2.143      3.039      -9999      1.626      -9999      -9999      -9999      -9999      -9999      1.486      -9999      -9999      -0.013     0.1521029  -9999      0.1521029 
1273.4     -9999      855.416    1          3          -9999      1.767      7.085      1.578      4.075      0.815      1.583      1.998      2.964      -9999      1.562      -9999      -9999      -9999      -9999      -9999      1.583      -9999      -9999      0.114      0.1534814  -9999      0.1534814 
1273.6     -9999      831.193    1          3          -9999      1.805      7.022      1.641      4.201      0.903      1.697      2.237      2.976      -9999      1.715      -9999      -9999      -9999      -9999      -9999      1.697      -9999      -9999      0.746      0.1577298  -9999      0.1577298 
1273.8     -9999      798.894    1          3          -9999      1.83       7.524      1.844      4.201      0.978      1.786      2.23       2.964      -9999      2.032      -9999      -9999      -9999      -9999      -9999      1.786      -9999      -9999      1.694      0.1643201  -9999      0.1643201 
1274       -9999      769.826    1          3          -9999      1.868      8.15       2.035      4.889999   1.053      1.697      1.854      3.278      -9999      2.362      -9999      -9999      -9999      -9999      -9999      1.697      -9999      -9999      2.768      0.1725494  -9999      0.1725494 
1274.2     -9999      741.565    1          3          -9999      1.868      8.903      2.251      7.524      1.129      1.583      1.798      2.838      -9999      2.68       -9999      -9999      -9999      -9999      -9999      1.583      -9999      -9999      4.221      0.1848602  -9999      0.1848602 
1274.4     -9999      715.727    1          3          -9999      1.855      9.154      2.2        10.157     1.204      1.548      1.955      2.688      -9999      3.01       -9999      -9999      -9999      -9999      -9999      1.548      -9999      -9999      5.548      0.1978209  -9999      0.1978209 
1274.6     -9999      689.081    1          3          -9999      1.83       9.216      2.048      12.1       1.279      1.627      1.785      3.265      -9999      3.34       -9999      -9999      -9999      -9999      -9999      1.627      -9999      -9999      7.633      0.2207385  -9999      0.2207385 
1274.8     -9999      666.472    1          3          -9999      1.805      9.592      1.895      13.292     1.367      1.672      1.704      3.391      -9999      3.76       -9999      -9999      -9999      -9999      -9999      1.672      -9999      -9999      9.656      0.2471003  -9999      0.2471003 
1275       -9999      635.789    1          3          -9999      1.78       9.905999   1.743      13.354     1.392      1.672      1.81       2.826      -9999      3.556      -9999      -9999      -9999      -9999      -9999      1.672      -9999      -9999      12.057     0.2837242  -9999      0.2837242 
1275.2     -9999      615.602    1          3          -9999      1.755      10.031     1.59       12.351     1.404      1.636      1.384      2.675      -9999      3.302      -9999      -9999      -9999      -9999      -9999      1.636      -9999      -9999      13.51      0.3100223  -9999      0.3100223 
1275.4     -9999      597.839    1          3          -9999      1.73       10.031     1.476      10.784     1.442      1.68       1.61       3.24       -9999      3.061      -9999      -9999      -9999      -9999      -9999      1.68       -9999      -9999      14.648     0.3330961  -9999      0.3330961 
