~Version
 VERS              .         2.0                           : CWLS LOG ASCII STANDARD - VERSION 2.0
 WRAP              .         NO                            : ONE LINE PER DEPTH STEP
 DLM               .         SPACE                         : DELIMITING CHARACTER(SPACE TAB OR COMMA)
~Well Information
#_______________________________________________________________________________
#
#PARAMETER_NAME    .UNIT     VALUE                         : DESCRIPTION
#_______________________________________________________________________________
STRT               .M        850                           : First reference value
STOP               .M        1297.8                        : Last reference value
STEP               .M        0.2                           : Step increment
NULL               .         -9999                         : Missing value
COMP               .                                       : Company
WELL               .         1804                          : Well name
FLD                .         УЗЕНЬ                         : Field
LOC                .                                       : Location
CNTY               .                                       : County
STAT               .                                       : State
CTRY               .                                       : Country
SRVC               .                                       : Service Company
DATE               .                                       : Date
UWI                .                                       : Unique Well ID
Block              .         6а                            : 
Category           .         Нефтяная                      : 
Condition          .         Ликвидированная               : 
Date               .         21.02.1974                    : 
EREF               .m        86.9                          : 100.8
Gorizont           .         15                            : 14
Interpretator      .         Алпанова Н.К.                 : 
Kupol              .         основной                      : osnovnoi
METD               .         OGZ3, GZ3, SP, CALI           : Метод
Moii_15_vosst2     .         15_vosst2                     : 
Mud                .                                       : 
Mud_density        .                                       : 
Mud_resistivity    .                                       : 
Mud_density        .                                       : 
Mud_resistivity    .                                       : 
NGDU               .         НГДУ-2                        : 
ORIGINALWELLNAME   .         1804                          : 
SCAL               .         500                           : Масштаб по глубине
Spud_date          .         1974                          : 1961
Spud_date          .         1974                          : 1961
Viscosity          .                                       : 
X                  .m        45120.3                       : 46154
Y                  .m        85617.63                      : 85761.93
YEAR               .         2018                          : 
~Parameter Information Block
#_______________________________________________________________________________
#
#PARAMETER_NAME    .UNIT     VALUE                         : DESCRIPTION
#_______________________________________________________________________________
SET                .         LQC_KAZNIPI_Petrel            : 
TLFamily_CALI      .         Caliper                       : 
TLFamily_CILD      .         Conductivity                  : 
TLFamily_COLL      .         Net Reservoir Flag            : 
TLFamily_CSAT      .         Fluid Code                    : 
TLFamily_DEPT      .         Measured Depth                : 
TLFamily_GR        .         Russian Gamma Ray             : 
TLFamily_GZ1       .         Gradient 045                  : 
TLFamily_GZ2       .         Gradient 105                  : 
TLFamily_GZ3       .         Gradient 225                  : 
TLFamily_GZ4       .         Gradient 425                  : 
TLFamily_GZ5       .         Gradient 850                  : 
TLFamily_LLS       .         Lateral Log Resistivity       : 
TLFamily_MINV      .         Micro Gradient Resistivity    : 
TLFamily_MNOR      .         Micro Resistivity             : 
TLFamily_NGLD      .         Neutron Far                   : 
TLFamily_OGZ       .         Gradient Inverted 225         : 
TLFamily_PHIE      .         Effective Porosity            : 
TLFamily_PHIEN     .         Effective Porosity            : 
TLFamily_PHIT      .         Porosity                      : 
TLFamily_PRMB      .         Permeability                  : 
TLFamily_PRMB_DGR  .         Permeability                  : 
TLFamily_RT        .         Formation Resistivity         : 
TLFamily_SOIL_ARCHIE .         Oil Saturation                : 
TLFamily_SOIL_DW   .         Oil Saturation                : 
TLFamily_SP        .         Spontaneous Potential         : 
TLFamily_VSH_FIN   .         Shale Volume                  : 
TLFamily_VSH_GR    .         Shale Volume                  : 
TLFamily_VSH_SP    .         Shale Volume                  : 
~Curve Information
#_______________________________________________________________________________
#
#LOGNAME           .UNIT     LOG_ID                        : DESCRIPTION
#_______________________________________________________________________________
DEPT               .M                                      : Колонка глубины 
CALI               .м                                      : Каверномер 
CILD               .мСм/м                                  : Индукционный каротаж 
COLL               .unitless                               :  
CSAT               .unitless                               :  
GR                 .мкР/ч                                  : Гамма каротаж 
GZ1                .Ом·м                                   : A0.4M0.1N 
GZ2                .Ом·м                                   : A1.0M0.1N 
GZ3                .Ом·м                                   : A2M0.5N 
GZ4                .Ом·м                                   : A4M0.5N 
GZ5                .Ом·м                                   : A8M1N 
LLS                .Ом·м                                   : Боковой каротаж 
MINV               .Ом·м                                   : Микро-градиент зонд 
MNOR               .Ом·м                                   : Микро-потенциал зонд 
NGLD               .у.е.                                   : Показания зонда НГК-60 аппаратуры ДРСТ-3-90 
OGZ                .Ом·м                                   : N0.5M2A 
PHIE               .м3/м3                                  : Описание 
PHIEN              .v/v                                    :  
PHIT               .м3/м3                                  : Описание 
PRMB               .mD                                     :  
PRMB_DGR           .mD                                     :  
RT                 .ohmm                                   : Description 
SOIL_ARCHIE        .v/v                                    :  
SOIL_DW            .v/v                                    :  
SP                 .мВ                                     : Потенциал самополяризации 
VSH_FIN            .unitless                               : Описание 
VSH_GR             .unitless                               : Shale volume 
VSH_SP             .unitless                               : Shale Volume 
~Ascii
# ...
876        0.271      339.453    -9999      -9999      -9999      2.319      4.339      4.41       3.624      3.047      2.99       1.083      1.871      -9999      5.093      -9999      -9999      -9999      -9999      -9999      2.99       -9999      -9999      21.22      -9999      0.800000011920929 0.1761438 
876.2000000000001 0.272      341.068    -9999      -9999      -9999      2.319      4.375999   4.359      3.649      3.06       3.034      1.265      2.009      -9999      5.36       -9999      -9999      -9999      -9999      -9999      3.034      -9999      -9999      21.22      -9999      0.800000011920929 0.1761438 
876.4      0.268      341.876    -9999      -9999      -9999      2.319      4.389      4.321      3.661      3.072      3.044      1.459      2.248      -9999      5.665      -9999      -9999      -9999      -9999      -9999      3.044      -9999      -9999      21.409     -9999      0.800000011920929 0.1775794 
876.6      0.26       343.491    -9999      -9999      -9999      2.319      4.375999   4.283      3.636      3.085      3.017      1.509      2.462      -9999      6.046      -9999      -9999      -9999      -9999      -9999      3.017      -9999      -9999      21.346     -9999      0.800000011920929 0.1770981 
876.8      0.254      344.298    -9999      -9999      -9999      2.319      4.288      4.219      3.611      3.06       2.982      1.265      2.386      -9999      6.554      -9999      -9999      -9999      -9999      -9999      2.982      -9999      -9999      21.409     -9999      0.800000011920929 0.1775794 
877        0.251      343.491    -9999      -9999      -9999      2.319      4.213      4.105      3.611      3.034      2.911      1.177      1.834      -9999      7.176001   -9999      -9999      -9999      -9999      -9999      2.911      -9999      -9999      21.283     -9999      0.800000011920929 0.1766196 
877.2000000000001 0.25       342.683    -9999      -9999      -9999      2.331      4.176      4.042      3.611      2.984      2.885      1.127      1.783      -9999      7.772999   -9999      -9999      -9999      -9999      -9999      2.885      -9999      -9999      21.409     -9999      0.800000011920929 0.1775794 
877.4      0.253      342.683    -9999      -9999      11.85144   2.331      4.113      3.991      3.649      2.934      2.903      1.227      1.771      1.002305030822754 9.716      -9999      -9999      -9999      -9999      -9999      2.903      -9999      -9999      21.409     -9999      0.800000011920929 0.1775794 
877.6      0.255      341.876    -9999      -9999      11.8485    2.331      4.088      3.902      3.661      2.897      2.876      1.566      2.637      1.011842966079712 10.669     -9999      -9999      -9999      -9999      -9999      2.876      -9999      -9999      21.409     -9999      0.800000011920929 0.1775794 
877.8      0.253      338.646    -9999      -9999      11.78907   2.331      4.1        3.826      3.649      2.884      2.841      2.199      3.152      1.021777033805847 10.224     -9999      -9999      -9999      -9999      -9999      2.841      -9999      -9999      21.409     -9999      0.800000011920929 0.1775794 
878        0.249      332.994    -9999      -9999      11.69179   2.319      4.063      3.788      3.586      2.897      2.814      2.193      2.512      1.033506035804749 9.78       -9999      -9999      -9999      -9999      -9999      2.814      -9999      -9999      21.409     -9999      0.800000011920929 0.1775794 
878.2000000000001 0.244      322.497    -9999      -9999      11.56454   2.269      3.987      3.864      3.524      2.909      2.779      1.221      1.871      1.047042965888977 8.437      -9999      -9999      -9999      -9999      -9999      2.779      -9999      -9999      21.409     -9999      0.800000011920929 0.1775794 
878.4      0.243      310.385    -9999      -9999      11.41842   2.219      3.887      3.953      3.461      2.947      2.787      1.027      1.331      1.06218695640564 8.038      -9999      -9999      -9999      -9999      -9999      2.787      -9999      -9999      21.409     -9999      0.800000011920929 0.1775794 
878.6      0.244      296.658    -9999      -9999      11.2655    2.181      3.712      4.029      3.386      2.922      2.946      1.102      1.243      1.078372001647949 7.639      -9999      -9999      -9999      -9999      -9999      2.946      -9999      -9999      21.409     -9999      0.800000011920929 0.1775794 
878.8      0.243      280.509    -9999      -9999      11.11856   2.131      3.536      4.181      3.323      2.897      3.466      0.801      1.155      1.094670057296753 7.239999   -9999      -9999      -9999      -9999      -9999      3.466      -9999      -9999      21.346     -9999      0.800000011920929 0.1770981 
879        0.241      257.901    -9999      -9999      10.98764   2.244      4.013      4.283      3.298      2.846      4.767      0.87       1.055      1.110005021095276 5.715      -9999      -9999      -9999      -9999      -9999      4.767      -9999      -9999      21.346     -9999      0.800000011920929 0.1770981 
879.2000000000001 0.238      248.211    -9999      -9999      10.87815   2.632      4.414      4.296      3.323      2.809      5.848      1.973      6.292      1.12338399887085 5.893      -9999      -9999      -9999      -9999      -9999      5.848      -9999      -9999      21.283     -9999      0.800000011920929 0.1766196 
879.4      0.237      246.596    -9999      -9999      10.78933   3.009      4.828      4.308      3.335      2.771      5.893      2.632      4.546      1.134176015853882 6.173      -9999      -9999      -9999      -9999      -9999      5.893      -9999      -9999      21.283     -9999      0.800000011920929 0.1766196 
879.6      0.246      245.789    -9999      -9999      10.71429   3.146      5.693      4.447999   3.348      2.721      5.417      1.942      5.991      1.142194986343384 6.541      -9999      -9999      -9999      -9999      -9999      5.417      -9999      -9999      21.22      -9999      0.800000011920929 0.1761438 
879.8      0.252      241.752    -9999      -9999      10.64428   3.473      6.194      6.073      3.323      2.746      5.417      1.259      2.512      1.147626996040344 6.909      -9999      -9999      -9999      -9999      -9999      5.417      -9999      -9999      21.22      -9999      0.800000011920929 0.1761438 
880        0.261      234.484    -9999      -9999      10.5715    3.234      5.517      7.698      3.335      2.884      4.23       0.588      7.083      1.150869011878967 7.29       -9999      -9999      -9999      -9999      -9999      4.23       -9999      -9999      21.156     -9999      0.800000011920929 0.1756633 
880.2000000000001 0.289      227.217    -9999      -9999      10.49185   2.52       5.379      8.46       3.223      3.197      3.483      3.861      7.548      1.15229594707489 7.697      -9999      -9999      -9999      -9999      -9999      3.483      -9999      -9999      21.156     -9999      0.800000011920929 0.1756633 
880.4      0.319      219.95     -9999      -9999      10.40791   2.52       7.085      8.903999   3.724      3.486      4.767      2.983      4.031      1.152220010757446 7.722001   -9999      -9999      -9999      -9999      -9999      4.767      -9999      -9999      21.093     -9999      0.800000011920929 0.1751931 
880.6      0.305      216.721    -9999      -9999      10.32919   3.184      7.273      9.031      4.777      3.774      7.959      1.81       4.232      1.150887966156006 7.392      -9999      -9999      -9999      -9999      -9999      7.959      -9999      -9999      21.03      -9999      0.800000011920929 0.1747255 
880.8      0.263      215.106    -9999      -9999      10.26869   3.673      8.275999   9.158      5.73       4.025      7.124      1.873      2.248      1.148483991622925 7.049      -9999      -9999      -9999      -9999      -9999      7.124      -9999      -9999      21.03      -9999      0.800000011920929 0.1747255 
