~Version
 VERS              .         2.0                           : CWLS LOG ASCII STANDARD - VERSION 2.0
 WRAP              .         NO                            : ONE LINE PER DEPTH STEP
 DLM               .         SPACE                         : DELIMITING CHARACTER(SPACE TAB OR COMMA)
~Well Information
#_______________________________________________________________________________
#
#PARAMETER_NAME    .UNIT     VALUE                         : DESCRIPTION
#_______________________________________________________________________________
STRT               .M        850                           : First reference value
STOP               .M        1297.8                        : Last reference value
STEP               .M        0.2                           : Step increment
NULL               .         -9999                         : Missing value
COMP               .                                       : Company
WELL               .         1804                          : Well name
FLD                .         УЗЕНЬ                         : Field
LOC                .                                       : Location
CNTY               .                                       : County
STAT               .                                       : State
CTRY               .                                       : Country
SRVC               .                                       : Service Company
DATE               .                                       : Date
UWI                .                                       : Unique Well ID
Block              .         6а                            : 
Category           .         Нефтяная                      : 
Condition          .         Ликвидированная               : 
Date               .         21.02.1974                    : 
EREF               .m        86.9                          : 100.8
Gorizont           .         15                            : 14
Interpretator      .         Алпанова Н.К.                 : 
Kupol              .         основной                      : osnovnoi
METD               .         OGZ3, GZ3, SP, CALI           : Метод
Moii_15_vosst2     .         15_vosst2                     : 
Mud                .                                       : 
Mud_density        .                                       : 
Mud_resistivity    .                                       : 
Mud_density        .                                       : 
Mud_resistivity    .                                       : 
NGDU               .         НГДУ-2                        : 
ORIGINALWELLNAME   .         1804                          : 
SCAL               .         500                           : Масштаб по глубине
Spud_date          .         1974                          : 1961
Spud_date          .         1974                          : 1961
Viscosity          .                                       : 
X                  .m        45120.3                       : 46154
Y                  .m        85617.63                      : 85761.93
YEAR               .         2018                          : 
~Parameter Information Block
#_______________________________________________________________________________
#
#PARAMETER_NAME    .UNIT     VALUE                         : DESCRIPTION
#_______________________________________________________________________________
SET                .         LQC_KAZNIPI_Petrel            : 
TLFamily_CALI      .         Caliper                       : 
TLFamily_CILD      .         Conductivity                  : 
TLFamily_COLL      .         Net Reservoir Flag            : 
TLFamily_CSAT      .         Fluid Code                    : 
TLFamily_DEPT      .         Measured Depth                : 
TLFamily_GR        .         Russian Gamma Ray             : 
TLFamily_GZ1       .         Gradient 045                  : 
TLFamily_GZ2       .         Gradient 105                  : 
TLFamily_GZ3       .         Gradient 225                  : 
TLFamily_GZ4       .         Gradient 425                  : 
TLFamily_GZ5       .         Gradient 850                  : 
TLFamily_LLS       .         Lateral Log Resistivity       : 
TLFamily_MINV      .         Micro Gradient Resistivity    : 
TLFamily_MNOR      .         Micro Resistivity             : 
TLFamily_NGLD      .         Neutron Far                   : 
TLFamily_OGZ       .         Gradient Inverted 225         : 
TLFamily_PHIE      .         Effective Porosity            : 
TLFamily_PHIEN     .         Effective Porosity            : 
TLFamily_PHIT      .         Porosity                      : 
TLFamily_PRMB      .         Permeability                  : 
TLFamily_PRMB_DGR  .         Permeability                  : 
TLFamily_RT        .         Formation Resistivity         : 
TLFamily_SOIL_ARCHIE .         Oil Saturation                : 
TLFamily_SOIL_DW   .         Oil Saturation                : 
TLFamily_SP        .         Spontaneous Potential         : 
TLFamily_VSH_FIN   .         Shale Volume                  : 
TLFamily_VSH_GR    .         Shale Volume                  : 
TLFamily_VSH_SP    .         Shale Volume                  : 
~Curve Information
#_______________________________________________________________________________
#
#LOGNAME           .UNIT     LOG_ID                        : DESCRIPTION
#_______________________________________________________________________________
DEPT               .M                                      : Колонка глубины 
CALI               .м                                      : Каверномер 
CILD               .мСм/м                                  : Индукционный каротаж 
COLL               .unitless                               :  
CSAT               .unitless                               :  
GR                 .мкР/ч                                  : Гамма каротаж 
GZ1                .Ом·м                                   : A0.4M0.1N 
GZ2                .Ом·м                                   : A1.0M0.1N 
GZ3                .Ом·м                                   : A2M0.5N 
GZ4                .Ом·м                                   : A4M0.5N 
GZ5                .Ом·м                                   : A8M1N 
LLS                .Ом·м                                   : Боковой каротаж 
MINV               .Ом·м                                   : Микро-градиент зонд 
MNOR               .Ом·м                                   : Микро-потенциал зонд 
NGLD               .у.е.                                   : Показания зонда НГК-60 аппаратуры ДРСТ-3-90 
OGZ                .Ом·м                                   : N0.5M2A 
PHIE               .м3/м3                                  : Описание 
PHIEN              .v/v                                    :  
PHIT               .м3/м3                                  : Описание 
PRMB               .mD                                     :  
PRMB_DGR           .mD                                     :  
RT                 .ohmm                                   : Description 
SOIL_ARCHIE        .v/v                                    :  
SOIL_DW            .v/v                                    :  
SP                 .мВ                                     : Потенциал самополяризации 
VSH_FIN            .unitless                               : Описание 
VSH_GR             .unitless                               : Shale volume 
VSH_SP             .unitless                               : Shale Volume 
~Ascii
# ...
1005.2     0.288      533.242    -9999      -9999      8.273453   1.529      2.044      2.238      2.295      2.006      1.61       0.632      1.042      0.9612173000000001 2.896      0.210315   0.210315   0.3692335  22.01412   2.684981   1.61       0.3046453  0.502516   28.739     0.4815713  0.4334741  0.5296684 
1005.4     0.283      524.36     -9999      -9999      8.351407   1.592      2.069      2.263      2.307      2.006      1.697      0.569      1.042      0.9670384  2.959      0.2057309  0.2057309  0.3672322  18.10482   2.487075   1.697      0.3084614  0.5095909  28.803     0.4893978  0.4472406  0.531555  
1005.6     0.276      518.708    -9999      -9999      8.432969   1.629      2.094      2.276      2.307      1.994      1.689      0.563      1.055      0.9732577  2.997      0.2008315  0.2008315  0.365094   14.69078   2.295608   1.689      0.2922231  0.5019868  28.866     0.4977651  0.4621124  0.5334179 
1005.8     0.272      515.478    -9999      -9999      8.51674    1.642      2.144      2.276      2.282      1.994      1.705      0.582      1.055      0.9791559  3.036      0.1961984  0.1961984  0.3630662  12.05672   2.114289   1.705      0.2808772  0.4980776  28.866     0.5056599000000001 0.4779018  0.5334179 
1006       0.279      512.248    -9999      -9999      8.600831   1.617      2.194      2.263      2.232      1.994      1.705      0.55       1.068      0.9842706  3.048      0.1914269  0.1914269  0.3613078  9.836690000000001 1.946679   1.705      0.2652903  0.4917292  28.929     0.5147905  0.4942944  0.5352865 
1006.2     0.285      510.634    -9999      -9999      8.683065   1.592      2.27       2.251      2.207      1.994      1.715      0.481      1.03       0.9884157  3.036      0.1869578  0.1869578  0.3598827  8.129624   1.795628   1.715      0.2520727  0.4873024  28.992     0.5240147000000001 0.5108685  0.5371609000000001
1006.4     0.283      510.634    -9999      -9999      8.759012   1.604      2.332      2.251      2.182      1.994      1.742      0.5        0.98       0.9916657  3.01       0.1832334  0.1832334  0.3587653  6.935626   1.666557   1.742      0.2444084  0.4863362  28.992     0.5319148  0.5266687  0.5371609000000001
1006.6     0.279      512.248    -9999      -9999      8.822958   1.642      2.382      2.251      2.157      1.994      1.742      0.525      0.992      0.9943097  2.972      0.1800669  0.1800669  0.3578563  6.059467   1.565105   1.742      0.232849   0.4820653  28.992     0.5387557  0.5403505  0.5371609000000001
1006.8     0.274      514.671    -9999      -9999      8.867524   1.679      2.42       2.238      2.107      1.969      1.759      0.513      0.967      0.9967557  2.972      0.1779274  0.1779274  0.3570154  5.53101    1.498074   1.759      0.2283453  0.4814497  28.929     0.542691   0.5500954  0.5352865 
1007       0.277      515.478    -9999      -9999      8.885963   1.679      2.395      2.225      2.082      1.944      1.759      0.531      0.904      0.9993575  2.972      0.1760499  0.1760499  0.3561209  5.105389   1.471186   1.759      0.2211829  0.4785291  28.992     0.5456698  0.5541787  0.5371609000000001
1007.2     0.286      513.056    -9999      -9999      8.873521   1.642      2.357      2.238      2.056      1.918      1.75       0.475      0.841      1.002323   2.985      0.1754856  0.1754856  0.3551015  4.983992   1.489276   1.75       0.2171201  0.4756199  28.992     0.5442905  0.55142    0.5371609000000001
1007.4     0.284      507.404    -9999      -9999      8.829418   1.629      2.345      2.251      2.031      1.893      1.689      0.544      1.118      1.005667   3.01       0.1759309  0.1759309  0.3539516  5.079546   1.555205   1.689      0.2057317  0.465686   28.992     0.5394566  0.5417523  0.5371609000000001
1007.6     0.279      500.137    -9999      -9999      8.75877    1.604      2.345      2.276      2.019      1.868      1.601      0.694      1.57       1.009148   3.061      0.1772314  0.1772314  0.3527548  5.369246   1.666953   1.601      0.1907433  0.4516067  28.992     0.5318893  0.5266176  0.5371609000000001
1007.8     0.277      490.447    -9999      -9999      8.6721     1.579      2.282      2.34       2.006      1.843      1.513      0.632      0.992      1.012382   3.112      0.1793975  0.1793975  0.3516432  5.888917   1.815071   1.513      0.177733   0.4374293  28.929     0.5219567000000001 0.5086268000000001 0.5352865 
1008       0.282      481.565    -9999      -9999      8.582824   1.554      2.194      2.403      2.031      1.806      1.548      0.5        0.954      1.015005   3.15       0.1814475  0.1814475  0.3507414  6.426963   1.981415   1.548      0.1945206  0.4453914  28.929     0.513012   0.4907374  0.5352865 
1008.2     0.285      473.491    -9999      -9999      8.503723   1.554      2.144      2.53       2.031      1.831      1.645      0.6        1.105      1.01673    3.188      0.1830734  0.1830734  0.3501482  6.888456   2.141493   1.645      0.2232274  0.4632938  28.992     0.5062872000000001 0.4754135  0.5371609000000001
1008.4     0.28       470.261    -9999      -9999      8.444712   1.617      2.307      2.568      2.082      1.843      1.689      0.613      1.017      1.017453   3.226      0.1849689  0.1849689  0.3498996  7.468448   2.269284   1.689      0.2396417  0.4722184  28.929     0.4997902  0.4642938  0.5352865 
1008.6     0.269      470.261    -9999      -9999      8.40977    1.692      2.52       2.619      2.132      1.856      1.777      0.632      1.105      1.017296   3.188      0.1863972  0.1863972  0.3499536  7.937557   2.348516   1.777      0.2625073  0.4870405  28.866     0.4956253  0.4578327  0.5334179 
1008.8     0.257      471.876    -9999      -9999      8.3963     1.767      2.671      2.645      2.169      1.881      2.208      0.813      1.369      1.016499   3.099      0.1870782  0.1870782  0.3502275  8.171473000000001 2.379793   2.208      0.3360715  0.5406938  28.866     0.4943919  0.4553661  0.5334179 
1009       0.251      471.876    -9999      -9999      8.3969     1.893      2.784      2.657      2.182      1.918      2.251      1.033      1.545      1.015353   3.023      0.1874542  0.1874542  0.3506216  8.303558000000001 2.378391   2.251      0.3432029  0.5457698  28.866     0.4944468  0.4554756  0.5334179 
1009.2     0.257      469.453    -9999      -9999      8.402572   1.893      2.809      2.657      2.194      1.969      2.199      0.782      1.143      1.014149   2.934      0.1876971  0.1876971  0.3510357  8.390038000000001 2.365179   2.199      0.3367085  0.5409932  28.866     0.4949653  0.4565128  0.5334179 
1009.4     0.264      465.416    -9999      -9999      8.406218   1.943      2.809      2.632      2.194      1.981      2.102      0.763      1.231      1.0131     2.883      0.1879474  0.1879474  0.3513962  8.480071000000001 2.356724   2.102      0.3233026  0.5310596  28.866     0.4952994  0.4571809  0.5334179 
1009.6     0.268      460.571    -9999      -9999      8.404405   1.893      2.846      2.619      2.182      1.981      1.891      0.713      1.256      1.012354   2.87       0.1885663  0.1885663  0.3516529  8.706885   2.360925   1.891      0.2908967  0.5064427  28.803     0.4942018  0.4568486  0.531555  
1009.8     0.271      457.342    -9999      -9999      8.397352   1.717      2.884      2.594      2.182      1.981      1.689      0.538      0.929      1.011976   2.87       0.1892202  0.1892202  0.3517826  8.953156   2.377336   1.689      0.2545425  0.4785847  28.739     0.4926133  0.4555582  0.5296684 
1010       0.277      454.919    -9999      -9999      8.387696   1.642      2.846      2.594      2.219      1.981      1.75       0.525      0.917      1.011869   2.87       0.1895476  0.1895476  0.3518195  9.079046999999999 2.399989   1.75       0.267954   0.4881315  28.739     0.4917329  0.4537974  0.5296684 
1010.2     0.283      459.764    -9999      -9999      8.379942   1.742      2.821      2.606      2.27       1.981      2.014      0.638      0.967      1.01181    2.858      0.1898003  0.1898003  0.3518396  9.177395000000001 2.418337   2.014      0.3154589  0.523123   28.739     0.4910284  0.4523883  0.5296684 
