~Version
 VERS              .         2.0                           : CWLS LOG ASCII STANDARD - VERSION 2.0
 WRAP              .         NO                            : ONE LINE PER DEPTH STEP
 DLM               .         SPACE                         : DELIMITING CHARACTER(SPACE TAB OR COMMA)
~Well Information
#_______________________________________________________________________________
#
#PARAMETER_NAME    .UNIT     VALUE                         : DESCRIPTION
#_______________________________________________________________________________
STRT               .M        850                           : First reference value
STOP               .M        1297.8                        : Last reference value
STEP               .M        0.2                           : Step increment
NULL               .         -9999                         : Missing value
COMP               .                                       : Company
WELL               .         1804                          : Well name
FLD                .         УЗЕНЬ                         : Field
LOC                .                                       : Location
CNTY               .                                       : County
STAT               .                                       : State
CTRY               .                                       : Country
SRVC               .                                       : Service Company
DATE               .                                       : Date
UWI                .                                       : Unique Well ID
Block              .         6а                            : 
Category           .         Нефтяная                      : 
Condition          .         Ликвидированная               : 
Date               .         21.02.1974                    : 
EREF               .m        86.9                          : 100.8
Gorizont           .         15                            : 14
Interpretator      .         Алпанова Н.К.                 : 
Kupol              .         основной                      : osnovnoi
METD               .         OGZ3, GZ3, SP, CALI           : Метод
Moii_15_vosst2     .         15_vosst2                     : 
Mud                .                                       : 
Mud_density        .                                       : 
Mud_resistivity    .                                       : 
Mud_density        .                                       : 
Mud_resistivity    .                                       : 
NGDU               .         НГДУ-2                        : 
ORIGINALWELLNAME   .         1804                          : 
SCAL               .         500                           : Масштаб по глубине
Spud_date          .         1974                          : 1961
Spud_date          .         1974                          : 1961
Viscosity          .                                       : 
X                  .m        45120.3                       : 46154
Y                  .m        85617.63                      : 85761.93
YEAR               .         2018                          : 
~Parameter Information Block
#_______________________________________________________________________________
#
#PARAMETER_NAME    .UNIT     VALUE                         : DESCRIPTION
#_______________________________________________________________________________
SET                .         LQC_KAZNIPI_Petrel            : 
TLFamily_CALI      .         Caliper                       : 
TLFamily_CILD      .         Conductivity                  : 
TLFamily_COLL      .         Net Reservoir Flag            : 
TLFamily_CSAT      .         Fluid Code                    : 
TLFamily_DEPT      .         Measured Depth                : 
TLFamily_GR        .         Russian Gamma Ray             : 
TLFamily_GZ1       .         Gradient 045                  : 
TLFamily_GZ2       .         Gradient 105                  : 
TLFamily_GZ3       .         Gradient 225                  : 
TLFamily_GZ4       .         Gradient 425                  : 
TLFamily_GZ5       .         Gradient 850                  : 
TLFamily_LLS       .         Lateral Log Resistivity       : 
TLFamily_MINV      .         Micro Gradient Resistivity    : 
TLFamily_MNOR      .         Micro Resistivity             : 
TLFamily_NGLD      .         Neutron Far                   : 
TLFamily_OGZ       .         Gradient Inverted 225         : 
TLFamily_PHIE      .         Effective Porosity            : 
TLFamily_PHIEN     .         Effective Porosity            : 
TLFamily_PHIT      .         Porosity                      : 
TLFamily_PRMB      .         Permeability                  : 
TLFamily_PRMB_DGR  .         Permeability                  : 
TLFamily_RT        .         Formation Resistivity         : 
TLFamily_SOIL_ARCHIE .         Oil Saturation                : 
TLFamily_SOIL_DW   .         Oil Saturation                : 
TLFamily_SP        .         Spontaneous Potential         : 
TLFamily_VSH_FIN   .         Shale Volume                  : 
TLFamily_VSH_GR    .         Shale Volume                  : 
TLFamily_VSH_SP    .         Shale Volume                  : 
~Curve Information
#_______________________________________________________________________________
#
#LOGNAME           .UNIT     LOG_ID                        : DESCRIPTION
#_______________________________________________________________________________
DEPT               .M                                      : Колонка глубины 
CALI               .м                                      : Каверномер 
CILD               .мСм/м                                  : Индукционный каротаж 
COLL               .unitless                               :  
CSAT               .unitless                               :  
GR                 .мкР/ч                                  : Гамма каротаж 
GZ1                .Ом·м                                   : A0.4M0.1N 
GZ2                .Ом·м                                   : A1.0M0.1N 
GZ3                .Ом·м                                   : A2M0.5N 
GZ4                .Ом·м                                   : A4M0.5N 
GZ5                .Ом·м                                   : A8M1N 
LLS                .Ом·м                                   : Боковой каротаж 
MINV               .Ом·м                                   : Микро-градиент зонд 
MNOR               .Ом·м                                   : Микро-потенциал зонд 
NGLD               .у.е.                                   : Показания зонда НГК-60 аппаратуры ДРСТ-3-90 
OGZ                .Ом·м                                   : N0.5M2A 
PHIE               .м3/м3                                  : Описание 
PHIEN              .v/v                                    :  
PHIT               .м3/м3                                  : Описание 
PRMB               .mD                                     :  
PRMB_DGR           .mD                                     :  
RT                 .ohmm                                   : Description 
SOIL_ARCHIE        .v/v                                    :  
SOIL_DW            .v/v                                    :  
SP                 .мВ                                     : Потенциал самополяризации 
VSH_FIN            .unitless                               : Описание 
VSH_GR             .unitless                               : Shale volume 
VSH_SP             .unitless                               : Shale Volume 
~Ascii
# ...
1114.4     0.246      441.193    -9999      -9999      10.44152   2.231      3.411      2.86       2.219      2.219      2.251      0.851      1.532      1.1251     4.445      0.161072   0.161072   0.3128904  2.695273   5.748411   2.251      0.2504421  0.4834574  28.487     0.4600558  0.3176621  0.6024495 
1114.6     0.253      446.845    -9999      -9999      10.49081   2.156      3.411      2.81       2.207      2.207      2.154      0.839      1.168      1.128898   4.559999   0.158797   0.158797   0.3115848  2.446038   5.551996   2.154      0.2252479  0.4676801  28.613     0.4629934  0.3222039  0.6037829 
1114.8     0.259      453.304    -9999      -9999      10.55575   2.043      3.448      2.759      2.194      2.194      2.146      0.851      1.394      1.135249   4.547      0.1546953  0.1546953  0.3094012  2.053482   5.303433   2.146      0.2060019  0.4589513  28.866     0.4688057  0.3282867  0.6093248 
1115       0.262      462.186    -9999      -9999      10.62008   1.968      3.486      2.657      2.169      2.169      2.075      0.801      1.306      1.144823   4.458      0.1505144  0.1505144  0.30611    1.718109   5.068171   2.075      0.1738866  0.4402817  28.929     0.4715017  0.3344259  0.6085775 
1115.2     0.26       466.224    -9999      -9999      10.66621   1.918      3.386      2.594      2.132      2.132      1.953      0.657      1.055      1.158054   4.318      0.1453505  0.1453505  0.3015609  1.378482   4.905906   1.953      0.1238188  0.409884   28.992     0.473365   0.3388991  0.6078309 
1115.4     0.256      465.416    -9999      -9999      10.67823   1.868      3.097      2.594      2.069      2.069      1.873      0.594      1.13       1.175026   4.179      0.1397886  0.1397886  0.2957261  1.087383   4.864514   1.873      0.07556638 0.3809567  28.992     0.4725378  0.3400736  0.605002  
1115.6     0.254      452.497    -9999      -9999      10.64412   1.805      2.846      2.695      2.056      2.019      1.848      0.707      1.093      1.1954     4.115      0.1331117  0.1331117  0.2887216  0.8179184000000001 4.982942   1.848      0.02920653 0.3556078  29.118     0.471545   0.3367499  0.6063401000000001
1115.8     0.253      429.081    -9999      -9999      10.56008   1.73       2.621      2.924      2.044      1.956      1.9        0.813      1.57       1.218413   4.407      0.1269945  0.1269945  0.2808097  0.6300918  5.287251   1.9        0.001687999 0.3418312  29.118     0.4661069  0.3286966  0.6035172 
1116       0.254      400.012    -9999      -9999      10.43113   1.617      2.395      3.254      2.044      1.906      2.084      0.5        1.193      1.242807   4.953      0.1207018  0.1207018  0.2724228  0.4817796  5.79071    2.084      0.0008033949 0.3472221  29.182     0.4597606  0.3167126  0.6028088 
1116.2     0.251      368.522    -9999      -9999      10.27179   1.579      2.433      3.584      2.044      2.031      2.665      0.857      0.879      1.266976   5.614      0.114859   0.114859   0.2641138  0.3755133  6.479504   2.665      0.07038777 0.4004396  29.245     0.4522873  0.3025064  0.6020682000000001
1116.4     0.246      337.839    -9999      -9999      10.105     1.667      3.072      4.092      2.031      2.295      4.587      1.246      2.298      1.288989   6.211      0.109754   0.109754   0.2565456  0.3020422  7.28845    4.587      0.2503965  0.52665    29.308     0.4448231  0.2883178  0.6013285 
1116.6     0.24       312.807    -9999      -9999      9.958591   2.294      3.875      5.566      2.207      2.571      6.727      2.03       8.038      1.306824   6.705999   0.1057086  0.1057086  0.250414   0.2541776  8.081346   6.727      0.3528548  0.5975747  29.371     0.4385012  0.2764129  0.6005895 
1116.8     0.235      302.311    -9999      -9999      9.862246   3.159      4.903      5.82       2.658      2.834      8.486      1.597      4.333      1.318608   7.176001   0.1037065  0.1037065  0.2463625  0.2333751  8.649621   8.486      0.4099427  0.6354323  29.308     0.4322907  0.2688481  0.5957333 
1117       0.229      289.391    -9999      -9999      9.841496   3.573      6.809      6.086999   3.11       3.147      6.376      1.252      2.173      1.32296    7.265      0.1036065  0.1036065  0.2448665  0.2323813  8.777141   6.376      0.324663   0.5776425  29.182     0.4280606  0.2672462  0.5888749 
1117.2     0.223      293.429    -9999      -9999      9.912187   4.175      5.768      5.883      3.611      3.461      6.464      2.939      5.526      1.319365   6.427      0.1057232  0.1057232  0.2461023  0.2543363  8.350237   6.464      0.3407091  0.5849702  28.929     0.4253911  0.2727431  0.5780391 
1117.4     0.218      303.925    -9999      -9999      10.07577   4.94       8.401      5.274      4.201      3.774      9.103      2.933      4.094      1.30836    5.588      0.1084384  0.1084384  0.2498857  0.2855619  7.440295   9.103      0.450821   0.6568491  28.803     0.4286281  0.2859005  0.5713557 
1117.6     0.227      331.379    -9999      -9999      10.31757   5.541      8.651999   4.651      4.777      4.075      6.551      1.842      2.876      1.291496   4.75       0.1122539  0.1122539  0.2556837  0.3360255  6.273607   6.551      0.3781572  0.6063759  28.613     0.4346359  0.3065217  0.5627501 
1117.8     0.235      365.292    -9999      -9999      10.60662   3.924      6.645999   4.042      5.279      4.063      3.87       1.647      2.424      1.271141   3.912      0.1165806  0.1165806  0.2626818  0.4041222  5.116529   3.87       0.2297221  0.5035206  28.36      0.442731   0.3331316  0.5523305 
1118       0.235      389.516    -9999      -9999      10.90073   2.795      6.119      3.432      4.914999   3.574      2.419      1.334      1.683      1.249996   3.074      0.1206827  0.1206827  0.2699515  0.4813868  4.157967   2.419      0.06818076000000001 0.3906023  28.107     0.4523298  0.3625804  0.5420792 
1118.2     0.235      412.932    -9999      -9999      11.15511   2.231      4.84       2.86       3.373      3.072      1.891      0.97       1.256      1.230563   2.35       0.1241673  0.1241673  0.2766325  0.5585195  3.475018   1.891      0          0.3284127  27.918     0.4620155  0.3901426  0.5338885 
1118.4     0.235      426.658    -9999      -9999      11.33056   1.993      4.013      2.873      2.621      2.596      1.935      0.901      1.57       1.214688   2.782      0.1279306  0.1279306  0.2820904  0.6557568  3.070527   1.935      0.01651366 0.3514521  27.665     0.467151   0.4103636  0.5239384 
1118.6     0.236      430.696    -9999      -9999      11.40009   1.842      3.411      3.877      2.232      2.232      1.978      1.146      2.11       1.203263   3.15       0.132993   0.132993   0.2860181  0.8137875  2.923558   1.978      0.05895657 0.3732733  27.223     0.4637124  0.4186651  0.5087596 
1118.8     0.237      416.162    -9999      -9999      11.3574    1.717      2.809      5.327      1.994      1.994      2.023      0.97       2.122      1.196235   3.531      0.1395559  0.1395559  0.2884343  1.076643   3.012929   2.023      0.1070948  0.3946788  26.591     0.4511467  0.413549   0.4887444 
1119       0.235      388.708    -9999      -9999      11.21687   1.629      2.533      7.415999   1.843      2.031      2.154      0.914      1.52       1.192815   5.601      0.1468971  0.1468971  0.2896101  1.472475   3.326885   2.154      0.170863   0.4262369  25.896     0.4324639  0.3971447  0.4677831 
1119.2     0.229      355.603    -9999      -9999      11.01031   1.767      3.712      9.412      1.944      2.458      3.034      0.795      1.457      1.191828   9.399      0.15408    0.15408    0.2899494  2.000294   3.848703   3.034      0.3227384  0.5257592  25.264     0.4117254  0.374206   0.4492447 
1119.4     0.224      332.186    -9999      -9999      10.77829   2.595      5.467      10.746     2.345      3.235      5.409      1.854      2.951      1.192051   11.24      0.1624511  0.1624511  0.2898729  2.858555   4.533008   5.409      0.5069256  0.6520535  24.253     0.3861266  0.3500174  0.4222358 
