~Version
 VERS              .         2.0                           : CWLS LOG ASCII STANDARD - VERSION 2.0
 WRAP              .         NO                            : ONE LINE PER DEPTH STEP
 DLM               .         SPACE                         : DELIMITING CHARACTER(SPACE TAB OR COMMA)
~Well Information
#_______________________________________________________________________________
#
#PARAMETER_NAME    .UNIT     VALUE                         : DESCRIPTION
#_______________________________________________________________________________
STRT               .M        850                           : First reference value
STOP               .M        1297.8                        : Last reference value
STEP               .M        0.2                           : Step increment
NULL               .         -9999                         : Missing value
COMP               .                                       : Company
WELL               .         1804                          : Well name
FLD                .         УЗЕНЬ                         : Field
LOC                .                                       : Location
CNTY               .                                       : County
STAT               .                                       : State
CTRY               .                                       : Country
SRVC               .                                       : Service Company
DATE               .                                       : Date
UWI                .                                       : Unique Well ID
Block              .         6а                            : 
Category           .         Нефтяная                      : 
Condition          .         Ликвидированная               : 
Date               .         21.02.1974                    : 
EREF               .m        86.9                          : 100.8
Gorizont           .         15                            : 14
Interpretator      .         Алпанова Н.К.                 : 
Kupol              .         основной                      : osnovnoi
METD               .         OGZ3, GZ3, SP, CALI           : Метод
Moii_15_vosst2     .         15_vosst2                     : 
Mud                .                                       : 
Mud_density        .                                       : 
Mud_resistivity    .                                       : 
Mud_density        .                                       : 
Mud_resistivity    .                                       : 
NGDU               .         НГДУ-2                        : 
ORIGINALWELLNAME   .         1804                          : 
SCAL               .         500                           : Масштаб по глубине
Spud_date          .         1974                          : 1961
Spud_date          .         1974                          : 1961
Viscosity          .                                       : 
X                  .m        45120.3                       : 46154
Y                  .m        85617.63                      : 85761.93
YEAR               .         2018                          : 
~Parameter Information Block
#_______________________________________________________________________________
#
#PARAMETER_NAME    .UNIT     VALUE                         : DESCRIPTION
#_______________________________________________________________________________
SET                .         LQC_KAZNIPI_Petrel            : 
TLFamily_CALI      .         Caliper                       : 
TLFamily_CILD      .         Conductivity                  : 
TLFamily_COLL      .         Net Reservoir Flag            : 
TLFamily_CSAT      .         Fluid Code                    : 
TLFamily_DEPT      .         Measured Depth                : 
TLFamily_GR        .         Russian Gamma Ray             : 
TLFamily_GZ1       .         Gradient 045                  : 
TLFamily_GZ2       .         Gradient 105                  : 
TLFamily_GZ3       .         Gradient 225                  : 
TLFamily_GZ4       .         Gradient 425                  : 
TLFamily_GZ5       .         Gradient 850                  : 
TLFamily_LLS       .         Lateral Log Resistivity       : 
TLFamily_MINV      .         Micro Gradient Resistivity    : 
TLFamily_MNOR      .         Micro Resistivity             : 
TLFamily_NGLD      .         Neutron Far                   : 
TLFamily_OGZ       .         Gradient Inverted 225         : 
TLFamily_PHIE      .         Effective Porosity            : 
TLFamily_PHIEN     .         Effective Porosity            : 
TLFamily_PHIT      .         Porosity                      : 
TLFamily_PRMB      .         Permeability                  : 
TLFamily_PRMB_DGR  .         Permeability                  : 
TLFamily_RT        .         Formation Resistivity         : 
TLFamily_SOIL_ARCHIE .         Oil Saturation                : 
TLFamily_SOIL_DW   .         Oil Saturation                : 
TLFamily_SP        .         Spontaneous Potential         : 
TLFamily_VSH_FIN   .         Shale Volume                  : 
TLFamily_VSH_GR    .         Shale Volume                  : 
TLFamily_VSH_SP    .         Shale Volume                  : 
~Curve Information
#_______________________________________________________________________________
#
#LOGNAME           .UNIT     LOG_ID                        : DESCRIPTION
#_______________________________________________________________________________
DEPT               .M                                      : Колонка глубины 
CALI               .м                                      : Каверномер 
CILD               .мСм/м                                  : Индукционный каротаж 
COLL               .unitless                               :  
CSAT               .unitless                               :  
GR                 .мкР/ч                                  : Гамма каротаж 
GZ1                .Ом·м                                   : A0.4M0.1N 
GZ2                .Ом·м                                   : A1.0M0.1N 
GZ3                .Ом·м                                   : A2M0.5N 
GZ4                .Ом·м                                   : A4M0.5N 
GZ5                .Ом·м                                   : A8M1N 
LLS                .Ом·м                                   : Боковой каротаж 
MINV               .Ом·м                                   : Микро-градиент зонд 
MNOR               .Ом·м                                   : Микро-потенциал зонд 
NGLD               .у.е.                                   : Показания зонда НГК-60 аппаратуры ДРСТ-3-90 
OGZ                .Ом·м                                   : N0.5M2A 
PHIE               .м3/м3                                  : Описание 
PHIEN              .v/v                                    :  
PHIT               .м3/м3                                  : Описание 
PRMB               .mD                                     :  
PRMB_DGR           .mD                                     :  
RT                 .ohmm                                   : Description 
SOIL_ARCHIE        .v/v                                    :  
SOIL_DW            .v/v                                    :  
SP                 .мВ                                     : Потенциал самополяризации 
VSH_FIN            .unitless                               : Описание 
VSH_GR             .unitless                               : Shale volume 
VSH_SP             .unitless                               : Shale Volume 
~Ascii
# ...
901.8      0.218      425.044    -9999      -9999      10.35057   1.93       2.922      3.178      2.846      2.169      2.067      1.917      3.203      1.183722972869873 2.87       -9999      -9999      -9999      -9999      -9999      2.067      -9999      -9999      17.681     -9999      0.8        0.1535428 
902        0.217      431.503    -9999      -9999      10.08684   1.93       2.871      3.064      2.696      2.056      2.102      1.923      3.19       1.192250967025757 3.023      -9999      -9999      -9999      -9999      -9999      2.102      -9999      -9999      17.112     -9999      0.6711162000000001 0.150606  
902.2000000000001 0.216      434.733    -9999      -9999      9.86915    1.918      2.834      3.127      2.708      1.994      2.129      1.867      3.052      1.200106024742127 3.163      -9999      -9999      -9999      -9999      -9999      2.129      -9999      -9999      16.543     -9999      0.5847848  0.1478438 
902.4      0.216      433.925    -9999      -9999      9.695201   1.868      2.784      3.165      2.721      1.994      2.137      1.817      2.964      1.207272052764893 3.302      -9999      -9999      -9999      -9999      -9999      2.137      -9999      -9999      15.975     -9999      0.6595533  0.145254  
902.6      0.216      429.081    -9999      -9999      9.557058   1.842      2.708      3.343      2.721      2.006      2.111      1.911      3.592      1.213690042495728 3.429      -9999      -9999      -9999      -9999      -9999      2.111      -9999      -9999      15.406     -9999      0.6824253  0.1428206 
902.8      0.216      422.621    -9999      -9999      9.445052   1.842      2.608      3.724      2.696      2.094      2.094      2.393      4.207      1.219202041625977 3.709      -9999      -9999      -9999      -9999      -9999      2.094      -9999      -9999      15.28      -9999      0.5648076  0.1423029 
903        0.217      412.932    -9999      -9999      9.350522   1.842      2.52       4.372      2.721      2.245      2.094      1.917      3.441      1.223500967025757 4.369      -9999      -9999      -9999      -9999      -9999      2.094      -9999      -9999      15.027     -9999      0.5674566  0.1412859 
903.2000000000001 0.217      401.627    -9999      -9999      9.26678    1.93       2.759      4.918      2.922      2.47       2.199      2.105      5.463      1.226181030273438 4.953      -9999      -9999      -9999      -9999      -9999      2.199      -9999      -9999      14.774     -9999      0.5184925  0.1402985 
903.4      0.217      389.516    -9999      -9999      9.190422   2.118      3.147      5.045      3.498      2.771      2.692      2.701      5.614      1.226861953735352 5.055      -9999      -9999      -9999      -9999      -9999      2.692      -9999      -9999      14.585     -9999      0.4715416  0.13958   
903.6      0.217      379.826    -9999      -9999      9.121631   2.382      3.624      4.677      3.875      3.085      3.008      1.873      3.416      1.225350975990295 4.687      -9999      -9999      -9999      -9999      -9999      3.008      -9999      -9999      14.458     -9999      0.4839958  0.1391061 
903.8      0.217      378.211    -9999      -9999      9.064538   3.084      4.651999   4.156      4.263      3.323      3.764      1.66       2.06       1.221793055534363 4.293      -9999      -9999      -9999      -9999      -9999      3.764      -9999      -9999      14.521     -9999      0.5411546  0.1393403 
904        0.218      383.056    -9999      -9999      9.025423   3.435      4.69       3.851      4.677      3.273      4.714      1.898      3.366      1.216704964637756 3.798      -9999      -9999      -9999      -9999      -9999      4.714      -9999      -9999      14.395     -9999      0.4440104  0.1388737 
904.2000000000001 0.218      391.13     -9999      -9999      9.011097   3.009      3.9        3.534      4.401      2.997      3.447      1.785      2.813      1.210922956466675 3.417      -9999      -9999      -9999      -9999      -9999      3.447      -9999      -9999      14.458     -9999      0.3068017  0.1391061 
904.4      0.218      402.435    -9999      -9999      9.026726   2.557      3.285      3.203      3.862      2.646      2.189      1.716      2.349      1.205464005470276 3.188      -9999      -9999      -9999      -9999      -9999      2.189      -9999      -9999      14.521     -9999      0.3520947  0.1393403 
904.6      0.218      412.932    -9999      -9999      9.072801   2.219      3.022      2.949      3.273      2.332      1.935      1.81       2.776      1.201336026191711 3.277      -9999      -9999      -9999      -9999      -9999      1.935      -9999      -9999      14.585     -9999      0.3674841  0.13958   
904.8      0.218      423.429    -9999      -9999      9.144842   1.968      3.022      3.051      2.859      2.094      1.961      1.829      3.115      1.199262022972107 3.506      -9999      -9999      -9999      -9999      -9999      1.961      -9999      -9999      14.711     -9999      0.4401689  0.1400572 
905        0.218      431.503    -9999      -9999      9.234029   1.868      3.072      3.165      2.571      2.006      1.997      1.917      3.089      1.199571967124939 3.671      -9999      -9999      -9999      -9999      -9999      1.997      -9999      -9999      14.774     -9999      0.5458778  0.1402985 
905.2000000000001 0.218      434.733    -9999      -9999      9.328932   1.855      3.034      3.229      2.52       2.044      2.023      1.892      3.177      1.202172040939331 3.861      -9999      -9999      -9999      -9999      -9999      2.023      -9999      -9999      14.837     -9999      0.6769732000000001 0.1405417 
905.4      0.218      433.925    -9999      -9999      9.419333   1.855      2.746      3.254      2.495      2.182      2.049      1.842      3.064      1.206624031066895 4.306      -9999      -9999      -9999      -9999      -9999      2.049      -9999      -9999      14.9       -9999      0.6769732000000001 0.1407866 
905.6      0.218      430.696    -9999      -9999      9.497858   1.817      2.433      3.75       2.458      2.37       2.067      2.738      3.78       1.212326049804688 4.687      -9999      -9999      -9999      -9999      -9999      2.067      -9999      -9999      14.964     -9999      0.6264653  0.1410373 
905.8      0.218      424.236    -9999      -9999      9.561284   1.868      2.746      4.308      2.495      2.571      2.181      2.406      4.735      1.218683958053589 4.623      -9999      -9999      -9999      -9999      -9999      2.181      -9999      -9999      15.027     -9999      0.7065626  0.1412859 
906        0.218      410.509    -9999      -9999      9.610559   1.993      3.586      4.423      2.696      2.834      2.384      1.911      3.203      1.22520899772644 4.674      -9999      -9999      -9999      -9999      -9999      2.384      -9999      -9999      15.09      -9999      0.7189495  0.1415363 
906.2000000000001 0.218      395.975    -9999      -9999      9.649423   2.357      4.326      4.143      3.11       3.122      3.307      1.986      3.391      1.23156201839447 4.369      -9999      -9999      -9999      -9999      -9999      3.307      -9999      -9999      15.153     -9999      0.6653094000000001 0.1417886 
906.4      0.218      386.286    -9999      -9999      9.680868   2.745      3.887      3.877      4.013      3.386      3.782      1.936      3.542      1.237558960914612 4.052      -9999      -9999      -9999      -9999      -9999      3.782      -9999      -9999      15.28      -9999      0.7065626  0.1423029 
906.6      0.217      385.478    -9999      -9999      9.707242   2.645      3.31       3.597      3.749      3.411      2.982      1.798      2.776      1.242995023727417 3.912      -9999      -9999      -9999      -9999      -9999      2.982      -9999      -9999      15.343     -9999      0.694389   0.1425608 
906.8      0.217      385.478    -9999      -9999      9.730552   2.67       3.009      3.33       3.223      3.21       2.761      2.174      2.047      1.247635960578919 5.919      -9999      -9999      -9999      -9999      -9999      2.761      -9999      -9999      15.406     -9999      0.6711162000000001 0.1428206 
