~Version
 VERS              .         2.0                           : CWLS LOG ASCII STANDARD - VERSION 2.0
 WRAP              .         NO                            : ONE LINE PER DEPTH STEP
 DLM               .         SPACE                         : DELIMITING CHARACTER(SPACE TAB OR COMMA)
~Well Information
#_______________________________________________________________________________
#
#PARAMETER_NAME    .UNIT     VALUE                         : DESCRIPTION
#_______________________________________________________________________________
STRT               .M        850                           : First reference value
STOP               .M        1297.8                        : Last reference value
STEP               .M        0.2                           : Step increment
NULL               .         -9999                         : Missing value
COMP               .                                       : Company
WELL               .         1804                          : Well name
FLD                .         УЗЕНЬ                         : Field
LOC                .                                       : Location
CNTY               .                                       : County
STAT               .                                       : State
CTRY               .                                       : Country
SRVC               .                                       : Service Company
DATE               .                                       : Date
UWI                .                                       : Unique Well ID
Block              .         6а                            : 
Category           .         Нефтяная                      : 
Condition          .         Ликвидированная               : 
Date               .         21.02.1974                    : 
EREF               .m        86.9                          : 100.8
Gorizont           .         15                            : 14
Interpretator      .         Алпанова Н.К.                 : 
Kupol              .         основной                      : osnovnoi
METD               .         OGZ3, GZ3, SP, CALI           : Метод
Moii_15_vosst2     .         15_vosst2                     : 
Mud                .                                       : 
Mud_density        .                                       : 
Mud_resistivity    .                                       : 
Mud_density        .                                       : 
Mud_resistivity    .                                       : 
NGDU               .         НГДУ-2                        : 
ORIGINALWELLNAME   .         1804                          : 
SCAL               .         500                           : Масштаб по глубине
Spud_date          .         1974                          : 1961
Spud_date          .         1974                          : 1961
Viscosity          .                                       : 
X                  .m        45120.3                       : 46154
Y                  .m        85617.63                      : 85761.93
YEAR               .         2018                          : 
~Parameter Information Block
#_______________________________________________________________________________
#
#PARAMETER_NAME    .UNIT     VALUE                         : DESCRIPTION
#_______________________________________________________________________________
SET                .         LQC_KAZNIPI_Petrel            : 
TLFamily_CALI      .         Caliper                       : 
TLFamily_CILD      .         Conductivity                  : 
TLFamily_COLL      .         Net Reservoir Flag            : 
TLFamily_CSAT      .         Fluid Code                    : 
TLFamily_DEPT      .         Measured Depth                : 
TLFamily_GR        .         Russian Gamma Ray             : 
TLFamily_GZ1       .         Gradient 045                  : 
TLFamily_GZ2       .         Gradient 105                  : 
TLFamily_GZ3       .         Gradient 225                  : 
TLFamily_GZ4       .         Gradient 425                  : 
TLFamily_GZ5       .         Gradient 850                  : 
TLFamily_LLS       .         Lateral Log Resistivity       : 
TLFamily_MINV      .         Micro Gradient Resistivity    : 
TLFamily_MNOR      .         Micro Resistivity             : 
TLFamily_NGLD      .         Neutron Far                   : 
TLFamily_OGZ       .         Gradient Inverted 225         : 
TLFamily_PHIE      .         Effective Porosity            : 
TLFamily_PHIEN     .         Effective Porosity            : 
TLFamily_PHIT      .         Porosity                      : 
TLFamily_PRMB      .         Permeability                  : 
TLFamily_PRMB_DGR  .         Permeability                  : 
TLFamily_RT        .         Formation Resistivity         : 
TLFamily_SOIL_ARCHIE .         Oil Saturation                : 
TLFamily_SOIL_DW   .         Oil Saturation                : 
TLFamily_SP        .         Spontaneous Potential         : 
TLFamily_VSH_FIN   .         Shale Volume                  : 
TLFamily_VSH_GR    .         Shale Volume                  : 
TLFamily_VSH_SP    .         Shale Volume                  : 
~Curve Information
#_______________________________________________________________________________
#
#LOGNAME           .UNIT     LOG_ID                        : DESCRIPTION
#_______________________________________________________________________________
DEPT               .M                                      : Колонка глубины 
CALI               .м                                      : Каверномер 
CILD               .мСм/м                                  : Индукционный каротаж 
COLL               .unitless                               :  
CSAT               .unitless                               :  
GR                 .мкР/ч                                  : Гамма каротаж 
GZ1                .Ом·м                                   : A0.4M0.1N 
GZ2                .Ом·м                                   : A1.0M0.1N 
GZ3                .Ом·м                                   : A2M0.5N 
GZ4                .Ом·м                                   : A4M0.5N 
GZ5                .Ом·м                                   : A8M1N 
LLS                .Ом·м                                   : Боковой каротаж 
MINV               .Ом·м                                   : Микро-градиент зонд 
MNOR               .Ом·м                                   : Микро-потенциал зонд 
NGLD               .у.е.                                   : Показания зонда НГК-60 аппаратуры ДРСТ-3-90 
OGZ                .Ом·м                                   : N0.5M2A 
PHIE               .м3/м3                                  : Описание 
PHIEN              .v/v                                    :  
PHIT               .м3/м3                                  : Описание 
PRMB               .mD                                     :  
PRMB_DGR           .mD                                     :  
RT                 .ohmm                                   : Description 
SOIL_ARCHIE        .v/v                                    :  
SOIL_DW            .v/v                                    :  
SP                 .мВ                                     : Потенциал самополяризации 
VSH_FIN            .unitless                               : Описание 
VSH_GR             .unitless                               : Shale volume 
VSH_SP             .unitless                               : Shale Volume 
~Ascii
# ...
1088.4     0.223      351.565    -9999      -9999      8.770414   2.494      3.423      3.013      2.583      2.169      3.255      1.603      6.656      1.197365   4.712      0.1504862  0.1504862  0.2880459  1.716039   18.68337   3.255      0.3311106  0.5360559  26.844     0.4168478  0.1963073  0.6373882 
1088.6     0.224      343.491    -9999      -9999      8.701748   2.77       3.925      3.254      2.671      2.27       4.054      1.215      3.592      1.205345   4.598      0.1484451  0.1484451  0.2853023  1.572975   19.61055   4.054      0.3893625  0.5796179  26.844     0.4147188  0.1924631  0.6369746 
1088.8     0.226      341.068    -9999      -9999      8.651157   3.021      4.489      3.635      2.796      2.345      3.799      1.478      1.695      1.21119    4.496      0.1469631  0.1469631  0.2832927  1.476626   20.32296   3.799      0.364934   0.5621548  26.844     0.4131202  0.1896791  0.6365613 
1089       0.229      341.876    -9999      -9999      8.616001   3.096      4.966      3.838      2.897      2.433      3.201      2.663      6.769      1.21498    4.483      0.1460436  0.1460436  0.2819898  1.419844   20.83321   3.201      0.3080126  0.520493   26.844     0.4119582  0.1877682  0.6361481 
1089.2     0.23       343.491    -9999      -9999      8.588792   3.247      4.94       3.813      3.034      2.52       3.298      2.017      4.308      1.216982   4.483      0.1460284  0.1460284  0.2813016  1.418922   21.23691   3.298      0.317577   0.5268707  26.78      0.4099188  0.1863024  0.6335352 
1089.4     0.228      340.261    -9999      -9999      8.561131   3.059      4.564      3.762      3.135      2.545      3.096      2.262      6.066      1.217497   4.471      0.1461632  0.1461632  0.2811246  1.427101   21.65532   3.096      0.2975978  0.5116663  26.78      0.4089739  0.1848241  0.6331238 
1089.6     0.225      332.994    -9999      -9999      8.526691   2.808      4.401      3.711      3.172      2.571      2.665      2.876      4.81       1.216589   4.395      0.1472     0.1472     0.2814366  1.491623   22.18781   2.665      0.2510324  0.4754552  26.717     0.4067776  0.1829999  0.6305553 
1089.8     0.223      326.534    -9999      -9999      8.484845   2.595      4.978      3.699      3.085      2.596      2.665      1.384      3.83       1.214024   4.229      0.1481555  0.1481555  0.2823184  1.553663   22.85246   2.665      0.2552411  0.477772   26.78      0.4065545  0.1808075  0.6323014 
1090       0.222      324.112    -9999      -9999      8.441663   2.77       5.505      3.788      3.022      2.633      3.236      1.152      3.014      1.209365   4.001      0.1494741  0.1494741  0.2839203  1.64354    23.55923   3.236      0.3253167  0.5293408  26.907     0.4074129  0.1785727  0.6362531 
1090.2     0.224      324.919    -9999      -9999      8.408187   3.134      5.292      3.915      3.034      2.708      4.099      0.889      1.984      1.202216   3.81       0.1522827  0.1522827  0.2863781  1.852688   24.12212   4.099      0.4058725  0.587011   26.907     0.4063497  0.1768592  0.6358401 
1090.4     0.226      325.727    -9999      -9999      8.397202   3.498      5.066      4.105      3.147      2.796      4.476      2.155      3.906      1.192392   3.633      0.1558204  0.1558204  0.2897555  2.154419   24.30975   4.476      0.4411937  0.6111022  26.907     0.4058639  0.1763006  0.6354273 
1090.6     0.228      325.727    -9999      -9999      8.419949   3.247      5.292      4.283      3.248      2.897      3.597      3.19       5.174      1.180131   3.493      0.1591956  0.1591956  0.2939709  2.487975   23.92284   3.597      0.392268   0.5735665  27.033     0.4084101  0.1774594  0.6393608 
1090.8     0.231      328.149    -9999      -9999      8.483905   3.021      5.292      4.41       3.335      2.972      2.885      2.632      5.802      1.166131   3.442      0.163173   0.163173   0.2987841  2.94793    22.86762   2.885      0.3403239  0.5330607  27.096     0.4109429  0.1807586  0.6411272 
1091       0.235      333.801    -9999      -9999      8.590988   3.021      5.58       4.447999   3.348      3.009      3.034      2.067      3.943      1.151342   3.442      0.1673918  0.1673918  0.3038686  3.529071   21.20403   3.034      0.3698953  0.5538069  27.096     0.413566   0.1864203  0.6407116000000001
1091.2     0.232      342.683    -9999      -9999      8.738717   3.096      5.367      4.486      3.386      3.022      3.034      1.503      2.524      1.136732   3.467      0.1715058  0.1715058  0.3088915  4.205919   19.10579   3.034      0.3830799  0.5624208  27.033     0.4163204  0.1945233  0.6381175 
1091.4     0.226      355.603    -9999      -9999      8.920701   3.146      4.715      4.537      3.461      3.022      3.29       1.277      2.386      1.123085   3.493      0.1752544  0.1752544  0.3135835  4.935078   16.80422   3.29       0.4171702  0.5871426  26.907     0.4191791  0.2049911  0.633367  
1091.6     0.228      365.292    -9999      -9999      9.129395   2.908      4.777      4.55       3.524      2.997      2.568      1.597      3.667      1.110859   3.531      0.1785009  0.1785009  0.3177868  5.667971   14.50406   2.568      0.3556942  0.539791   26.717     0.4220786  0.2176903  0.6264668 
1091.8     0.241      372.559    -9999      -9999      9.356724   2.632      4.928      4.512      3.498      2.997      2.375      1.29       2.374      1.100154   3.569      0.1815771  0.1815771  0.321467   6.46258    12.35528   2.375      0.3415061  0.5279748  26.401     0.4239089  0.2324205  0.6153972 
1092       0.256      377.404    -9999      -9999      9.595057   2.77       4.527      4.55       3.524      3.047      2.99       1.165      2.637      1.090827   3.556      0.1838579  0.1838579  0.3246736  7.122838   10.44346   2.99       0.4153443  0.5838861  26.085     0.4267142  0.248935   0.6044933 
1092.2     0.25       387.901    -9999      -9999      9.835878   2.783      4.539      4.55       3.511      3.034      2.278      1.346      1.808      1.082645   3.417      0.1851492  0.1851492  0.3274865  7.526101   8.811992   2.278      0.3397914  0.5270625  25.833     0.4313254  0.2668141  0.5958366000000001
1092.4     0.242      400.012    -9999      -9999      10.07024   2.745      4.715      4.372      3.561      2.947      2.735      0.864      6.681      1.075381   3.226      0.1863226  0.1863226  0.3299839  7.912344   7.469347   2.735      0.3973985  0.5714298  25.517     0.4353372  0.2854458  0.5852286 
1092.6     0.238      416.162    -9999      -9999      10.28849   2.745      4.025      4.08       3.624      2.658      2.752      1.39       3.868      1.069023   2.985      0.1871765  0.1871765  0.3321699  8.205804000000001 6.403623   2.752      0.4015362  0.575227   25.201     0.4393739  0.3039651  0.5747827 
1092.8     0.246      441.193    -9999      -9999      10.4806    2.419      3.373      3.661      3.486      2.395      2.119      0.638      1.218      1.063695   2.743      0.187852   0.187852   0.3340015  8.445649   5.592143   2.119      0.3255576  0.5182158  24.885     0.4428774  0.3212573  0.5644975 
1093       0.263      474.298    -9999      -9999      10.63783   2.118      2.859      3.534      3.06       2.144      1.742      1.334      1.746      1.059623   2.54       0.1883462  0.1883462  0.3354015  8.625544   5.005112   1.742      0.2623041  0.4705271  24.569     0.4456221  0.3361399  0.5551043 
1093.2     0.272      502.559    -9999      -9999      10.75401   1.83       2.696      2.67       2.633      1.944      1.636      0.983      1.633      1.057034   2.388      0.1879298  0.1879298  0.3362916  8.47373    4.611327   1.636      0.2387824  0.4540439  24.442     0.4495812  0.3475777  0.5515846 
1093.4     0.277      522.745    -9999      -9999      10.82561   1.654      2.759      2.53       2.382      1.818      1.645      0.644      1.143      1.056078   2.401      0.1876359  0.1876359  0.3366202  8.368162999999999 4.384203   1.645      0.2397038  0.4555262  24.316     0.4514677  0.3548205  0.5481148 
