~Version
 VERS              .         2.0                           : CWLS LOG ASCII STANDARD - VERSION 2.0
 WRAP              .         NO                            : ONE LINE PER DEPTH STEP
 DLM               .         SPACE                         : DELIMITING CHARACTER(SPACE TAB OR COMMA)
~Well Information
#_______________________________________________________________________________
#
#PARAMETER_NAME    .UNIT     VALUE                         : DESCRIPTION
#_______________________________________________________________________________
STRT               .M        850                           : First reference value
STOP               .M        1297.8                        : Last reference value
STEP               .M        0.2                           : Step increment
NULL               .         -9999                         : Missing value
COMP               .                                       : Company
WELL               .         1804                          : Well name
FLD                .         УЗЕНЬ                         : Field
LOC                .                                       : Location
CNTY               .                                       : County
STAT               .                                       : State
CTRY               .                                       : Country
SRVC               .                                       : Service Company
DATE               .                                       : Date
UWI                .                                       : Unique Well ID
Block              .         6а                            : 
Category           .         Нефтяная                      : 
Condition          .         Ликвидированная               : 
Date               .         21.02.1974                    : 
EREF               .m        86.9                          : 100.8
Gorizont           .         15                            : 14
Interpretator      .         Алпанова Н.К.                 : 
Kupol              .         основной                      : osnovnoi
METD               .         OGZ3, GZ3, SP, CALI           : Метод
Moii_15_vosst2     .         15_vosst2                     : 
Mud                .                                       : 
Mud_density        .                                       : 
Mud_resistivity    .                                       : 
Mud_density        .                                       : 
Mud_resistivity    .                                       : 
NGDU               .         НГДУ-2                        : 
ORIGINALWELLNAME   .         1804                          : 
SCAL               .         500                           : Масштаб по глубине
Spud_date          .         1974                          : 1961
Spud_date          .         1974                          : 1961
Viscosity          .                                       : 
X                  .m        45120.3                       : 46154
Y                  .m        85617.63                      : 85761.93
YEAR               .         2018                          : 
~Parameter Information Block
#_______________________________________________________________________________
#
#PARAMETER_NAME    .UNIT     VALUE                         : DESCRIPTION
#_______________________________________________________________________________
SET                .         LQC_KAZNIPI_Petrel            : 
TLFamily_CALI      .         Caliper                       : 
TLFamily_CILD      .         Conductivity                  : 
TLFamily_COLL      .         Net Reservoir Flag            : 
TLFamily_CSAT      .         Fluid Code                    : 
TLFamily_DEPT      .         Measured Depth                : 
TLFamily_GR        .         Russian Gamma Ray             : 
TLFamily_GZ1       .         Gradient 045                  : 
TLFamily_GZ2       .         Gradient 105                  : 
TLFamily_GZ3       .         Gradient 225                  : 
TLFamily_GZ4       .         Gradient 425                  : 
TLFamily_GZ5       .         Gradient 850                  : 
TLFamily_LLS       .         Lateral Log Resistivity       : 
TLFamily_MINV      .         Micro Gradient Resistivity    : 
TLFamily_MNOR      .         Micro Resistivity             : 
TLFamily_NGLD      .         Neutron Far                   : 
TLFamily_OGZ       .         Gradient Inverted 225         : 
TLFamily_PHIE      .         Effective Porosity            : 
TLFamily_PHIEN     .         Effective Porosity            : 
TLFamily_PHIT      .         Porosity                      : 
TLFamily_PRMB      .         Permeability                  : 
TLFamily_PRMB_DGR  .         Permeability                  : 
TLFamily_RT        .         Formation Resistivity         : 
TLFamily_SOIL_ARCHIE .         Oil Saturation                : 
TLFamily_SOIL_DW   .         Oil Saturation                : 
TLFamily_SP        .         Spontaneous Potential         : 
TLFamily_VSH_FIN   .         Shale Volume                  : 
TLFamily_VSH_GR    .         Shale Volume                  : 
TLFamily_VSH_SP    .         Shale Volume                  : 
~Curve Information
#_______________________________________________________________________________
#
#LOGNAME           .UNIT     LOG_ID                        : DESCRIPTION
#_______________________________________________________________________________
DEPT               .M                                      : Колонка глубины 
CALI               .м                                      : Каверномер 
CILD               .мСм/м                                  : Индукционный каротаж 
COLL               .unitless                               :  
CSAT               .unitless                               :  
GR                 .мкР/ч                                  : Гамма каротаж 
GZ1                .Ом·м                                   : A0.4M0.1N 
GZ2                .Ом·м                                   : A1.0M0.1N 
GZ3                .Ом·м                                   : A2M0.5N 
GZ4                .Ом·м                                   : A4M0.5N 
GZ5                .Ом·м                                   : A8M1N 
LLS                .Ом·м                                   : Боковой каротаж 
MINV               .Ом·м                                   : Микро-градиент зонд 
MNOR               .Ом·м                                   : Микро-потенциал зонд 
NGLD               .у.е.                                   : Показания зонда НГК-60 аппаратуры ДРСТ-3-90 
OGZ                .Ом·м                                   : N0.5M2A 
PHIE               .м3/м3                                  : Описание 
PHIEN              .v/v                                    :  
PHIT               .м3/м3                                  : Описание 
PRMB               .mD                                     :  
PRMB_DGR           .mD                                     :  
RT                 .ohmm                                   : Description 
SOIL_ARCHIE        .v/v                                    :  
SOIL_DW            .v/v                                    :  
SP                 .мВ                                     : Потенциал самополяризации 
VSH_FIN            .unitless                               : Описание 
VSH_GR             .unitless                               : Shale volume 
VSH_SP             .unitless                               : Shale Volume 
~Ascii
# ...
953.4      0.217      332.186    -9999      -9999      6.940877   2.62       4.375999   3.838      1.053      1.304      3.263      3.071      6.882      1.22646701335907 5.22       0.1586214  0.1586214  0.2780406  2.427794   9.939539999999999 3.263      0.3618255  0.5362267  26.085     0.3618763  0.2540132  0.4697394 
953.6      0.217      332.994    -9999      -9999      7.098048   2.444      4.589      3.775      1.066      1.216      2.823      2.531      5.011      1.22679603099823 5.436      0.154338   0.154338   0.2779276  2.022426   8.517716999999999 2.823      0.3004581  0.495854   26.464     0.3745139  0.2705404  0.4784875 
953.8      0.217      335.416    -9999      -9999      7.217253   2.52       4.527      3.762      1.078      1.141      2.928      1.829      4.257      1.229987025260925 5.703001   0.1490125  0.1490125  0.2768304  1.611501   7.57661    2.928      0.2909883  0.4969048  26.97      0.387327   0.2837887  0.4908652 
954        0.217      333.801    -9999      -9999      7.287197   2.607      4.276      3.813      1.091      1.116      3.174      3.008      6.342      1.236950993537903 6.3        0.1437842  0.1437842  0.2744364  1.28941    7.073586   3.174      0.2957578  0.5074183  27.349     0.3959157  0.2918622  0.4999691 
954.2000000000001 0.217      328.957    -9999      -9999      7.301166   2.557      4.213      4.004      1.191      1.091      3.034      2.757      7.724      1.248347043991089 6.679      0.1377725  0.1377725  0.2705182  0.9977909  6.977198   3.034      0.25343    0.4832466  27.791     0.4022597  0.293502   0.5110175 
954.4      0.217      317.652    -9999      -9999      7.258251   2.432      4.075      4.194      1.492      1.129      3.052      3.829      6.694      1.264335036277771 7.232999   0.1312386  0.1312386  0.2650216  0.7551202  7.277577   3.052      0.2233186  0.4683786  28.234     0.4054028  0.2884936  0.5223121 
954.6      0.214      307.963    -9999      -9999      7.162156   2.294      3.9        4.562      1.956      1.154      3.21       3.271      4.358      1.284425973892212 7.788001   0.124236   0.124236   0.2581144  0.5601585  7.997925   3.21       0.2043952  0.4619412  28.676     0.405692   0.2775865  0.5337974 
954.8      0.214      299.081    -9999      -9999      7.01967    2.219      3.687      5.337      3.687      1.191      2.972      3.961      7.724      1.307418942451477 8.383      0.1169435  0.1169435  0.2502094  0.4104259  9.199334   2.972      0.1304821  0.4166742  29.118     0.4038362  0.2621683  0.545504  
955        0.213      288.584    -9999      -9999      6.839952   2.846      3.837      5.743999   5.981      1.229      2.92       2.375      4.848      1.331480026245117 9.081      0.1100252  0.1100252  0.241937   0.3055566  10.97532   2.92       0.07542531 0.385071   29.498     0.3997329  0.2439367  0.5555290000000001
955.2000000000001 0.214      278.087    -9999      -9999      6.634584   3.748      4.903      5.743999   6.157      1.266      5.333      2.343      4.772      1.354449987411499 9.272      0.1077808  0.1077808  0.2340402  0.2776641  13.42824   5.333      0.2904488  0.5318474  29.055     0.3826042  0.22465    0.5405584 
955.4      0.213      266.783    -9999      -9999      6.417153   4.513      6.408      5.54       5.806      1.292      7.52       3.008      8.05       1.374312996864319 8.764      0.1067578  0.1067578  0.2272112  0.2658097  16.62519   7.52       0.3910869  0.5969759  28.55      0.3650105  0.2058896  0.5241314 
955.6      0.213      257.901    -9999      -9999      6.20264    4.463      6.671      5.286      5.505      1.317      9.235      2.481      6.493      1.389570951461792 7.684      0.1067168  0.1067168  0.2219654  0.2653463  20.52438   9.235      0.4468625  0.6309574  28.044     0.349238   0.1889168  0.5095592 
955.8      0.213      251.441    -9999      -9999      6.005842   3.911      6.37       5.35       5.191      1.317      6.235      3.566      7.975      1.399623036384583 6.566      0.107678   0.107678   0.2185095  0.27645    24.90097   6.235      0.3400698  0.5480385  27.602     0.335853   0.1745792  0.4971267 
956        0.213      241.752    -9999      -9999      5.838892   3.523      6.671      5.629      5.241      1.317      4.459      3.453      6.229      1.404818058013916 6.605      0.1100507  0.1100507  0.2167235  0.3058887  29.33803   4.459      0.2421588  0.4673322  27.096     0.323251   0.1632726  0.4832295 
956.2000000000001 0.213      234.484    -9999      -9999      5.708869   3.535      7.762      5.921      5.492      1.304      4.089      2.845      7.623      1.406149983406067 6.617      0.113192   0.113192   0.2162656  0.3497425  33.33448   4.089      0.2298303  0.449067   26.591     0.3123444  0.1549765  0.4697123 
956.4      0.213      228.832    -9999      -9999      5.617856   3.473      7.511001   6.036      5.755      1.266      4.873      2.262      5.149      1.404839992523193 6.643      0.1167362  0.1167362  0.216716   0.4068136  36.45156   4.873      0.3094798  0.5019868  26.085     0.3029692  0.1494216  0.4565167 
956.6      0.213      226.41     -9999      -9999      5.562337   3.36       7.122001   6.048      6.031      1.266      5.585      3.817      7.711      1.401811957359314 6.489999   0.1201756  0.1201756  0.2177571  0.4710878  38.49445   5.585      0.3684613  0.5414149  25.643     0.2957016  0.1461313  0.4452719 
956.8      0.213      225.602    -9999      -9999      5.535831   3.673      6.870999   7.065      6.257      1.241      5.144      2.513      5.338      1.397405982017517 6.236001   0.1240169  0.1240169  0.2192719  0.5549469  39.50978   5.144      0.3613513  0.5300263  25.137     0.2886516  0.1445861  0.4327171 
957        0.213      226.41     -9999      -9999      5.532027   4.112      7.849999   7.712      6.044      1.216      4.978      2.77       7.749      1.391551017761231 5.982      0.1280783  0.1280783  0.2212846  0.6599002000000001 39.65769   4.978      0.3693934  0.530907   24.632     0.2824435  0.1443656  0.4205214 
957.2000000000001 0.213      228.832    -9999      -9999      5.545945   4.074      8.527      7.496      5.643001   1.154      7.52       3.873      7.736      1.384003043174744 5.728      0.1322567  0.1322567  0.2238798  0.7886300000000001 39.11927   7.52       0.4947098  0.625818   24.19      0.2776456  0.1451737  0.4101175 
957.4      0.213      233.677    -9999      -9999      5.573932   4.313      8.777      7.293      5.292      1.166      5.628      3.052      4.144      1.374588966369629 5.474      0.1369021  0.1369021  0.2271162  0.9614291  38.05856   5.628      0.4382457  0.577055   23.747     0.2733761  0.1468124  0.3999398 
957.6      0.213      236.907    -9999      -9999      5.613537   4.225      9.592      7.077001   5.129      1.191      5.585      3.56       7.372      1.363438010215759 5.296      0.1367041  0.1367041  0.2309501  0.9533441  36.60652   5.585      0.4355091  0.5794342  24.695     0.2855939  0.149163   0.4220248 
957.8      0.213      242.559    -9999      -9999      5.662629   3.661      9.091001   6.861      5.091      1.216      6.288      3.102      7.862      1.350985050201416 5.284      0.1366603  0.1366603  0.2352315  0.9515657  34.88333   6.288      0.465908   0.6079498  25.643     0.2987004  0.1521289  0.4452719 
958        0.213      246.596    -9999      -9999      5.719316   3.247      6.734      6.81       5.078      1.241      4.081      3.171      4.157      1.337947010993958 5.257999   0.1365327  0.1365327  0.2397137  0.9463995  32.99417   4.081      0.3452556  0.5186876  26.591     0.3126698  0.1556273  0.4697123 
958.2000000000001 0.213      251.441    -9999      -9999      5.78194    3.41       7.335001   6.493      4.953      1.329      4.186      2.813      5.124      1.325083017349243 5.22       0.1386339  0.1386339  0.2441365  1.035129   31.02588   4.186      0.3615636  0.5328163  26.97      0.3197048  0.1595855  0.4798241 
958.4      0.213      255.478    -9999      -9999      5.848063   3.36       6.934      6.214      4.69       1.492      5.312      2.174      7.372      1.312978029251099 5.169      0.1418076  0.1418076  0.2482983  1.185164   29.07494   5.312      0.4402336  0.5931514  27.033     0.3226991  0.1638742  0.4815241 
