~Version
 VERS              .         2.0                           : CWLS LOG ASCII STANDARD - VERSION 2.0
 WRAP              .         NO                            : ONE LINE PER DEPTH STEP
 DLM               .         SPACE                         : DELIMITING CHARACTER(SPACE TAB OR COMMA)
~Well Information
#_______________________________________________________________________________
#
#PARAMETER_NAME    .UNIT     VALUE                         : DESCRIPTION
#_______________________________________________________________________________
STRT               .M        850                           : First reference value
STOP               .M        1297.8                        : Last reference value
STEP               .M        0.2                           : Step increment
NULL               .         -9999                         : Missing value
COMP               .                                       : Company
WELL               .         1804                          : Well name
FLD                .         УЗЕНЬ                         : Field
LOC                .                                       : Location
CNTY               .                                       : County
STAT               .                                       : State
CTRY               .                                       : Country
SRVC               .                                       : Service Company
DATE               .                                       : Date
UWI                .                                       : Unique Well ID
Block              .         6а                            : 
Category           .         Нефтяная                      : 
Condition          .         Ликвидированная               : 
Date               .         21.02.1974                    : 
EREF               .m        86.9                          : 100.8
Gorizont           .         15                            : 14
Interpretator      .         Алпанова Н.К.                 : 
Kupol              .         основной                      : osnovnoi
METD               .         OGZ3, GZ3, SP, CALI           : Метод
Moii_15_vosst2     .         15_vosst2                     : 
Mud                .                                       : 
Mud_density        .                                       : 
Mud_resistivity    .                                       : 
Mud_density        .                                       : 
Mud_resistivity    .                                       : 
NGDU               .         НГДУ-2                        : 
ORIGINALWELLNAME   .         1804                          : 
SCAL               .         500                           : Масштаб по глубине
Spud_date          .         1974                          : 1961
Spud_date          .         1974                          : 1961
Viscosity          .                                       : 
X                  .m        45120.3                       : 46154
Y                  .m        85617.63                      : 85761.93
YEAR               .         2018                          : 
~Parameter Information Block
#_______________________________________________________________________________
#
#PARAMETER_NAME    .UNIT     VALUE                         : DESCRIPTION
#_______________________________________________________________________________
SET                .         LQC_KAZNIPI_Petrel            : 
TLFamily_CALI      .         Caliper                       : 
TLFamily_CILD      .         Conductivity                  : 
TLFamily_COLL      .         Net Reservoir Flag            : 
TLFamily_CSAT      .         Fluid Code                    : 
TLFamily_DEPT      .         Measured Depth                : 
TLFamily_GR        .         Russian Gamma Ray             : 
TLFamily_GZ1       .         Gradient 045                  : 
TLFamily_GZ2       .         Gradient 105                  : 
TLFamily_GZ3       .         Gradient 225                  : 
TLFamily_GZ4       .         Gradient 425                  : 
TLFamily_GZ5       .         Gradient 850                  : 
TLFamily_LLS       .         Lateral Log Resistivity       : 
TLFamily_MINV      .         Micro Gradient Resistivity    : 
TLFamily_MNOR      .         Micro Resistivity             : 
TLFamily_NGLD      .         Neutron Far                   : 
TLFamily_OGZ       .         Gradient Inverted 225         : 
TLFamily_PHIE      .         Effective Porosity            : 
TLFamily_PHIEN     .         Effective Porosity            : 
TLFamily_PHIT      .         Porosity                      : 
TLFamily_PRMB      .         Permeability                  : 
TLFamily_PRMB_DGR  .         Permeability                  : 
TLFamily_RT        .         Formation Resistivity         : 
TLFamily_SOIL_ARCHIE .         Oil Saturation                : 
TLFamily_SOIL_DW   .         Oil Saturation                : 
TLFamily_SP        .         Spontaneous Potential         : 
TLFamily_VSH_FIN   .         Shale Volume                  : 
TLFamily_VSH_GR    .         Shale Volume                  : 
TLFamily_VSH_SP    .         Shale Volume                  : 
~Curve Information
#_______________________________________________________________________________
#
#LOGNAME           .UNIT     LOG_ID                        : DESCRIPTION
#_______________________________________________________________________________
DEPT               .M                                      : Колонка глубины 
CALI               .м                                      : Каверномер 
CILD               .мСм/м                                  : Индукционный каротаж 
COLL               .unitless                               :  
CSAT               .unitless                               :  
GR                 .мкР/ч                                  : Гамма каротаж 
GZ1                .Ом·м                                   : A0.4M0.1N 
GZ2                .Ом·м                                   : A1.0M0.1N 
GZ3                .Ом·м                                   : A2M0.5N 
GZ4                .Ом·м                                   : A4M0.5N 
GZ5                .Ом·м                                   : A8M1N 
LLS                .Ом·м                                   : Боковой каротаж 
MINV               .Ом·м                                   : Микро-градиент зонд 
MNOR               .Ом·м                                   : Микро-потенциал зонд 
NGLD               .у.е.                                   : Показания зонда НГК-60 аппаратуры ДРСТ-3-90 
OGZ                .Ом·м                                   : N0.5M2A 
PHIE               .м3/м3                                  : Описание 
PHIEN              .v/v                                    :  
PHIT               .м3/м3                                  : Описание 
PRMB               .mD                                     :  
PRMB_DGR           .mD                                     :  
RT                 .ohmm                                   : Description 
SOIL_ARCHIE        .v/v                                    :  
SOIL_DW            .v/v                                    :  
SP                 .мВ                                     : Потенциал самополяризации 
VSH_FIN            .unitless                               : Описание 
VSH_GR             .unitless                               : Shale volume 
VSH_SP             .unitless                               : Shale Volume 
~Ascii
# ...
927.6      0.217      264.36     1          3          3.195255   4.551      12.038     3.838      6.696      6.420001   3.675      3.34       4.659      1.355859994888306 3.061      0.1977487  0.1977487  0.2335552  12.88085   1467.558   3.675      0.501906   0.5576384  13.384     0.1085043  0.03304363 0.183965  
927.8      0.217      278.087    1          3          3.144063   4.639      12.163     3.648      6.658      5.542      5.98       3.98       7.975      1.330034017562866 2.743      0.2077027  0.2077027  0.2424343  19.69316   1558.587   5.98       0.6202372  0.6675904  13.005     0.1052473  0.03224153 0.178253  
928        0.217      297.466    1          3          3.125919   5.215      11.411     3.432      6.044      4.878      6.069      3.691      7.962      1.306128978729248 2.426      0.216207   0.216207   0.250653   28.30319   1592.189   6.069      0.6358141000000001 0.6817767  12.942     0.104382   0.03196193 0.1768021 
928.2000000000001 0.217      326.534    1          3          3.139753   5.266      10.721     3.102      4.614      4.326      4.335      2.895      6.493      1.284000039100647 2.21       0.224017   0.224017   0.2582608  39.49078   1566.505   4.335      0.5865023  0.6354331  12.878     0.1037693  0.03217488 0.1753637 
928.4      0.217      374.174    1          3          3.183859   3.736      6.031      2.695      3.611      3.749      2.34       2.594      4.446      1.26385498046875 2.273      0.2310603  0.2310603  0.2651866  53.328     1487.352   2.34       0.4624488  0.5176758  12.815     0.103413   0.03286335 0.1739626 
928.6      0.217      414.547    1          3          3.255068   2.708      4.702      2.784      2.997      3.197      1.645      2.118      3.052      1.24596905708313 2.337      0.2372483  0.2372483  0.271336   69.43401   1367.912   1.645      0.3802109  0.4386171  12.752     0.1032959  0.03400612 0.1725858 
928.8      0.217      450.075    1          3          3.349446   2.093      4.1        2.81       2.558      2.633      1.689      2.644      4.32       1.230844974517822 2.401      0.242411   0.242411   0.2765355  86.53612   1224.26    1.689      0.3992113  0.4569848  12.689     0.1034077  0.03558216 0.1712331 
929        0.216      479.143    1          3          3.462649   1.88       3.624      2.721      2.533      2.069      1.794      2.544      4.835      1.218991994857788 2.451      0.2463773  0.2463773  0.2806105  102.4858   1071.713   1.794      0.4241736  0.4811213  12.626     0.1037368  0.03756921 0.1699044 
929.2000000000001 0.216      496.907    1          3          3.589882   1.817      3.147      2.645      2.596      1.567      1.856      2.318      3.793      1.210621953010559 2.515      0.2490819  0.2490819  0.2834882  115.0164   922.8271   1.856      0.4386448  0.495194   12.562     0.1042616  0.03993528 0.1685879 
929.4      0.216      508.211    1          3          3.725922   1.83       2.821      2.556      2.658      1.179      1.881      2.35       3.68       1.205580949783325 2.578      0.2504649  0.2504649  0.2852211  122.0044   786.4402   1.881      0.444842   0.5014879  12.562     0.1053219  0.04263019 0.1680135 
929.6      0.215      512.248    1          3          3.863897   1.78       2.545      2.467      2.708      1.078      1.856      2.193      3.692      1.203354001045227 2.642      0.2507241  0.2507241  0.2859867  123.3605   668.6877   1.856      0.4418484  0.4991334  12.626     0.1068565  0.04554925 0.1681637 
929.8      0.215      513.056    1          3          3.995349   1.717      2.37       2.378      2.784      0.853      1.829      2.049      3.454      1.203122973442078 2.693      0.2504084  0.2504084  0.2860663  121.7106   572.9421   1.829      0.4373798  0.4952592  12.626     0.1080544  0.04851606 0.1675928 
930        0.215      510.634    1          3          4.110747   1.679      2.307      2.314      2.846      0.803      1.794      2.187      3.14       1.204079985618591 2.756      0.2497169  0.2497169  0.2857373  118.1736   500.2588   1.794      0.4308864  0.489421   12.626     0.1091529  0.0512794  0.1670265 
930.2000000000001 0.215      507.404    1          3          4.201413   1.704      2.245      2.327      2.909      0.803      1.961      2.243      3.466      1.205453038215637 2.87       0.2488459  0.2488459  0.2852654  113.8645   449.6825   1.961      0.4525039  0.5104532  12.689     0.1103619  0.05356045 0.1671634 
930.4      0.215      505.789    1          3          4.261427   1.792      2.232      2.314      2.984      0.84       2.419      2.776      4.232      1.206670045852661 2.807      0.248262   0.248262   0.2848469  111.064    419.0501   2.419      0.5028443  0.5584134  12.689     0.1108632  0.05512588 0.1666006 
930.6      0.214      505.789    1          3          4.288933   1.842      2.245      2.314      2.972      0.853      2.409      2.519      4.094      1.207352042198181 2.731      0.2479986  0.2479986  0.2846123  109.8233   405.7166   2.409      0.5014162  0.5570882  12.689     0.1109504  0.05585857 0.1660423 
930.8      0.214      507.404    1          3          4.286806   1.893      2.257      2.314      2.922      0.89       2.146      2.23       3.592      1.207345962524414 2.655      0.2479879  0.2479879  0.2846144  109.7731   406.7323   2.146      0.4736012  0.5307255  12.752     0.1109894  0.05580157 0.1661773 
931        0.215      510.634    1          3          4.26169    1.855      2.257      2.302      2.871      0.915      1.97       2.255      3.604      1.206608057022095 2.566      0.2484437  0.2484437  0.2848683  111.9278   418.9204   1.97       0.4529088  0.510845   12.752     0.1103777  0.05513284 0.1656225 
931.2000000000001 0.215      510.634    1          3          4.221725   1.792      2.27       2.302      2.821      0.94       1.918      2.268      3.793      1.205212950706482 2.54       0.2491869  0.2491869  0.2853478  115.5323   439.0717   1.918      0.4474371  0.5053669  12.752     0.1095787  0.05408525 0.1650722 
931.4      0.215      514.671    1          3          4.174377   1.767      2.282      2.302      2.796      0.953      1.935      2.237      3.68       1.20333194732666 2.591      0.250012   0.250012   0.2859944  119.6706   464.204    1.935      0.4513027  0.5088763  12.815     0.1090375  0.05286984 0.1652052 
931.6      0.214      517.901    1          3          4.124978   1.767      2.282      2.289      2.796      0.953      1.935      2.249      3.667      1.201169013977051 2.667      0.2510504  0.2510504  0.2867381  125.0895   491.9595   1.935      0.4532798  0.5104734  12.815     0.1081446  0.0516309  0.1646584 
931.8      0.214      519.516    1          3          4.076839   1.805      2.27       2.289      2.796      0.94       1.926      2.299      3.617      1.198958992958069 2.731      0.2520942  0.2520942  0.2874978  130.7841   520.6028   1.926      0.4540589  0.5109414  12.815     0.1072837  0.05045149 0.164116  
932        0.214      517.901    1          3          4.03182    1.842      2.245      2.34       2.771      0.94       1.908      2.287      3.479      1.196966052055359 2.782      0.2529359  0.2529359  0.2881832  135.5642   548.8967   1.908      0.4532376  0.5100077  12.878     0.10681    0.04937292 0.1642472 
932.2000000000001 0.214      519.516    1          3          3.991285   1.842      2.219      2.391      2.721      0.94       1.908      2.45       3.956      1.195412993431091 2.845      0.2537155  0.2537155  0.2887169  140.1472   575.6863   1.908      0.4547011  0.5111696  12.878     0.1060648  0.0484215  0.1637082 
932.4      0.214      519.516    1          3          3.956214   1.817      2.182      2.441      2.683      0.966      1.943      2.356      3.743      1.194450974464417 2.909      0.2542679  0.2542679  0.2890477  143.4883   599.9169000000001 1.943      0.460356   0.5163594  12.878     0.1053934  0.04761315 0.1631736 
932.6      0.214      518.708    1          3          3.927013   1.792      2.182      2.454      2.633      1.028      1.978      2.406      3.856      1.194126009941101 2.972      0.2545764  0.2545764  0.2891594  145.3884   620.8683   1.978      0.4654229  0.5210117  12.878     0.104797   0.04695041 0.1626435 
