~Version
 VERS              .         2.0                           : CWLS LOG ASCII STANDARD - VERSION 2.0
 WRAP              .         NO                            : ONE LINE PER DEPTH STEP
 DLM               .         SPACE                         : DELIMITING CHARACTER(SPACE TAB OR COMMA)
~Well Information
#_______________________________________________________________________________
#
#PARAMETER_NAME    .UNIT     VALUE                         : DESCRIPTION
#_______________________________________________________________________________
STRT               .M        850                           : First reference value
STOP               .M        1297.8                        : Last reference value
STEP               .M        0.2                           : Step increment
NULL               .         -9999                         : Missing value
COMP               .                                       : Company
WELL               .         1804                          : Well name
FLD                .         УЗЕНЬ                         : Field
LOC                .                                       : Location
CNTY               .                                       : County
STAT               .                                       : State
CTRY               .                                       : Country
SRVC               .                                       : Service Company
DATE               .                                       : Date
UWI                .                                       : Unique Well ID
Block              .         6а                            : 
Category           .         Нефтяная                      : 
Condition          .         Ликвидированная               : 
Date               .         21.02.1974                    : 
EREF               .m        86.9                          : 100.8
Gorizont           .         15                            : 14
Interpretator      .         Алпанова Н.К.                 : 
Kupol              .         основной                      : osnovnoi
METD               .         OGZ3, GZ3, SP, CALI           : Метод
Moii_15_vosst2     .         15_vosst2                     : 
Mud                .                                       : 
Mud_density        .                                       : 
Mud_resistivity    .                                       : 
Mud_density        .                                       : 
Mud_resistivity    .                                       : 
NGDU               .         НГДУ-2                        : 
ORIGINALWELLNAME   .         1804                          : 
SCAL               .         500                           : Масштаб по глубине
Spud_date          .         1974                          : 1961
Spud_date          .         1974                          : 1961
Viscosity          .                                       : 
X                  .m        45120.3                       : 46154
Y                  .m        85617.63                      : 85761.93
YEAR               .         2018                          : 
~Parameter Information Block
#_______________________________________________________________________________
#
#PARAMETER_NAME    .UNIT     VALUE                         : DESCRIPTION
#_______________________________________________________________________________
SET                .         LQC_KAZNIPI_Petrel            : 
TLFamily_CALI      .         Caliper                       : 
TLFamily_CILD      .         Conductivity                  : 
TLFamily_COLL      .         Net Reservoir Flag            : 
TLFamily_CSAT      .         Fluid Code                    : 
TLFamily_DEPT      .         Measured Depth                : 
TLFamily_GR        .         Russian Gamma Ray             : 
TLFamily_GZ1       .         Gradient 045                  : 
TLFamily_GZ2       .         Gradient 105                  : 
TLFamily_GZ3       .         Gradient 225                  : 
TLFamily_GZ4       .         Gradient 425                  : 
TLFamily_GZ5       .         Gradient 850                  : 
TLFamily_LLS       .         Lateral Log Resistivity       : 
TLFamily_MINV      .         Micro Gradient Resistivity    : 
TLFamily_MNOR      .         Micro Resistivity             : 
TLFamily_NGLD      .         Neutron Far                   : 
TLFamily_OGZ       .         Gradient Inverted 225         : 
TLFamily_PHIE      .         Effective Porosity            : 
TLFamily_PHIEN     .         Effective Porosity            : 
TLFamily_PHIT      .         Porosity                      : 
TLFamily_PRMB      .         Permeability                  : 
TLFamily_PRMB_DGR  .         Permeability                  : 
TLFamily_RT        .         Formation Resistivity         : 
TLFamily_SOIL_ARCHIE .         Oil Saturation                : 
TLFamily_SOIL_DW   .         Oil Saturation                : 
TLFamily_SP        .         Spontaneous Potential         : 
TLFamily_VSH_FIN   .         Shale Volume                  : 
TLFamily_VSH_GR    .         Shale Volume                  : 
TLFamily_VSH_SP    .         Shale Volume                  : 
~Curve Information
#_______________________________________________________________________________
#
#LOGNAME           .UNIT     LOG_ID                        : DESCRIPTION
#_______________________________________________________________________________
DEPT               .M                                      : Колонка глубины 
CALI               .м                                      : Каверномер 
CILD               .мСм/м                                  : Индукционный каротаж 
COLL               .unitless                               :  
CSAT               .unitless                               :  
GR                 .мкР/ч                                  : Гамма каротаж 
GZ1                .Ом·м                                   : A0.4M0.1N 
GZ2                .Ом·м                                   : A1.0M0.1N 
GZ3                .Ом·м                                   : A2M0.5N 
GZ4                .Ом·м                                   : A4M0.5N 
GZ5                .Ом·м                                   : A8M1N 
LLS                .Ом·м                                   : Боковой каротаж 
MINV               .Ом·м                                   : Микро-градиент зонд 
MNOR               .Ом·м                                   : Микро-потенциал зонд 
NGLD               .у.е.                                   : Показания зонда НГК-60 аппаратуры ДРСТ-3-90 
OGZ                .Ом·м                                   : N0.5M2A 
PHIE               .м3/м3                                  : Описание 
PHIEN              .v/v                                    :  
PHIT               .м3/м3                                  : Описание 
PRMB               .mD                                     :  
PRMB_DGR           .mD                                     :  
RT                 .ohmm                                   : Description 
SOIL_ARCHIE        .v/v                                    :  
SOIL_DW            .v/v                                    :  
SP                 .мВ                                     : Потенциал самополяризации 
VSH_FIN            .unitless                               : Описание 
VSH_GR             .unitless                               : Shale volume 
VSH_SP             .unitless                               : Shale Volume 
~Ascii
# ...
1192.4     0.22       491.255    -9999      -9999      12.6465    2.118      15.172     2.784      15.674     2.545      1.873      1.139      2.06       1.143057   4.268      0.1657507  0.1657507  0.3067169  3.290507   3.93867    1.873      0.2141211  0.4407158  22.231     0.4271704  0.3706918  0.483649  
1192.6     0.221      487.217    -9999      -9999      12.69223   2.031      12.414     2.314      17.116     2.47       1.802      0.845      1.469      1.160535   3.899      0.1625721  0.1625721  0.3007081  2.873341   3.80938    1.802      0.1861292  0.4185071  21.409     0.4185941  0.3757786  0.4614096 
1192.8     0.222      479.143    -9999      -9999      12.72352   1.88       10.658     1.959      14.984     2.282      1.724      0.632      0.98       1.177443   3.506      0.1594283  0.1594283  0.2948951  2.512794   3.723362   1.724      0.1547996  0.3937776  20.651     0.4105056  0.3792994  0.4417117 
1193       0.221      467.031    -9999      -9999      12.72359   1.767      10.47      2.086      12.288     2.082      1.838      1.459      2.763      1.192701   3.124      0.154503   0.154503   0.2896494  2.036703   3.723172   1.838      0.157092   0.3990779  20.588     0.4095346  0.3793074  0.4397618 
1193.2     0.218      467.031    1          2          12.68068   1.767      11.473     2.187      9.968999   1.881      1.961      1.886      2.976      1.205474   2.947      0.1775266  0.1775266  0.2852582  5.437285   3.841619   1.961      0.2755022  0.4445373  12.499     0.3264593  0.3744876  0.2784309 
1193.4     0.215      450.075    1          2          12.59023   1.817      12.539     2.213      8.651999   1.693      1.943      2.462      4.722      1.215213   3.328      0.1800804  0.1800804  0.2819098  6.062945   4.103777   1.943      0.2813557  0.4412966  10.73      0.3085741  0.3645279  0.2526202 
1193.6     0.213      433.118    1          2          12.45661   1.855      12.727     2.759      8.777      1.818      2.119      2.6        3.818      1.221749   3.582      0.1833091  0.1833091  0.2796628  6.95804    4.524177   2.119      0.3206075  0.4663483  9.276      0.2919811  0.3502963  0.2336659 
1193.8     0.211      415.354    1          2          12.29054   2.056      13.48      2.848      9.905999   2.132      2.506      2.324      3.378      1.225185   3.607      0.1877219  0.1877219  0.2784813  8.398916   5.107131   2.506      0.3849123  0.5128321  7.823      0.2750286  0.3333817  0.2166754 
1194       0.21       395.975    1          2          12.10764   2.419      15.549     3.343      10.721     2.42       2.938      2.268      3.391      1.225815   3.607      0.1929241  0.1929241  0.2782647  10.4853    5.836497   2.938      0.4425767  0.5549108  6.37       0.2586077  0.3156956  0.2015197 
1194.2     0.21       380.634    1          2          11.92564   2.708      17.806     3.838      12.226     2.721      3.139      2.23       3.089      1.224122   3.709      0.198475   0.198475   0.278847   13.28607   6.665594   3.139      0.4728075  0.5749481  4.916      0.2435516  0.2990289  0.1880742 
1194.4     0.21       367.714    1          2          11.76185   3.009      20.376     4.334      13.542     2.897      3.588      2.086      2.851      1.220667   3.81       0.2044291  0.2044291  0.2800348  17.12697   7.511994   3.588      0.5174493  0.6082651  3.084      0.2291083  0.284783   0.1734336 
1194.6     0.211      369.329    1          2          11.63337   3.473      24.89      4.55       14.796     3.06       4.186      2.161      2.989      1.216103   3.506      0.2076296  0.2076296  0.2816038  19.63188   8.250467   4.186      0.5571554  0.6408386  3.21       0.2241644  0.2740851  0.1742437 
1194.8     0.211      388.708    1          2          11.55327   4.012      30.282     4.232      16.113     3.373      4.635      2.105      3.052      1.211089   3.099      0.2104388  0.2104388  0.2833277  22.13069   8.747173   4.635      0.5827438  0.6617932  3.21       0.2208755  0.2676197  0.1741313 
1195       0.21       417.776    1          2          11.53093   3.987      28.088     3.927      17.429     3.749      4.089      2.074      2.976      1.206213   2.705      0.2095573  0.2095573  0.285004   21.31414   8.891000999999999 4.089      0.5558457  0.6405249  5.359      0.2286264  0.2658435  0.1914093 
1195.2     0.21       442.807    1          2          11.56911   3.31       22.884     3.623      17.429     4.013      3.219      2.03       3.165      1.201905   2.261      0.2076629  0.2076629  0.2864851  19.65977   8.646689   3.219      0.4991318  0.5945392  7.191      0.2388552  0.2688853  0.208825  
1195.4     0.212      467.031    1          2          11.66118   2.683      19.06      3.305      16.05      3.561      2.348      2.544      4.898      1.198441   2.426      0.2042952  0.2042952  0.287676   17.02949   8.084733999999999 2.348      0.4108749  0.5231739  9.024      0.2526689  0.2763656  0.2289721 
1195.6     0.215      483.988    -9999      -9999      11.79277   2.219      16.614     3          14.169     3.097      1.548      2.161      3.956      1.195942   2.642      0.199382   0.199382   0.2885352  13.8101    7.344394   1.548      0.2683254  0.4078356  10.919     0.2701611  0.287419   0.2529032 
1195.8     0.216      500.137    -9999      -9999      11.94303   2.031      15.925     2.733      11.724     2.759      1.786      1.892      3.177      1.194457   2.82       0.1891371  0.1891371  0.2890458  8.921445   6.581547   1.786      0.2836508  0.4372012  14.332     0.3027536  0.3005824  0.3049248 
1196       0.217      515.478    -9999      -9999      12.08948   2.031      15.862     2.848      9.905999   2.47       1.935      2.155      2.838      1.193983   2.68       0.1804577  0.1804577  0.2892088  6.161304   5.914342   1.935      0.2812744  0.4490423  16.543     0.3295487  0.3139923  0.3451051 
1196.2     0.217      522.745    -9999      -9999      12.2122    2.081      15.298     2.949      9.404      2.27       1.891      1.817      4.157      1.194458   2.54       0.1710358  0.1710358  0.2890455  4.122463   5.407642   1.891      0.2387387  0.430288   18.692     0.3576049  0.3256886  0.3895212 
1196.4     0.216      531.627    -9999      -9999      12.29864   2.043      13.793     3.038      9.718      2.107      1.732      1.641      2.826      1.19568    2.616      0.1657201  0.1657201  0.2886251  3.286223   5.077026   1.732      0.1845909  0.3966162  19.64      0.3724394  0.3341875  0.4106912 
1196.6     0.216      533.242    -9999      -9999      12.34929   1.918      12.226     3.127      10.282     2.069      1.548      1.183      2.16       1.197264   2.909      0.1614247  0.1614247  0.2880806  2.736125   4.892781   1.548      0.1205763  0.3543235  20.398     0.3838055  0.3392701  0.428341  
1196.8     0.217      523.553    -9999      -9999      12.37354   1.667      10.345     3.229      10.031     2.006      1.399      1.121      3.63       1.198642   3.213      0.1652533  0.1652533  0.2876069  3.22144    4.806929   1.399      0.09643903 0.3264499  19.197     0.3707684  0.3417313  0.3998054 
1197       0.217      514.671    -9999      -9999      12.38627   1.504      11.975     3.318      10.094     2.019      1.513      1.315      2.75       1.199139   3.518      0.1683752  0.1683752  0.287436   3.680229   4.762487   1.513      0.1431328  0.3569207  18.25      0.3607905  0.3430299  0.3785511 
1197.2     0.217      505.789    -9999      -9999      12.40279   1.78       14.545     3.381      10.345     2.056      2.032      2.356      2.625      1.198227   3.277      0.1719436  0.1719436  0.2877495  4.285197   4.7054     2.032      0.2673856  0.4501008  17.239     0.3509268  0.3447232  0.3571305 
1197.4     0.215      508.211    -9999      -9999      12.43186   2.181      15.925     3.165      12.163     2.107      2.761      2.356      3.491      1.195702   3.061      0.1754466  0.1754466  0.2886176  4.975706   4.606613   2.761      0.3765985  0.5329083  16.291     0.3429422  0.3477229  0.3381616 
