~Version
 VERS              .         2.0                           : CWLS LOG ASCII STANDARD - VERSION 2.0
 WRAP              .         NO                            : ONE LINE PER DEPTH STEP
 DLM               .         SPACE                         : DELIMITING CHARACTER(SPACE TAB OR COMMA)
~Well Information
#_______________________________________________________________________________
#
#PARAMETER_NAME    .UNIT     VALUE                         : DESCRIPTION
#_______________________________________________________________________________
STRT               .M        850                           : First reference value
STOP               .M        1297.8                        : Last reference value
STEP               .M        0.2                           : Step increment
NULL               .         -9999                         : Missing value
COMP               .                                       : Company
WELL               .         1804                          : Well name
FLD                .         УЗЕНЬ                         : Field
LOC                .                                       : Location
CNTY               .                                       : County
STAT               .                                       : State
CTRY               .                                       : Country
SRVC               .                                       : Service Company
DATE               .                                       : Date
UWI                .                                       : Unique Well ID
Block              .         6а                            : 
Category           .         Нефтяная                      : 
Condition          .         Ликвидированная               : 
Date               .         21.02.1974                    : 
EREF               .m        86.9                          : 100.8
Gorizont           .         15                            : 14
Interpretator      .         Алпанова Н.К.                 : 
Kupol              .         основной                      : osnovnoi
METD               .         OGZ3, GZ3, SP, CALI           : Метод
Moii_15_vosst2     .         15_vosst2                     : 
Mud                .                                       : 
Mud_density        .                                       : 
Mud_resistivity    .                                       : 
Mud_density        .                                       : 
Mud_resistivity    .                                       : 
NGDU               .         НГДУ-2                        : 
ORIGINALWELLNAME   .         1804                          : 
SCAL               .         500                           : Масштаб по глубине
Spud_date          .         1974                          : 1961
Spud_date          .         1974                          : 1961
Viscosity          .                                       : 
X                  .m        45120.3                       : 46154
Y                  .m        85617.63                      : 85761.93
YEAR               .         2018                          : 
~Parameter Information Block
#_______________________________________________________________________________
#
#PARAMETER_NAME    .UNIT     VALUE                         : DESCRIPTION
#_______________________________________________________________________________
SET                .         LQC_KAZNIPI_Petrel            : 
TLFamily_CALI      .         Caliper                       : 
TLFamily_CILD      .         Conductivity                  : 
TLFamily_COLL      .         Net Reservoir Flag            : 
TLFamily_CSAT      .         Fluid Code                    : 
TLFamily_DEPT      .         Measured Depth                : 
TLFamily_GR        .         Russian Gamma Ray             : 
TLFamily_GZ1       .         Gradient 045                  : 
TLFamily_GZ2       .         Gradient 105                  : 
TLFamily_GZ3       .         Gradient 225                  : 
TLFamily_GZ4       .         Gradient 425                  : 
TLFamily_GZ5       .         Gradient 850                  : 
TLFamily_LLS       .         Lateral Log Resistivity       : 
TLFamily_MINV      .         Micro Gradient Resistivity    : 
TLFamily_MNOR      .         Micro Resistivity             : 
TLFamily_NGLD      .         Neutron Far                   : 
TLFamily_OGZ       .         Gradient Inverted 225         : 
TLFamily_PHIE      .         Effective Porosity            : 
TLFamily_PHIEN     .         Effective Porosity            : 
TLFamily_PHIT      .         Porosity                      : 
TLFamily_PRMB      .         Permeability                  : 
TLFamily_PRMB_DGR  .         Permeability                  : 
TLFamily_RT        .         Formation Resistivity         : 
TLFamily_SOIL_ARCHIE .         Oil Saturation                : 
TLFamily_SOIL_DW   .         Oil Saturation                : 
TLFamily_SP        .         Spontaneous Potential         : 
TLFamily_VSH_FIN   .         Shale Volume                  : 
TLFamily_VSH_GR    .         Shale Volume                  : 
TLFamily_VSH_SP    .         Shale Volume                  : 
~Curve Information
#_______________________________________________________________________________
#
#LOGNAME           .UNIT     LOG_ID                        : DESCRIPTION
#_______________________________________________________________________________
DEPT               .M                                      : Колонка глубины 
CALI               .м                                      : Каверномер 
CILD               .мСм/м                                  : Индукционный каротаж 
COLL               .unitless                               :  
CSAT               .unitless                               :  
GR                 .мкР/ч                                  : Гамма каротаж 
GZ1                .Ом·м                                   : A0.4M0.1N 
GZ2                .Ом·м                                   : A1.0M0.1N 
GZ3                .Ом·м                                   : A2M0.5N 
GZ4                .Ом·м                                   : A4M0.5N 
GZ5                .Ом·м                                   : A8M1N 
LLS                .Ом·м                                   : Боковой каротаж 
MINV               .Ом·м                                   : Микро-градиент зонд 
MNOR               .Ом·м                                   : Микро-потенциал зонд 
NGLD               .у.е.                                   : Показания зонда НГК-60 аппаратуры ДРСТ-3-90 
OGZ                .Ом·м                                   : N0.5M2A 
PHIE               .м3/м3                                  : Описание 
PHIEN              .v/v                                    :  
PHIT               .м3/м3                                  : Описание 
PRMB               .mD                                     :  
PRMB_DGR           .mD                                     :  
RT                 .ohmm                                   : Description 
SOIL_ARCHIE        .v/v                                    :  
SOIL_DW            .v/v                                    :  
SP                 .мВ                                     : Потенциал самополяризации 
VSH_FIN            .unitless                               : Описание 
VSH_GR             .unitless                               : Shale volume 
VSH_SP             .unitless                               : Shale Volume 
~Ascii
# ...
1166.4     0.225      609.143    -9999      -9999      13.00084   1.918      14.295     2.733      18.934     3.122      1.672      1.045      2.261      1.104514   3.201      0.1476657  0.1476657  0.3199682  1.521546   2.391318   1.672      0.07044375 0.3889296  25.833     0.5221287  0.4544686  0.5897888 
1166.6     0.22       608.335    -9999      -9999      12.97838   1.642      11.16      2.314      14.545     2.809      1.461      1.447      3.24       1.103969   3.251      0.1478091  0.1478091  0.3201554  1.53088    2.432041   1.461      0.01053417 0.3467686  25.959     0.5222616  0.4513457  0.5931774 
1166.8     0.219      607.528    -9999      -9999      12.95714   1.516      9.278999   1.87       11.912     2.42       1.434      1.083      2.198      1.103451   3.506      0.1502644  0.1502644  0.3203337  1.699881   2.471178   1.434      0.01605494 0.3449662  25.643     0.5153615  0.4484131  0.58231   
1167       0.224      606.721    -9999      -9999      12.9319    1.504      9.216      1.755      10.533     2.069      1.461      1.045      2.16       1.103097   3.594      0.157219   0.157219   0.3204553  2.286841   2.518509   1.461      0.06231746 0.3622769  24.442     0.4946555  0.4449527  0.5443582 
1167.2     0.229      605.106    -9999      -9999      12.89524   1.491      9.592      1.641      9.404      1.906      1.513      1.008      1.947      1.103245   3.569      0.1673764  0.1673764  0.3204044  3.526748   2.588895   1.513      0.12653    0.3882131  22.483     0.4637212  0.4399728  0.4874696 
1167.4     0.23       608.335    -9999      -9999      12.83894   1.516      9.278999   1.552      8.589001   1.718      1.575      1.378      2.411      1.104336   3.404      0.1769905  0.1769905  0.3200294  5.314365   2.700819   1.575      0.1835349  0.4128978  20.461     0.4334512  0.4324343  0.4344681 
1167.6     0.232      612.373    -9999      -9999      12.75713   1.567      8.339      1.463      7.335001   1.668      1.618      1.666      3.278      1.106762   3.251      0.1789024  0.1789024  0.3191952  5.765859   2.872149   1.618      0.2012991  0.4222828  20.24      0.4251299  0.4217091  0.4285508 
1167.8     0.228      618.832    -9999      -9999      12.64724   1.579      8.088      1.374      6.27       1.58       1.575      1.704      3.843      1.110735   3.15       0.1808081  0.1808081  0.3178293  6.254065   3.119489   1.575      0.1985698  0.4153788  20.019     0.4152156  0.4077213  0.4227101 
1168       0.224      595.416    -9999      -9999      12.50968   1.579      8.777      1.362      6.082      1.517      1.477      1.422      2.135      1.1161     3.188      0.1917826  0.1917826  0.3159849  9.987050999999999 3.459354   1.477      0.2153621  0.4082219  17.302     0.3763705  0.3908629  0.3618781 
1168.2     0.22       573.615    1          2          12.34898   1.554      9.216      1.438      6.082      1.417      1.61       1.792      3.554      1.12229    3.124      0.1987091  0.1987091  0.3138566  13.41941   3.903585   1.61       0.2694038  0.438964   15.469     0.3489316  0.3720487  0.3258145 
1168.4     0.217      551.814    1          2          12.17234   1.516      9.028      1.628      6.207      1.392      1.786      3.058      4.647      1.128435   2.934      0.2059897  0.2059897  0.311744   18.30573   4.457962   1.786      0.3255908  0.4729316  13.321     0.3204677  0.3524116  0.2885238 
1168.6     0.215      542.124    1          2          11.98925   1.491      8.401      1.641      5.768      1.429      1.742      1.823      3.931      1.133596   2.731      0.2111095  0.2111095  0.3099695  22.77287   5.115786   1.742      0.3320855  0.4698538  11.867     0.299576   0.3331513  0.2660006 
1168.8     0.215      483.18     1          2          11.81207   1.441      7.837      1.641      5.517      1.58       1.653      1.215      2.122      1.137014   2.642      0.2143888  0.2143888  0.3087945  26.19136   5.844652   1.653      0.3245735  0.4579869  11.229     0.2860781  0.3155157  0.2566405 
1169       0.215      438.77     1          2          11.65419   1.554      8.965999   1.654      6.897      1.781      2.63       1.359      3.077      1.13827    2.756      0.2178687  0.2178687  0.3083629  30.38192   6.581204   2.63       0.4643942  0.5727839  10.603     0.2742248  0.3005888  0.2478607 
1169.2     0.213      399.205    1          2          11.53056   1.905      14.232     1.654      8.589001   2.182      4.041      1.741      3.265      1.137273   2.87       0.2222341  0.2222341  0.3087057  36.59935   7.222194   4.041      0.5696636000000001 0.6583824  9.592      0.262035   0.2893949  0.2346751 
1169.4     0.213      374.981    1          2          11.45562   2.595      18.997     2.606      10.596     2.658      5.453      2.199      3.353      1.134226   2.947      0.2267361  0.2267361  0.3097532  44.34658   7.640807   5.453      0.6325915  0.7089298  8.392      0.2515672  0.2828128  0.2203216 
1169.6     0.212      366.907    1          2          11.43962   3.623      25.392     4.169      13.417     3.147      5.937      2.306      2.964      1.129414   2.959      0.2311974  0.2311974  0.3114074  53.64075   7.733245   5.937      0.652905   0.7241548  6.938      0.2430606  0.2814274  0.2046937 
1169.8     0.212      373.367    1          2          11.48385   4.137      32.665     4.461      15.549     3.461      6.376      2.563      3.366      1.123085   2.997      0.232459   0.232459   0.3135834  56.60602   7.480345   6.376      0.6659192  0.7355003  7.128      0.2458315  0.2852744  0.2063885 
1170       0.212      391.938    1          2          11.57961   4.664001   38.62099   4.74       16.803     3.737      5.144      2.375      3.755      1.115412   3.798      0.2323142  0.2323142  0.3162215  56.2576    6.960748   5.144      0.630304   0.7068877  7.949      0.2542645  0.293785   0.214744  
1170.2     0.212      421.814    1          2          11.70777   4.902      34.922     5.032      18.746     4.138      2.524      1.723      3.78       1.106539   4.966      0.2308495  0.2308495  0.319272   52.85069   6.321376   2.524      0.4807951  0.5828071  9.34       0.267947   0.3055738  0.2303203 
1170.4     0.213      460.571    1          2          11.84363   3.886      29.091     5.02       22.633     4.928      1.697      2.193      1.746      1.096652   4.534      0.2271157  0.2271157  0.3226709  45.07045   5.707618   1.697      0.36553    0.4909448  11.678     0.2895612  0.3185872  0.2605352 
1170.6     0.214      489.64     1          2          11.96242   3.134      32.038     4.385      26.52      5.881001   1.856      1.973      4.345      1.086091   4.102      0.223794   0.223794   0.3263019  39.11705   5.220016   1.856      0.383786   0.5134983  13.7       0.3106298  0.3304189  0.2908408 
1170.8     0.218      513.056    -9999      -9999      12.04684   2.57       30.47      3.737      30.909     5.755      2.049      1.127      3.165      1.075331   3.683      0.2197878  0.2197878  0.3300012  32.97327   4.899012   2.049      0.402411   0.5366417  15.912     0.3339799  0.3390938  0.328866  
1171       0.224      542.124    -9999      -9999      12.09329   2.369      24.577     3.102      27.147     5.179      1.926      1.133      2.248      1.064954   3.251      0.2151647  0.2151647  0.3335688  27.07258   4.730905   1.926      0.3732991  0.5209912  18.186     0.3588006  0.3439631  0.373638  
1171.2     0.228      567.963    -9999      -9999      12.11126   2.118      18.809     2.454      21.317     4.577      1.583      0.87       1.469      1.055537   2.82       0.2140536  0.2140536  0.3368064  25.81962   4.667412   1.583      0.3097788  0.4735647  19.324     0.3719782  0.3458661  0.3980903 
1171.4     0.229      592.186    -9999      -9999      12.11816   1.73       14.169     1.819      15.737     3.26       1.204      0.594      1.105      1.047596   2.273      0.212374   0.212374   0.3395367  24.03472   4.643279   1.204      0.2097909  0.397354   20.461     0.3853416  0.346599   0.4240841 
