~Version
 VERS              .         2.0                           : CWLS LOG ASCII STANDARD - VERSION 2.0
 WRAP              .         NO                            : ONE LINE PER DEPTH STEP
 DLM               .         SPACE                         : DELIMITING CHARACTER(SPACE TAB OR COMMA)
~Well Information
#_______________________________________________________________________________
#
#PARAMETER_NAME    .UNIT     VALUE                         : DESCRIPTION
#_______________________________________________________________________________
STRT               .M        850                           : First reference value
STOP               .M        1297.8                        : Last reference value
STEP               .M        0.2                           : Step increment
NULL               .         -9999                         : Missing value
COMP               .                                       : Company
WELL               .         1804                          : Well name
FLD                .         УЗЕНЬ                         : Field
LOC                .                                       : Location
CNTY               .                                       : County
STAT               .                                       : State
CTRY               .                                       : Country
SRVC               .                                       : Service Company
DATE               .                                       : Date
UWI                .                                       : Unique Well ID
Block              .         6а                            : 
Category           .         Нефтяная                      : 
Condition          .         Ликвидированная               : 
Date               .         21.02.1974                    : 
EREF               .m        86.9                          : 100.8
Gorizont           .         15                            : 14
Interpretator      .         Алпанова Н.К.                 : 
Kupol              .         основной                      : osnovnoi
METD               .         OGZ3, GZ3, SP, CALI           : Метод
Moii_15_vosst2     .         15_vosst2                     : 
Mud                .                                       : 
Mud_density        .                                       : 
Mud_resistivity    .                                       : 
Mud_density        .                                       : 
Mud_resistivity    .                                       : 
NGDU               .         НГДУ-2                        : 
ORIGINALWELLNAME   .         1804                          : 
SCAL               .         500                           : Масштаб по глубине
Spud_date          .         1974                          : 1961
Spud_date          .         1974                          : 1961
Viscosity          .                                       : 
X                  .m        45120.3                       : 46154
Y                  .m        85617.63                      : 85761.93
YEAR               .         2018                          : 
~Parameter Information Block
#_______________________________________________________________________________
#
#PARAMETER_NAME    .UNIT     VALUE                         : DESCRIPTION
#_______________________________________________________________________________
SET                .         LQC_KAZNIPI_Petrel            : 
TLFamily_CALI      .         Caliper                       : 
TLFamily_CILD      .         Conductivity                  : 
TLFamily_COLL      .         Net Reservoir Flag            : 
TLFamily_CSAT      .         Fluid Code                    : 
TLFamily_DEPT      .         Measured Depth                : 
TLFamily_GR        .         Russian Gamma Ray             : 
TLFamily_GZ1       .         Gradient 045                  : 
TLFamily_GZ2       .         Gradient 105                  : 
TLFamily_GZ3       .         Gradient 225                  : 
TLFamily_GZ4       .         Gradient 425                  : 
TLFamily_GZ5       .         Gradient 850                  : 
TLFamily_LLS       .         Lateral Log Resistivity       : 
TLFamily_MINV      .         Micro Gradient Resistivity    : 
TLFamily_MNOR      .         Micro Resistivity             : 
TLFamily_NGLD      .         Neutron Far                   : 
TLFamily_OGZ       .         Gradient Inverted 225         : 
TLFamily_PHIE      .         Effective Porosity            : 
TLFamily_PHIEN     .         Effective Porosity            : 
TLFamily_PHIT      .         Porosity                      : 
TLFamily_PRMB      .         Permeability                  : 
TLFamily_PRMB_DGR  .         Permeability                  : 
TLFamily_RT        .         Formation Resistivity         : 
TLFamily_SOIL_ARCHIE .         Oil Saturation                : 
TLFamily_SOIL_DW   .         Oil Saturation                : 
TLFamily_SP        .         Spontaneous Potential         : 
TLFamily_VSH_FIN   .         Shale Volume                  : 
TLFamily_VSH_GR    .         Shale Volume                  : 
TLFamily_VSH_SP    .         Shale Volume                  : 
~Curve Information
#_______________________________________________________________________________
#
#LOGNAME           .UNIT     LOG_ID                        : DESCRIPTION
#_______________________________________________________________________________
DEPT               .M                                      : Колонка глубины 
CALI               .м                                      : Каверномер 
CILD               .мСм/м                                  : Индукционный каротаж 
COLL               .unitless                               :  
CSAT               .unitless                               :  
GR                 .мкР/ч                                  : Гамма каротаж 
GZ1                .Ом·м                                   : A0.4M0.1N 
GZ2                .Ом·м                                   : A1.0M0.1N 
GZ3                .Ом·м                                   : A2M0.5N 
GZ4                .Ом·м                                   : A4M0.5N 
GZ5                .Ом·м                                   : A8M1N 
LLS                .Ом·м                                   : Боковой каротаж 
MINV               .Ом·м                                   : Микро-градиент зонд 
MNOR               .Ом·м                                   : Микро-потенциал зонд 
NGLD               .у.е.                                   : Показания зонда НГК-60 аппаратуры ДРСТ-3-90 
OGZ                .Ом·м                                   : N0.5M2A 
PHIE               .м3/м3                                  : Описание 
PHIEN              .v/v                                    :  
PHIT               .м3/м3                                  : Описание 
PRMB               .mD                                     :  
PRMB_DGR           .mD                                     :  
RT                 .ohmm                                   : Description 
SOIL_ARCHIE        .v/v                                    :  
SOIL_DW            .v/v                                    :  
SP                 .мВ                                     : Потенциал самополяризации 
VSH_FIN            .unitless                               : Описание 
VSH_GR             .unitless                               : Shale volume 
VSH_SP             .unitless                               : Shale Volume 
~Ascii
# ...
1031.2     0.258      393.553    -9999      -9999      7.153276   2.181      3.009      2.822      2.332      2.207      2.392      1.34       1.168      1.133183   3.175      0.1732708  0.1732708  0.3101117  4.534751   8.067985999999999 2.392      0.3163881  0.5103394  27.981     0.4146694  0.2765997  0.552739  
1031.4     0.253      385.478    -9999      -9999      7.056836   2.319      3.072      2.937      2.332      2.219      2.673      1.321      1.243      1.138774   3.124      0.1728145  0.1728145  0.3081897  4.447353   8.869576   2.673      0.3496146  0.5345601  27.981     0.4102278  0.2661055  0.5543501 
1031.6     0.243      381.441    -9999      -9999      6.9794     2.457      3.21       3.127      2.495      2.27       2.779      1.748      3.542      1.142321   3.137      0.1751987  0.1751987  0.30697    4.923387   9.570487999999999 2.779      0.3689522  0.5448962  27.476     0.3993068  0.2579682  0.5406455 
1031.8     0.233      377.404    -9999      -9999      6.931555   2.469      3.348      3.534      2.646      2.357      3.044      1.704      4.471      1.143257   3.302      0.1782072  0.1782072  0.3066482  5.597408   10.03097   3.044      0.4042555  0.5678088  26.907     0.3892154  0.2530652  0.5253655 
1032       0.227      378.211    -9999      -9999      6.924549   2.52       3.9        3.978      2.959      2.52       3.052      2.255      5.564      1.141037   3.48       0.1806485  0.1806485  0.3074116  6.211637   10.10023   3.052      0.4119983  0.571347   26.528     0.3841306  0.2523551  0.515906  
1032.2     0.227      400.82     -9999      -9999      6.966248   2.72       4.627      4.385      3.273      2.671      3.36       1.735      2.436      1.135323   3.467      0.1834464  0.1834464  0.3093759  6.998904   9.694917   3.36       0.4454111  0.5955127  26.149     0.3816045  0.256611   0.506598  
1032.4     0.227      454.919    -9999      -9999      7.05816    3.146      5.428999   3.927      3.599      2.721      4.608      2.55       5.953      1.126212   3.277      0.1876545  0.1876545  0.3125083  8.374796999999999 8.858046   4.608      0.5311628000000001 0.6597822  25.517     0.3783451  0.2662469  0.4904433 
1032.6     0.226      488.025    -9999      -9999      7.192989   3.786      6.244999   3.407      3.223      2.671      4.23       3.058      4.647      1.114411   3.061      0.1921406  0.1921406  0.3165656  10.1407    7.759343   4.23       0.5218882  0.650959   24.821     0.3770455  0.2810405  0.4730505 
1032.8     0.226      521.13     -9999      -9999      7.354251   3.222      5.655001   3.14       2.746      2.52       2.832      3.948      7.799      1.101333   2.87       0.1957697  0.1957697  0.3210616  11.83827   6.622729   2.832      0.4321685  0.5801705  24.253     0.3796723  0.2998178  0.4595268 
1033       0.226      534.05     -9999      -9999      7.517079   2.269      4.414      2.899      2.257      2.257      1.68       2.262      3.491      1.08897    2.921      0.1983327  0.1983327  0.3253121  13.20566   5.643921   1.68       0.2826665  0.4620048  23.81      0.3847863  0.3200506  0.449522  
1033.2     0.225      529.205    -9999      -9999      7.653435   1.704      3.135      2.822      2.019      2.056      1.091      0.901      1.231      1.07958    3.48       0.1999471  0.1999471  0.3285405  14.14695   4.936471   1.091      0.1277634  0.3384847  23.431     0.3896772  0.3380407  0.4413137 
1033.4     0.234      528.398    -9999      -9999      7.736325   1.441      2.483      2.733      2.082      1.944      1.231      0.556      1.118      1.075274   4.052      0.199843   0.199843   0.3300208  14.08431   4.550498   1.231      0.1754326  0.3787823  23.305     0.394478   0.3494675  0.4394885 
1033.6     0.254      536.472    -9999      -9999      7.745921   1.416      2.458      2.657      2.169      1.893      1.618      0.707      0.98       1.077582   4.61       0.198611   0.198611   0.3292272  13.36334   4.507814   1.618      0.2707874  0.4560165  23.305     0.3958067  0.3508149  0.4407985 
1033.8     0.274      551.006    -9999      -9999      7.672699   1.429      2.107      2.568      2.157      1.893      1.68       0.801      0.992      1.087229   5.182001   0.1962317  0.1962317  0.3259106  12.07384   4.843947   1.68       0.2759821  0.4602999  23.431     0.3929663  0.3406625  0.4452701 
1034       0.29       546.161    -9999      -9999      7.518178   1.404      1.655      2.492      2.094      1.944      1.442      1.108      1.369      1.104148   5.766      0.1927794  0.1927794  0.3200939  10.42077   5.637831   1.442      0.2100566  0.4069374  23.621     0.3858015  0.3201917  0.4514113 
1034.2     0.277      514.671    -9999      -9999      7.293492   1.353      1.605      2.581      2.044      1.994      1.407      0.745      1.319      1.127659   5.779      0.1879541  0.1879541  0.3120109  8.482502   7.029983   1.407      0.1830571  0.3841085  23.874     0.3759295  0.2926001  0.459259  
1034.4     0.272      480.758    -9999      -9999      7.014956   1.404      1.868      2.67       2.107      2.019      1.802      0.713      1.042      1.156733   5.461      0.1817501  0.1817501  0.3020153  6.510461   9.242023   1.802      0.2510372  0.4375431  24.126     0.3644398  0.2616732  0.4672063 
1034.6     0.295      454.112    -9999      -9999      6.700434   1.704      2.194      2.721      2.107      1.969      2.462      0.895      1.093      1.190205   5.144      0.1764937  0.1764937  0.2905074  5.202957   12.58723   2.462      0.3363178  0.501641   23.81      0.3454958  0.230662   0.4603297 
1034.8     0.293      437.963    -9999      -9999      6.367396   2.194      2.533      2.594      2.408      2.031      3.201      0.807      0.98       1.226874   5.207      0.1705588  0.1705588  0.2779008  4.039441   17.45787   3.201      0.3954902  0.5449692  23.305     0.3252787  0.2018217  0.4487358 
1035       0.277      421.006    -9999      -9999      6.031753   2.545      2.771      2.492      2.32       2.132      2.876      3.56       3.604      1.265457   6.122001   0.1641275  0.1641275  0.264636   3.070418   24.27525   2.876      0.3427036  0.4980022  22.61      0.3045712  0.1764029  0.4327396 
1035.2     0.25       389.516    -9999      -9999      5.708196   2.219      2.495      2.518      2.207      2.207      2.111      2.418      6.104      1.304477   5.754001   0.1572987  0.1572987  0.2512209  2.294623   33.35652   2.111      0.2113975  0.385136   21.788     0.2846128  0.1549347  0.4142908 
1035.4     0.23       358.832    -9999      -9999      5.411248   1.98       2.169      2.645      2.357      2.169      2.401      1.578      2.361      1.342158   5.334001   0.1505994  0.1505994  0.2382661  1.724345   44.65265   2.401      0.2289419  0.3944227  20.84      0.2656567  0.1375392  0.3937742 
1035.6     0.224      335.416    -9999      -9999      5.15526    2.357      2.884      2.759      2.495      2.157      3.737      0.92       1.344      1.376416   4.928      0.143586   0.143586   0.2264881  1.278556   57.41715   3.737      0.3469214  0.4899726  20.082     0.2512183  0.1241192  0.3783175 
1035.8     0.222      314.422    -9999      -9999      4.954368   2.683      3.699      2.822      2.683      2.169      4.468      3.955      7.573      1.405      4.483      0.1377944  0.1377944  0.2166611  0.998721   69.9414    4.468      0.3775155  0.5130285  19.324     0.23899    0.1145111  0.363469  
1036       0.222      296.658    -9999      -9999      4.819458   3.146      4.351      3.356      2.734      2.27       4.635      3.955      7.862      1.42572    4.483      0.1325552  0.1325552  0.2095373  0.7987320999999999 79.8513    4.635      0.367133   0.5045606  19.008     0.2332793  0.1084798  0.3580787 
1036.2     0.223      288.584    -9999      -9999      4.757889   3.51       5.141      4.042      2.909      2.382      5.25       3.904      7.837      1.436765   4.496      0.1302781  0.1302781  0.2057403  0.72481    84.82906   5.25       0.3939967  0.5260752  18.629     0.2286735  0.105834   0.351513  
