~Version
 VERS              .         2.0                           : CWLS LOG ASCII STANDARD - VERSION 2.0
 WRAP              .         NO                            : ONE LINE PER DEPTH STEP
 DLM               .         SPACE                         : DELIMITING CHARACTER(SPACE TAB OR COMMA)
~Well Information
#_______________________________________________________________________________
#
#PARAMETER_NAME    .UNIT     VALUE                         : DESCRIPTION
#_______________________________________________________________________________
STRT               .M        900                           : First reference value
STOP               .M        1294                          : Last reference value
STEP               .M        0.2                           : Step increment
NULL               .         -9999                         : Missing value
COMP               .                                       : Company
WELL               .         2389                          : Well name
FLD                .         УЗЕНЬ                         : Field
LOC                .                                       : Location
CNTY               .                                       : County
STAT               .                                       : State
CTRY               .                                       : Country
SRVC               .                                       : Service Company
DATE               .         23.04.74                      : Date
UWI                .                                       : Unique Well ID
Block              .         6а                            : 
Cartographic_reference_system .         GCS_WGS_1984                  : ESRI,PE_10_3_1- <?xml version="1.0" encoding="utf-16"?><ILateBoundCoordinateReferenceSystem name="GCS_WGS_1984"><AuthorityCode>EPSG,4326</AuthorityCode></ILateBoundCoordinateReferenceSystem>
Category           .         Нефтяная                      : 
Condition          .         Ликвидированная               : 
Date               .         01.10.1974                    : 
EREF               .m        84.8                          : 100.8
Gorizont           .         15                            : 14
HZCS               .GCS_WGS_1984 WGS_1984_EASE-Grid_2.0_Global : ESRI,PE_10_3_1- <?xml version="1.0" encoding="utf-16"?><ILateBoundCoordinateReferenceSystem name="WGS_1984_EASE-Grid_2.0_Global"><AuthorityCode>EPSG,6933</AuthorityCode></ILateBoundCoordinateReferenceSystem>
Interpretator      .         Ткачева И.Г.                  : 
Kupol              .         Основной                      : osnovnoi
LATI               .dega     0.6696001439                  : GCS_WGS_1984
LONG               .dega     0.4650412461                  : GCS_WGS_1984
Mud                .         0                             : 
Mud_density        .         0                             : 
Mud_resistivity    .         0                             : 
NGDU               .         НГДУ-2                        : 
ORIGINALWELLNAME   .         2389                          : 
Spud_date          .         1974                          : 1961
Viscosity          .         0                             : 
X                  .m        44870.1                       : 46154
Y                  .m        85421.2                       : 85761.93
YEAR               .         2018                          : 
Исправ_15гор       .         Исправ.15гор                  : 
~Parameter Information Block
#_______________________________________________________________________________
#
#PARAMETER_NAME    .UNIT     VALUE                         : DESCRIPTION
#_______________________________________________________________________________
SET                .         LQC_KAZNIPI_Petrel            : 
TLFamily_CALI      .         Caliper                       : 
TLFamily_CILD      .         Conductivity                  : 
TLFamily_COLL      .         Net Reservoir Flag            : 
TLFamily_CSAT      .         Fluid Code                    : 
TLFamily_DEPT      .         Measured Depth                : 
TLFamily_GR        .         Russian Gamma Ray             : 
TLFamily_MINV      .         Micro Gradient Resistivity    : 
TLFamily_MNOR      .         Micro Resistivity             : 
TLFamily_NGLD      .         Neutron Gamma                 : 
TLFamily_PHIE      .         Effective Porosity            : 
TLFamily_PHIEN     .         Effective Porosity            : 
TLFamily_PHIT      .         Porosity                      : 
TLFamily_PRMB      .         Permeability                  : 
TLFamily_PRMB_DGR  .         Permeability                  : 
TLFamily_RT        .         Formation Resistivity         : 
TLFamily_SOIL_ARCHIE .         Oil Saturation                : 
TLFamily_SOIL_DW   .         Oil Saturation                : 
TLFamily_SP        .         Spontaneous Potential         : 
TLFamily_VSH_FIN   .         Shale Volume                  : 
TLFamily_VSH_GR    .         Shale Volume                  : 
TLFamily_VSH_SP    .         Shale Volume                  : 
~Curve Information
#_______________________________________________________________________________
#
#LOGNAME           .UNIT     LOG_ID                        : DESCRIPTION
#_______________________________________________________________________________
DEPT               .M                                      : Колонка глубины 
CALI               .м                                      : Каверномер 
CILD               .мСм/м                                  : Индукционный каротаж 
COLL               .unitless                               : Описание 
CSAT               .unitless                               : Описание 
GR                 .uR/h                                   : Гамма каротаж 
MINV               .Ohmm                                   : Микро-градиент зонд 
MNOR               .Ohmm                                   : Микро-потенциал зонд 
NGLD               .у.е.                                   : Показания зонда НГК-60 аппаратуры ДРСТ-3-90 
PHIE               .д.ед.                                  : Описание 
PHIEN              .д.ед.                                  :  
PHIT               .д.ед.                                  : Описание 
PRMB               .mD                                     :  
PRMB_DGR           .mD                                     :  
RT                 .ohmm                                   : УЭС пласта 
SOIL_ARCHIE        .д.ед.                                  :  
SOIL_DW            .д.ед.                                  :  
SP                 .мВ                                     : Потенциал самополяризации 
VSH_FIN            .д.ед.                                  : Описание 
VSH_GR             .д.ед.                                  : Shale volume 
VSH_SP             .д.ед.                                  : Shale Volume 
~Ascii
# ...
1075       0.241      407.077    -9999      -9999      6.095      1.589      1.706      0.982      0.1198877  0.1198877  0.3242068  0.7245383  2.385613   2.831      0.1902219  0.5218316  41.402     0.6191489  0.4549121  0.7833856 
1075.2     0.247      405.045    -9999      -9999      6.056      1.745      1.304      0.97       0.1249768  0.1249768  0.328078   0.909989   2.514838   2.408      0.1563899  0.4930018  41.444     0.6154581  0.4452178  0.7856984 
1075.4     0.256      400.304    -9999      -9999      6.018      1.796      1.308      0.977      0.1234693  0.1234693  0.3258198  0.8479403  2.647481   2.213      0.112846   0.4663534  41.529     0.6131833  0.4359707  0.7903958 
1075.6     0.259      394.208    -9999      -9999      6.061      2.114      1.638      0.999      0.1138644  0.1138644  0.3187226  0.5518493  2.497889   2.175      0.04260154 0.4382271  41.614     0.6207823  0.446449   0.7951156 
1075.8     0.259      388.112    -9999      -9999      6.086      2.19       1.799      1.019      0.106002   0.106002   0.3122706  0.3875573  2.414832   2.31       0.01143252 0.4336611  41.656     0.6250563  0.4526564  0.7974561 
1076       0.252      384.0479   -9999      -9999      6.044      2.431      2.1        1.041      0.1006175  0.1006175  0.3051734  0.3019693  2.555991   2.535      0.009829007 0.4408706  41.656     0.6198664  0.4422767  0.7974561 
1076.2     0.247      383.371    -9999      -9999      5.879      2.838      2.438      1.047      0.1050384  0.1050384  0.3032378  0.3626542  3.195124   2.818      0.08877585 0.4745624  41.656     0.6006042  0.4037523  0.7974561 
1076.4     0.24       386.08     -9999      -9999      5.663      2.681      2.616      1.05       0.1115627  0.1115627  0.30227    0.4777057  4.279331   3.174      0.178634   0.5135197  41.656     0.5779009  0.3583458  0.7974561 
1076.6     0.238      390.821    -9999      -9999      5.519      2.55       2.489      1.052      0.1158242  0.1158242  0.3016248  0.5718845  5.199577   3.382      0.22628    0.5338929  41.614     0.5630321  0.3309486  0.7951156 
1076.8     0.237      395.563    -9999      -9999      5.544      1.762      1.956      1.042      0.1190697  0.1190697  0.3048508  0.6627498  5.026686   3.221      0.2269971  0.5304205  41.529     0.562973   0.3355501  0.7903958 
1077       0.244      401.659    -9999      -9999      5.781      2.033      1.507      1.027      0.1169406  0.1169406  0.3096898  0.6134845  3.648021   2.861      0.1725952  0.5043294  41.444     0.5840886  0.3824788  0.7856984 
1077.2     0.253      409.787    -9999      -9999      5.985      1.966      1.321      1.003      0.1186861  0.1186861  0.3174322  0.6753974  2.768335   2.548      0.139715   0.4865489  41.275     0.6022608  0.4280964  0.7764252 
1077.4     0.253      420.624    -9999      -9999      6.112      2.059      1.397      0.983      0.121521   0.121521   0.3238842  0.7761069  2.331381   2.45       0.1426241  0.4879375  41.106     0.6132218  0.4592037  0.7672399 
1077.6     0.25       436.203    -9999      -9999      6.217      1.763      1.625      0.972      0.1224262  0.1224262  0.3274328  0.81472    2.022701   2.302      0.1237688  0.4771411  40.894     0.621232   0.4866224  0.7558416 
1077.8     0.246      455.168    -9999      -9999      6.179      1.644      1.655      0.965      0.1278352  0.1278352  0.329691   1.032629   2.129387   2.2        0.1362789  0.4754283  40.725     0.6116843  0.4765154  0.7468531 
1078       0.24       472.7789   -9999      -9999      6.078      1.504      1.524      0.96       0.1348193  0.1348193  0.331304   1.397236   2.441105   1.866      0.1065767  0.4425351  40.598     0.5954082  0.4506607  0.7401557 
1078.2     0.244      484.9709   -9999      -9999      5.942      1.293      1.329      0.956      0.1429573  0.1429573  0.3325944  1.98416    2.934128   1.582      0.07968864 0.4082927  40.428     0.5746578  0.4180487  0.7312669 
1078.4     0.256      489.712    -9999      -9999      5.917      1.178      1.287      0.953      0.1463149  0.1463149  0.3335622  2.295857   3.035044   1.299      0.009657007 0.353588   40.259     0.5674161  0.4123159  0.7225163 
1078.6     0.273      489.712    -9999      -9999      6.018      1.085      1.215      0.949      0.1458457  0.1458457  0.3348526  2.25853    2.647481   1.307      0.01040009 0.3565785  40.005     0.5727481  0.4359707  0.7095253 
1078.8     0.282      484.293    -9999      -9999      6.15       1          1.173      0.945      0.1434605  0.1434605  0.336143   2.047464   2.214575   1.316      0.0008124785 0.3568233  39.793     0.5838863  0.4689436  0.6988291 
1079       0.279      474.811    -9999      -9999      6.163      1.034      1.185      0.951      0.1420141  0.1420141  0.3342074  1.91456    2.175972   1.612      0.0834213  0.414461   39.666     0.582404   0.4723229  0.692485  
1079.2     0.268      460.587    -9999      -9999      6.086      1.132      1.244      0.959      0.1426783  0.1426783  0.3316266  1.955373   2.414832   1.762      0.1233692  0.4378054  39.666     0.5725707  0.4526564  0.692485  
1079.4     0.261      444.3309   -9999      -9999      5.942      1.602      1.668      0.971      0.1441638  0.1441638  0.3277554  2.060786   2.934128   1.9        0.1597108  0.4561251  39.709     0.5563382  0.4180487  0.6946277 
1079.6     0.256      426.043    -9999      -9999      5.946      1.71       1.791      0.979      0.140381   0.140381   0.3251746  1.741107   2.918293   2.184      0.1949495  0.4851499  39.836     0.5599806  0.4189734  0.7009878 
1079.8     0.254      409.787    -9999      -9999      6.001      1.492      1.846      0.981      0.1365462  0.1365462  0.3245294  1.475742   2.709066   2.29       0.1945939  0.49164    39.963     0.569646   0.4318963  0.7073957 
1080       0.252      395.563    -9999      -9999      5.98       1.86       1.469      0.984      0.135335   0.135335   0.3235616  1.39765    2.787121   2.425      0.2099819  0.503428   40.09      0.5703835  0.4269157  0.7138513 
1080.2     0.25       383.371    -9999      -9999      5.892      2.059      1.659      0.986      0.1369586  0.1369586  0.3229164  1.495155   3.139431   2.56       0.237021   0.5180146  40.217     0.5635083  0.4066617  0.7203549 
1080.4     0.242      378.46     -9999      -9999      5.837      2.288      1.939      0.997      0.1343367  0.1343367  0.3193678  1.323737   3.381899   2.526      0.2190138  0.5077159  40.344     0.5607004  0.3944938  0.7269068 
1080.6     0.238      373.211    -9999      -9999      5.832      2.715      2.138      1.021      0.1253228  0.1253228  0.3116254  0.8819001  3.40485    2.442      0.1579451  0.478246   40.513     0.5645531  0.3934059  0.7357004 
1080.8     0.234      362.3729   -9999      -9999      5.764      2.66       2.159      1.037      0.1214544  0.1214544  0.3064638  0.7370256  3.73288    2.454      0.1363666  0.4676411  40.64      0.5606347  0.3789043  0.7423652 
1081       0.233      351.5359   -9999      -9999      5.612      2.55       2.066      1.048      0.1221997  0.1221997  0.3029152  0.7533011  4.584962   2.696      0.1764639  0.4889444  40.725     0.5476228  0.3483925  0.7468531 
1081.2     0.233      339.344    -9999      -9999      5.548      1.801      2.108      1.059      0.1199123  0.1199123  0.2993666  0.6765199  4.999566   2.835      0.1819576  0.4941747  40.809     0.543801   0.3362922  0.7513098 
1081.4     0.233      326.475    -9999      -9999      5.659      1.843      2.066      1.074      0.1108172  0.1108172  0.2945276  0.4528217  4.302547   2.95       0.1421525  0.484705   40.894     0.5566983  0.3575549  0.7558416 
1081.6     0.233      313.605    -9999      -9999      5.709      1.987      2.075      1.085      0.1035483  0.1035483  0.290979   0.3288298  4.021179   3.123      0.1161604  0.483214   41.127     0.5679717  0.367567   0.7683765 
1081.8     0.233      302.091    -9999      -9999      5.659      2.08       2.045      1.09       0.1022593  0.1022593  0.289366   0.3098355  4.302547   3.204      0.1171095  0.4855956  41.275     0.5669901  0.3575549  0.7764252 
