~Version
 VERS              .         2.0                           : CWLS LOG ASCII STANDARD - VERSION 2.0
 WRAP              .         NO                            : ONE LINE PER DEPTH STEP
 DLM               .         SPACE                         : DELIMITING CHARACTER(SPACE TAB OR COMMA)
~Well Information
#_______________________________________________________________________________
#
#PARAMETER_NAME    .UNIT     VALUE                         : DESCRIPTION
#_______________________________________________________________________________
STRT               .M        900                           : First reference value
STOP               .M        1294                          : Last reference value
STEP               .M        0.2                           : Step increment
NULL               .         -9999                         : Missing value
COMP               .                                       : Company
WELL               .         2389                          : Well name
FLD                .         УЗЕНЬ                         : Field
LOC                .                                       : Location
CNTY               .                                       : County
STAT               .                                       : State
CTRY               .                                       : Country
SRVC               .                                       : Service Company
DATE               .         23.04.74                      : Date
UWI                .                                       : Unique Well ID
Block              .         6а                            : 
Cartographic_reference_system .         GCS_WGS_1984                  : ESRI,PE_10_3_1- <?xml version="1.0" encoding="utf-16"?><ILateBoundCoordinateReferenceSystem name="GCS_WGS_1984"><AuthorityCode>EPSG,4326</AuthorityCode></ILateBoundCoordinateReferenceSystem>
Category           .         Нефтяная                      : 
Condition          .         Ликвидированная               : 
Date               .         01.10.1974                    : 
EREF               .m        84.8                          : 100.8
Gorizont           .         15                            : 14
HZCS               .GCS_WGS_1984 WGS_1984_EASE-Grid_2.0_Global : ESRI,PE_10_3_1- <?xml version="1.0" encoding="utf-16"?><ILateBoundCoordinateReferenceSystem name="WGS_1984_EASE-Grid_2.0_Global"><AuthorityCode>EPSG,6933</AuthorityCode></ILateBoundCoordinateReferenceSystem>
Interpretator      .         Ткачева И.Г.                  : 
Kupol              .         Основной                      : osnovnoi
LATI               .dega     0.6696001439                  : GCS_WGS_1984
LONG               .dega     0.4650412461                  : GCS_WGS_1984
Mud                .         0                             : 
Mud_density        .         0                             : 
Mud_resistivity    .         0                             : 
NGDU               .         НГДУ-2                        : 
ORIGINALWELLNAME   .         2389                          : 
Spud_date          .         1974                          : 1961
Viscosity          .         0                             : 
X                  .m        44870.1                       : 46154
Y                  .m        85421.2                       : 85761.93
YEAR               .         2018                          : 
Исправ_15гор       .         Исправ.15гор                  : 
~Parameter Information Block
#_______________________________________________________________________________
#
#PARAMETER_NAME    .UNIT     VALUE                         : DESCRIPTION
#_______________________________________________________________________________
SET                .         LQC_KAZNIPI_Petrel            : 
TLFamily_CALI      .         Caliper                       : 
TLFamily_CILD      .         Conductivity                  : 
TLFamily_COLL      .         Net Reservoir Flag            : 
TLFamily_CSAT      .         Fluid Code                    : 
TLFamily_DEPT      .         Measured Depth                : 
TLFamily_GR        .         Russian Gamma Ray             : 
TLFamily_MINV      .         Micro Gradient Resistivity    : 
TLFamily_MNOR      .         Micro Resistivity             : 
TLFamily_NGLD      .         Neutron Gamma                 : 
TLFamily_PHIE      .         Effective Porosity            : 
TLFamily_PHIEN     .         Effective Porosity            : 
TLFamily_PHIT      .         Porosity                      : 
TLFamily_PRMB      .         Permeability                  : 
TLFamily_PRMB_DGR  .         Permeability                  : 
TLFamily_RT        .         Formation Resistivity         : 
TLFamily_SOIL_ARCHIE .         Oil Saturation                : 
TLFamily_SOIL_DW   .         Oil Saturation                : 
TLFamily_SP        .         Spontaneous Potential         : 
TLFamily_VSH_FIN   .         Shale Volume                  : 
TLFamily_VSH_GR    .         Shale Volume                  : 
TLFamily_VSH_SP    .         Shale Volume                  : 
~Curve Information
#_______________________________________________________________________________
#
#LOGNAME           .UNIT     LOG_ID                        : DESCRIPTION
#_______________________________________________________________________________
DEPT               .M                                      : Колонка глубины 
CALI               .м                                      : Каверномер 
CILD               .мСм/м                                  : Индукционный каротаж 
COLL               .unitless                               : Описание 
CSAT               .unitless                               : Описание 
GR                 .uR/h                                   : Гамма каротаж 
MINV               .Ohmm                                   : Микро-градиент зонд 
MNOR               .Ohmm                                   : Микро-потенциал зонд 
NGLD               .у.е.                                   : Показания зонда НГК-60 аппаратуры ДРСТ-3-90 
PHIE               .д.ед.                                  : Описание 
PHIEN              .д.ед.                                  :  
PHIT               .д.ед.                                  : Описание 
PRMB               .mD                                     :  
PRMB_DGR           .mD                                     :  
RT                 .ohmm                                   : УЭС пласта 
SOIL_ARCHIE        .д.ед.                                  :  
SOIL_DW            .д.ед.                                  :  
SP                 .мВ                                     : Потенциал самополяризации 
VSH_FIN            .д.ед.                                  : Описание 
VSH_GR             .д.ед.                                  : Shale volume 
VSH_SP             .д.ед.                                  : Shale Volume 
~Ascii
# ...
1124       0.215      105.664    1          2          5.684      1.217      1.685      1.119      0.2130128  0.2130128  0.2800106  33.97569   8.657437   5.947      0.6385554  0.7054731  11.769     0.2030236  0.268749   0.1372982 
1124.2     0.215      107.019    1          2          5.62       1.229      1.592      1.098      0.2241907  0.2241907  0.2867852  55.77717   10.85123   5.841      0.6514418  0.713302   11.091     0.1896801  0.2450719  0.1342884 
1124.4     0.215      109.051    1          2          5.495      1.242      1.579      1.086      0.2353475  0.2353475  0.2906564  90.74409   16.86789   5.735      0.6628253  0.7187245  10.118     0.1676029  0.2046748  0.1305309 
1124.6     0.215      111.083    1          2          5.519      1.28       1.649      1.084      0.2352213  0.2352213  0.2913016  90.42045   15.49804   5.587      0.6585608  0.7153604  9.356      0.1699403  0.2118773  0.1280033 
1124.8     0.215      113.792    1          2          5.68       1.31       1.795      1.087      0.2253727  0.2253727  0.2903338  59.24737   8.780522   5.333      0.6381576  0.7029287  8.848      0.1968518  0.2672043  0.1264993 
1125       0.215      115.824    1          2          5.849      1.282      1.829      1.09       0.2124379  0.2124379  0.289366   34.03352   4.836175   5.206      0.6153252  0.6914294  8.424      0.2331154  0.340886   0.1253449 
1125.2     0.215      118.533    1          2          5.879      1.199      1.719      1.099      0.2072088  0.2072088  0.2864626  27.00956   4.350329   5.206      0.6068973  0.6863127  8.043      0.240163   0.3559461  0.1243799 
1125.4     0.216      121.243    1          2          5.802      1.187      1.6        1.098      0.2138799  0.2138799  0.2867852  35.93144   5.70869    5.164      0.6157901  0.6892372  7.578      0.2209251  0.3185628  0.1232874 
1125.6     0.216      124.968    1          2          5.79       1.199      1.6        1.095      0.2158713  0.2158713  0.287753   39.22273   5.95564    4.91       0.6097353  0.6831695  7.239      0.2178234  0.3131014  0.1225454 
1125.8     0.216      127.677    1          2          5.798      1.335      1.765      1.096      0.2150081  0.2150081  0.2874304  37.7709    5.789852   5.037      0.6130524  0.68646    7.07       0.2194615  0.3167318  0.1221913 
1126       0.216      127.339    1          2          5.714      1.386      1.88       1.096      0.2209949  0.2209949  0.2874304  48.75826   7.787704   5.206      0.6276901  0.6949865  6.985      0.2013196  0.2806221  0.122017  
1126.2     0.216      127.339    1          2          5.532      1.31       1.88       1.095      0.2320134  0.2320134  0.287753   78.0781    14.80309   5.587      0.6543009  0.7115344  6.943      0.1689079  0.2158839  0.1219318 
1126.4     0.216      126.661    1          2          5.451      1.234      1.795      1.118      0.2285461  0.2285461  0.2803332  65.95898   19.70139   5.566      0.6486412  0.7043626  6.858      0.1569307  0.1921003  0.1217612 
1126.6     0.217      125.984    1          2          5.532      1.234      1.666      1.127      0.2217597  0.2217597  0.2774298  48.98241   14.80309   5.333      0.6320279  0.6922088  6.731      0.1686973  0.2158839  0.1215107 
1126.8     0.217      124.629    1          2          5.671      1.157      1.651      1.116      0.2174357  0.2174357  0.2809784  41.1404    9.063876   5.079      0.6175486  0.6846312  6.646      0.1925536  0.2637613  0.121346  
1127       0.216      123.275    1          2          5.769      1.149      1.579      1.102      0.2153642  0.2153642  0.2854948  38.14147   6.413779   5.249      0.6208054  0.6917319  6.604      0.2125169  0.3037684  0.1212654 
1127.2     0.216      123.275    1          2          5.743      1.195      1.642      1.096      0.2191562  0.2191562  0.2874304  45.08066   7.030123   5.513      0.635013   0.702599   6.562      0.2068915  0.2925977  0.1211854 
1127.4     0.216      123.952    1          2          5.663      1.259      1.727      1.089      0.2267106  0.2267106  0.2896886  62.6131    9.323413   5.46       0.643852   0.7066925  6.435      0.1908423  0.260738   0.1209466 
1127.6     0.216      126.661    1          2          5.604      1.265      1.801      1.087      0.2309139  0.2309139  0.2903338  75.04221   11.48157   5.417      0.6480637  0.708131   6.265      0.1800602  0.2394861  0.1206344 
1127.8     0.216      130.048    1          2          5.621      1.195      1.676      1.095      0.2273908  0.2273908  0.287753   64.10724   10.81301   5.291      0.639298   0.7011373  6.138      0.1829158  0.2454252  0.1204064 
1128       0.216      134.789    1          2          5.748      1.174      1.613      1.107      0.2153993  0.2153993  0.2838818  38.02626   6.907161   4.931001   0.6094121  0.6808143  6.096      0.2075228  0.2947136  0.1203319 
1128.2     0.216      143.256    8          2          5.896      1.237      1.693      1.107      0.2038394  0.2038394  0.2838818  23.22557   4.097015   4.55       0.5751562  0.6602838  6.096      0.2425527  0.3647735  0.1203319 
1128.4     0.216      151.723    8          2          6.08       1.326      1.685      1.099      0.1881457  0.1881457  0.2864626  11.97903   2.140226   4.465      0.5419659  0.6481047  6.096      0.2979302  0.4755284  0.1203319 
1128.6     0.216      157.141    8          2          6.057      1.373      1.765      1.089      0.1939295  0.1939295  0.2896886  15.46962   2.321187   4.656      0.5625119  0.6619431  6.096      0.290179   0.4600261  0.1203319 
1128.8     0.216      159.851    8          2          5.981      1.344      1.802      1.091      0.2011583  0.2011583  0.2890434  21.01782   3.035234   5.005      0.5897812  0.6781503  6.096      0.2663187  0.4123054  0.1203319 
1129       0.216      161.205    8          2          5.951      1.289      1.791      1.1        0.2010958  0.2010958  0.28614    20.79201   3.374202   5.27       0.599171   0.6842534  6.223      0.2577097  0.394861   0.1205585 
1129.2     0.216      161.883    8          2          5.947      1.212      1.808      1.103      0.2004125  0.2004125  0.2851722  20.1401    3.422174   5.375      0.6016242  0.6862434  6.519      0.2568477  0.3925914  0.121104  
1129.4     0.216      163.237    8          2          5.993      1.187      1.787      1.108      0.1942234  0.1942234  0.2835592  15.39792   2.909379   5.312      0.5885593  0.6792654  6.943      0.2707145  0.4194972  0.1219318 
1129.6     0.216      164.592    8          2          6.078      1.174      1.761      1.112      0.1837523  0.1837523  0.2822688  9.816145   2.155384   4.994      0.5561909  0.6609195  7.408      0.2985349  0.47416    0.1229099 
1129.8     0.216      165.947    8          2          6.171      1.199      1.715      1.115      0.1714544  0.1714544  0.281301   5.793979   1.552345   4.656      0.5138894  0.6384402  7.705      0.3328683  0.5421597  0.1235769 
1130       0.215      166.624    8          2          6.226      1.238      1.778      1.11       0.165539   0.165539   0.282914   4.522428   1.278476   4.592      0.4964594  0.6323928  8.086      0.3556818  0.5868781  0.1244855 
1130.2     0.215      167.301    8          2          6.171      1.301      1.829      1.108      0.1734023  0.1734023  0.2835592  6.335836   1.552345   4.846      0.5277409  0.6490001  8.467      0.3338089  0.5421597  0.125458  
1130.4     0.215      167.979    8          2          6.095      1.333      1.85       1.092      0.1877102  0.1877102  0.2887208  11.83327   2.029879   5.163      0.5715989  0.6741353  8.765      0.3060926  0.485919   0.1262663 
1130.6     0.215      168.656    8          2          5.985      1.168      1.841      1.078      0.2038408  0.2038408  0.2932372  23.84406   2.992687   5.449      0.6106113  0.6960012  9.059      0.2708982  0.414689   0.1271074 
1130.8     0.215      169.333    8          2          5.917      1.068      1.761      1.072      0.2118374  0.2118374  0.2951728  33.71718   3.804364   5.523      0.6255247  0.7038813  9.694      0.2525316  0.3759808  0.1290825 
