~Version
 VERS              .         2.0                           : CWLS LOG ASCII STANDARD - VERSION 2.0
 WRAP              .         NO                            : ONE LINE PER DEPTH STEP
 DLM               .         SPACE                         : DELIMITING CHARACTER(SPACE TAB OR COMMA)
~Well Information
#_______________________________________________________________________________
#
#PARAMETER_NAME    .UNIT     VALUE                         : DESCRIPTION
#_______________________________________________________________________________
STRT               .M        900                           : First reference value
STOP               .M        1294                          : Last reference value
STEP               .M        0.2                           : Step increment
NULL               .         -9999                         : Missing value
COMP               .                                       : Company
WELL               .         2389                          : Well name
FLD                .         УЗЕНЬ                         : Field
LOC                .                                       : Location
CNTY               .                                       : County
STAT               .                                       : State
CTRY               .                                       : Country
SRVC               .                                       : Service Company
DATE               .         23.04.74                      : Date
UWI                .                                       : Unique Well ID
Block              .         6а                            : 
Cartographic_reference_system .         GCS_WGS_1984                  : ESRI,PE_10_3_1- <?xml version="1.0" encoding="utf-16"?><ILateBoundCoordinateReferenceSystem name="GCS_WGS_1984"><AuthorityCode>EPSG,4326</AuthorityCode></ILateBoundCoordinateReferenceSystem>
Category           .         Нефтяная                      : 
Condition          .         Ликвидированная               : 
Date               .         01.10.1974                    : 
EREF               .m        84.8                          : 100.8
Gorizont           .         15                            : 14
HZCS               .GCS_WGS_1984 WGS_1984_EASE-Grid_2.0_Global : ESRI,PE_10_3_1- <?xml version="1.0" encoding="utf-16"?><ILateBoundCoordinateReferenceSystem name="WGS_1984_EASE-Grid_2.0_Global"><AuthorityCode>EPSG,6933</AuthorityCode></ILateBoundCoordinateReferenceSystem>
Interpretator      .         Ткачева И.Г.                  : 
Kupol              .         Основной                      : osnovnoi
LATI               .dega     0.6696001439                  : GCS_WGS_1984
LONG               .dega     0.4650412461                  : GCS_WGS_1984
Mud                .         0                             : 
Mud_density        .         0                             : 
Mud_resistivity    .         0                             : 
NGDU               .         НГДУ-2                        : 
ORIGINALWELLNAME   .         2389                          : 
Spud_date          .         1974                          : 1961
Viscosity          .         0                             : 
X                  .m        44870.1                       : 46154
Y                  .m        85421.2                       : 85761.93
YEAR               .         2018                          : 
Исправ_15гор       .         Исправ.15гор                  : 
~Parameter Information Block
#_______________________________________________________________________________
#
#PARAMETER_NAME    .UNIT     VALUE                         : DESCRIPTION
#_______________________________________________________________________________
SET                .         LQC_KAZNIPI_Petrel            : 
TLFamily_CALI      .         Caliper                       : 
TLFamily_CILD      .         Conductivity                  : 
TLFamily_COLL      .         Net Reservoir Flag            : 
TLFamily_CSAT      .         Fluid Code                    : 
TLFamily_DEPT      .         Measured Depth                : 
TLFamily_GR        .         Russian Gamma Ray             : 
TLFamily_MINV      .         Micro Gradient Resistivity    : 
TLFamily_MNOR      .         Micro Resistivity             : 
TLFamily_NGLD      .         Neutron Gamma                 : 
TLFamily_PHIE      .         Effective Porosity            : 
TLFamily_PHIEN     .         Effective Porosity            : 
TLFamily_PHIT      .         Porosity                      : 
TLFamily_PRMB      .         Permeability                  : 
TLFamily_PRMB_DGR  .         Permeability                  : 
TLFamily_RT        .         Formation Resistivity         : 
TLFamily_SOIL_ARCHIE .         Oil Saturation                : 
TLFamily_SOIL_DW   .         Oil Saturation                : 
TLFamily_SP        .         Spontaneous Potential         : 
TLFamily_VSH_FIN   .         Shale Volume                  : 
TLFamily_VSH_GR    .         Shale Volume                  : 
TLFamily_VSH_SP    .         Shale Volume                  : 
~Curve Information
#_______________________________________________________________________________
#
#LOGNAME           .UNIT     LOG_ID                        : DESCRIPTION
#_______________________________________________________________________________
DEPT               .M                                      : Колонка глубины 
CALI               .м                                      : Каверномер 
CILD               .мСм/м                                  : Индукционный каротаж 
COLL               .unitless                               : Описание 
CSAT               .unitless                               : Описание 
GR                 .uR/h                                   : Гамма каротаж 
MINV               .Ohmm                                   : Микро-градиент зонд 
MNOR               .Ohmm                                   : Микро-потенциал зонд 
NGLD               .у.е.                                   : Показания зонда НГК-60 аппаратуры ДРСТ-3-90 
PHIE               .д.ед.                                  : Описание 
PHIEN              .д.ед.                                  :  
PHIT               .д.ед.                                  : Описание 
PRMB               .mD                                     :  
PRMB_DGR           .mD                                     :  
RT                 .ohmm                                   : УЭС пласта 
SOIL_ARCHIE        .д.ед.                                  :  
SOIL_DW            .д.ед.                                  :  
SP                 .мВ                                     : Потенциал самополяризации 
VSH_FIN            .д.ед.                                  : Описание 
VSH_GR             .д.ед.                                  : Shale volume 
VSH_SP             .д.ед.                                  : Shale Volume 
~Ascii
# ...
1180       0.223      331.893    -9999      -9999      6.069      1.894      1.706      1.11       0.1694145  0.1694145  0.282914   5.335268   18.11874   3.271      0.4288991  0.5741945  32.089     0.3439378  0.1987827  0.4890929 
1180.2     0.22       293.285    1          2          5.968      1.947      2.087      1.136      0.1755035  0.1755035  0.2745264  6.756614   23.65255   3.745      0.4782216  0.5996367  30.141     0.3000693  0.1782846  0.421854  
1180.4     0.217      256.709    1          2          5.811      1.991      2.65       1.16       0.1817686  0.1817686  0.266784   8.636735   35.7937    5.206      0.5648707  0.6588045  28.236     0.2576225  0.1505369  0.364708  
1180.6     0.215      228.939    1          2          5.629      1.847      2.898      1.18       0.1910852  0.1910852  0.260332   12.62007   57.86102   6.37       0.6197693  0.6928641  25.485     0.2098389  0.1237295  0.2959484 
1180.8     0.214      209.973    1          2          5.447      2.135      2.582      1.209      0.1925668  0.1925668  0.2509766  13.09538   93.53321   7.026      0.6382465  0.7015565  23.326     0.1769993  0.1016958  0.2523027 
1181       0.212      195.749    1          2          5.405      2.707      2.604      1.218      0.1938967  0.1938967  0.2480732  13.74727   104.4959   6.582      0.6288512  0.6902314  22.098     0.1641712  0.09719604 0.2311463 
1181.2     0.211      184.912    1          2          5.29       2.889      2.549      1.227      0.1939698  0.1939698  0.2451698  13.67842   141.545    5.799      0.6059209  0.6675474  21.675     0.1551516  0.08586817 0.224435  
1181.4     0.209      175.429    1          2          5.252      2.575      2.781      1.215      0.1983015  0.1983015  0.249041   16.63347   156.4747   5.46       0.6025816  0.663851   21.717     0.1537559  0.0824232  0.2250886 
1181.6     0.21       170.688    1          2          5.261      1.987      2.646      1.205      0.2006218  0.2006218  0.252267   18.53048   152.8022   5.714      0.6151345  0.6756408  22.013     0.1565005  0.08322643 0.2297745 
1181.8     0.211      173.397    1          2          5.388      1.729      2.311      1.201      0.1966896  0.1966896  0.2535574  15.72619   109.2905   6.179999   0.622903   0.6865841  23.156     0.1723267  0.09543178 0.2492215 
1182       0.213      191.008    1          2          5.481      1.636      1.727      1.214      0.1875325  0.1875325  0.2493636  10.51737   85.50675   6.688      0.621206   0.689503   24.215     0.1873669  0.1054906  0.2692432 
1182.2     0.213      207.826    1          2          5.565      1.636      1.681      1.205      0.1819868  0.1819868  0.252267   8.369907   68.50667   6.053      0.5932031  0.6720711  26.12      0.2129703  0.1154844  0.3104563 
1182.4     0.213      224.875    1          2          5.73       1.64       1.725      1.178      0.1780378  0.1780378  0.2609772  7.24733    44.3237    4.888      0.5431093  0.6398482  28.236     0.2513316  0.1379551  0.364708  
1182.6     0.216      266.192    -9999      -9999      6.031      1.538      1.655      1.13       0.1702547  0.1702547  0.276462   5.430799   20.02983   2.941      0.4009015  0.5449254  31.073     0.3218404  0.1908077  0.4528732 
1182.8     0.22       307.509    -9999      -9999      6.34       1.445      1.494      1.088      0.1575983  0.1575983  0.2900112  3.287988   8.862377   2.052      0.2469996  0.456404   33.316     0.4012511  0.2661937  0.5363085 
1183       0.227      339.344    -9999      -9999      6.573      1.183      1.312      1.06       0.1456456  0.1456456  0.299044   2.025501   4.792066   1.904      0.1703268  0.430846   34.544     0.4648436  0.3421637  0.5875234 
1183.2     0.231      365.76     -9999      -9999      6.594      1.101      1.13       1.048      0.1423248  0.1423248  0.3029152  1.77719    4.533735   1.946      0.1643016  0.4372607  35.348     0.4866377  0.3499945  0.6232808 
1183.4     0.235      388.112    -9999      -9999      6.611      1.009      1.045      1.042      0.1399611  0.1399611  0.3048508  1.615511   4.334842   1.946      0.1533925  0.43633    35.772     0.4996656  0.3564649  0.6428663 
1183.6     0.234      410.464    -9999      -9999      6.539      0.899      0.904      1.033      0.1432721  0.1432721  0.3077542  1.87573    5.241893   1.862      0.1529829  0.4323062  36.28      0.4984307  0.3298551  0.6670064 
1183.8     0.233      430.784    -9999      -9999      6.421      0.861      0.923      1.019      0.1522491  0.1522491  0.3122706  2.785768   7.156837   1.756      0.1729767  0.4338477  36.534     0.4849134  0.2904712  0.6793557 
1184       0.231      448.395    -9999      -9999      6.391      0.865      0.885      1.004      0.1575823  0.1575823  0.3171096  3.545016   7.746449   1.693      0.1834518  0.4365522  36.661     0.4834161  0.2812315  0.6856008 
1184.2     0.232      463.296    -9999      -9999      6.437      0.852      0.906      0.996      0.1574626  0.1574626  0.3196904  3.552569   6.860955   1.813      0.20948    0.4583597  36.703     0.4915994  0.2955224  0.6876764 
1184.4     0.232      474.133    -9999      -9999      6.471      0.806      0.889      0.996      0.1583831  0.1583831  0.3196904  3.694818   6.272186   1.99       0.2468938  0.4841093  36.364     0.4888099  0.3065501  0.6710697 
1184.6     0.235      480.907    -9999      -9999      6.518      0.813      0.88       0.996      0.164271   0.164271   0.3196904  4.749529   5.540577   2.113      0.2893762  0.5060244  35.264     0.4709679  0.3224749  0.6194608 
1184.8     0.237      481.9659   -9999      -9999      6.569      0.819      0.988      0.993      0.1736868  0.1736868  0.3206582  7.115938   4.842918   2.082      0.3166761  0.5135609  33.655     0.4453679  0.3406921  0.5500437 
1185       0.24       482.939    -9999      -9999      6.579      0.747      1.16       1          0.1790554  0.1790554  0.3184     8.890423   4.71679    2.107      0.3368635  0.5197036  32.385     0.4222564  0.3443831  0.5001298 
1185.2     0.243      480.229    -9999      -9999      6.59       0.865      1.266      1.017      0.1784992  0.1784992  0.3129158  8.549581   4.581839   2.196      0.3468549  0.5235135  31.454     0.4073231  0.3484893  0.4661569 
1185.4     0.244      474.811    1          2          6.484      0.933      1.41       1.037      0.1823467  0.1823467  0.3064638  9.893675   6.060667   2.412      0.3847262  0.5427759  30.734     0.3761123  0.3108745  0.4413502 
1185.6     0.24       466.683    1          2          6.306      0.975      1.528      1.056      0.1888312  0.1888312  0.3003344  12.82341   9.694282   2.67       0.4291314  0.5655303  30.057     0.3378886  0.2566179  0.4191594 
1185.8     0.235      459.909    1          2          6.179      0.979      1.562      1.068      0.1925782  0.1925782  0.2964632  14.8832    13.55387   2.755      0.4459825  0.5719471  29.633     0.314803   0.2237974  0.4058086 
1186       0.231      454.491    1          2          6.247      1.013      1.638      1.078      0.1871914  0.1871914  0.2932372  11.72176   11.32745   2.649      0.4216406  0.5554285  29.506     0.3213509  0.2408113  0.4018905 
1186.2     0.231      451.104    1          2          6.319      1.084      1.608      1.096      0.1804946  0.1804946  0.2874304  8.6673     9.367368   2.565      0.3936667  0.5356971  29.041     0.3240478  0.2602377  0.3878579 
1186.4     0.232      445.685    1          2          6.336      1.149      1.769      1.098      0.1824831  0.1824831  0.2867852  9.417377   8.956424   2.827      0.4258775  0.5589755  28.321     0.3160669  0.2650488  0.367085  
1186.6     0.233      438.912    1          2          6.344      1.208      1.765      1.093      0.1889548  0.1889548  0.2883982  12.46708   8.769334   3.352      0.4854317  0.6019426  27.136     0.3013436  0.2673434  0.3353437 
1186.8     0.234      430.1069   1          2          6.353      1.453      1.764      1.096      0.1929577  0.1929577  0.2874304  14.74792   8.563507   3.729      0.5189039  0.6248909  25.781     0.2862808  0.2699488  0.3026129 
