~Version
 VERS              .         2.0                           : CWLS LOG ASCII STANDARD - VERSION 2.0
 WRAP              .         NO                            : ONE LINE PER DEPTH STEP
 DLM               .         SPACE                         : DELIMITING CHARACTER(SPACE TAB OR COMMA)
~Well Information
#_______________________________________________________________________________
#
#PARAMETER_NAME    .UNIT     VALUE                         : DESCRIPTION
#_______________________________________________________________________________
STRT               .M        900                           : First reference value
STOP               .M        1294                          : Last reference value
STEP               .M        0.2                           : Step increment
NULL               .         -9999                         : Missing value
COMP               .                                       : Company
WELL               .         2389                          : Well name
FLD                .         УЗЕНЬ                         : Field
LOC                .                                       : Location
CNTY               .                                       : County
STAT               .                                       : State
CTRY               .                                       : Country
SRVC               .                                       : Service Company
DATE               .         23.04.74                      : Date
UWI                .                                       : Unique Well ID
Block              .         6а                            : 
Cartographic_reference_system .         GCS_WGS_1984                  : ESRI,PE_10_3_1- <?xml version="1.0" encoding="utf-16"?><ILateBoundCoordinateReferenceSystem name="GCS_WGS_1984"><AuthorityCode>EPSG,4326</AuthorityCode></ILateBoundCoordinateReferenceSystem>
Category           .         Нефтяная                      : 
Condition          .         Ликвидированная               : 
Date               .         01.10.1974                    : 
EREF               .m        84.8                          : 100.8
Gorizont           .         15                            : 14
HZCS               .GCS_WGS_1984 WGS_1984_EASE-Grid_2.0_Global : ESRI,PE_10_3_1- <?xml version="1.0" encoding="utf-16"?><ILateBoundCoordinateReferenceSystem name="WGS_1984_EASE-Grid_2.0_Global"><AuthorityCode>EPSG,6933</AuthorityCode></ILateBoundCoordinateReferenceSystem>
Interpretator      .         Ткачева И.Г.                  : 
Kupol              .         Основной                      : osnovnoi
LATI               .dega     0.6696001439                  : GCS_WGS_1984
LONG               .dega     0.4650412461                  : GCS_WGS_1984
Mud                .         0                             : 
Mud_density        .         0                             : 
Mud_resistivity    .         0                             : 
NGDU               .         НГДУ-2                        : 
ORIGINALWELLNAME   .         2389                          : 
Spud_date          .         1974                          : 1961
Viscosity          .         0                             : 
X                  .m        44870.1                       : 46154
Y                  .m        85421.2                       : 85761.93
YEAR               .         2018                          : 
Исправ_15гор       .         Исправ.15гор                  : 
~Parameter Information Block
#_______________________________________________________________________________
#
#PARAMETER_NAME    .UNIT     VALUE                         : DESCRIPTION
#_______________________________________________________________________________
SET                .         LQC_KAZNIPI_Petrel            : 
TLFamily_CALI      .         Caliper                       : 
TLFamily_CILD      .         Conductivity                  : 
TLFamily_COLL      .         Net Reservoir Flag            : 
TLFamily_CSAT      .         Fluid Code                    : 
TLFamily_DEPT      .         Measured Depth                : 
TLFamily_GR        .         Russian Gamma Ray             : 
TLFamily_MINV      .         Micro Gradient Resistivity    : 
TLFamily_MNOR      .         Micro Resistivity             : 
TLFamily_NGLD      .         Neutron Gamma                 : 
TLFamily_PHIE      .         Effective Porosity            : 
TLFamily_PHIEN     .         Effective Porosity            : 
TLFamily_PHIT      .         Porosity                      : 
TLFamily_PRMB      .         Permeability                  : 
TLFamily_PRMB_DGR  .         Permeability                  : 
TLFamily_RT        .         Formation Resistivity         : 
TLFamily_SOIL_ARCHIE .         Oil Saturation                : 
TLFamily_SOIL_DW   .         Oil Saturation                : 
TLFamily_SP        .         Spontaneous Potential         : 
TLFamily_VSH_FIN   .         Shale Volume                  : 
TLFamily_VSH_GR    .         Shale Volume                  : 
TLFamily_VSH_SP    .         Shale Volume                  : 
~Curve Information
#_______________________________________________________________________________
#
#LOGNAME           .UNIT     LOG_ID                        : DESCRIPTION
#_______________________________________________________________________________
DEPT               .M                                      : Колонка глубины 
CALI               .м                                      : Каверномер 
CILD               .мСм/м                                  : Индукционный каротаж 
COLL               .unitless                               : Описание 
CSAT               .unitless                               : Описание 
GR                 .uR/h                                   : Гамма каротаж 
MINV               .Ohmm                                   : Микро-градиент зонд 
MNOR               .Ohmm                                   : Микро-потенциал зонд 
NGLD               .у.е.                                   : Показания зонда НГК-60 аппаратуры ДРСТ-3-90 
PHIE               .д.ед.                                  : Описание 
PHIEN              .д.ед.                                  :  
PHIT               .д.ед.                                  : Описание 
PRMB               .mD                                     :  
PRMB_DGR           .mD                                     :  
RT                 .ohmm                                   : УЭС пласта 
SOIL_ARCHIE        .д.ед.                                  :  
SOIL_DW            .д.ед.                                  :  
SP                 .мВ                                     : Потенциал самополяризации 
VSH_FIN            .д.ед.                                  : Описание 
VSH_GR             .д.ед.                                  : Shale volume 
VSH_SP             .д.ед.                                  : Shale Volume 
~Ascii
# ...
1026       0.286      428.075    -9999      -9999      5.003      1.411      1.685      0.967      0.1303152  0.1303152  0.3290458  1.14576    1.267264   2.132      0.1366704  0.4698394  43.773     0.602214   0.588993   0.615435  
1026.2     0.28       427.397    -9999      -9999      4.884      1.801      1.57       0.973      0.1335581  0.1335581  0.3271102  1.308592   1.473592   2.166      0.1592134  0.476223   43.857     0.5865216  0.553809   0.619234  
1026.4     0.272      425.365    -9999      -9999      4.871      1.834      1.465      0.981      0.1312679  0.1312679  0.3245294  1.178266   1.498076   2.314      0.1725788  0.487381   43.9       0.5856408  0.5500951  0.6211866 
1026.6     0.267      422.656    -9999      -9999      4.947      1.758      1.452      0.987      0.1253752  0.1253752  0.3225938  0.9114643  1.36049    2.45       0.1634115  0.4918257  43.942     0.5976322  0.5721658  0.6230986 
1026.8     0.27       416.221    -9999      -9999      5.002      1.593      1.346      0.991      0.1213586  0.1213586  0.3213034  0.7651941  1.268871   2.404      0.133063   0.4798556  43.942     0.6058934  0.5886883  0.6230986 
1027       0.273      408.432    -9999      -9999      4.973      1.441      1.274      0.991      0.1228057  0.1228057  0.3213034  0.8139091  1.316382   2.344      0.131039   0.475329   43.942     0.6015082  0.5799178  0.6230986 
1027.2     0.274      406.4      -9999      -9999      4.935      1.411      1.545      0.984      0.127243   0.127243   0.3235616  0.9897248  1.381343   2.302      0.1491307  0.4794706  43.9       0.5949048  0.568623   0.6211866 
1027.4     0.268      409.109    -9999      -9999      4.964      1.864      1.808      0.979      0.1283861  0.1283861  0.3251746  1.043879   1.331485   2.319      0.1587117  0.4847757  43.773     0.5963289  0.5772227  0.615435  
1027.6     0.262      419.269    -9999      -9999      5.011      2.025      1.909      0.984      0.1263034  0.1263034  0.3235616  0.9508457  1.254477   2.425      0.1646919  0.4915699  43.519     0.5977522  0.5914371  0.6040672 
1027.8     0.255      435.525    -9999      -9999      4.969      2.194      1.875      1          0.1263059  0.1263059  0.3184     0.9372894  1.323074   2.685      0.2019628  0.5112585  43.095     0.5821034  0.5787184  0.5854884 
1028       0.252      457.2      -9999      -9999      4.964      2.152      1.913      1.003      0.1279705  0.1279705  0.3174322  1.003523   1.331485   2.751      0.2189886  0.5182685  42.757     0.5741265  0.5772227  0.5710302 
1028.2     0.25       480.229    -9999      -9999      4.964      2.364      1.782      0.996      0.1340086  0.1340086  0.3196904  1.306526   1.331485   2.768      0.250446   0.5296634  42.206     0.562672   0.5772227  0.5481213 
1028.4     0.251      501.227    -9999      -9999      4.939      1.661      1.316      0.985      0.1437907  0.1437907  0.323239   2.002739   1.374356   2.772      0.2935332  0.5449418  41.444     0.5437828  0.5698016  0.5177641 
1028.6     0.25       518.16     -9999      -9999      4.947      1.183      0.944      0.974      0.1532435  0.1532435  0.3267876  3.027147   1.36049    2.671      0.3182905  0.5501758  40.428     0.5258912  0.5721658  0.4796166 
1028.8     0.25       528.6589   -9999      -9999      5.062      0.692      0.711      0.969      0.1522955  0.1522955  0.3284006  2.920367   1.175945   2.281      0.2625779  0.5138115  39.878     0.5336518  0.6072574  0.4600462 
1029       0.258      519.515    -9999      -9999      5.223      0.751      0.661      0.964      0.1459291  0.1459291  0.3300136  2.236038   0.9588596  1.989      0.1863245  0.4732191  39.751     0.5578319  0.6600308  0.455633  
1029.2     0.282      501.904    -9999      -9999      5.252      0.81       0.73       0.943      0.1495937  0.1495937  0.3367882  2.664427   0.9242519  1.777      0.1612602  0.4552562  40.005     0.5672559  0.6700128  0.464499  
1029.4     0.3        471.424    -9999      -9999      5.138      0.861      1.033      0.925      0.1602461  0.1602461  0.342595   4.26559    1.067943   1.798      0.2127188  0.4776586  40.259     0.5525725  0.6316216  0.4735234 
1029.6     0.31       438.2349   -9999      -9999      4.977      0.912      1.545      0.923      0.1666856  0.1666856  0.3432402  5.623927   1.309724   1.925      0.2617306  0.5028908  40.682     0.535014   0.5811198  0.4889083 
1029.8     0.302      405.045    -9999      -9999      4.824      1.293      1.981      0.945      0.1640062  0.1640062  0.336143   4.917823   1.590039   2.031      0.268822   0.5062098  41.148     0.5216265  0.5368743  0.5063788 
1030       0.293      383.371    -9999      -9999      4.731      1.564      2.134      0.973      0.156982   0.156982   0.3271102  3.553632   1.788979   2.12       0.2550962  0.4997733  41.487     0.5155399  0.5116431  0.5194368 
1030.2     0.279      365.76     -9999      -9999      4.549      1.945      1.655      0.998      0.1548602  0.1548602  0.3190452  3.173613   2.253189   2.357      0.2813171  0.5150326  41.741     0.4975303  0.4656452  0.5294155 
1030.4     0.262      350.1811   -9999      -9999      4.389      1.614      1.795      1.027      0.1505004  0.1505004  0.3096898  2.566926   2.759808   2.704      0.3079567  0.533096   41.91      0.482392   0.428636   0.5361481 
1030.6     0.25       333.248    -9999      -9999      4.164      1.729      2.472      1.072      0.1448694  0.1448694  0.2951728  1.938395   3.670652   2.831      0.2974398  0.5218492  41.741     0.4554648  0.3815142  0.5294155 
1030.8     0.248      316.315    -9999      -9999      4.004      2.215      3.437      1.122      0.1378072  0.1378072  0.2790428  1.370882   4.495981   2.624      0.2366162  0.4743253  41.106     0.4279866  0.3511916  0.5047815 
1031       0.249      299.381    -9999      -9999      3.864      3.181      3.522      1.167      0.1317439  0.1317439  0.2645258  1.016301   5.369028   2.649      0.2065044  0.4482194  40.386     0.4023694  0.326643   0.4780957 
1031.2     0.245      282.448    -9999      -9999      3.75       3.744      3.484      1.215      0.1251995  0.1251995  0.249041   0.7361305  6.203739   3.123      0.2285971  0.4602314  39.37      0.3752773  0.3079266  0.4426281 
1031.4     0.237      269.579    -9999      -9999      3.661      3.672      3.069      1.272      0.1156276  0.1156276  0.2306528  0.464814   6.944626   3.714      0.233459   0.4624997  38.142     0.3485611  0.2940633  0.4030589 
1031.6     0.233      261.451    -9999      -9999      3.606      3.388      3.446      1.33       0.1048177  0.1048177  0.211942   0.2781491  7.446064   3.949      0.1832827  0.4266054  36.788     0.324619   0.2858099  0.3634281 
1031.8     0.233      259.419    -9999      -9999      3.593      3.663      3.213      1.365      0.09686837 0.09686837 0.200651   0.1919963  7.569782   3.864      0.1122399  0.3797022  36.11      0.3144928  0.2838932  0.3450924 
1032       0.233      264.16     -9999      -9999      3.563      3.409      3.132      1.37       0.09634072 0.09634072 0.199038   0.1868771  7.863189   4.6        0.1774009  0.4270894  36.026     0.3112039  0.279519   0.3428888 
1032.2     0.233      275.675    -9999      -9999      3.538      3.515      2.751      1.358      0.1000708  0.1000708  0.2029092  0.2214926  8.11636    4.804      0.2213455  0.4547118  36.195     0.3116314  0.2759253  0.3473374 
1032.4     0.234      295.317    -9999      -9999      3.55       2.643      2.481      1.343      0.1038822  0.1038822  0.2077482  0.2641465  7.993839   4.783      0.2461315  0.4699124  36.364     0.3147454  0.2776445  0.3518464 
1032.6     0.234      319.024    -9999      -9999      3.635      2.397      2.93       1.31       0.1113304  0.1113304  0.218394   0.3739053  7.177317   3.428      0.1733486  0.4107116  36.618     0.3244353  0.2901324  0.3587381 
1032.8     0.234      349.5041   -9999      -9999      3.758      2.482      3.277      1.252      0.1261204  0.1261204  0.2371048  0.7404317  6.141149   2.814      0.1906821  0.4135067  36.788     0.3363162  0.3092043  0.3634281 
