~Version
 VERS              .         2.0                           : CWLS LOG ASCII STANDARD - VERSION 2.0
 WRAP              .         NO                            : ONE LINE PER DEPTH STEP
 DLM               .         SPACE                         : DELIMITING CHARACTER(SPACE TAB OR COMMA)
~Well Information
#_______________________________________________________________________________
#
#PARAMETER_NAME    .UNIT     VALUE                         : DESCRIPTION
#_______________________________________________________________________________
STRT               .M        900                           : First reference value
STOP               .M        1294                          : Last reference value
STEP               .M        0.2                           : Step increment
NULL               .         -9999                         : Missing value
COMP               .                                       : Company
WELL               .         2389                          : Well name
FLD                .         УЗЕНЬ                         : Field
LOC                .                                       : Location
CNTY               .                                       : County
STAT               .                                       : State
CTRY               .                                       : Country
SRVC               .                                       : Service Company
DATE               .         23.04.74                      : Date
UWI                .                                       : Unique Well ID
Block              .         6а                            : 
Cartographic_reference_system .         GCS_WGS_1984                  : ESRI,PE_10_3_1- <?xml version="1.0" encoding="utf-16"?><ILateBoundCoordinateReferenceSystem name="GCS_WGS_1984"><AuthorityCode>EPSG,4326</AuthorityCode></ILateBoundCoordinateReferenceSystem>
Category           .         Нефтяная                      : 
Condition          .         Ликвидированная               : 
Date               .         01.10.1974                    : 
EREF               .m        84.8                          : 100.8
Gorizont           .         15                            : 14
HZCS               .GCS_WGS_1984 WGS_1984_EASE-Grid_2.0_Global : ESRI,PE_10_3_1- <?xml version="1.0" encoding="utf-16"?><ILateBoundCoordinateReferenceSystem name="WGS_1984_EASE-Grid_2.0_Global"><AuthorityCode>EPSG,6933</AuthorityCode></ILateBoundCoordinateReferenceSystem>
Interpretator      .         Ткачева И.Г.                  : 
Kupol              .         Основной                      : osnovnoi
LATI               .dega     0.6696001439                  : GCS_WGS_1984
LONG               .dega     0.4650412461                  : GCS_WGS_1984
Mud                .         0                             : 
Mud_density        .         0                             : 
Mud_resistivity    .         0                             : 
NGDU               .         НГДУ-2                        : 
ORIGINALWELLNAME   .         2389                          : 
Spud_date          .         1974                          : 1961
Viscosity          .         0                             : 
X                  .m        44870.1                       : 46154
Y                  .m        85421.2                       : 85761.93
YEAR               .         2018                          : 
Исправ_15гор       .         Исправ.15гор                  : 
~Parameter Information Block
#_______________________________________________________________________________
#
#PARAMETER_NAME    .UNIT     VALUE                         : DESCRIPTION
#_______________________________________________________________________________
SET                .         LQC_KAZNIPI_Petrel            : 
TLFamily_CALI      .         Caliper                       : 
TLFamily_CILD      .         Conductivity                  : 
TLFamily_COLL      .         Net Reservoir Flag            : 
TLFamily_CSAT      .         Fluid Code                    : 
TLFamily_DEPT      .         Measured Depth                : 
TLFamily_GR        .         Russian Gamma Ray             : 
TLFamily_MINV      .         Micro Gradient Resistivity    : 
TLFamily_MNOR      .         Micro Resistivity             : 
TLFamily_NGLD      .         Neutron Gamma                 : 
TLFamily_PHIE      .         Effective Porosity            : 
TLFamily_PHIEN     .         Effective Porosity            : 
TLFamily_PHIT      .         Porosity                      : 
TLFamily_PRMB      .         Permeability                  : 
TLFamily_PRMB_DGR  .         Permeability                  : 
TLFamily_RT        .         Formation Resistivity         : 
TLFamily_SOIL_ARCHIE .         Oil Saturation                : 
TLFamily_SOIL_DW   .         Oil Saturation                : 
TLFamily_SP        .         Spontaneous Potential         : 
TLFamily_VSH_FIN   .         Shale Volume                  : 
TLFamily_VSH_GR    .         Shale Volume                  : 
TLFamily_VSH_SP    .         Shale Volume                  : 
~Curve Information
#_______________________________________________________________________________
#
#LOGNAME           .UNIT     LOG_ID                        : DESCRIPTION
#_______________________________________________________________________________
DEPT               .M                                      : Колонка глубины 
CALI               .м                                      : Каверномер 
CILD               .мСм/м                                  : Индукционный каротаж 
COLL               .unitless                               : Описание 
CSAT               .unitless                               : Описание 
GR                 .uR/h                                   : Гамма каротаж 
MINV               .Ohmm                                   : Микро-градиент зонд 
MNOR               .Ohmm                                   : Микро-потенциал зонд 
NGLD               .у.е.                                   : Показания зонда НГК-60 аппаратуры ДРСТ-3-90 
PHIE               .д.ед.                                  : Описание 
PHIEN              .д.ед.                                  :  
PHIT               .д.ед.                                  : Описание 
PRMB               .mD                                     :  
PRMB_DGR           .mD                                     :  
RT                 .ohmm                                   : УЭС пласта 
SOIL_ARCHIE        .д.ед.                                  :  
SOIL_DW            .д.ед.                                  :  
SP                 .мВ                                     : Потенциал самополяризации 
VSH_FIN            .д.ед.                                  : Описание 
VSH_GR             .д.ед.                                  : Shale volume 
VSH_SP             .д.ед.                                  : Shale Volume 
~Ascii
# ...
928        0.211      446.363    1          3          3.466      1.208      2.185      1.062      0.2225449  0.2225449  0.2983988  53.71652   8.891969   2.403      0.4694492  0.5628905  28.067     0.2298603  0.2658316  0.1938889 
928.2000000000001 0.211      446.363    1          3          3.462      1.28       2.227      1.062      0.2226356  0.2226356  0.2983988  53.92475   8.937169   2.501      0.4794862  0.57161    28.067     0.2295854  0.2652818  0.1938889 
928.4      0.212      447.717    1          3          3.487      1.347      2.193      1.053      0.224969   0.224969   0.3013022  60.05392   8.658396   2.513      0.4855399  0.5770432  28.067     0.2313129  0.2687368  0.1938889 
928.6      0.214      449.7491   1          3          3.597      1.498      2.045      1.054      0.2220484  0.2220484  0.3009796  52.97293   7.531502   2.437      0.4722859  0.5679489  28.067     0.2391853  0.2844816  0.1938889 
928.8      0.215      452.4591   1          3          3.686      1.547      1.755      1.055      0.219513   0.219513   0.300657   47.50045   6.728001   2.374      0.4605539  0.5599377  28.067     0.2458911  0.2978932  0.1938889 
929        0.215      453.136    1          3          3.678      1.534      1.693      1.068      0.2155223  0.2155223  0.2964632  39.59822   6.796576   2.327      0.4464497  0.5481944  28.067     0.2452756  0.2966622  0.1938889 
929.2000000000001 0.215      453.8129   1          3          3.61       1.462      1.621      1.079      0.2136665  0.2136665  0.2929146  36.22295   7.408409   2.31       0.4399922  0.5414345  28.067     0.2401456  0.2864023  0.1938889 
929.4      0.215      453.8129   1          3          3.542      1.348      1.558      1.084      0.2136879  0.2136879  0.2913016  36.09241   8.075311   2.319      0.4408274  0.5407188  28.067     0.2351931  0.2764972  0.1938889 
929.6      0.214      449.0719   1          3          3.538      1.341      1.503      1.086      0.213137   0.213137   0.2906564  35.19067   8.11636    2.327      0.4404272  0.5403817  28.067     0.2349072  0.2759253  0.1938889 
929.8      0.214      442.976    1          3          3.571      1.195      1.554      1.092      0.2104171  0.2104171  0.2887208  31.16676   7.783852   2.336      0.4351053  0.5369226  28.067     0.2372839  0.2806788  0.1938889 
930        0.214      435.525    1          3          3.597      1.149      1.463      1.098      0.207854   0.207854   0.2867852  27.78825   7.531502   2.357      0.4313692  0.5347189  28.067     0.2391853  0.2844816  0.1938889 
930.2000000000001 0.214      427.397    1          3          3.584      1.157      1.372      1.117      0.2020394  0.2020394  0.2806558  21.31571   7.656635   2.399      0.4215179  0.5270199  28.067     0.2382314  0.2825738  0.1938889 
930.4      0.214      418.592    1          3          3.525      1.183      1.511      1.136      0.1973124  0.1973124  0.2745264  17.12702   8.251216   2.424      0.4117639  0.5181818  28.067     0.2339819  0.2740749  0.1938889 
930.6      0.214      409.787    1          3          3.461      1.161      1.52       1.156      0.1923339  0.1923339  0.2680744  13.60238   8.948504   2.463      0.4023742  0.5096309  28.067     0.2295167  0.2651445  0.1938889 
930.8      0.214      396.24     1          3          3.385      1.193      1.545      1.173      0.1885373  0.1885373  0.2625902  11.39244   9.853468   2.505      0.3960966  0.5032722  28.067     0.2244029  0.2549168  0.1938889 
931        0.214      382.016    1          3          3.288      1.225      1.486      1.172      0.1909195  0.1909195  0.2629128  12.62216   11.14265   2.535      0.4058382  0.5090896  28.067     0.2181616  0.2424342  0.1938889 
931.2000000000001 0.214      373.888    1          3          3.212      1.233      1.456      1.164      0.1950433  0.1950433  0.2654936  15.15859   12.26951   2.568      0.4204046  0.5194593  28.067     0.2134857  0.2330825  0.1938889 
931.4      0.214      367.115    1          3          3.191      1.237      1.439      1.156      0.1980399  0.1980399  0.2680744  17.35016   12.6005    2.602      0.4317374  0.5284724  28.067     0.2122259  0.2305627  0.1938889 
931.6      0.214      363.0509   1          3          3.229      1.161      1.46       1.155      0.1976068  0.1976068  0.268397   17.04807   12.00793   2.696      0.4401416  0.536716   28.067     0.2145157  0.2351425  0.1938889 
931.8      0.214      360.341    1          3          3.242      1.138      1.452      1.172      0.1918606  0.1918606  0.2629128  13.13913   11.81169   2.797      0.4349849  0.5335693  28.067     0.2153095  0.2367301  0.1938889 
932        0.214      359.664    1          3          3.275      1.161      1.452      1.184      0.1873165  0.1873165  0.2590416  10.70747   11.32778   2.979      0.4396206  0.5392799  28.067     0.2173487  0.2408084  0.1938889 
932.2000000000001 0.214      359.664    1          3          3.351      1.174      1.456      1.197      0.1815286  0.1815286  0.2548478  8.26751    10.28742   2.975      0.4234939  0.5281736  28.067     0.2221795  0.25047    0.1938889 
932.4      0.214      359.664    1          3          3.389      1.17       1.488      1.2        0.1797398  0.1797398  0.25388    7.639506   9.803634   2.84       0.4056714  0.5139734  28.067     0.2246671  0.2554452  0.1938889 
932.6      0.214      358.987    1          3          3.33       1.204      1.524      1.19       0.1842335  0.1842335  0.257106   9.337405   10.56494   2.552      0.388576   0.4964649  28.067     0.2208256  0.2477622  0.1938889 
932.8      0.214      356.955    1          3          3.165      1.208      1.541      1.185      0.189193   0.189193   0.258719   11.58914   13.0227    2.509      0.397629   0.4995836  28.067     0.2106848  0.2274807  0.1938889 
933        0.214      350.52     1          3          3.017      1.225      1.562      1.179      0.1938965  0.1938965  0.2606546  14.24058   15.71      2.56       0.4158565  0.5118203  28.067     0.2022971  0.2107053  0.1938889 
933.2000000000001 0.214      344.763    1          3          2.911      1.225      1.556      1.182      0.1947848  0.1947848  0.2596868  14.75037   17.96926   2.649      0.4272052  0.5198296  28.067     0.1966726  0.1994563  0.1938889 
933.4      0.214      344.424    1          3          2.856      1.238      1.613      1.199      0.1902243  0.1902243  0.2542026  11.95793   19.26673   2.738      0.4237068  0.516564   28.067     0.1938736  0.1938582  0.1938889 
933.6      0.214      346.117    1          3          2.881      1.238      1.617      1.203      0.1885173  0.1885173  0.2529122  11.07816   18.66575   2.772      0.4224335  0.5162015  28.067     0.195136   0.196383   0.1938889 
933.8      0.214      347.472    1          3          2.966      1.297      1.615      1.193      0.1902859  0.1902859  0.2561382  12.05459   16.75916   2.894      0.4389694  0.532125   28.067     0.1995525  0.205216   0.1938889 
934        0.214      350.1811   1          3          3.017      1.282      1.732      1.171      0.1964773  0.1964773  0.2632354  16.01297   15.71      2.928      0.45802    0.5488236  28.067     0.2022971  0.2107053  0.1938889 
934.2000000000001 0.214      353.568    1          3          3.047      1.191      1.702      1.164      0.1979331  0.1979331  0.2654936  17.1469    15.1238    2.928      0.4617256  0.5526271  28.194     0.2047286  0.2140027  0.1954546 
934.4      0.214      357.632    1          3          3.085      1.229      1.677      1.162      0.1976149  0.1976149  0.2661388  16.94637   14.41257   2.797      0.4493918  0.5426873  28.321     0.2076482  0.2182535  0.1970428 
934.6      0.213      361.696    1          3          3.102      1.356      1.558      1.157      0.1985551  0.1985551  0.2677518  17.7196    14.10532   2.679      0.4406366  0.5354245  28.49      0.2096871  0.2201825  0.1991917 
934.8      0.213      366.437    1          3          3.076      1.314      1.571      1.162      0.1973364  0.1973364  0.2661388  16.74628   14.57795   2.798      0.4488294  0.5425091  28.533     0.2084921  0.2172392  0.199745  
