~Version
 VERS              .         2.0                           : CWLS LOG ASCII STANDARD - VERSION 2.0
 WRAP              .         NO                            : ONE LINE PER DEPTH STEP
 DLM               .         SPACE                         : DELIMITING CHARACTER(SPACE TAB OR COMMA)
~Well Information
#_______________________________________________________________________________
#
#PARAMETER_NAME    .UNIT     VALUE                         : DESCRIPTION
#_______________________________________________________________________________
STRT               .M        900                           : First reference value
STOP               .M        1294                          : Last reference value
STEP               .M        0.2                           : Step increment
NULL               .         -9999                         : Missing value
COMP               .                                       : Company
WELL               .         2389                          : Well name
FLD                .         УЗЕНЬ                         : Field
LOC                .                                       : Location
CNTY               .                                       : County
STAT               .                                       : State
CTRY               .                                       : Country
SRVC               .                                       : Service Company
DATE               .         23.04.74                      : Date
UWI                .                                       : Unique Well ID
Block              .         6а                            : 
Cartographic_reference_system .         GCS_WGS_1984                  : ESRI,PE_10_3_1- <?xml version="1.0" encoding="utf-16"?><ILateBoundCoordinateReferenceSystem name="GCS_WGS_1984"><AuthorityCode>EPSG,4326</AuthorityCode></ILateBoundCoordinateReferenceSystem>
Category           .         Нефтяная                      : 
Condition          .         Ликвидированная               : 
Date               .         01.10.1974                    : 
EREF               .m        84.8                          : 100.8
Gorizont           .         15                            : 14
HZCS               .GCS_WGS_1984 WGS_1984_EASE-Grid_2.0_Global : ESRI,PE_10_3_1- <?xml version="1.0" encoding="utf-16"?><ILateBoundCoordinateReferenceSystem name="WGS_1984_EASE-Grid_2.0_Global"><AuthorityCode>EPSG,6933</AuthorityCode></ILateBoundCoordinateReferenceSystem>
Interpretator      .         Ткачева И.Г.                  : 
Kupol              .         Основной                      : osnovnoi
LATI               .dega     0.6696001439                  : GCS_WGS_1984
LONG               .dega     0.4650412461                  : GCS_WGS_1984
Mud                .         0                             : 
Mud_density        .         0                             : 
Mud_resistivity    .         0                             : 
NGDU               .         НГДУ-2                        : 
ORIGINALWELLNAME   .         2389                          : 
Spud_date          .         1974                          : 1961
Viscosity          .         0                             : 
X                  .m        44870.1                       : 46154
Y                  .m        85421.2                       : 85761.93
YEAR               .         2018                          : 
Исправ_15гор       .         Исправ.15гор                  : 
~Parameter Information Block
#_______________________________________________________________________________
#
#PARAMETER_NAME    .UNIT     VALUE                         : DESCRIPTION
#_______________________________________________________________________________
SET                .         LQC_KAZNIPI_Petrel            : 
TLFamily_CALI      .         Caliper                       : 
TLFamily_CILD      .         Conductivity                  : 
TLFamily_COLL      .         Net Reservoir Flag            : 
TLFamily_CSAT      .         Fluid Code                    : 
TLFamily_DEPT      .         Measured Depth                : 
TLFamily_GR        .         Russian Gamma Ray             : 
TLFamily_MINV      .         Micro Gradient Resistivity    : 
TLFamily_MNOR      .         Micro Resistivity             : 
TLFamily_NGLD      .         Neutron Gamma                 : 
TLFamily_PHIE      .         Effective Porosity            : 
TLFamily_PHIEN     .         Effective Porosity            : 
TLFamily_PHIT      .         Porosity                      : 
TLFamily_PRMB      .         Permeability                  : 
TLFamily_PRMB_DGR  .         Permeability                  : 
TLFamily_RT        .         Formation Resistivity         : 
TLFamily_SOIL_ARCHIE .         Oil Saturation                : 
TLFamily_SOIL_DW   .         Oil Saturation                : 
TLFamily_SP        .         Spontaneous Potential         : 
TLFamily_VSH_FIN   .         Shale Volume                  : 
TLFamily_VSH_GR    .         Shale Volume                  : 
TLFamily_VSH_SP    .         Shale Volume                  : 
~Curve Information
#_______________________________________________________________________________
#
#LOGNAME           .UNIT     LOG_ID                        : DESCRIPTION
#_______________________________________________________________________________
DEPT               .M                                      : Колонка глубины 
CALI               .м                                      : Каверномер 
CILD               .мСм/м                                  : Индукционный каротаж 
COLL               .unitless                               : Описание 
CSAT               .unitless                               : Описание 
GR                 .uR/h                                   : Гамма каротаж 
MINV               .Ohmm                                   : Микро-градиент зонд 
MNOR               .Ohmm                                   : Микро-потенциал зонд 
NGLD               .у.е.                                   : Показания зонда НГК-60 аппаратуры ДРСТ-3-90 
PHIE               .д.ед.                                  : Описание 
PHIEN              .д.ед.                                  :  
PHIT               .д.ед.                                  : Описание 
PRMB               .mD                                     :  
PRMB_DGR           .mD                                     :  
RT                 .ohmm                                   : УЭС пласта 
SOIL_ARCHIE        .д.ед.                                  :  
SOIL_DW            .д.ед.                                  :  
SP                 .мВ                                     : Потенциал самополяризации 
VSH_FIN            .д.ед.                                  : Описание 
VSH_GR             .д.ед.                                  : Shale volume 
VSH_SP             .д.ед.                                  : Shale Volume 
~Ascii
# ...
1278       0.216      442.976    -9999      -9999      -9999      1.707      1.765      1.083      0.1497552  0.1497552  0.2916242  2.363848   -9999      2.056      0.2269439  0.4561035  28.956     0.4299062  -9999      0.4299062 
1278.2     0.217      434.8479   -9999      -9999      -9999      1.764      1.833      1.075      0.1453121  0.1453121  0.294205   1.969994   -9999      2.022      0.20204    0.4486656  29.591     0.4511904  -9999      0.4511904 
1278.4     0.217      423.333    -9999      -9999      -9999      1.716      1.757      1.064      0.1464444  0.1464444  0.2977536  2.088124   -9999      2.014      0.2066879  0.4536255  29.803     0.4585128  -9999      0.4585128 
1278.6     0.218      409.109    -9999      -9999      -9999      1.805      1.769      1.057      0.1437727  0.1437727  0.3000118  1.875077   -9999      2.018      0.1960214  0.453274   30.226     0.4734518  -9999      0.4734518 
1278.8     0.218      393.869    -9999      -9999      -9999      1.754      1.846      1.052      0.1382275  0.1382275  0.3016248  1.486868   -9999      2.065      0.1791121  0.453734   30.819     0.4951432  -9999      0.4951432 
1279       0.218      392.176    -9999      -9999      -9999      1.754      1.947      1.052      0.1280518  0.1280518  0.3016248  0.963371   -9999      2.205      0.1527236  0.4566659  31.623     0.5259787  -9999      0.5259787 
1279.2     0.219      402.3361   -9999      -9999      -9999      1.466      2.028      1.053      0.1198689  0.1198689  0.3013022  0.6789418  -9999      2.719      0.1896203  0.4988504  32.216     0.549798   -9999      0.549798  
1279.4     0.219      420.624    -9999      -9999      -9999      1.648      2.032      1.053      0.116408   0.116408   0.3013022  0.5857735  -9999      3.443      0.257181   0.5501061  32.47      0.5602854  -9999      0.5602854 
1279.6     0.221      443.653    -9999      -9999      -9999      1.602      1.926      1.049      0.1159466  0.1159466  0.3025926  0.5764403  -9999      3.32       0.2424077  0.5426115  32.597     0.5655938  -9999      0.5655938 
1279.8     0.221      464.651    -9999      -9999      -9999      1.653      1.744      1.055      0.1116578  0.1116578  0.300657   0.4774829  -9999      2.624      0.1270342  0.4764475  32.766     0.572725   -9999      0.572725  
1280       0.222      471.924    -9999      -9999      -9999      1.543      1.697      1.055      0.1098725  0.1098725  0.300657   0.4424763  -9999      1.608      0          0.3275237  32.893     0.578135   -9999      0.578135  
1280.2     0.223      479.552    -9999      -9999      -9999      1.682      1.753      -9999      -9999      -9999      -9999      -9999      -9999      1.705      -9999      -9999      32.681     0.5691286  -9999      0.5691286 
1280.4     0.223      488.357    -9999      -9999      -9999      1.924      1.829      -9999      -9999      -9999      -9999      -9999      -9999      2.175      -9999      -9999      32.385     0.5567566  -9999      0.5567566 
1280.6     0.224      494.453    -9999      -9999      -9999      1.809      1.901      -9999      -9999      -9999      -9999      -9999      -9999      2.548      -9999      -9999      31.877     0.536068   -9999      0.536068  
1280.8     0.224      500.5491   -9999      -9999      -9999      1.894      1.969      -9999      -9999      -9999      -9999      -9999      -9999      2.543      -9999      -9999      31.327     0.514433   -9999      0.514433  
1281       0.225      507.323    -9999      -9999      -9999      1.843      2.113      -9999      -9999      -9999      -9999      -9999      -9999      2.56       -9999      -9999      30.565     0.4857441  -9999      0.4857441 
1281.2     0.225      510.6221   -9999      -9999      -9999      1.949      2.1        -9999      -9999      -9999      -9999      -9999      -9999      2.882      -9999      -9999      29.887     0.4614444  -9999      0.4614444 
1281.4     0.225      514.0961   -9999      -9999      -9999      1.851      2.07       -9999      -9999      -9999      -9999      -9999      -9999      3.119      -9999      -9999      29.506     0.4482853  -9999      0.4482853 
1281.6     0.226      522.9011   -9999      -9999      -9999      1.767      1.837      -9999      -9999      -9999      -9999      -9999      -9999      2.854      -9999      -9999      29.337     0.4425608  -9999      0.4425608 
1281.8     0.226      532.3839   -9999      -9999      -9999      1.742      1.698      -9999      -9999      -9999      -9999      -9999      -9999      2.404      -9999      -9999      29.295     0.4411488  -9999      0.4411488 
1282       0.225      543.8989   -9999      -9999      -9999      1.716      1.63       -9999      -9999      -9999      -9999      -9999      -9999      2.247      -9999      -9999      29.168     0.4369048  -9999      0.4369048 
1282.2     0.225      551.3491   -9999      -9999      -9999      1.669      1.683      -9999      -9999      -9999      -9999      -9999      -9999      2.217      -9999      -9999      28.829     0.4257646  -9999      0.4257646 
1282.4     0.223      556.7681   -9999      -9999      -9999      1.69       1.583      -9999      -9999      -9999      -9999      -9999      -9999      2.213      -9999      -9999      28.533     0.4162589  -9999      0.4162589 
1282.6     0.222      558.7999   -9999      -9999      -9999      1.75       1.545      -9999      -9999      -9999      -9999      -9999      -9999      2.213      -9999      -9999      27.771     0.3927211  -9999      0.3927211 
1282.8     0.222      560.832    -9999      -9999      -9999      1.915      1.647      -9999      -9999      -9999      -9999      -9999      -9999      2.205      -9999      -9999      26.501     0.3563892  -9999      0.3563892 
1283       0.221      562.864    -9999      -9999      -9999      1.75       1.71       -9999      -9999      -9999      -9999      -9999      -9999      2.196      -9999      -9999      24.892     0.3153098  -9999      0.3153098 
1283.2     0.221      565.5729   -9999      -9999      -9999      1.432      1.604      -9999      -9999      -9999      -9999      -9999      -9999      2.184      -9999      -9999      24.088     0.2967498  -9999      0.2967498 
1283.4     0.222      570.3149   -9999      -9999      -9999      1.267      1.295      -9999      -9999      -9999      -9999      -9999      -9999      2.171      -9999      -9999      24.003     0.2948615  -9999      0.2948615 
1283.6     0.223      577.765    -9999      -9999      -9999      1.437      1.274      -9999      -9999      -9999      -9999      -9999      -9999      2.175      -9999      -9999      24.596     0.3083286  -9999      0.3083286 
1283.8     0.224      589.2799   -9999      -9999      -9999      1.775      1.422      -9999      -9999      -9999      -9999      -9999      -9999      2.2        -9999      -9999      25.104     0.3204176  -9999      0.3204176 
1284       0.225      603.504    -9999      -9999      -9999      1.674      1.714      -9999      -9999      -9999      -9999      -9999      -9999      2.209      -9999      -9999      25.823     0.3384229  -9999      0.3384229 
1284.2     0.227      620.437    -9999      -9999      -9999      1.657      1.579      -9999      -9999      -9999      -9999      -9999      -9999      2.183      -9999      -9999      26.543     0.3575343  -9999      0.3575343 
1284.4     0.227      649.563    -9999      -9999      -9999      1.517      1.579      -9999      -9999      -9999      -9999      -9999      -9999      2.141      -9999      -9999      27.093     0.3728829  -9999      0.3728829 
1284.6     0.228      701.717    -9999      -9999      -9999      1.466      1.389      -9999      -9999      -9999      -9999      -9999      -9999      2.128      -9999      -9999      27.601     0.3876504  -9999      0.3876504 
1284.8     0.229      759.968    -9999      -9999      -9999      1.631      1.545      -9999      -9999      -9999      -9999      -9999      -9999      2.141      -9999      -9999      27.813     0.3939839  -9999      0.3939839 
