~Version
 VERS              .         2.0                           : CWLS LOG ASCII STANDARD - VERSION 2.0
 WRAP              .         NO                            : ONE LINE PER DEPTH STEP
 DLM               .         SPACE                         : DELIMITING CHARACTER(SPACE TAB OR COMMA)
~Well Information
#_______________________________________________________________________________
#
#PARAMETER_NAME    .UNIT     VALUE                         : DESCRIPTION
#_______________________________________________________________________________
STRT               .M        900                           : First reference value
STOP               .M        1294                          : Last reference value
STEP               .M        0.2                           : Step increment
NULL               .         -9999                         : Missing value
COMP               .                                       : Company
WELL               .         2389                          : Well name
FLD                .         УЗЕНЬ                         : Field
LOC                .                                       : Location
CNTY               .                                       : County
STAT               .                                       : State
CTRY               .                                       : Country
SRVC               .                                       : Service Company
DATE               .         23.04.74                      : Date
UWI                .                                       : Unique Well ID
Block              .         6а                            : 
Cartographic_reference_system .         GCS_WGS_1984                  : ESRI,PE_10_3_1- <?xml version="1.0" encoding="utf-16"?><ILateBoundCoordinateReferenceSystem name="GCS_WGS_1984"><AuthorityCode>EPSG,4326</AuthorityCode></ILateBoundCoordinateReferenceSystem>
Category           .         Нефтяная                      : 
Condition          .         Ликвидированная               : 
Date               .         01.10.1974                    : 
EREF               .m        84.8                          : 100.8
Gorizont           .         15                            : 14
HZCS               .GCS_WGS_1984 WGS_1984_EASE-Grid_2.0_Global : ESRI,PE_10_3_1- <?xml version="1.0" encoding="utf-16"?><ILateBoundCoordinateReferenceSystem name="WGS_1984_EASE-Grid_2.0_Global"><AuthorityCode>EPSG,6933</AuthorityCode></ILateBoundCoordinateReferenceSystem>
Interpretator      .         Ткачева И.Г.                  : 
Kupol              .         Основной                      : osnovnoi
LATI               .dega     0.6696001439                  : GCS_WGS_1984
LONG               .dega     0.4650412461                  : GCS_WGS_1984
Mud                .         0                             : 
Mud_density        .         0                             : 
Mud_resistivity    .         0                             : 
NGDU               .         НГДУ-2                        : 
ORIGINALWELLNAME   .         2389                          : 
Spud_date          .         1974                          : 1961
Viscosity          .         0                             : 
X                  .m        44870.1                       : 46154
Y                  .m        85421.2                       : 85761.93
YEAR               .         2018                          : 
Исправ_15гор       .         Исправ.15гор                  : 
~Parameter Information Block
#_______________________________________________________________________________
#
#PARAMETER_NAME    .UNIT     VALUE                         : DESCRIPTION
#_______________________________________________________________________________
SET                .         LQC_KAZNIPI_Petrel            : 
TLFamily_CALI      .         Caliper                       : 
TLFamily_CILD      .         Conductivity                  : 
TLFamily_COLL      .         Net Reservoir Flag            : 
TLFamily_CSAT      .         Fluid Code                    : 
TLFamily_DEPT      .         Measured Depth                : 
TLFamily_GR        .         Russian Gamma Ray             : 
TLFamily_MINV      .         Micro Gradient Resistivity    : 
TLFamily_MNOR      .         Micro Resistivity             : 
TLFamily_NGLD      .         Neutron Gamma                 : 
TLFamily_PHIE      .         Effective Porosity            : 
TLFamily_PHIEN     .         Effective Porosity            : 
TLFamily_PHIT      .         Porosity                      : 
TLFamily_PRMB      .         Permeability                  : 
TLFamily_PRMB_DGR  .         Permeability                  : 
TLFamily_RT        .         Formation Resistivity         : 
TLFamily_SOIL_ARCHIE .         Oil Saturation                : 
TLFamily_SOIL_DW   .         Oil Saturation                : 
TLFamily_SP        .         Spontaneous Potential         : 
TLFamily_VSH_FIN   .         Shale Volume                  : 
TLFamily_VSH_GR    .         Shale Volume                  : 
TLFamily_VSH_SP    .         Shale Volume                  : 
~Curve Information
#_______________________________________________________________________________
#
#LOGNAME           .UNIT     LOG_ID                        : DESCRIPTION
#_______________________________________________________________________________
DEPT               .M                                      : Колонка глубины 
CALI               .м                                      : Каверномер 
CILD               .мСм/м                                  : Индукционный каротаж 
COLL               .unitless                               : Описание 
CSAT               .unitless                               : Описание 
GR                 .uR/h                                   : Гамма каротаж 
MINV               .Ohmm                                   : Микро-градиент зонд 
MNOR               .Ohmm                                   : Микро-потенциал зонд 
NGLD               .у.е.                                   : Показания зонда НГК-60 аппаратуры ДРСТ-3-90 
PHIE               .д.ед.                                  : Описание 
PHIEN              .д.ед.                                  :  
PHIT               .д.ед.                                  : Описание 
PRMB               .mD                                     :  
PRMB_DGR           .mD                                     :  
RT                 .ohmm                                   : УЭС пласта 
SOIL_ARCHIE        .д.ед.                                  :  
SOIL_DW            .д.ед.                                  :  
SP                 .мВ                                     : Потенциал самополяризации 
VSH_FIN            .д.ед.                                  : Описание 
VSH_GR             .д.ед.                                  : Shale volume 
VSH_SP             .д.ед.                                  : Shale Volume 
~Ascii
# ...
1152       0.211      113.115    1          2          5.07       1.424      2.21       1.161      0.2281742  0.2281742  0.2664614  62.44565   75.58524   17.25      0.7923703  0.8264879  6.519      0.1160217  0.1109394  0.121104  
1152.2     0.211      105.664    1          2          5.13       1.47       2.134      1.178      0.2210888  0.2210888  0.2609772  45.45563   61.16149   23.071     0.8136955  0.8459916  6.35       0.1208739  0.1209583  0.1207895 
1152.4     0.211      96.181     1          2          5.261      1.568      2.036      1.182      0.2157272  0.2157272  0.2596868  36.03353   38.52127   24.87      0.8163064  0.8496864  6.096      0.1332108  0.1460897  0.1203319 
1152.6     0.211      91.061     1          2          5.326      1.483      1.978      1.179      0.2144361  0.2144361  0.2606546  34.19565   30.62515   23.283     0.8096159  0.8446302  5.715      0.1400559  0.1604349  0.119677  
1152.8     0.211      86.02101   1          2          5.392      1.352      1.918      1.177      0.2125866  0.2125866  0.2612998  31.65905   24.26181   19.049     0.7893092  0.8278866  5.165      0.1476158  0.1764427  0.1187888 
1153       0.211      74.507     1          2          5.514      1.314      1.875      1.165      0.2109792  0.2109792  0.265171   29.88387   15.77395   15.451     0.766302   0.8100829  4.699      0.1642177  0.2103562  0.1180793 
1153.2     0.211      64.347     1          2          5.595      1.259      1.833      1.163      0.2073786  0.2073786  0.2658162  25.67626   11.85211   14.252     0.7537612  0.8011714  4.487      0.1770835  0.2364001  0.117767  
1153.4     0.211      55.541     1          2          5.612      1.331      1.82       1.162      0.2067643  0.2067643  0.2661388  25.0349    11.16196   13.122     0.7434087  0.7926975  4.36       0.1799227  0.2422629  0.1175826 
1153.6     0.21       48.091     1          2          5.557      1.288      1.765      1.165      0.2088623  0.2088623  0.265171   27.30411   13.55301   11.958     0.7341831  0.7832297  4.276      0.1706323  0.2238031  0.1174615 
1153.8     0.21       41.995     1          2          5.489      1.25       1.681      1.167      0.2116841  0.2116841  0.2645258  30.74036   17.22886   11.535     0.732655   0.780156   4.191      0.1601263  0.2029127  0.1173398 
1154       0.21       36.576     1          2          5.493      1.229      1.643      1.171      0.2102002  0.2102002  0.2632354  28.75095   16.98735   11.429     0.7298012  0.7778131  4.191      0.1607128  0.2040858  0.1173398 
1154.2     0.21       33.189     1          2          5.485      1.229      1.634      1.169      0.2112314  0.2112314  0.2638806  30.09796   17.47378   11.324     0.7297946  0.777578   4.191      0.1595432  0.2017466  0.1173398 
1154.4     0.21       30.48      1          2          5.438      1.272      1.651      1.166      0.2143691  0.2143691  0.2648484  34.50124   20.6263    11.324     0.7332091  0.7794296  4.233      0.1529675  0.188535   0.1173998 
1154.6     0.21       29.803     1          2          5.404      1.25       1.706      1.164      0.2164916  0.2164916  0.2654936  37.83842   23.25584   11.324     0.7354661  0.7806572  4.276      0.1484909  0.1795203  0.1174615 
1154.8     0.21       29.803     1          2          5.409      1.216      1.733      1.163      0.21658    0.21658    0.2658162  38.01577   22.84907   11.324     0.7355794  0.7808626  4.36       0.1492005  0.1808185  0.1175826 
1155       0.21       30.48      1          2          5.454      1.339      1.761      1.167      0.2132705  0.2132705  0.2645258  32.89212   19.49392   11.324     0.7320253  0.7787939  4.445      0.1553191  0.1929325  0.1177058 
1155.2     0.21       31.157     1          2          5.493      1.441      1.922      1.175      0.2088289  0.2088289  0.261945   27.01983   16.98735   11.429     0.728209   0.7765205  4.53       0.1609579  0.2040858  0.1178299 
1155.4     0.21       32.512     1          2          5.604      1.534      1.935      1.177      0.2023325  0.2023325  0.2612998  20.44406   11.48157   11.535     0.7220098  0.7743108  4.572      0.1786888  0.2394861  0.1178915 
1155.6     0.21       33.867     1          2          5.663      1.322      1.909      1.173      0.2001061  0.2001061  0.2625902  18.65952   9.323413   11.535     0.7194998  0.7740083  4.614      0.1893457  0.260738   0.1179534 
1155.8     0.21       35.899     1          2          5.608      1.255      1.723      1.169      0.2046642  0.2046642  0.2638806  22.74559   11.32064   11.112     0.7200152  0.7725565  4.657      0.1794437  0.2408704  0.118017  
1156       0.21       37.931     1          2          5.485      1.195      1.6        1.154      0.215938   0.215938   0.2687196  37.29115   17.47378   10.477     0.7252708  0.7734661  4.741      0.1599442  0.2017466  0.1181419 
1156.2     0.21       39.963     1          2          5.337      1.178      1.592      1.14       0.2268373  0.2268373  0.273236   60.1152    29.45911   9.312      0.7217903  0.7669856  4.784      0.1406022  0.1629982  0.1182062 
1156.4     0.21       41.317     1          2          5.214      1.335      1.719      1.14       0.2311953  0.2311953  0.273236   72.39444   45.47106   8.148      0.7085243  0.7528405  4.826      0.1273961  0.1365229  0.1182693 
1156.6     0.21       42.672     1          2          5.142      1.352      1.824      1.138      0.2340605  0.2340605  0.2738812  81.95238   58.62544   8.096      0.71072    0.7536708  4.826      0.1206687  0.1230681  0.1182693 
1156.8     0.211      44.704     1          2          5.184      1.204      1.71       1.136      0.2334283  0.2334283  0.2745264  79.91661   50.54928   8.042      0.7091905  0.7529349  4.868      0.1245397  0.1307466  0.1183327 
1157       0.211      46.736     1          2          5.243      1.098      1.532      1.133      0.2324817  0.2324817  0.2754942  76.96297   41.04767   8.995001   0.7231936  0.7665153  4.868      0.1303409  0.1423491  0.1183327 
1157.2     0.211      48.768     1          2          5.256      1.051      1.427      1.126      0.2342958  0.2342958  0.2777524  83.68179   39.20703   10.159     0.7404082  0.7821231  4.868      0.1316868  0.1450409  0.1183327 
1157.4     0.211      49.815     1          2          5.286      1.191      1.549      1.122      0.2345182  0.2345182  0.2790428  84.78541   35.26833   10.477     0.7444189  0.7861638  4.911      0.1349232  0.1514486  0.1183978 
1157.6     0.211      50.8       1          2          5.298      1.216      1.702      1.12       0.2346954  0.2346954  0.279688   85.58348   33.80593   10.688     0.7469992  0.7886585  5.038      0.1363411  0.1540903  0.1185919 
1157.8     0.211      52.832     1          2          5.311      1.221      1.744      1.117      0.23515    0.23515    0.2806558  87.49579   32.29003   10.794     0.7486365  0.7903227  5.165      0.1378965  0.1570042  0.1187888 
1158       0.21       54.187     1          2          5.311      1.161      1.659      1.105      0.2389882  0.2389882  0.284527   104.182    32.29003   10.583     0.7499658  0.7914537  5.292      0.1379963  0.1570042  0.1189885 
1158.2     0.21       54.864     1          2          5.222      1.132      1.549      1.101      0.2433748  0.2433748  0.2858174  126.0705   44.20528   9.736      0.7440192  0.7848056  5.376      0.1286141  0.1381059  0.1191223 
1158.4     0.21       55.541     1          2          5.104      1.127      1.469      1.102      0.2465816  0.2465816  0.2854948  144.4174   67.03891   8.678      0.7327694  0.7731314  5.503      0.1179187  0.1165102  0.1193272 
1158.6     0.21       56.21901   1          2          4.922      1.094      1.486      1.102      0.2509936  0.2509936  0.2854948  174.3171   127.4294   7.830999   0.723743   0.7629226  5.588      0.1045491  0.08963185 0.1194663 
1158.8     0.21       57.573     1          2          4.833      1.208      1.579      1.111      0.2498472  0.2498472  0.2825914  164.6535   174.4517   7.302      0.7132347  0.7524423  5.673      0.09922498 0.07884305 0.1196069 
