~Version
 VERS              .         2.0                           : CWLS LOG ASCII STANDARD - VERSION 2.0
 WRAP              .         NO                            : ONE LINE PER DEPTH STEP
 DLM               .         SPACE                         : DELIMITING CHARACTER(SPACE TAB OR COMMA)
~Well Information
#_______________________________________________________________________________
#
#PARAMETER_NAME    .UNIT     VALUE                         : DESCRIPTION
#_______________________________________________________________________________
STRT               .M        900                           : First reference value
STOP               .M        1294                          : Last reference value
STEP               .M        0.2                           : Step increment
NULL               .         -9999                         : Missing value
COMP               .                                       : Company
WELL               .         2389                          : Well name
FLD                .         УЗЕНЬ                         : Field
LOC                .                                       : Location
CNTY               .                                       : County
STAT               .                                       : State
CTRY               .                                       : Country
SRVC               .                                       : Service Company
DATE               .         23.04.74                      : Date
UWI                .                                       : Unique Well ID
Block              .         6а                            : 
Cartographic_reference_system .         GCS_WGS_1984                  : ESRI,PE_10_3_1- <?xml version="1.0" encoding="utf-16"?><ILateBoundCoordinateReferenceSystem name="GCS_WGS_1984"><AuthorityCode>EPSG,4326</AuthorityCode></ILateBoundCoordinateReferenceSystem>
Category           .         Нефтяная                      : 
Condition          .         Ликвидированная               : 
Date               .         01.10.1974                    : 
EREF               .m        84.8                          : 100.8
Gorizont           .         15                            : 14
HZCS               .GCS_WGS_1984 WGS_1984_EASE-Grid_2.0_Global : ESRI,PE_10_3_1- <?xml version="1.0" encoding="utf-16"?><ILateBoundCoordinateReferenceSystem name="WGS_1984_EASE-Grid_2.0_Global"><AuthorityCode>EPSG,6933</AuthorityCode></ILateBoundCoordinateReferenceSystem>
Interpretator      .         Ткачева И.Г.                  : 
Kupol              .         Основной                      : osnovnoi
LATI               .dega     0.6696001439                  : GCS_WGS_1984
LONG               .dega     0.4650412461                  : GCS_WGS_1984
Mud                .         0                             : 
Mud_density        .         0                             : 
Mud_resistivity    .         0                             : 
NGDU               .         НГДУ-2                        : 
ORIGINALWELLNAME   .         2389                          : 
Spud_date          .         1974                          : 1961
Viscosity          .         0                             : 
X                  .m        44870.1                       : 46154
Y                  .m        85421.2                       : 85761.93
YEAR               .         2018                          : 
Исправ_15гор       .         Исправ.15гор                  : 
~Parameter Information Block
#_______________________________________________________________________________
#
#PARAMETER_NAME    .UNIT     VALUE                         : DESCRIPTION
#_______________________________________________________________________________
SET                .         LQC_KAZNIPI_Petrel            : 
TLFamily_CALI      .         Caliper                       : 
TLFamily_CILD      .         Conductivity                  : 
TLFamily_COLL      .         Net Reservoir Flag            : 
TLFamily_CSAT      .         Fluid Code                    : 
TLFamily_DEPT      .         Measured Depth                : 
TLFamily_GR        .         Russian Gamma Ray             : 
TLFamily_MINV      .         Micro Gradient Resistivity    : 
TLFamily_MNOR      .         Micro Resistivity             : 
TLFamily_NGLD      .         Neutron Gamma                 : 
TLFamily_PHIE      .         Effective Porosity            : 
TLFamily_PHIEN     .         Effective Porosity            : 
TLFamily_PHIT      .         Porosity                      : 
TLFamily_PRMB      .         Permeability                  : 
TLFamily_PRMB_DGR  .         Permeability                  : 
TLFamily_RT        .         Formation Resistivity         : 
TLFamily_SOIL_ARCHIE .         Oil Saturation                : 
TLFamily_SOIL_DW   .         Oil Saturation                : 
TLFamily_SP        .         Spontaneous Potential         : 
TLFamily_VSH_FIN   .         Shale Volume                  : 
TLFamily_VSH_GR    .         Shale Volume                  : 
TLFamily_VSH_SP    .         Shale Volume                  : 
~Curve Information
#_______________________________________________________________________________
#
#LOGNAME           .UNIT     LOG_ID                        : DESCRIPTION
#_______________________________________________________________________________
DEPT               .M                                      : Колонка глубины 
CALI               .м                                      : Каверномер 
CILD               .мСм/м                                  : Индукционный каротаж 
COLL               .unitless                               : Описание 
CSAT               .unitless                               : Описание 
GR                 .uR/h                                   : Гамма каротаж 
MINV               .Ohmm                                   : Микро-градиент зонд 
MNOR               .Ohmm                                   : Микро-потенциал зонд 
NGLD               .у.е.                                   : Показания зонда НГК-60 аппаратуры ДРСТ-3-90 
PHIE               .д.ед.                                  : Описание 
PHIEN              .д.ед.                                  :  
PHIT               .д.ед.                                  : Описание 
PRMB               .mD                                     :  
PRMB_DGR           .mD                                     :  
RT                 .ohmm                                   : УЭС пласта 
SOIL_ARCHIE        .д.ед.                                  :  
SOIL_DW            .д.ед.                                  :  
SP                 .мВ                                     : Потенциал самополяризации 
VSH_FIN            .д.ед.                                  : Описание 
VSH_GR             .д.ед.                                  : Shale volume 
VSH_SP             .д.ед.                                  : Shale Volume 
~Ascii
# ...
998        0.314      516.4581   -9999      -9999      5.417      0.831      0.901      0.934      0.1027038  0.1027038  0.3396916  0.3635994  0.7498189  1.849      0          0.3991903  45.678     0.7181447  0.7297491  0.7065403 
998.2000000000001 0.307      514.773    -9999      -9999      5.273      0.852      0.863      0.936      0.1103559  0.1103559  0.3390464  0.503005   0.8999733  1.934      0          0.4247571  45.72      0.6930016  0.6773353  0.7086678 
998.4      0.299      511.3871   -9999      -9999      5.193      0.903      0.787      0.942      0.1129536  0.1129536  0.3371108  0.5588968  0.9960253  2.044      0.01633929 0.4422385  45.72      0.6792644  0.649861   0.7086678 
998.6      0.298      508        -9999      -9999      5.172      0.945      0.801      0.945      0.1138545  0.1138545  0.336143   0.5792171  1.022895   2.137      0.04228671 0.4547529  45.635     0.6736014  0.6428355  0.7043674 
998.8      0.299      503.936    -9999      -9999      5.112      0.835      0.811      0.944      0.1184741  0.1184741  0.3364656  0.7059924  1.103726   2.162      0.07726115 0.4652145  45.508     0.6605803  0.6231784  0.6979821 
999        0.301      499.872    -9999      -9999      5.07       0.772      0.935      0.943      0.1223977  0.1223977  0.3367882  0.8353482  1.164079   2.171      0.1027863  0.4723509  45.339     0.6496681  0.6097773  0.6895589 
999.2000000000001 0.301      495.808    -9999      -9999      5.104      0.882      0.893      0.945      0.12066    0.12066    0.336143   0.7742762  1.114976   2.154      0.08888859 0.4670427  45.254     0.6529787  0.6206033  0.6853541 
999.4      0.299      491.744    -9999      -9999      5.21       0.896      0.838      0.947      0.1145811  0.1145811  0.3354978  0.5963689  0.9747913  2.116      0.04240111 0.4524071  45.212     0.6694444  0.6556045  0.6832842 
999.6      0.301      488.357    -9999      -9999      5.218      0.916      0.787      0.959      0.1102611  0.1102611  0.3316266  0.4906654  0.964956   2.111      0.009881724 0.4402308  45.212     0.6708045  0.6583248  0.6832842 
999.8      0.305      485.6479   -9999      -9999      5.125      0.924      0.828      0.958      0.1156886  0.1156886  0.3319492  0.6190262  1.085687   2.103      0.04540779 0.4481695  45.212     0.655335   0.6273858  0.6832842 
1000       0.309      483.616    -9999      -9999      5.015      0.882      0.885      0.953      0.1230309  0.1230309  0.3335622  0.8504909  1.248133   2.09       0.08913407 0.4594074  45.212     0.6379735  0.5926628  0.6832842 
1000.2     0.31       482.939    -9999      -9999      4.96       0.878      0.95       0.953      0.1257756  0.1257756  0.3335622  0.9561067  1.338254   2.069      0.1008234  0.4606386  45.212     0.6296565  0.5760288  0.6832842 
1000.4     0.307      483.616    -9999      -9999      4.918      0.873      0.902      0.96       0.1255613  0.1255613  0.331304   0.9414301  1.411432   2.044      0.09358524 0.4543958  45.212     0.6234629  0.5636416  0.6832842 
1000.6     0.305      486.325    -9999      -9999      4.812      0.776      0.889      0.967      0.1282682  0.1282682  0.3290458  1.049973   1.61441    2.035      0.1062882  0.4544371  45.212     0.6084171  0.53355    0.6832842 
1000.8     0.306      489.712    -9999      -9999      4.655      0.797      0.883      0.97       0.1340008  0.1340008  0.328078   1.337156   1.969897   2.039      0.1376701  0.4618923  45.233     0.5881128  0.491907   0.6843185 
1001       0.307      493.7761   -9999      -9999      4.638      0.817      0.876      0.973      0.1332226  0.1332226  0.3271102  1.290004   2.012808   2.065      0.1384135  0.4631047  45.297     0.5875381  0.4875976  0.6874786 
1001.2     0.308      497.1631   -9999      -9999      4.77       0.831      0.826      0.968      0.1288034  0.1288034  0.3287232  1.073247   1.702689   2.082      0.1186518  0.4610122  45.339     0.6058176  0.5220762  0.6895589 
1001.4     0.304      499.1951   -9999      -9999      4.99       0.996      0.86       0.969      0.1184345  0.1184345  0.3284006  0.6890488  1.288319   2.073      0.0552626  0.4441239  45.297     0.6362609  0.5850431  0.6874786 
1001.6     0.299      499.872    -9999      -9999      5.049      0.996      0.91       0.973      0.1141507  0.1141507  0.3271102  0.5719165  1.195483   2.048      0.02094781 0.4323467  45.297     0.6453318  0.603185   0.6874786 
1001.8     0.291      499.1951   -9999      -9999      4.986      0.945      0.949      0.976      0.1167265  0.1167265  0.3261424  0.6365967  1.294868   2.035      0.0349261  0.4334559  45.254     0.6345937  0.5838332  0.6853541 
1002       0.289      498.517    -9999      -9999      4.939      0.922      0.995      0.978      0.1183965  0.1183965  0.3254972  0.6823574  1.374356   2.035      0.04555129 0.4352907  45.254     0.6275778  0.5698016  0.6853541 
1002.2     0.288      496.485    -9999      -9999      4.981      0.894      1.058      0.969      0.1195752  0.1195752  0.3284006  0.7234004  1.3031     2.031      0.05342536 0.4401757  45.212     0.6328042  0.5823241  0.6832842 
1002.4     0.293      494.453    -9999      -9999      5.024      0.954      1.058      0.961      0.1199935  0.1199935  0.3309814  0.7417674  1.233974   2.039      0.05886902 0.4450589  45.212     0.6393572  0.5954302  0.6832842 
1002.6     0.294      491.0669   -9999      -9999      4.964      1.043      0.944      0.961      0.1229978  0.1229978  0.3309814  0.8431668  1.331485   2.069      0.08359957 0.4535823  45.212     0.6302534  0.5772227  0.6832842 
1002.8     0.294      488.357    -9999      -9999      4.909      1.145      0.963      0.961      0.1256709  0.1256709  0.3309814  0.9449871  1.427626   2.133      0.1120351  0.4656835  45.212     0.6221531  0.5610219  0.6832842 
1003       0.292      484.9709   -9999      -9999      4.939      1.231      0.984      0.962      0.1238997  0.1238997  0.3306588  0.8754392  1.374356   2.167      0.1083945  0.4670033  45.212     0.6265429  0.5698016  0.6832842 
1003.2     0.291      481.584    -9999      -9999      5.006      1.259      1.194      0.959      0.1215498  0.1215498  0.3316266  0.794108   1.262453   2.158      0.09323297 0.4636174  45.212     0.6365963  0.5899084  0.6832842 
1003.4     0.291      478.1971   -9999      -9999      5.053      1.322      1.363      0.951      0.1213922  0.1213922  0.3342074  0.7945129  1.189437   2.12       0.08571365 0.4616142  45.254     0.6448947  0.6044352  0.6853541 
1003.6     0.29       474.811    -9999      -9999      5.032      1.31       1.304      0.948      0.1230876  0.1230876  0.3351752  0.8564111  1.221524   2.09       0.0900957  0.461361   45.297     0.6426897  0.5979008  0.6874786 
1003.8     0.285      472.101    -9999      -9999      4.969      1.305      1.348      0.954      0.1243171  0.1243171  0.3332396  0.897635   1.323074   2.094      0.09736627 0.4614094  45.297     0.6330985  0.5787184  0.6874786 
1004       0.28       468.037    -9999      -9999      4.833      1.297      1.393      0.957      0.1301905  0.1301905  0.3322718  1.150034   1.572002   2.099      0.1307961  0.4692056  45.254     0.6123676  0.5393812  0.6853541 
1004.2     0.276      463.973    -9999      -9999      4.732      1.176      1.38       0.96       0.1340973  0.1340973  0.331304   1.354867   1.786713   2.103      0.1516619  0.4739216  45.212     0.597596   0.5119079  0.6832842 
1004.4     0.277      459.909    -9999      -9999      4.757      1.11       1.329      0.959      0.1329783  0.1329783  0.3316266  1.292892   1.730979   2.099      0.1452624  0.4722778  45.254     0.6019646  0.5185751  0.6853541 
1004.6     0.278      458.555    -9999      -9999      4.892      1.093      1.261      0.953      0.1283706  0.1283706  0.3335622  1.068002   1.458723   2.103      0.1221631  0.4686592  45.297     0.6217929  0.5561071  0.6874786 
1004.8     0.28       459.232    -9999      -9999      4.977      1.076      1.239      0.945      0.126481   0.126481   0.336143   0.9924634  1.309724   2.125      0.1169405  0.4717064  45.339     0.6353394  0.5811198  0.6895589 
