~Version
 VERS              .         2.0                           : CWLS LOG ASCII STANDARD - VERSION 2.0
 WRAP              .         NO                            : ONE LINE PER DEPTH STEP
 DLM               .         SPACE                         : DELIMITING CHARACTER(SPACE TAB OR COMMA)
~Well Information
#_______________________________________________________________________________
#
#PARAMETER_NAME    .UNIT     VALUE                         : DESCRIPTION
#_______________________________________________________________________________
STRT               .M        900                           : First reference value
STOP               .M        1294                          : Last reference value
STEP               .M        0.2                           : Step increment
NULL               .         -9999                         : Missing value
COMP               .                                       : Company
WELL               .         2389                          : Well name
FLD                .         УЗЕНЬ                         : Field
LOC                .                                       : Location
CNTY               .                                       : County
STAT               .                                       : State
CTRY               .                                       : Country
SRVC               .                                       : Service Company
DATE               .         23.04.74                      : Date
UWI                .                                       : Unique Well ID
Block              .         6а                            : 
Cartographic_reference_system .         GCS_WGS_1984                  : ESRI,PE_10_3_1- <?xml version="1.0" encoding="utf-16"?><ILateBoundCoordinateReferenceSystem name="GCS_WGS_1984"><AuthorityCode>EPSG,4326</AuthorityCode></ILateBoundCoordinateReferenceSystem>
Category           .         Нефтяная                      : 
Condition          .         Ликвидированная               : 
Date               .         01.10.1974                    : 
EREF               .m        84.8                          : 100.8
Gorizont           .         15                            : 14
HZCS               .GCS_WGS_1984 WGS_1984_EASE-Grid_2.0_Global : ESRI,PE_10_3_1- <?xml version="1.0" encoding="utf-16"?><ILateBoundCoordinateReferenceSystem name="WGS_1984_EASE-Grid_2.0_Global"><AuthorityCode>EPSG,6933</AuthorityCode></ILateBoundCoordinateReferenceSystem>
Interpretator      .         Ткачева И.Г.                  : 
Kupol              .         Основной                      : osnovnoi
LATI               .dega     0.6696001439                  : GCS_WGS_1984
LONG               .dega     0.4650412461                  : GCS_WGS_1984
Mud                .         0                             : 
Mud_density        .         0                             : 
Mud_resistivity    .         0                             : 
NGDU               .         НГДУ-2                        : 
ORIGINALWELLNAME   .         2389                          : 
Spud_date          .         1974                          : 1961
Viscosity          .         0                             : 
X                  .m        44870.1                       : 46154
Y                  .m        85421.2                       : 85761.93
YEAR               .         2018                          : 
Исправ_15гор       .         Исправ.15гор                  : 
~Parameter Information Block
#_______________________________________________________________________________
#
#PARAMETER_NAME    .UNIT     VALUE                         : DESCRIPTION
#_______________________________________________________________________________
SET                .         LQC_KAZNIPI_Petrel            : 
TLFamily_CALI      .         Caliper                       : 
TLFamily_CILD      .         Conductivity                  : 
TLFamily_COLL      .         Net Reservoir Flag            : 
TLFamily_CSAT      .         Fluid Code                    : 
TLFamily_DEPT      .         Measured Depth                : 
TLFamily_GR        .         Russian Gamma Ray             : 
TLFamily_MINV      .         Micro Gradient Resistivity    : 
TLFamily_MNOR      .         Micro Resistivity             : 
TLFamily_NGLD      .         Neutron Gamma                 : 
TLFamily_PHIE      .         Effective Porosity            : 
TLFamily_PHIEN     .         Effective Porosity            : 
TLFamily_PHIT      .         Porosity                      : 
TLFamily_PRMB      .         Permeability                  : 
TLFamily_PRMB_DGR  .         Permeability                  : 
TLFamily_RT        .         Formation Resistivity         : 
TLFamily_SOIL_ARCHIE .         Oil Saturation                : 
TLFamily_SOIL_DW   .         Oil Saturation                : 
TLFamily_SP        .         Spontaneous Potential         : 
TLFamily_VSH_FIN   .         Shale Volume                  : 
TLFamily_VSH_GR    .         Shale Volume                  : 
TLFamily_VSH_SP    .         Shale Volume                  : 
~Curve Information
#_______________________________________________________________________________
#
#LOGNAME           .UNIT     LOG_ID                        : DESCRIPTION
#_______________________________________________________________________________
DEPT               .M                                      : Колонка глубины 
CALI               .м                                      : Каверномер 
CILD               .мСм/м                                  : Индукционный каротаж 
COLL               .unitless                               : Описание 
CSAT               .unitless                               : Описание 
GR                 .uR/h                                   : Гамма каротаж 
MINV               .Ohmm                                   : Микро-градиент зонд 
MNOR               .Ohmm                                   : Микро-потенциал зонд 
NGLD               .у.е.                                   : Показания зонда НГК-60 аппаратуры ДРСТ-3-90 
PHIE               .д.ед.                                  : Описание 
PHIEN              .д.ед.                                  :  
PHIT               .д.ед.                                  : Описание 
PRMB               .mD                                     :  
PRMB_DGR           .mD                                     :  
RT                 .ohmm                                   : УЭС пласта 
SOIL_ARCHIE        .д.ед.                                  :  
SOIL_DW            .д.ед.                                  :  
SP                 .мВ                                     : Потенциал самополяризации 
VSH_FIN            .д.ед.                                  : Описание 
VSH_GR             .д.ед.                                  : Shale volume 
VSH_SP             .д.ед.                                  : Shale Volume 
~Ascii
# ...
1229       0.212      609.6      8          3          6.636      1.14       1.613      1.042      0.2167322  0.2167322  0.3048508  42.68714   4.058093   2.573      0.482832   0.5848534  17.018     0.2670259  0.366198   0.1678537 
1229.2     0.212      629.2429   8          3          6.619      1.229      1.587      1.042      0.2198484  0.2198484  0.3048508  48.75457   4.244289   2.501      0.4821161  0.581316   15.536     0.2575831  0.359551   0.1556151 
1229.4     0.213      641.4351   8          3          6.624      1.288      1.738      1.044      0.2200462  0.2200462  0.3042056  49.07878   4.188656   2.424      0.4747708  0.5742946  14.52      0.2550285  0.3614934  0.1485636 
1229.6     0.214      647.5309   8          3          6.645      1.576      2.019      1.051      0.2170252  0.2170252  0.3019474  42.87357   3.962852   2.365      0.4621767  0.5645536  13.928     0.2573399  0.3697666  0.1449133 
1229.8     0.214      648.208    -9999      -9999      6.768      1.61       2.07       1.054      0.2076932  0.2076932  0.3009796  28.7184    2.864472   2.344      0.4395683  0.5539579  13.631     0.2826859  0.4221703  0.1432016 
1230       0.214      644.821    -9999      -9999      6.746      1.661      2.045      1.054      0.2094802  0.2094802  0.3009796  30.99265   3.035693   2.344      0.4435652  0.5554736  13.462     0.277271   0.41228    0.1422621 
1230.2     0.214      637.371    8          3          6.67       1.441      1.82       1.044      0.2176592  0.2176592  0.3042056  44.32832   3.709852   2.374      0.4647484  0.5679535  13.885     0.2622617  0.3798629  0.1446606 
1230.4     0.214      629.2429   8          3          6.598      1.369      1.702      1.039      0.2233958  0.2233958  0.3058186  56.87217   4.486129   2.369      0.4759606  0.5734258  14.436     0.2497661  0.3515064  0.1480258 
1230.6     0.214      619.0831   8          3          6.522      1.415      1.727      1.037      0.2271916  0.2271916  0.3064638  66.98727   5.482405   2.39       0.4855137  0.5787363  15.663     0.240219   0.3238677  0.1565702 
1230.8     0.214      607.568    8          3          6.357      1.661      1.888      1.034      0.2347454  0.2347454  0.3074316  92.70128   8.473601   2.412      0.5016771  0.5869886  17.187     0.2202611  0.2711147  0.1694076 
1231       0.214      594.021    8          3          6.251      1.754      1.989      1.032      0.2360845  0.2360845  0.3080768  98.32733   11.20852   2.437      0.5065149  0.590602   19.516     0.2181586  0.2418514  0.1944657 
1231.2     0.215      582.5071   8          3          6.34       1.737      2.006      1.033      0.2260306  0.2260306  0.3077542  63.98211   8.862377   2.454      0.4898309  0.5845231  21.971     0.2476474  0.2661937  0.2291011 
1231.4     0.216      572.347    8          3          6.467      1.483      1.833      1.034      0.2142688  0.2142688  0.3074316  38.70881   6.338742   2.45       0.4660802  0.574926   23.707     0.2823114  0.3052316  0.2593912 
1231.6     0.217      560.832    -9999      -9999      6.509      1.305      1.702      1.04       0.2044329  0.2044329  0.305496   25.30868   5.673743   2.404      0.4394894  0.5610375  25.358     0.3062517  0.3193626  0.2931409 
1231.8     0.218      546.608    -9999      -9999      6.569      1.331      1.647      1.045      0.1944336  0.1944336  0.303883   16.44725   4.842918   2.374      0.4118657  0.5479435  26.628     0.331665   0.3406921  0.3226379 
1232       0.218      531.0289   -9999      -9999      6.713      1.343      1.727      1.05       0.1760512  0.1760512  0.30227    7.475566   3.311899   2.357      0.3588315  0.5269139  28.321     0.3824812  0.3978774  0.367085  
1232.2     0.218      516.1279   -9999      -9999      6.882      1.377      1.748      1.051      0.1568729  0.1568729  0.3019474  3.296271   2.120293   2.391      0.299351   0.5090585  29.506     0.4396196  0.4773488  0.4018905 
1232.4     0.217      503.259    -9999      -9999      6.907      1.284      1.753      1.052      0.1511057  0.1511057  0.3016248  2.575184   1.984928   2.475      0.2889409  0.5103725  30.141     0.4561183  0.4903826  0.421854  
1232.6     0.216      495.808    -9999      -9999      6.839      1.458      1.952      1.054      0.1536609  0.1536609  0.3009796  2.866491   2.375064   2.552      0.3085387  0.5200949  30.607     0.4464203  0.455736   0.4371045 
1232.8     0.216      493.099    -9999      -9999      6.505      1.962      2.227      1.057      0.1730632  0.1730632  0.3000118  6.539584   5.733945   2.492      0.3659998  0.5345801  31.03      0.3846927  0.3179891  0.4513962 
1233       0.216      495.131    -9999      -9999      6.355      2.233      2.087      1.063      0.1754077  0.1754077  0.2980762  7.188199   8.518435   2.471      0.3701602  0.533008   31.644     0.3717228  0.2705311  0.4729145 
1233.2     0.217      499.1951   -9999      -9999      6.463      2.042      1.731      1.071      0.1664392  0.1664392  0.2954954  4.868101   6.406008   2.442      0.3379419  0.5179626  31.792     0.3910795  0.3039188  0.4782403 
1233.4     0.217      504.6129   -9999      -9999      6.467      1.636      1.681      1.078      0.1649671  0.1649671  0.2932372  4.543016   6.338742   2.484      0.3378734  0.51798    31.623     0.3886974  0.3052316  0.4721632 
1233.6     0.217      510.032    -9999      -9999      6.323      1.521      1.727      1.074      0.1759547  0.1759547  0.2945276  7.285049   9.269007   2.467      0.3706156  0.5294787  31.2       0.3593118  0.2613619  0.4572617 
1233.8     0.217      515.4509   -9999      -9999      6.289      1.596      1.799      1.07       0.1830447  0.1830447  0.295818   9.892996   10.13908   2.441      0.3881628  0.5354881  30.438     0.3417371  0.2519599  0.4315143 
1234       0.216      518.837    1          3          6.361      1.513      1.676      1.065      0.1872526  0.1872526  0.297431   11.89132   8.384625   2.425      0.3980607  0.5397018  29.295     0.333874   0.2722858  0.3954622 
1234.2     0.216      519.515    1          3          6.351      1.454      1.617      1.061      0.1980902  0.1980902  0.2987214  18.94703   8.608832   2.425      0.4258471  0.5510032  27.337     0.3049429  0.2693675  0.3405183 
1234.4     0.216      519.515    1          3          6.222      1.284      1.549      1.059      0.2099527  0.2099527  0.2993666  31.48101   12.09994   2.476      0.45848    0.5663763  25.993     0.2709511  0.2344108  0.3074914 
1234.6     0.216      517.4829   1          3          6.249      1.335      1.681      1.059      0.2088109  0.2088109  0.2993666  29.9847    11.26783   2.476      0.4560055  0.5654337  25.993     0.2744111  0.2413308  0.3074914 
1234.8     0.216      512.741    1          3          6.484      1.322      1.689      1.049      0.1994138  0.1994138  0.3025926  20.26606   6.060667   2.476      0.4351793  0.5605021  26.289     0.3126629  0.3108745  0.3144513 
1235       0.217      505.291    -9999      -9999      6.577      1.305      1.566      1.048      0.1913273  0.1913273  0.3029152  14.36745   4.741747   2.463      0.4139768  0.5524592  27.03      0.3381452  0.3436418  0.3326487 
1235.2     0.218      497.1631   -9999      -9999      6.668      1.123      1.426      1.054      0.1797944  0.1797944  0.3009796  8.737873   3.729483   2.45       0.3810176  0.5384051  27.898     0.3672279  0.3790452  0.3554107 
1235.4     0.219      490.389    -9999      -9999      6.772      1.111      1.524      1.058      0.1683737  0.1683737  0.2996892  5.349288   2.834397   2.395      0.3391423  0.5199175  28.49      0.3979259  0.4239937  0.3718581 
1235.6     0.22       487.68     -9999      -9999      6.742      1.382      1.655      1.063      0.1687839  0.1687839  0.2980762  5.41916    3.067904   2.378      0.3379199  0.5169157  28.533     0.3917947  0.4105069  0.3730825 
1235.8     0.22       490.389    8          3          6.586      1.53       1.71       1.059      0.183282   0.183282   0.2993666  10.0935    4.630461   2.45       0.390522   0.54019    27.94      0.3517715  0.3469905  0.3565526 
