~Version
 VERS              .         2.0                           : CWLS LOG ASCII STANDARD - VERSION 2.0
 WRAP              .         NO                            : ONE LINE PER DEPTH STEP
 DLM               .         SPACE                         : DELIMITING CHARACTER(SPACE TAB OR COMMA)
~Well Information
#_______________________________________________________________________________
#
#PARAMETER_NAME    .UNIT     VALUE                         : DESCRIPTION
#_______________________________________________________________________________
STRT               .M        900                           : First reference value
STOP               .M        1294                          : Last reference value
STEP               .M        0.2                           : Step increment
NULL               .         -9999                         : Missing value
COMP               .                                       : Company
WELL               .         2389                          : Well name
FLD                .         УЗЕНЬ                         : Field
LOC                .                                       : Location
CNTY               .                                       : County
STAT               .                                       : State
CTRY               .                                       : Country
SRVC               .                                       : Service Company
DATE               .         23.04.74                      : Date
UWI                .                                       : Unique Well ID
Block              .         6а                            : 
Cartographic_reference_system .         GCS_WGS_1984                  : ESRI,PE_10_3_1- <?xml version="1.0" encoding="utf-16"?><ILateBoundCoordinateReferenceSystem name="GCS_WGS_1984"><AuthorityCode>EPSG,4326</AuthorityCode></ILateBoundCoordinateReferenceSystem>
Category           .         Нефтяная                      : 
Condition          .         Ликвидированная               : 
Date               .         01.10.1974                    : 
EREF               .m        84.8                          : 100.8
Gorizont           .         15                            : 14
HZCS               .GCS_WGS_1984 WGS_1984_EASE-Grid_2.0_Global : ESRI,PE_10_3_1- <?xml version="1.0" encoding="utf-16"?><ILateBoundCoordinateReferenceSystem name="WGS_1984_EASE-Grid_2.0_Global"><AuthorityCode>EPSG,6933</AuthorityCode></ILateBoundCoordinateReferenceSystem>
Interpretator      .         Ткачева И.Г.                  : 
Kupol              .         Основной                      : osnovnoi
LATI               .dega     0.6696001439                  : GCS_WGS_1984
LONG               .dega     0.4650412461                  : GCS_WGS_1984
Mud                .         0                             : 
Mud_density        .         0                             : 
Mud_resistivity    .         0                             : 
NGDU               .         НГДУ-2                        : 
ORIGINALWELLNAME   .         2389                          : 
Spud_date          .         1974                          : 1961
Viscosity          .         0                             : 
X                  .m        44870.1                       : 46154
Y                  .m        85421.2                       : 85761.93
YEAR               .         2018                          : 
Исправ_15гор       .         Исправ.15гор                  : 
~Parameter Information Block
#_______________________________________________________________________________
#
#PARAMETER_NAME    .UNIT     VALUE                         : DESCRIPTION
#_______________________________________________________________________________
SET                .         LQC_KAZNIPI_Petrel            : 
TLFamily_CALI      .         Caliper                       : 
TLFamily_CILD      .         Conductivity                  : 
TLFamily_COLL      .         Net Reservoir Flag            : 
TLFamily_CSAT      .         Fluid Code                    : 
TLFamily_DEPT      .         Measured Depth                : 
TLFamily_GR        .         Russian Gamma Ray             : 
TLFamily_MINV      .         Micro Gradient Resistivity    : 
TLFamily_MNOR      .         Micro Resistivity             : 
TLFamily_NGLD      .         Neutron Gamma                 : 
TLFamily_PHIE      .         Effective Porosity            : 
TLFamily_PHIEN     .         Effective Porosity            : 
TLFamily_PHIT      .         Porosity                      : 
TLFamily_PRMB      .         Permeability                  : 
TLFamily_PRMB_DGR  .         Permeability                  : 
TLFamily_RT        .         Formation Resistivity         : 
TLFamily_SOIL_ARCHIE .         Oil Saturation                : 
TLFamily_SOIL_DW   .         Oil Saturation                : 
TLFamily_SP        .         Spontaneous Potential         : 
TLFamily_VSH_FIN   .         Shale Volume                  : 
TLFamily_VSH_GR    .         Shale Volume                  : 
TLFamily_VSH_SP    .         Shale Volume                  : 
~Curve Information
#_______________________________________________________________________________
#
#LOGNAME           .UNIT     LOG_ID                        : DESCRIPTION
#_______________________________________________________________________________
DEPT               .M                                      : Колонка глубины 
CALI               .м                                      : Каверномер 
CILD               .мСм/м                                  : Индукционный каротаж 
COLL               .unitless                               : Описание 
CSAT               .unitless                               : Описание 
GR                 .uR/h                                   : Гамма каротаж 
MINV               .Ohmm                                   : Микро-градиент зонд 
MNOR               .Ohmm                                   : Микро-потенциал зонд 
NGLD               .у.е.                                   : Показания зонда НГК-60 аппаратуры ДРСТ-3-90 
PHIE               .д.ед.                                  : Описание 
PHIEN              .д.ед.                                  :  
PHIT               .д.ед.                                  : Описание 
PRMB               .mD                                     :  
PRMB_DGR           .mD                                     :  
RT                 .ohmm                                   : УЭС пласта 
SOIL_ARCHIE        .д.ед.                                  :  
SOIL_DW            .д.ед.                                  :  
SP                 .мВ                                     : Потенциал самополяризации 
VSH_FIN            .д.ед.                                  : Описание 
VSH_GR             .д.ед.                                  : Shale volume 
VSH_SP             .д.ед.                                  : Shale Volume 
~Ascii
900.0      0.21       354.923    -9999      -9999      5.256      1.542      1.469      1.045      0.1422199  0.1422199  0.303883   1.774062   0.9195769  2.261      0.2099388  0.4720539  34.629     0.4898883  0.6714015  0.3083752 
900.2000000000001 0.21       354.923    -9999      -9999      5.256      1.542      1.469      1.045      0.1422199  0.1422199  0.303883   1.774062   0.9195769  2.261      0.2099388  0.4720539  34.629     0.4898883  0.6714015  0.3083752 
900.4      0.209      362.3729   -9999      -9999      5.506      1.005      1.317      1.032      0.1315953  0.1315953  0.3080768  1.140987   0.6698245  1.685      0.03530054 0.3773822  34.502     0.5347925  0.7641525  0.3054326 
900.6      0.209      367.115    -9999      -9999      5.735      1.106      1.308      1.029      0.1271285  0.1271285  0.3090446  0.9456336  0.5010656  1.532      0          0.3406245  34.375     0.5512609  0.8        0.3025217 
900.8      0.209      366.437    -9999      -9999      5.781      1.123      1.346      1.033      0.1259996  0.1259996  0.3077542  0.8979278  0.4726844  1.541      0          0.3385761  34.332     0.5507717  0.8        0.3015433 
901        0.208      362.3729   -9999      -9999      5.713      1.149      1.355      1.04       0.124055   0.124055   0.305496   0.8212498  0.5152358  1.562      0          0.3360612  34.248     0.5498212  0.8        0.2996424 
901.2000000000001 0.208      355.6      -9999      -9999      5.633      1.187      1.334      1.047      0.1221119  0.1221119  0.3032378  0.7511637  0.5702254  1.566      0          0.3297895  34.163     0.5488664  0.8        0.2977328 
901.4      0.208      349.5041   -9999      -9999      5.663      1.212      1.304      1.054      0.1201665  0.1201665  0.3009796  0.6869924  0.548948   1.575      0          0.3244425  34.078     0.5479186  0.8        0.2958372 
901.6      0.208      344.085    -9999      -9999      5.743      1.212      1.283      1.061      0.118062   0.118062   0.2987214  0.6240551  0.4960103  1.587      0          0.319286   34.036     0.5474529  0.8        0.2949057 
901.8      0.208      340.699    -9999      -9999      5.777      1.204      1.38       1.06       0.1183846  0.1183846  0.299044   0.6332733  0.4750874  1.642      0          0.3319207  34.036     0.5474529  0.8        0.2949057 
902        0.208      339.344    -9999      -9999      5.798      1.25       1.719      1.048      0.1222558  0.1222558  0.3029152  0.7551048  0.4626076  1.744      0          0.3646887  34.036     0.5474529  0.8        0.2949057 
902.2000000000001 0.209      340.699    -9999      -9999      5.828      1.504      1.918      1.033      0.1269411  0.1269411  0.3077542  0.9347178  0.4453456  2.083      0.1006255  0.432557   34.078     0.5479186  0.8        0.2958372 
902.4      0.21       342.053    -9999      -9999      5.913      1.597      1.897      1.025      0.1293639  0.1293639  0.310335   1.043998   0.3998563  2.29       0.153743   0.4654932  34.121     0.5483972  0.8        0.2967944 
902.6      0.21       342.731    -9999      -9999      5.976      1.589      1.626      1.023      0.1298543  0.1298543  0.3109802  1.06799    0.3691664  2.256      0.1506199  0.4629715  34.163     0.5488664  0.8        0.2977328 
902.8      0.21       340.021    -9999      -9999      5.964      1.352      1.427      1.021      0.1304995  0.1304995  0.3116254  1.099773   0.3748246  1.977      0.1002031  0.428147   34.163     0.5488664  0.8        0.2977328 
903        0.21       333.248    -9999      -9999      5.921      1.212      1.359      1.019      0.1311447  0.1311447  0.3122706  1.132502   0.3958223  1.769      0.05605318 0.3973718  34.163     0.5488664  0.8        0.2977328 
903.2000000000001 0.211      324.443    -9999      -9999      5.921      1.132      1.359      1.02       0.1306667  0.1306667  0.311948   1.108646   0.3958223  1.727      0.04239045 0.3888714  34.205     0.5493373  0.8        0.2986747 
903.4      0.211      317.669    -9999      -9999      6.035      1.187      1.439      1.024      0.1292166  0.1292166  0.3106576  1.038396   0.3425643  1.676      0.01947171 0.3754214  34.248     0.5498212  0.8        0.2996424 
903.6      0.211      315.637    -9999      -9999      6.205      1.297      1.553      1.028      0.1277696  0.1277696  0.3093672  0.9727278  0.2761568  1.668      0.007717232 0.3696371  34.29      0.5502956  0.8        0.3005912 
903.8      0.212      317.669    -9999      -9999      6.298      1.415      1.778      1.016      0.1311641  0.1311641  0.3132384  1.136517   0.2454476  1.825      0.07023525 0.4080105  34.417     0.5517404  0.8        0.3034809 
904        0.213      321.056    -9999      -9999      6.289      1.957      2.252      0.987      0.1395502  0.1395502  0.3225938  1.66838    0.2482636  2.305      0.2105019  0.4950024  34.671     0.5546777  0.8        0.3093553 
904.2000000000001 0.218      322.4111   -9999      -9999      6.243      2.376      2.151      0.949      0.1501479  0.1501479  0.3348526  2.713385   0.26317    3.177      0.3628888  0.5914928  35.094     0.5597113  0.8        0.3194227 
904.4      0.223      321.056    -9999      -9999      6.285      2.262      1.685      0.92       0.1583014  0.1583014  0.344208   3.943864   0.2495258  3.329      0.4048042  0.6156999  35.391     0.5633534  0.8        0.3267067 
904.6      0.232      319.024    -9999      -9999      6.404      1.602      0.986      0.91       0.1601233  0.1601233  0.347434   4.301265   0.2145877  2.857      0.3671194  0.589493   35.729     0.567608   0.8        0.335216  
904.8      0.239      320.379    -9999      -9999      6.501      0.975      0.791      0.916      0.1565582  0.1565582  0.3454984  3.674548   0.1897604  1.778      0.1942749  0.4734511  36.11      0.5725462  0.8        0.3450924 
905        0.245      325.12     -9999      -9999      6.598      0.814      0.787      0.93       0.1494046  0.1494046  0.340982   2.674268   0.1678054  1.186      0          0.3386202  36.703     0.5805376  0.8        0.3610753 
905.2000000000001 0.243      329.184    -9999      -9999      6.636      0.793      0.77       0.941      0.1426916  0.1426916  0.3374334  1.988591   0.1599141  0.953      0          0.2448118  37.38      0.5901266  0.8        0.3802531 
905.4      0.238      329.184    -9999      -9999      6.615      0.818      0.745      0.946      0.1388031  0.1388031  0.3358204  1.677093   0.1642281  0.931      0          0.226035   37.846     0.5970221  0.8        0.3940442 
905.6      0.236      323.765    -9999      -9999      6.472      0.962      0.83       0.945      0.13699    0.13699    0.336143   1.553694   0.1968657  0.931      0          0.2230667  38.269     0.6034941  0.8        0.4069883 
905.8      0.243      316.992    -9999      -9999      6.226      0.92       0.893      0.95       0.1333951  0.1333951  0.33453    1.326833   0.2689028  0.91       0          0.2043016  38.65      0.6094998  0.8        0.4189996 
906        0.256      314.283    -9999      -9999      5.951      0.996      0.91       0.957      0.1281715  0.1281715  0.3322718  1.055151   0.3810524  0.953      0          0.2080956  39.201     0.6184857  0.8        0.4369714 
906.2000000000001 0.268      310.896    -9999      -9999      5.697      0.916      0.809      0.971      0.1212976  0.1212976  0.3277554  0.777135   0.5257921  1.037      0          0.2191324  39.624     0.6256295  0.8        0.451259  
906.4      0.273      302.091    -9999      -9999      5.549      0.84       0.656      0.991      0.1167145  0.1167145  0.3213034  0.6276985  0.6342921  1.08       0          0.2138411  39.836     0.6199665  0.7813507  0.4585823 
906.6      0.264      283.803    -9999      -9999      5.456      0.759      0.572      1.023      0.1117176  0.1117176  0.3109802  0.4927563  0.7136524  1.059      0          0.1752931  39.963     0.603826   0.7446299  0.4630221 
906.8      0.259      262.805    -9999      -9999      5.4        0.7        0.508      1.06       0.1025525  0.1025525  0.299044   0.3223619  0.7661518  1.101      0          0.1441263  40.09      0.5954287  0.7233562  0.4675013 
