~Version
 VERS              .         2.0                           : CWLS LOG ASCII STANDARD - VERSION 2.0
 WRAP              .         NO                            : ONE LINE PER DEPTH STEP
 DLM               .         SPACE                         : DELIMITING CHARACTER(SPACE TAB OR COMMA)
~Well Information
#_______________________________________________________________________________
#
#PARAMETER_NAME    .UNIT     VALUE                         : DESCRIPTION
#_______________________________________________________________________________
STRT               .M        900                           : First reference value
STOP               .M        1294                          : Last reference value
STEP               .M        0.2                           : Step increment
NULL               .         -9999                         : Missing value
COMP               .                                       : Company
WELL               .         2389                          : Well name
FLD                .         УЗЕНЬ                         : Field
LOC                .                                       : Location
CNTY               .                                       : County
STAT               .                                       : State
CTRY               .                                       : Country
SRVC               .                                       : Service Company
DATE               .         23.04.74                      : Date
UWI                .                                       : Unique Well ID
Block              .         6а                            : 
Cartographic_reference_system .         GCS_WGS_1984                  : ESRI,PE_10_3_1- <?xml version="1.0" encoding="utf-16"?><ILateBoundCoordinateReferenceSystem name="GCS_WGS_1984"><AuthorityCode>EPSG,4326</AuthorityCode></ILateBoundCoordinateReferenceSystem>
Category           .         Нефтяная                      : 
Condition          .         Ликвидированная               : 
Date               .         01.10.1974                    : 
EREF               .m        84.8                          : 100.8
Gorizont           .         15                            : 14
HZCS               .GCS_WGS_1984 WGS_1984_EASE-Grid_2.0_Global : ESRI,PE_10_3_1- <?xml version="1.0" encoding="utf-16"?><ILateBoundCoordinateReferenceSystem name="WGS_1984_EASE-Grid_2.0_Global"><AuthorityCode>EPSG,6933</AuthorityCode></ILateBoundCoordinateReferenceSystem>
Interpretator      .         Ткачева И.Г.                  : 
Kupol              .         Основной                      : osnovnoi
LATI               .dega     0.6696001439                  : GCS_WGS_1984
LONG               .dega     0.4650412461                  : GCS_WGS_1984
Mud                .         0                             : 
Mud_density        .         0                             : 
Mud_resistivity    .         0                             : 
NGDU               .         НГДУ-2                        : 
ORIGINALWELLNAME   .         2389                          : 
Spud_date          .         1974                          : 1961
Viscosity          .         0                             : 
X                  .m        44870.1                       : 46154
Y                  .m        85421.2                       : 85761.93
YEAR               .         2018                          : 
Исправ_15гор       .         Исправ.15гор                  : 
~Parameter Information Block
#_______________________________________________________________________________
#
#PARAMETER_NAME    .UNIT     VALUE                         : DESCRIPTION
#_______________________________________________________________________________
SET                .         LQC_KAZNIPI_Petrel            : 
TLFamily_CALI      .         Caliper                       : 
TLFamily_CILD      .         Conductivity                  : 
TLFamily_COLL      .         Net Reservoir Flag            : 
TLFamily_CSAT      .         Fluid Code                    : 
TLFamily_DEPT      .         Measured Depth                : 
TLFamily_GR        .         Russian Gamma Ray             : 
TLFamily_MINV      .         Micro Gradient Resistivity    : 
TLFamily_MNOR      .         Micro Resistivity             : 
TLFamily_NGLD      .         Neutron Gamma                 : 
TLFamily_PHIE      .         Effective Porosity            : 
TLFamily_PHIEN     .         Effective Porosity            : 
TLFamily_PHIT      .         Porosity                      : 
TLFamily_PRMB      .         Permeability                  : 
TLFamily_PRMB_DGR  .         Permeability                  : 
TLFamily_RT        .         Formation Resistivity         : 
TLFamily_SOIL_ARCHIE .         Oil Saturation                : 
TLFamily_SOIL_DW   .         Oil Saturation                : 
TLFamily_SP        .         Spontaneous Potential         : 
TLFamily_VSH_FIN   .         Shale Volume                  : 
TLFamily_VSH_GR    .         Shale Volume                  : 
TLFamily_VSH_SP    .         Shale Volume                  : 
~Curve Information
#_______________________________________________________________________________
#
#LOGNAME           .UNIT     LOG_ID                        : DESCRIPTION
#_______________________________________________________________________________
DEPT               .M                                      : Колонка глубины 
CALI               .м                                      : Каверномер 
CILD               .мСм/м                                  : Индукционный каротаж 
COLL               .unitless                               : Описание 
CSAT               .unitless                               : Описание 
GR                 .uR/h                                   : Гамма каротаж 
MINV               .Ohmm                                   : Микро-градиент зонд 
MNOR               .Ohmm                                   : Микро-потенциал зонд 
NGLD               .у.е.                                   : Показания зонда НГК-60 аппаратуры ДРСТ-3-90 
PHIE               .д.ед.                                  : Описание 
PHIEN              .д.ед.                                  :  
PHIT               .д.ед.                                  : Описание 
PRMB               .mD                                     :  
PRMB_DGR           .mD                                     :  
RT                 .ohmm                                   : УЭС пласта 
SOIL_ARCHIE        .д.ед.                                  :  
SOIL_DW            .д.ед.                                  :  
SP                 .мВ                                     : Потенциал самополяризации 
VSH_FIN            .д.ед.                                  : Описание 
VSH_GR             .д.ед.                                  : Shale volume 
VSH_SP             .д.ед.                                  : Shale Volume 
~Ascii
# ...
1103       0.276      476.3959   -9999      -9999      6.251      1.509      1.477      0.931      0.1374541  0.1374541  0.3406594  1.604944   1.931784   2.23       0.1938903  0.5032769  40.513     0.6157737  0.4958471  0.7357004 
1103.2     0.279      470.7471   -9999      -9999      6.361      1.767      1.537      0.941      0.127263   0.127263   0.3374334  1.029839   1.664713   2.221      0.1397779  0.4857218  40.725     0.63688    0.5269069  0.7468531 
1103.4     0.28       459.909    -9999      -9999      6.463      1.843      1.596      0.95       0.116714   0.116714   0.33453    0.651393   1.450175   2.238      0.080432   0.4695943  41.021     0.6600484  0.5574436  0.7626533 
1103.6     0.283      451.781    -9999      -9999      6.476      1.961      1.473      0.951      0.1130774  0.1130774  0.3342074  0.557302   1.424897   2.281      0.06525812 0.4688471  41.317     0.670091   0.5614606  0.7787216 
1103.8     0.273      445.008    -9999      -9999      6.421      1.758      1.465      0.949      0.1145682  0.1145682  0.3348526  0.5949637  1.534945   2.327      0.08382469 0.4770712  41.529     0.6675284  0.544661   0.7903958 
1104       0.256      439.589    -9999      -9999      6.412      1.974      1.613      0.95       0.1131392  0.1131392  0.33453    0.5592786  1.553745   2.412      0.08996476 0.4839268  41.698     0.6708813  0.5419602  0.7998022 
1104.2     0.251      433.4931   -9999      -9999      6.45       1.822      1.621      0.958      0.1086291  0.1086291  0.3319492  0.4580877  1.4759     2.484      0.07190753 0.4818813  41.783     0.6767277  0.5534553  0.8       
1104.4     0.252      427.397    -9999      -9999      6.463      1.894      1.646      0.966      0.1053902  0.1053902  0.3293684  0.3961097  1.450175   2.518      0.05427594 0.4774446  41.91      0.6787218  0.5574436  0.8       
1104.6     0.251      421.301    -9999      -9999      6.425      1.636      1.481      0.975      0.1043971  0.1043971  0.326465   0.3766064  1.526662   2.526      0.04721625 0.4732799  42.079     0.6729329  0.5458657  0.8       
1104.8     0.255      415.883    -9999      -9999      6.395      1.585      1.49       0.983      0.1032965  0.1032965  0.3238842  0.3567463  1.589887   2.524      0.03759087 0.4681972  42.206     0.6684476  0.5368952  0.8       
1105       0.266      409.787    -9999      -9999      6.442      1.636      1.562      0.983      0.1009667  0.1009667  0.3238842  0.3230026  1.491958   2.51       0.01751161 0.462886   42.376     0.6755076  0.5510152  0.8       
1105.2     0.274      403.691    -9999      -9999      6.501      1.682      1.621      0.983      0.09795514 0.09795514 0.3238842  0.2840694  1.377517   2.505      0          0.4572697  42.503     0.6846336  0.5692672  0.8       
1105.4     0.278      394.885    -9999      -9999      6.526      1.898      1.808      0.984      0.09632652 0.09632652 0.3235616  0.2647683  1.331714   2.514      0          0.4550319  42.672     0.6885911  0.5771822  0.8       
1105.6     0.283      387.435    -9999      -9999      6.471      2.02       1.897      0.99       0.09724047 0.09724047 0.321626   0.2738032  1.434566   2.547      0          0.4577163  42.841     0.6799561  0.5599123  0.8       
1105.8     0.279      384.725    -9999      -9999      6.323      2.3        2.07       1.002      0.1006209  0.1006209  0.3177548  0.3128528  1.752518   2.615      0.03054518 0.4656915  42.968     0.6579816  0.5159631  0.8       
1106       0.273      384.725    -9999      -9999      6.184      2.364      1.977      1.012      0.1036863  0.1036863  0.3145288  0.3533402  2.115033   2.721      0.06933645 0.4772384  43.053     0.6389166  0.4778332  0.8       
1106.2     0.261      386.757    -9999      -9999      6.044      2.355      1.892      1.019      0.1072949  0.1072949  0.3122706  0.4095283  2.555991   2.844      0.1119927  0.4915918  43.053     0.6211383  0.4422767  0.8       
1106.4     0.254      390.821    -9999      -9999      5.968      2.169      1.778      1.031      0.1064236  0.1064236  0.3083994  0.3903314  2.832731   2.844      0.1044769  0.4855774  43.095     0.6120477  0.4240955  0.8       
1106.6     0.252      396.24     -9999      -9999      5.832      1.978      1.676      1.03       0.11181    0.11181    0.308722   0.4915813  3.40485    2.776      0.1295567  0.4880695  43.138     0.5967029  0.3934059  0.8       
1106.8     0.254      401.659    -9999      -9999      5.794      1.889      1.655      1.022      0.115739   0.115739   0.3113028  0.5854787  3.584435   2.67       0.1388227  0.4870505  43.18      0.5926175  0.385235   0.8       
1107       0.257      405.723    -9999      -9999      5.786      1.843      1.579      1.007      0.1208583  0.1208583  0.3161418  0.7382824  3.623435   2.615      0.1619625  0.494765   43.18      0.5917682  0.3835365  0.8       
1107.2     0.259      407.077    -9999      -9999      5.9        1.847      1.528      0.999      0.1193263  0.1193263  0.3187226  0.6966058  3.105642   2.522      0.1397856  0.4863334  43.138     0.6042313  0.4084626  0.8       
1107.4     0.264      401.659    -9999      -9999      6.057      1.752      1.431      0.997      0.1138663  0.1138663  0.3193678  0.5528916  2.511439   2.378      0.08214834 0.4635295  43.095     0.6227319  0.4454638  0.8       
1107.6     0.265      385.403    -9999      -9999      6.133      1.619      1.427      1.002      0.1091023  0.1091023  0.3177548  0.4491955  2.266089   2.31       0.03650599 0.4460153  43.053     0.6322805  0.464561   0.8       
1107.8     0.264      362.3729   -9999      -9999      6.086      1.813      1.41       1.013      0.1075179  0.1075179  0.3142062  0.4156899  2.414832   2.298      0.02112017 0.4373358  43.053     0.6263282  0.4526564  0.8       
1108       0.259      341.376    -9999      -9999      5.921      2.165      1.689      1.034      0.107249   0.107249   0.3074316  0.4032207  3.018667   2.412      0.03800479 0.4415319  43.011     0.6066139  0.4132279  0.8       
1108.2     0.254      321.056    -9999      -9999      5.798      2.8        2.311      1.066      0.101404   0.101404   0.2971084  0.3052915  3.565094   2.738      0.04692385 0.4526772  42.926     0.5930435  0.386087   0.8       
1108.4     0.25       306.155    -9999      -9999      5.692      3.295      3.175      1.107      0.09180006 0.09180006 0.2838818  0.1953107  4.114718   3.576      0.08261149 0.4885646  42.757     0.5820659  0.3641318  0.8       
1108.6     0.238      300.059    -9999      -9999      5.608      3.401      3.7        1.148      0.08129732 0.08129732 0.2706552  0.1202513  4.609837   5.015      0.1299936  0.534875   42.587     0.5738118  0.3476236  0.8       
1108.8     0.232      310.219    -9999      -9999      5.489      2.973      3.505      1.188      0.07204206 0.07204206 0.2577512  0.07815437 5.414912   5.756      0.09327254 0.5322174  42.46      0.562755   0.32551    0.8       
1109       0.232      329.184    -9999      -9999      5.409      2.582      2.913      1.208      0.06791161 0.06791161 0.2512992  0.06435668 6.033746   5.608      0.03277894 0.5079642  42.376     0.55572    0.31144    0.8       
1109.2     0.236      348.827    -9999      -9999      5.442      2.237      2.802      1.182      0.07535396 0.07535396 0.2596868  0.090501   5.770338   4.401      0.00946479 0.4753981  42.291     0.5585843  0.3171687  0.8       
1109.4     0.237      366.437    -9999      -9999      5.62       1.606      2.426      1.096      0.0976911  0.0976911  0.2874304  0.2536072  4.535615   3.364      0.1037642  0.4878965  42.122     0.5749676  0.3499353  0.8       
1109.6     0.241      371.658    -9999      -9999      5.925      1.597      2.235      1.04       0.1051626  0.1051626  0.305496   0.3668951  3.002377   2.645      0.06322762 0.4607907  41.995     0.6070709  0.4141419  0.8       
1109.8     0.246      376.597    -9999      -9999      6.217      1.623      1.503      1.036      0.0944937  0.0944937  0.3067864  0.2336138  2.022701   2.243      0          0.3960292  41.91      0.6433112  0.4866224  0.8       
