~Version
 VERS              .         2.0                           : CWLS LOG ASCII STANDARD - VERSION 2.0
 WRAP              .         NO                            : ONE LINE PER DEPTH STEP
 DLM               .         SPACE                         : DELIMITING CHARACTER(SPACE TAB OR COMMA)
~Well Information
#_______________________________________________________________________________
#
#PARAMETER_NAME    .UNIT     VALUE                         : DESCRIPTION
#_______________________________________________________________________________
STRT               .M        900                           : First reference value
STOP               .M        1294                          : Last reference value
STEP               .M        0.2                           : Step increment
NULL               .         -9999                         : Missing value
COMP               .                                       : Company
WELL               .         2389                          : Well name
FLD                .         УЗЕНЬ                         : Field
LOC                .                                       : Location
CNTY               .                                       : County
STAT               .                                       : State
CTRY               .                                       : Country
SRVC               .                                       : Service Company
DATE               .         23.04.74                      : Date
UWI                .                                       : Unique Well ID
Block              .         6а                            : 
Cartographic_reference_system .         GCS_WGS_1984                  : ESRI,PE_10_3_1- <?xml version="1.0" encoding="utf-16"?><ILateBoundCoordinateReferenceSystem name="GCS_WGS_1984"><AuthorityCode>EPSG,4326</AuthorityCode></ILateBoundCoordinateReferenceSystem>
Category           .         Нефтяная                      : 
Condition          .         Ликвидированная               : 
Date               .         01.10.1974                    : 
EREF               .m        84.8                          : 100.8
Gorizont           .         15                            : 14
HZCS               .GCS_WGS_1984 WGS_1984_EASE-Grid_2.0_Global : ESRI,PE_10_3_1- <?xml version="1.0" encoding="utf-16"?><ILateBoundCoordinateReferenceSystem name="WGS_1984_EASE-Grid_2.0_Global"><AuthorityCode>EPSG,6933</AuthorityCode></ILateBoundCoordinateReferenceSystem>
Interpretator      .         Ткачева И.Г.                  : 
Kupol              .         Основной                      : osnovnoi
LATI               .dega     0.6696001439                  : GCS_WGS_1984
LONG               .dega     0.4650412461                  : GCS_WGS_1984
Mud                .         0                             : 
Mud_density        .         0                             : 
Mud_resistivity    .         0                             : 
NGDU               .         НГДУ-2                        : 
ORIGINALWELLNAME   .         2389                          : 
Spud_date          .         1974                          : 1961
Viscosity          .         0                             : 
X                  .m        44870.1                       : 46154
Y                  .m        85421.2                       : 85761.93
YEAR               .         2018                          : 
Исправ_15гор       .         Исправ.15гор                  : 
~Parameter Information Block
#_______________________________________________________________________________
#
#PARAMETER_NAME    .UNIT     VALUE                         : DESCRIPTION
#_______________________________________________________________________________
SET                .         LQC_KAZNIPI_Petrel            : 
TLFamily_CALI      .         Caliper                       : 
TLFamily_CILD      .         Conductivity                  : 
TLFamily_COLL      .         Net Reservoir Flag            : 
TLFamily_CSAT      .         Fluid Code                    : 
TLFamily_DEPT      .         Measured Depth                : 
TLFamily_GR        .         Russian Gamma Ray             : 
TLFamily_MINV      .         Micro Gradient Resistivity    : 
TLFamily_MNOR      .         Micro Resistivity             : 
TLFamily_NGLD      .         Neutron Gamma                 : 
TLFamily_PHIE      .         Effective Porosity            : 
TLFamily_PHIEN     .         Effective Porosity            : 
TLFamily_PHIT      .         Porosity                      : 
TLFamily_PRMB      .         Permeability                  : 
TLFamily_PRMB_DGR  .         Permeability                  : 
TLFamily_RT        .         Formation Resistivity         : 
TLFamily_SOIL_ARCHIE .         Oil Saturation                : 
TLFamily_SOIL_DW   .         Oil Saturation                : 
TLFamily_SP        .         Spontaneous Potential         : 
TLFamily_VSH_FIN   .         Shale Volume                  : 
TLFamily_VSH_GR    .         Shale Volume                  : 
TLFamily_VSH_SP    .         Shale Volume                  : 
~Curve Information
#_______________________________________________________________________________
#
#LOGNAME           .UNIT     LOG_ID                        : DESCRIPTION
#_______________________________________________________________________________
DEPT               .M                                      : Колонка глубины 
CALI               .м                                      : Каверномер 
CILD               .мСм/м                                  : Индукционный каротаж 
COLL               .unitless                               : Описание 
CSAT               .unitless                               : Описание 
GR                 .uR/h                                   : Гамма каротаж 
MINV               .Ohmm                                   : Микро-градиент зонд 
MNOR               .Ohmm                                   : Микро-потенциал зонд 
NGLD               .у.е.                                   : Показания зонда НГК-60 аппаратуры ДРСТ-3-90 
PHIE               .д.ед.                                  : Описание 
PHIEN              .д.ед.                                  :  
PHIT               .д.ед.                                  : Описание 
PRMB               .mD                                     :  
PRMB_DGR           .mD                                     :  
RT                 .ohmm                                   : УЭС пласта 
SOIL_ARCHIE        .д.ед.                                  :  
SOIL_DW            .д.ед.                                  :  
SP                 .мВ                                     : Потенциал самополяризации 
VSH_FIN            .д.ед.                                  : Описание 
VSH_GR             .д.ед.                                  : Shale volume 
VSH_SP             .д.ед.                                  : Shale Volume 
~Ascii
# ...
949        0.222      208.619    -9999      -9999      3.961      2.414      1.96       1.168      0.08846048 0.08846048 0.2642032  0.1602933  4.747844   2.623      0          0.3625856  45.974     0.5325537  0.3434615  0.721646  
949.2000000000001 0.222      207.264    -9999      -9999      3.885      2.165      2.024      1.173      0.08465495 0.08465495 0.2625902  0.135664   5.227994   2.433      0          0.325603   46.482     0.5391977  0.3302129  0.7481826 
949.4      0.221      206.587    -9999      -9999      3.915      2.452      2.049      1.162      0.08435722 0.08435722 0.2661388  0.1352912  5.032917   2.412      0          0.3286734  46.821     0.5508533  0.3353804  0.7663262 
949.6      0.221      204.555    -9999      -9999      3.995      2.351      1.984      1.129      0.09191272 0.09191272 0.2767846  0.1923862  4.547569   2.338      0          0.3557651  46.905     0.5602179  0.3495594  0.7708763 
949.8      0.221      198.12     -9999      -9999      4.092      2.385      1.914      1.111      0.09700903 0.09700903 0.2825914  0.2430177  4.021424   2.285      0          0.3694034  46.651     0.5623709  0.3675579  0.757184  
950        0.221      191.685    -9999      -9999      4.156      2.232      1.528      1.105      0.1005924  0.1005924  0.284527   0.2846867  3.708063   2.772      0.03996184 0.4370733  46.228     0.5573775  0.3799377  0.7348172 
950.2000000000001 0.221      190.331    -9999      -9999      4.136      2.304      1.817      1.123      0.09939401 0.09939401 0.2787202  0.2661346  3.803272   4.042      0.1853382  0.524877   45.762     0.5434127  0.3760248  0.7108006 
950.4      0.222      191.685    -9999      -9999      4.118      2.487      2.036      1.135      0.09855993 0.09855993 0.274849   0.2540623  3.891048   5.862      0.3096166  0.600307   45.466     0.5342093  0.3725378  0.6958809 
950.6      0.222      195.749    -9999      -9999      3.974      2.643      2.121      1.143      0.1028132  0.1028132  0.2722682  0.3023991  4.670247   7.534      0.4062394  0.6500142  45.17      0.5134999  0.3457804  0.6812193 
950.8      0.223      198.416    -9999      -9999      3.821      2.952      3.137      1.158      0.10537    0.10537    0.2674292  0.332696   5.669799   6.984      0.3954611  0.634846   44.789     0.4910885  0.3194533  0.6627237 
951        0.223      201.168    -9999      -9999      3.715      3.299      3.223      1.176      0.1066688  0.1066688  0.2616224  0.3459682  6.485171   5.608      0.3346367  0.5878049  44.238     0.4695564  0.3023984  0.6367143 
951.2000000000001 0.224      207.941    -9999      -9999      3.715      3.532      3.383      1.187      0.1072623  0.1072623  0.2580738  0.3513252  6.485171   3.766      0.2001606  0.4930677  43.688     0.4570046  0.3023984  0.6116108 
951.4      0.224      214.715    -9999      -9999      3.809      3.143      3.874      1.184      0.108226   0.108226   0.2590416  0.3670609  5.7567     3.449      0.1729948  0.4733457  43.349     0.4570169  0.3174753  0.5965586 
951.6      0.225      222.165    -9999      -9999      3.94       2.753      3.718      1.172      0.1102487  0.1102487  0.2629128  0.4044971  4.875924   3.788      0.2220682  0.5059488  43.095     0.4626184  0.3397485  0.5854884 
951.8      0.225      229.616    -9999      -9999      4.016      2.415      3.518      1.157      0.1131378  0.1131378  0.2677518  0.4637875  4.428111   4.613      0.3073372  0.562045   43.053     0.4685273  0.3533797  0.5836749 
952        0.226      237.744    -9999      -9999      4.054      2.423      3.255      1.149      0.1142612  0.1142612  0.2703326  0.4900806  4.21987    4.718999   0.3210594  0.5714098  43.095     0.4729437  0.360399   0.5854884 
952.2000000000001 0.226      244.517    -9999      -9999      4.092      2.508      2.824      1.144      0.1131704  0.1131704  0.2719456  0.4699242  4.021424   4.317      0.2870394  0.5522823  43.307     0.4811369  0.3675579  0.5947158 
952.4      0.226      249.936    -9999      -9999      4.156      2.889      2.616      1.137      0.1121576  0.1121576  0.2742038  0.4529153  3.708063   3.894      0.2469673  0.5298833  43.476     0.4910491  0.3799377  0.6021605 
952.6      0.226      252.645    -9999      -9999      4.166      3.249      2.566      1.13       0.1128417  0.1128417  0.276462   0.4692856  3.661359   3.978      0.258975   0.538553   43.646     0.495819   0.3819093  0.6097286 
952.8      0.226      253.323    -9999      -9999      4.177      3.105      2.557      1.13       0.1112274  0.1112274  0.276462   0.4380615  3.61066    3.851      0.2386841  0.5286626  43.815     0.500711   0.3840899  0.617332  
953        0.226      251.291    -9999      -9999      4.122      2.932      2.54       1.138      0.1078689  0.1078689  0.2738812  0.376866   3.871369   3.322      0.1622495  0.4836884  44.154     0.5030676  0.3733099  0.6328253 
953.2000000000001 0.226      248.581    -9999      -9999      4.003      2.74       2.87       1.145      0.106688   0.106688   0.271623   0.3560942  4.501686   3.83       0.2083841  0.5144554  44.492     0.4998031  0.3510098  0.6485963 
953.4      0.226      245.195    -9999      -9999      3.94       2.376      2.989      1.143      0.1072004  0.1072004  0.2722682  0.3646206  4.875924   4.19       0.2442755  0.5373325  44.746     0.5002055  0.3397485  0.6606625 
953.6      0.226      241.808    -9999      -9999      3.957      2.817      3.107      1.136      0.1076135  0.1076135  0.2745264  0.3734576  4.771979   4.063      0.2365501  0.533546   44.916     0.5057967  0.3427512  0.6688421 
953.8      0.226      239.776    -9999      -9999      4.058      2.609      2.65       1.13       0.1054967  0.1054967  0.276462   0.3430752  4.198527   3.111      0.1213679  0.4660124  45.043     0.5180767  0.361146   0.6750073 
954        0.226      239.099    -9999      -9999      4.16       2.817      2.451      1.124      0.1031768  0.1031768  0.2783976  0.3124461  3.689311   2.963      0.08552951 0.4514853  45.17      0.5309722  0.3807251  0.6812193 
954.2000000000001 0.226      240.453    -9999      -9999      4.274      2.27       2.684      1.119      0.1013194  0.1013194  0.2800106  0.2899577  3.192914   2.984      0.0757893  0.4523868  45.127     0.5414886  0.4038664  0.6791108 
954.4      0.226      241.808    -9999      -9999      4.401      2.139      2.599      1.121      0.0968236  0.0968236  0.2793654  0.2389333  2.718145   2.878      0.02442996 0.4330037  45.043     0.5531569  0.4313066  0.6750073 
954.6      0.226      244.517    -9999      -9999      4.541      2.19       2.777      1.121      0.09350201 0.09350201 0.2793654  0.2073732  2.276154   2.433      0          0.3762599  44.789     0.5632223  0.463721   0.6627237 
954.8      0.226      247.904    -9999      -9999      4.605      2.372      2.591      1.121      0.09325594 0.09325594 0.2793654  0.2052083  2.09879    2.623      0          0.3987615  44.492     0.563968   0.4793397  0.6485963 
955        0.226      251.291    -9999      -9999      4.584      2.863      2.451      1.124      0.09670936 0.09670936 0.2783976  0.2371278  2.155409   3.004      0.04242753 0.4433925  44.027     0.5505705  0.4741578  0.6269832 
955.2000000000001 0.226      254.677    -9999      -9999      4.562      2.533      2.578      1.138      0.09655182 0.09655182 0.2738812  0.2325772  2.216363   3.301      0.0803721  0.462335   43.561     0.5373617  0.468789   0.6059345 
955.4      0.226      258.064    -9999      -9999      4.427      2.559      2.735      1.151      0.1000424  0.1000424  0.2696874  0.2667572  2.630023   3.491      0.1277313  0.4774956  43.222     0.5140758  0.4371502  0.5910014 
955.6      0.226      262.128    -9999      -9999      4.299      2.639      3.132      1.148      0.107743   0.107743   0.2706552  0.3714736  3.09332    3.724      0.2039357  0.5080004  42.926     0.4936734  0.4091263  0.5782204 
955.8      0.226      266.192    -9999      -9999      4.265      2.851      2.76       1.135      0.1146006  0.1146006  0.274849   0.5035615  3.22955    3.555      0.2280771  0.5124693  42.714     0.4856012  0.4019893  0.5692131 
