~Version
 VERS              .         2.0                           : CWLS LOG ASCII STANDARD - VERSION 2.0
 WRAP              .         NO                            : ONE LINE PER DEPTH STEP
 DLM               .         SPACE                         : DELIMITING CHARACTER(SPACE TAB OR COMMA)
~Well Information
#_______________________________________________________________________________
#
#PARAMETER_NAME    .UNIT     VALUE                         : DESCRIPTION
#_______________________________________________________________________________
STRT               .M        900                           : First reference value
STOP               .M        1294                          : Last reference value
STEP               .M        0.2                           : Step increment
NULL               .         -9999                         : Missing value
COMP               .                                       : Company
WELL               .         2389                          : Well name
FLD                .         УЗЕНЬ                         : Field
LOC                .                                       : Location
CNTY               .                                       : County
STAT               .                                       : State
CTRY               .                                       : Country
SRVC               .                                       : Service Company
DATE               .         23.04.74                      : Date
UWI                .                                       : Unique Well ID
Block              .         6а                            : 
Cartographic_reference_system .         GCS_WGS_1984                  : ESRI,PE_10_3_1- <?xml version="1.0" encoding="utf-16"?><ILateBoundCoordinateReferenceSystem name="GCS_WGS_1984"><AuthorityCode>EPSG,4326</AuthorityCode></ILateBoundCoordinateReferenceSystem>
Category           .         Нефтяная                      : 
Condition          .         Ликвидированная               : 
Date               .         01.10.1974                    : 
EREF               .m        84.8                          : 100.8
Gorizont           .         15                            : 14
HZCS               .GCS_WGS_1984 WGS_1984_EASE-Grid_2.0_Global : ESRI,PE_10_3_1- <?xml version="1.0" encoding="utf-16"?><ILateBoundCoordinateReferenceSystem name="WGS_1984_EASE-Grid_2.0_Global"><AuthorityCode>EPSG,6933</AuthorityCode></ILateBoundCoordinateReferenceSystem>
Interpretator      .         Ткачева И.Г.                  : 
Kupol              .         Основной                      : osnovnoi
LATI               .dega     0.6696001439                  : GCS_WGS_1984
LONG               .dega     0.4650412461                  : GCS_WGS_1984
Mud                .         0                             : 
Mud_density        .         0                             : 
Mud_resistivity    .         0                             : 
NGDU               .         НГДУ-2                        : 
ORIGINALWELLNAME   .         2389                          : 
Spud_date          .         1974                          : 1961
Viscosity          .         0                             : 
X                  .m        44870.1                       : 46154
Y                  .m        85421.2                       : 85761.93
YEAR               .         2018                          : 
Исправ_15гор       .         Исправ.15гор                  : 
~Parameter Information Block
#_______________________________________________________________________________
#
#PARAMETER_NAME    .UNIT     VALUE                         : DESCRIPTION
#_______________________________________________________________________________
SET                .         LQC_KAZNIPI_Petrel            : 
TLFamily_CALI      .         Caliper                       : 
TLFamily_CILD      .         Conductivity                  : 
TLFamily_COLL      .         Net Reservoir Flag            : 
TLFamily_CSAT      .         Fluid Code                    : 
TLFamily_DEPT      .         Measured Depth                : 
TLFamily_GR        .         Russian Gamma Ray             : 
TLFamily_MINV      .         Micro Gradient Resistivity    : 
TLFamily_MNOR      .         Micro Resistivity             : 
TLFamily_NGLD      .         Neutron Gamma                 : 
TLFamily_PHIE      .         Effective Porosity            : 
TLFamily_PHIEN     .         Effective Porosity            : 
TLFamily_PHIT      .         Porosity                      : 
TLFamily_PRMB      .         Permeability                  : 
TLFamily_PRMB_DGR  .         Permeability                  : 
TLFamily_RT        .         Formation Resistivity         : 
TLFamily_SOIL_ARCHIE .         Oil Saturation                : 
TLFamily_SOIL_DW   .         Oil Saturation                : 
TLFamily_SP        .         Spontaneous Potential         : 
TLFamily_VSH_FIN   .         Shale Volume                  : 
TLFamily_VSH_GR    .         Shale Volume                  : 
TLFamily_VSH_SP    .         Shale Volume                  : 
~Curve Information
#_______________________________________________________________________________
#
#LOGNAME           .UNIT     LOG_ID                        : DESCRIPTION
#_______________________________________________________________________________
DEPT               .M                                      : Колонка глубины 
CALI               .м                                      : Каверномер 
CILD               .мСм/м                                  : Индукционный каротаж 
COLL               .unitless                               : Описание 
CSAT               .unitless                               : Описание 
GR                 .uR/h                                   : Гамма каротаж 
MINV               .Ohmm                                   : Микро-градиент зонд 
MNOR               .Ohmm                                   : Микро-потенциал зонд 
NGLD               .у.е.                                   : Показания зонда НГК-60 аппаратуры ДРСТ-3-90 
PHIE               .д.ед.                                  : Описание 
PHIEN              .д.ед.                                  :  
PHIT               .д.ед.                                  : Описание 
PRMB               .mD                                     :  
PRMB_DGR           .mD                                     :  
RT                 .ohmm                                   : УЭС пласта 
SOIL_ARCHIE        .д.ед.                                  :  
SOIL_DW            .д.ед.                                  :  
SP                 .мВ                                     : Потенциал самополяризации 
VSH_FIN            .д.ед.                                  : Описание 
VSH_GR             .д.ед.                                  : Shale volume 
VSH_SP             .д.ед.                                  : Shale Volume 
~Ascii
# ...
1250       0.213      517.1439   6          6          5.624      2.215      1.816      1.12       0.1953858  0.1953858  0.279688   16.00589   58.62952   2.983      0.470183   0.5752444  29.041     0.2554613  0.1230646  0.3878579 
1250.2     0.211      487.68     6          6          5.595      2.507      2.438      1.155      0.1926674  0.1926674  0.268397   13.80974   63.29245   3.551      0.5044217  0.5979672  27.305     0.2294836  0.1192785  0.3396888 
1250.4     0.211      465.328    6          6          5.578      3.092      2.422      1.173      0.1926949  0.1926949  0.2625902  13.60272   66.1964    3.762      0.5169176  0.603897   25.95      0.2118041  0.1171135  0.3064947 
1250.6     0.212      441.6211   6          6          5.515      2.618      2.32       1.181      0.189061   0.189061   0.2600094  11.5658    78.16911   3.999      0.5226148  0.6103798  26.543     0.2149953  0.1094271  0.3205634 
1250.8     0.215      419.947    6          6          5.485      2.5        2.113      1.17       0.1900282  0.1900282  0.263558   12.17338   84.60893   3.864      0.5174427  0.6078824  27.305     0.2228176  0.1059463  0.3396888 
1251       0.217      403.691    6          6          5.493      2.343      2.134      1.147      0.1939406  0.1939406  0.2709778  14.68622   82.84149   3.242      0.4860291  0.5829337  28.067     0.233446   0.1068635  0.3600285 
1251.2     0.218      403.691    -9999      -9999      5.553      1.665      1.727      1.121      0.1979955  0.1979955  0.2793654  17.87418   70.71076   2.679      0.4488943  0.553833   28.744     0.2465753  0.1140007  0.3791499 
1251.4     0.218      434.8479   -9999      -9999      5.612      1.513      1.744      1.104      0.1976261  0.1976261  0.2848496  17.86731   60.51584   2.524      0.4332421  0.5457228  29.676     0.2643136  0.1214836  0.4071437 
1251.6     0.217      486.4879   -9999      -9999      5.68       1.458      1.719      1.098      0.1937885  0.1937885  0.2867852  15.25221   50.57528   2.378      0.4078447  0.5303851  30.48      0.2818082  0.1307192  0.4328973 
1251.8     0.216      523.579    -9999      -9999      5.697      1.361      1.717      1.107      0.1876713  0.1876713  0.2838818  11.65452   48.35654   2.289      0.380235   0.5120203  30.988     0.2915469  0.1331358  0.4499579 
1252       0.216      618.4051   -9999      -9999      5.699      1.342      1.693      1.123      0.1810163  0.1810163  0.2787202  8.648576   48.10204   2.391      0.3731994  0.5098754  31.242     0.2960723  0.133423   0.4587216 
1252.2     0.215      716.619    -9999      -9999      5.722      1.318      1.683      1.132      0.1799544  0.1799544  0.2758168  8.198621   45.26936   2.396      0.3701646  0.5058858  30.819     0.2904922  0.136771   0.4442134 
1252.4     0.215      746.1691   -9999      -9999      5.684      1.25       1.757      1.127      0.2048707  0.2048707  0.2774298  23.83499   50.04421   2.399      0.4357033  0.5328646  26.035     0.2198761  0.1312838  0.3084683 
1252.6     0.214      769.4509   1          3          5.62       1.233      1.757      1.119      0.2277925  0.2277925  0.2800106  63.8152    59.25169   2.323      0.4764081  0.5480326  19.473     0.1582366  0.1225353  0.1939379 
1252.8     0.213      809.4131   1          3          5.587      1.246      2.204      1.118      0.2349331  0.2349331  0.2803332  86.61189   64.64281   2.196      0.4762688  0.5413556  15.706     0.1375761  0.1182547  0.1568974 
1253       0.211      841.248    1          3          5.553      1.329      2.761      1.125      0.2354765  0.2354765  0.278075   88.08352   70.71076   2.111      0.4672325  0.5302824  13.801     0.1290863  0.1140007  0.1441718 
1253.2     0.211      848.882    1          3          5.481      2.554      2.976      1.127      0.2380636  0.2380636  0.2774298  98.18109   85.50675   2.077      0.4680098  0.5279073  11.515     0.1192916  0.1054906  0.1330925 
1253.4     0.211      855.4719   1          3          5.421      2.48       2.883      1.129      0.2393679  0.2393679  0.2767846  103.6099   100.1758   2.027      0.4642904  0.5225085  10.033     0.113384   0.09888626 0.1278817 
1253.6     0.212      847.3441   1          3          5.447      2.245      2.617      1.129      0.2393934  0.2393934  0.2767846  103.7225   93.53321   1.989      0.4595603  0.5179902  8.975      0.1133068  0.1016958  0.1249178 
1253.8     0.214      810.091    1          3          5.485      2.355      2.383      1.129      0.2388301  0.2388301  0.2767846  101.2604   84.60893   2.001      0.4600094  0.5189669  8.636      0.1150137  0.1059463  0.1240811 
1254       0.215      748.453    1          3          5.485      2.427      2.671      1.135      0.2370245  0.2370245  0.274849   93.24797   84.60893   2.013      0.4578117  0.5167711  8.297      0.1146198  0.1059463  0.1232933 
1254.2     0.215      686.816    1          3          5.43       2.415      2.906      1.138      0.2364624  0.2364624  0.2738812  90.79243   97.82477   2.027      0.4583631  0.5169021  9.715      0.1133904  0.09984988 0.126931  
1254.4     0.215      637.371    1          3          5.422      2.41       3.099      1.129      0.2378592  0.2378592  0.2767846  97.15311   99.91183   2.099      0.4701695  0.5295352  12.404     0.1179558  0.09899286 0.1369188 
1254.6     0.214      606.8909   1          3          5.511      1.97       2.938      1.106      0.2413441  0.2413441  0.2842044  115.0901   78.99854   2.713      0.5368063  0.5954269  14.859     0.1298796  0.1089565  0.1508028 
1254.8     0.214      581.829    1          3          5.616      1.839      2.487      1.089      0.2393408  0.2393408  0.2896886  107.3018   59.88039   3.119      0.5636405  0.6258878  18.542     0.152569   0.1220084  0.1831297 
1255       0.214      565.5729   1          3          5.722      1.805      2.142      1.076      0.2293     0.2293     0.2938824  70.75091   45.26936   3.195      0.5531443  0.6272168  23.453     0.1957042  0.136771   0.2546373 
1255.2     0.215      558.1229   1          3          5.819      1.767      1.837      1.06       0.2197178  0.2197178  0.299044   47.70121   35.04601   2.717      0.5008889  0.5932379  26.882     0.2403824  0.1518402  0.3289246 
1255.4     0.216      560.155    -9999      -9999      5.984      1.538      1.884      1.033      0.1773215  0.1773215  0.3077542  8.013974   17.28992   2.81       0.4224965  0.5790267  27.855     0.3952507  0.2026199  0.3952507 
1255.6     0.215      566.928    -9999      -9999      6.154      1.386      1.964      1.008      0.1753169  0.1753169  0.3158192  7.525488   10.83642   3.068      0.4419754  0.6022373  28.829     0.4257646  0.2452086  0.4257646 
1255.8     0.214      573.024    -9999      -9999      6.323      1.462      1.685      1          0.1751516  0.1751516  0.3184     7.526885   6.810392   3.017      0.43758    0.60091    29.083     0.434086   0.2964164  0.434086  
1256       0.213      569.6371   -9999      -9999      6.315      1.462      1.735      0.991      0.1752584  0.1752584  0.3213034  7.623007   6.961783   2.59       0.3966712  0.5719582  29.337     0.4425608  0.2937672  0.4425608 
1256.2     0.214      557.445    -9999      -9999      6.285      1.399      1.659      0.977      0.1725584  0.1725584  0.3258198  6.880401   7.56011    2.243      0.347166   0.5416319  29.972     0.4644285  0.2840416  0.4644285 
1256.4     0.216      539.835    -9999      -9999      6.387      1.327      1.693      0.959      0.1692733  0.1692733  0.3316266  6.079031   5.711936   2.222      0.3350825  0.5416204  30.734     0.4919797  0.3184889  0.4919797 
1256.6     0.218      527.6429   -9999      -9999      6.531      1.314      1.359      0.952      0.1581027  0.1581027  0.3338848  3.799068   3.845111   2.272      0.3047925  0.5373158  31.792     0.5326729  0.3743487  0.5326729 
1256.8     0.218      520.869    -9999      -9999      6.611      1.445      1.219      0.953      0.1439741  0.1439741  0.3335622  2.077727   3.086193   2.374      0.2651236  0.5315945  32.808     0.5745093  0.4095117  0.5745093 
