~Version
 VERS              .         2.0                           : CWLS LOG ASCII STANDARD - VERSION 2.0
 WRAP              .         NO                            : ONE LINE PER DEPTH STEP
 DLM               .         SPACE                         : DELIMITING CHARACTER(SPACE TAB OR COMMA)
~Well Information
#_______________________________________________________________________________
#
#PARAMETER_NAME    .UNIT     VALUE                         : DESCRIPTION
#_______________________________________________________________________________
STRT               .M        900                           : First reference value
STOP               .M        1294                          : Last reference value
STEP               .M        0.2                           : Step increment
NULL               .         -9999                         : Missing value
COMP               .                                       : Company
WELL               .         2389                          : Well name
FLD                .         УЗЕНЬ                         : Field
LOC                .                                       : Location
CNTY               .                                       : County
STAT               .                                       : State
CTRY               .                                       : Country
SRVC               .                                       : Service Company
DATE               .         23.04.74                      : Date
UWI                .                                       : Unique Well ID
Block              .         6а                            : 
Cartographic_reference_system .         GCS_WGS_1984                  : ESRI,PE_10_3_1- <?xml version="1.0" encoding="utf-16"?><ILateBoundCoordinateReferenceSystem name="GCS_WGS_1984"><AuthorityCode>EPSG,4326</AuthorityCode></ILateBoundCoordinateReferenceSystem>
Category           .         Нефтяная                      : 
Condition          .         Ликвидированная               : 
Date               .         01.10.1974                    : 
EREF               .m        84.8                          : 100.8
Gorizont           .         15                            : 14
HZCS               .GCS_WGS_1984 WGS_1984_EASE-Grid_2.0_Global : ESRI,PE_10_3_1- <?xml version="1.0" encoding="utf-16"?><ILateBoundCoordinateReferenceSystem name="WGS_1984_EASE-Grid_2.0_Global"><AuthorityCode>EPSG,6933</AuthorityCode></ILateBoundCoordinateReferenceSystem>
Interpretator      .         Ткачева И.Г.                  : 
Kupol              .         Основной                      : osnovnoi
LATI               .dega     0.6696001439                  : GCS_WGS_1984
LONG               .dega     0.4650412461                  : GCS_WGS_1984
Mud                .         0                             : 
Mud_density        .         0                             : 
Mud_resistivity    .         0                             : 
NGDU               .         НГДУ-2                        : 
ORIGINALWELLNAME   .         2389                          : 
Spud_date          .         1974                          : 1961
Viscosity          .         0                             : 
X                  .m        44870.1                       : 46154
Y                  .m        85421.2                       : 85761.93
YEAR               .         2018                          : 
Исправ_15гор       .         Исправ.15гор                  : 
~Parameter Information Block
#_______________________________________________________________________________
#
#PARAMETER_NAME    .UNIT     VALUE                         : DESCRIPTION
#_______________________________________________________________________________
SET                .         LQC_KAZNIPI_Petrel            : 
TLFamily_CALI      .         Caliper                       : 
TLFamily_CILD      .         Conductivity                  : 
TLFamily_COLL      .         Net Reservoir Flag            : 
TLFamily_CSAT      .         Fluid Code                    : 
TLFamily_DEPT      .         Measured Depth                : 
TLFamily_GR        .         Russian Gamma Ray             : 
TLFamily_MINV      .         Micro Gradient Resistivity    : 
TLFamily_MNOR      .         Micro Resistivity             : 
TLFamily_NGLD      .         Neutron Gamma                 : 
TLFamily_PHIE      .         Effective Porosity            : 
TLFamily_PHIEN     .         Effective Porosity            : 
TLFamily_PHIT      .         Porosity                      : 
TLFamily_PRMB      .         Permeability                  : 
TLFamily_PRMB_DGR  .         Permeability                  : 
TLFamily_RT        .         Formation Resistivity         : 
TLFamily_SOIL_ARCHIE .         Oil Saturation                : 
TLFamily_SOIL_DW   .         Oil Saturation                : 
TLFamily_SP        .         Spontaneous Potential         : 
TLFamily_VSH_FIN   .         Shale Volume                  : 
TLFamily_VSH_GR    .         Shale Volume                  : 
TLFamily_VSH_SP    .         Shale Volume                  : 
~Curve Information
#_______________________________________________________________________________
#
#LOGNAME           .UNIT     LOG_ID                        : DESCRIPTION
#_______________________________________________________________________________
DEPT               .M                                      : Колонка глубины 
CALI               .м                                      : Каверномер 
CILD               .мСм/м                                  : Индукционный каротаж 
COLL               .unitless                               : Описание 
CSAT               .unitless                               : Описание 
GR                 .uR/h                                   : Гамма каротаж 
MINV               .Ohmm                                   : Микро-градиент зонд 
MNOR               .Ohmm                                   : Микро-потенциал зонд 
NGLD               .у.е.                                   : Показания зонда НГК-60 аппаратуры ДРСТ-3-90 
PHIE               .д.ед.                                  : Описание 
PHIEN              .д.ед.                                  :  
PHIT               .д.ед.                                  : Описание 
PRMB               .mD                                     :  
PRMB_DGR           .mD                                     :  
RT                 .ohmm                                   : УЭС пласта 
SOIL_ARCHIE        .д.ед.                                  :  
SOIL_DW            .д.ед.                                  :  
SP                 .мВ                                     : Потенциал самополяризации 
VSH_FIN            .д.ед.                                  : Описание 
VSH_GR             .д.ед.                                  : Shale volume 
VSH_SP             .д.ед.                                  : Shale Volume 
~Ascii
# ...
1201       0.236      508.0731   -9999      -9999      7.012      1.061      1.509      1.001      0.145477   0.145477   0.3180774  2.121171   1.504563   1.762      0.1448135  0.432653   32.3       0.5230316  0.5491255  0.4969377 
1201.2     0.229      512.741    -9999      -9999      6.94       1.072      1.458      1.049      0.1408436  0.1408436  0.3025926  1.666889   1.819388   1.919      0.1514616  0.4307518  31.623     0.4901484  0.5081336  0.4721632 
1201.4     0.223      520.869    -9999      -9999      7.049      1.081      1.482      1.07       0.13056    0.13056    0.295818   1.054833   1.364606   2.122      0.1364505  0.4349593  30.395     0.5007817  0.5714605  0.4301028 
1201.6     0.223      529.675    -9999      -9999      6.833      1.09       1.44       1.075      0.1536055  0.1536055  0.294205   2.805935   2.412969   2.302      0.2723102  0.486795   29.422     0.4260592  0.4527991  0.3993192 
1201.8     0.222      538.4799   1          2          6.399      1.043      1.399      1.077      0.1867709  0.1867709  0.2935598  11.5238    7.58462    2.408      0.3940866  0.533637   28.194     0.3236028  0.2836663  0.3635393 
1202       0.222      549.3171   1          2          6.379      1.022      1.268      1.085      0.1908994  0.1908994  0.290979   13.64345   7.995669   2.378      0.4010804  0.5320233  26.882     0.3032716  0.2776186  0.3289246 
1202.2     0.221      560.832    1          2          6.611      1.064      1.304      1.101      0.1808006  0.1808006  0.2858174  8.741549   4.334842   2.323      0.3653907  0.510633   24.744     0.3182327  0.3564649  0.2800005 
1202.4     0.221      572.347    1          2          6.359      1.136      1.391      1.11       0.1948847  0.1948847  0.282914   15.80979   8.428988   2.251      0.3945954  0.5141452  23.834     0.2667553  0.2716997  0.2618109 
1202.6     0.222      575.631    1          2          6.194      1.31       1.448      1.114      0.2014299  0.2014299  0.2816236  20.82515   13.02786   2.226      0.4078305  0.516409   23.664     0.2430112  0.2274439  0.2585784 
1202.8     0.223      579.7969   1          2          6.116      1.312      1.317      1.118      0.203815   0.203815   0.2803332  22.9718    16.0053    2.251      0.4165148  0.5199583  23.453     0.2318732  0.2091092  0.2546373 
1203       0.222      582.5071   1          2          5.989      1.343      1.52       1.121      0.2094429  0.2094429  0.2793654  29.12458   22.37749   2.406      0.4471243  0.5397401  22.712     0.2118862  0.1823649  0.2414076 
1203.2     0.221      581.1519   1          2          5.974      1.437      1.689      1.131      0.2089534  0.2089534  0.2761394  28.26609   23.28101   2.395      0.4443685  0.5348123  21.886     0.2035939  0.179441   0.2277468 
1203.4     0.223      577.0881   1          2          5.964      1.623      1.631      1.118      0.2140647  0.2140647  0.2803332  35.56675   23.90352   2.196      0.4335581  0.5235338  21.654     0.2008136  0.1775179  0.2241093 
1203.6     0.228      572.347    1          2          6.095      1.644      1.604      1.101      0.210837   0.210837   0.2858174  31.47279   16.9173    2.137      0.4197266  0.5199897  23.199     0.2272133  0.2044305  0.2499962 
1203.8     0.236      569.6371   -9999      -9999      6.164      1.572      1.469      1.085      0.2053446  0.2053446  0.290979   25.26302   14.10113   2.048      0.3956039  0.5101025  25.612     0.2594981  0.2202092  0.298787  
1204       0.244      573.701    -9999      -9999      6.205      1.449      1.441      1.066      0.2021707  0.2021707  0.2971084  22.44698   12.65512   2.086      0.3939402  0.5180886  27.517     0.28769    0.2301559  0.345224  
1204.2     0.248      573.701    -9999      -9999      6.374      1.454      1.385      1.043      0.1939301  0.1939301  0.3045282  16.127     8.101867   2.145      0.3819734  0.5246013  29.252     0.3351457  0.2761268  0.3941647 
1204.4     0.247      562.864    -9999      -9999      6.505      1.2        1.276      1.023      0.1868551  0.1868551  0.3109802  12.14395   5.733945   2.26       0.3791838  0.536552   30.522     0.3761367  0.3179891  0.4342844 
1204.6     0.245      543.221    -9999      -9999      6.573      1.174      1.131      1.002      0.1850497  0.1850497  0.3177548  11.45949   4.792066   2.37       0.3891892  0.5521614  31.339     0.4021368  0.3421637  0.46211   
1204.8     0.245      522.2241   -9999      -9999      6.721      1.149      0.944      0.991      0.1749011  0.1749011  0.3213034  7.507741   3.242711   2.412      0.3660348  0.5498442  32.004     0.4436433  0.4013222  0.4859644 
1205       0.249      509.355    -9999      -9999      6.746      0.912      0.868      0.994      0.1676571  0.1676571  0.3203356  5.497368   3.035693   2.395      0.3412156  0.5401348  32.724     0.4626621  0.41228    0.5130442 
1205.2     0.253      504.6129   -9999      -9999      6.734      1.238      1.19       0.998      0.1656121  0.1656121  0.3190452  5.020015   3.133356   2.306      0.3223278  0.527925   32.978     0.4649489  0.4069835  0.5229142 
1205.4     0.261      500.5491   -9999      -9999      6.713      1.437      1.507      1.002      0.1655522  0.1655522  0.3177548  4.989145   3.311899   2.209      0.3080266  0.5162877  33.02      0.4612199  0.3978774  0.5245624 
1205.6     0.265      493.7761   -9999      -9999      6.653      1.686      1.558      1.003      0.1693397  0.1693397  0.3174322  5.858505   3.88007    2.158      0.3132184  0.5143754  33.02      0.4487651  0.3729678  0.5245624 
1205.8     0.262      484.9709   -9999      -9999      6.616      1.576      1.49       1.005      0.170827   0.170827   0.316787   6.230893   4.278018   2.251      0.3313736  0.5254175  33.062     0.4423029  0.3583907  0.5262151 
1206       0.259      473.1169   -9999      -9999      6.556      1.475      1.45       1.007      0.1730548  0.1730548  0.3161418  6.839577   5.011932   2.37       0.3541404  0.5390992  33.189     0.4335968  0.3359531  0.5312406 
1206.2     0.253      461.2639   -9999      -9999      6.484      1.585      1.41       1.006      0.1766792  0.1766792  0.3164644  7.990128   6.060667   2.471      0.3774587  0.5524315  33.316     0.4235915  0.3108745  0.5363085 
1206.4     0.246      454.491    -9999      -9999      6.484      1.627      1.63       1.011      0.1746555  0.1746555  0.3148514  7.296354   6.060667   2.408      0.3635349  0.5430863  33.378     0.4248361  0.3108745  0.5387977 
1206.6     0.24       450.4271   -9999      -9999      6.484      1.64       1.74       1.028      0.1687389  0.1687389  0.3093672  5.582651   6.060667   2.386      0.3412154  0.5295008  33.443     0.4261465  0.3108745  0.5414186 
1206.8     0.235      449.7491   -9999      -9999      6.471      1.657      1.804      1.05       0.1623552  0.1623552  0.30227    4.168316   6.272186   2.399      0.3200647  0.5164709  33.443     0.4239843  0.3065501  0.5414186 
1207       0.233      451.104    -9999      -9999      6.453      1.411      1.571      1.069      0.1585944  0.1585944  0.2961406  3.490124   6.577302   2.446      0.3116315  0.5102156  33.232     0.4168067  0.3006616  0.5329517 
1207.2     0.231      451.781    -9999      -9999      6.429      1.424      1.516      1.081      0.161144   0.161144   0.2922694  3.849041   7.007335   2.488      0.3251732  0.5129942  32.427     0.3973499  0.2929859  0.5017138 
1207.4     0.226      450.4271   -9999      -9999      6.391      1.496      1.6        1.079      0.1683564  0.1683564  0.2929146  5.244804   7.746449   2.459      0.3457823  0.518921   31.665     0.3774492  0.2812315  0.4736669 
1207.6     0.222      447.717    -9999      -9999      6.462      1.618      1.694      1.077      0.1722673  0.1722673  0.2935598  6.20805    6.422936   2.463      0.3587597  0.5242131  30.438     0.3675529  0.3035915  0.4315143 
1207.8     0.221      445.685    -9999      -9999      6.543      1.411      1.44       1.082      0.173289   0.173289   0.2919468  6.455302   5.186851   2.488      0.364596   0.5259585  29.041     0.3595689  0.3312799  0.3878579 
