~Version
 VERS              .         2.0                           : CWLS LOG ASCII STANDARD - VERSION 2.0
 WRAP              .         NO                            : ONE LINE PER DEPTH STEP
 DLM               .         SPACE                         : DELIMITING CHARACTER(SPACE TAB OR COMMA)
~Well Information
#_______________________________________________________________________________
#
#PARAMETER_NAME    .UNIT     VALUE                         : DESCRIPTION
#_______________________________________________________________________________
STRT               .M        900                           : First reference value
STOP               .M        1294                          : Last reference value
STEP               .M        0.2                           : Step increment
NULL               .         -9999                         : Missing value
COMP               .                                       : Company
WELL               .         2389                          : Well name
FLD                .         УЗЕНЬ                         : Field
LOC                .                                       : Location
CNTY               .                                       : County
STAT               .                                       : State
CTRY               .                                       : Country
SRVC               .                                       : Service Company
DATE               .         23.04.74                      : Date
UWI                .                                       : Unique Well ID
Block              .         6а                            : 
Cartographic_reference_system .         GCS_WGS_1984                  : ESRI,PE_10_3_1- <?xml version="1.0" encoding="utf-16"?><ILateBoundCoordinateReferenceSystem name="GCS_WGS_1984"><AuthorityCode>EPSG,4326</AuthorityCode></ILateBoundCoordinateReferenceSystem>
Category           .         Нефтяная                      : 
Condition          .         Ликвидированная               : 
Date               .         01.10.1974                    : 
EREF               .m        84.8                          : 100.8
Gorizont           .         15                            : 14
HZCS               .GCS_WGS_1984 WGS_1984_EASE-Grid_2.0_Global : ESRI,PE_10_3_1- <?xml version="1.0" encoding="utf-16"?><ILateBoundCoordinateReferenceSystem name="WGS_1984_EASE-Grid_2.0_Global"><AuthorityCode>EPSG,6933</AuthorityCode></ILateBoundCoordinateReferenceSystem>
Interpretator      .         Ткачева И.Г.                  : 
Kupol              .         Основной                      : osnovnoi
LATI               .dega     0.6696001439                  : GCS_WGS_1984
LONG               .dega     0.4650412461                  : GCS_WGS_1984
Mud                .         0                             : 
Mud_density        .         0                             : 
Mud_resistivity    .         0                             : 
NGDU               .         НГДУ-2                        : 
ORIGINALWELLNAME   .         2389                          : 
Spud_date          .         1974                          : 1961
Viscosity          .         0                             : 
X                  .m        44870.1                       : 46154
Y                  .m        85421.2                       : 85761.93
YEAR               .         2018                          : 
Исправ_15гор       .         Исправ.15гор                  : 
~Parameter Information Block
#_______________________________________________________________________________
#
#PARAMETER_NAME    .UNIT     VALUE                         : DESCRIPTION
#_______________________________________________________________________________
SET                .         LQC_KAZNIPI_Petrel            : 
TLFamily_CALI      .         Caliper                       : 
TLFamily_CILD      .         Conductivity                  : 
TLFamily_COLL      .         Net Reservoir Flag            : 
TLFamily_CSAT      .         Fluid Code                    : 
TLFamily_DEPT      .         Measured Depth                : 
TLFamily_GR        .         Russian Gamma Ray             : 
TLFamily_MINV      .         Micro Gradient Resistivity    : 
TLFamily_MNOR      .         Micro Resistivity             : 
TLFamily_NGLD      .         Neutron Gamma                 : 
TLFamily_PHIE      .         Effective Porosity            : 
TLFamily_PHIEN     .         Effective Porosity            : 
TLFamily_PHIT      .         Porosity                      : 
TLFamily_PRMB      .         Permeability                  : 
TLFamily_PRMB_DGR  .         Permeability                  : 
TLFamily_RT        .         Formation Resistivity         : 
TLFamily_SOIL_ARCHIE .         Oil Saturation                : 
TLFamily_SOIL_DW   .         Oil Saturation                : 
TLFamily_SP        .         Spontaneous Potential         : 
TLFamily_VSH_FIN   .         Shale Volume                  : 
TLFamily_VSH_GR    .         Shale Volume                  : 
TLFamily_VSH_SP    .         Shale Volume                  : 
~Curve Information
#_______________________________________________________________________________
#
#LOGNAME           .UNIT     LOG_ID                        : DESCRIPTION
#_______________________________________________________________________________
DEPT               .M                                      : Колонка глубины 
CALI               .м                                      : Каверномер 
CILD               .мСм/м                                  : Индукционный каротаж 
COLL               .unitless                               : Описание 
CSAT               .unitless                               : Описание 
GR                 .uR/h                                   : Гамма каротаж 
MINV               .Ohmm                                   : Микро-градиент зонд 
MNOR               .Ohmm                                   : Микро-потенциал зонд 
NGLD               .у.е.                                   : Показания зонда НГК-60 аппаратуры ДРСТ-3-90 
PHIE               .д.ед.                                  : Описание 
PHIEN              .д.ед.                                  :  
PHIT               .д.ед.                                  : Описание 
PRMB               .mD                                     :  
PRMB_DGR           .mD                                     :  
RT                 .ohmm                                   : УЭС пласта 
SOIL_ARCHIE        .д.ед.                                  :  
SOIL_DW            .д.ед.                                  :  
SP                 .мВ                                     : Потенциал самополяризации 
VSH_FIN            .д.ед.                                  : Описание 
VSH_GR             .д.ед.                                  : Shale volume 
VSH_SP             .д.ед.                                  : Shale Volume 
~Ascii
# ...
1054       0.268      505.291    -9999      -9999      5.443      1.115      1.054      0.91       0.1882489  0.1882489  0.347434   14.27415   5.762539   1.976      0.3405448  0.5344976  38.735     0.4823789  0.3173439  0.647414  
1054.2     0.273      511.3871   -9999      -9999      5.51       1.217      1.355      0.92       0.1833747  0.1833747  0.344208   11.49055   5.263261   1.811      0.2974268  0.5059355  38.693     0.4873736  0.3293076  0.6454396 
1054.4     0.274      520.192    -9999      -9999      5.553      1.42       1.524      0.937      0.1769173  0.1769173  0.3387238  8.591286   4.965865   1.849      0.2823443  0.4991598  38.65      0.4903228  0.3372222  0.6434234 
1054.6     0.27       523.579    -9999      -9999      5.612      1.466      1.397      0.941      0.1741079  0.1741079  0.3374334  7.593652   4.584962   1.985      0.2964222  0.5125216  38.608     0.4949258  0.3483925  0.6414592 
1054.8     0.266      520.192    -9999      -9999      5.786      1.424      1.173      0.932      0.1712125  0.1712125  0.3403368  6.766364   3.623435   2.167      0.3160983  0.5332956  38.608     0.5124978  0.3835365  0.6414592 
1055       0.268      513.4189   -9999      -9999      6.061      1.297      1.042      0.922      0.164058   0.164058   0.3435628  5.032252   2.497889   2.192      0.2964202  0.5317863  38.608     0.5439541  0.446449   0.6414592 
1055.2     0.273      508        -9999      -9999      6.196      1.06       1.02       0.919      0.1589989  0.1589989  0.3445306  4.066634   2.08098    2.162      0.2738419  0.5241799  38.65      0.5622171  0.4810108  0.6434234 
1055.4     0.277      505.291    -9999      -9999      6.133      1.064      1.135      0.926      0.1591223  0.1591223  0.3422724  4.062294   2.266089   2.031      0.2521316  0.5069822  38.693     0.5550003  0.464561   0.6454396 
1055.6     0.279      503.936    -9999      -9999      5.917      1.204      1.372      0.936      0.1638644  0.1638644  0.3390464  4.928097   3.035044   1.938      0.2527432  0.4973058  38.777     0.5308546  0.4123159  0.6493934 
1055.8     0.279      504.6129   -9999      -9999      5.798      1.441      1.427      0.945      0.1646252  0.1646252  0.336143   5.049376   3.565094   1.963      0.2593225  0.4984121  38.862     0.5197509  0.386087   0.6534148 
1056       0.279      505.968    -9999      -9999      5.849      1.47       1.604      0.948      0.1611705  0.1611705  0.3351752  4.345797   3.327448   2.044      0.2603337  0.5037059  38.947     0.5272871  0.3971172  0.6574569 
1056.2     0.277      508        -9999      -9999      6.065      1.593      1.528      0.945      0.1531731  0.1531731  0.336143   3.098258   2.484409   2.158      0.2487084  0.5091262  39.031     0.5544541  0.4474365  0.6614718 
1056.4     0.275      509.355    -9999      -9999      6.273      1.504      1.507      0.939      0.1457803  0.1457803  0.3380786  2.272692   1.875144   2.2        0.2255667  0.5072962  39.074     0.5827221  0.501909   0.6635352 
1056.6     0.276      508.677    -9999      -9999      6.438      1.454      1.388      0.93       0.1401143  0.1401143  0.340982   1.799392   1.500051   2.217      0.2041421  0.5054024  39.158     0.6086901  0.5497993  0.6675809 
1056.8     0.28       505.968    -9999      -9999      6.59       1.407      1.414      0.923      0.1337487  0.1337487  0.3432402  1.380284   1.221278   2.196      0.1708854  0.4974895  39.243     0.6348228  0.59795    0.6716956 
1057       0.282      502.581    -9999      -9999      6.751      1.475      1.516      0.927      0.1226005  0.1226005  0.3419498  0.8548825  0.9822815  2.095      0.09086826 0.4690127  39.328     0.6646948  0.6535584  0.6758312 
1057.2     0.28       500.5491   -9999      -9999      6.776      1.458      1.452      0.932      0.1188104  0.1188104  0.3403368  0.7240039  0.9496197  2.039      0.0552935  0.4543724  39.412     0.6712922  0.6626456  0.6799389 
1057.4     0.279      501.227    -9999      -9999      6.674      1.407      1.393      0.928      0.1257419  0.1257419  0.3416272  0.9765645  1.090108   2.048      0.09935477 0.4670404  39.455     0.6541978  0.6263458  0.6820497 
1057.6     0.277      503.936    -9999      -9999      6.547      1.403      1.376      0.917      0.1356086  0.1356086  0.3451758  1.502362   1.294419   2.145      0.1715459  0.4959267  39.539     0.6350521  0.5839159  0.6861884 
1057.8     0.276      507.323    -9999      -9999      6.556      1.42       1.363      0.911      0.1363696  0.1363696  0.3471114  1.560363   1.278755   2.171      0.1805166  0.5018782  39.624     0.6386116  0.5868258  0.6903974 
1058       0.277      505.968    -9999      -9999      6.59       1.407      1.427      0.911      0.1338361  0.1338361  0.3471114  1.400551   1.221278   2.124      0.1595337  0.4932132  39.709     0.6462889  0.59795    0.6946277 
1058.2     0.28       503.259    -9999      -9999      6.48       1.263      1.295      0.916      0.1376927  0.1376927  0.3454984  1.643503   1.417208   2.078      0.1694416  0.4908353  39.751     0.6297141  0.5627024  0.6967258 
1058.4     0.284      501.904    -9999      -9999      6.315      1.31       1.354      0.917      0.1454575  0.1454575  0.3451758  2.286651   1.771585   2.107      0.2103386  0.5034183  39.751     0.605207   0.5136883  0.6967258 
1058.6     0.288      505.291    -9999      -9999      6.137      1.136      1.202      0.915      0.1543853  0.1543853  0.345821   3.352358   2.25386    2.044      0.2367985  0.5068054  39.709     0.5801081  0.4655885  0.6946277 
1058.8     0.291      508        -9999      -9999      5.959      0.912      1.088      0.901      0.1664486  0.1664486  0.3503374  5.679221   2.867426   2.044      0.2830248  0.524041   39.666     0.5572388  0.4219926  0.692485  
1059       0.29       505.291    -9999      -9999      5.709      0.717      0.872      0.889      0.1796445  0.1796445  0.3542086  10.07907   4.021179   2.014      0.3222875  0.5369867  39.624     0.5289822  0.367567   0.6903974 
1059.2     0.29       499.1951   -9999      -9999      5.489      0.776      0.804      0.879      0.1905044  0.1905044  0.3574346  16.16215   5.414912   2.036      0.3578675  0.5520225  39.539     0.5058492  0.32551    0.6861884 
1059.4     0.292      494.453    -9999      -9999      5.413      1.178      1.088      0.879      0.1940827  0.1940827  0.3574346  18.82691   6.001184   2.027      0.3662466  0.554102   39.37      0.4950057  0.3121289  0.6778824 
1059.6     0.294      496.485    -9999      -9999      5.413      1.369      1.249      0.879      0.1957825  0.1957825  0.3574346  20.24242   6.001184   2.082      0.378608   0.5614496  39.158     0.4898549  0.3121289  0.6675809 
1059.8     0.293      505.968    -9999      -9999      5.557      1.322      1.325      0.88       0.1922044  0.1922044  0.357112   17.36181   4.939069   2.251      0.3917927  0.5750891  39.031     0.49972    0.3379681  0.6614718 
1060       0.284      520.192    -9999      -9999      5.722      1.102      1.166      0.88       0.1872152  0.1872152  0.357112   14.03406   3.951088   2.37       0.3934258  0.5818685  38.989     0.5148388  0.3702157  0.6594619 
1060.2     0.282      533.7391   -9999      -9999      5.934      0.886      1.016      0.88       0.1799577  0.1799577  0.357112   10.29808   2.966049   2.302      0.3649395  0.5695774  38.947     0.5368313  0.4162056  0.6574569 
1060.4     0.281      545.2529   -9999      -9999      6.094      0.81       0.817      0.879      0.1746021  0.1746021  0.3574346  8.202582   2.388841   2.171      0.3310629  0.5521947  38.862     0.5540379  0.454661   0.6534148 
1060.6     0.283      552.027    -9999      -9999      6.243      0.861      0.927      0.881      0.1681854  0.1681854  0.3567894  6.227488   1.952801   1.989      0.2813576  0.5252611  38.777     0.5715272  0.493661   0.6493934 
1060.8     0.283      556.0909   -9999      -9999      6.306      0.945      0.91       0.888      0.163043   0.163043   0.3545312  4.969509   1.793283   1.963      0.257948   0.5147223  38.777     0.5802673  0.5111412  0.6493934 
