~Version
 VERS              .         2.0                           : CWLS LOG ASCII STANDARD - VERSION 2.0
 WRAP              .         NO                            : ONE LINE PER DEPTH STEP
 DLM               .         SPACE                         : DELIMITING CHARACTER(SPACE TAB OR COMMA)
~Well Information
#_______________________________________________________________________________
#
#PARAMETER_NAME    .UNIT     VALUE                         : DESCRIPTION
#_______________________________________________________________________________
STRT               .M        900                           : First reference value
STOP               .M        1294                          : Last reference value
STEP               .M        0.2                           : Step increment
NULL               .         -9999                         : Missing value
COMP               .                                       : Company
WELL               .         2389                          : Well name
FLD                .         УЗЕНЬ                         : Field
LOC                .                                       : Location
CNTY               .                                       : County
STAT               .                                       : State
CTRY               .                                       : Country
SRVC               .                                       : Service Company
DATE               .         23.04.74                      : Date
UWI                .                                       : Unique Well ID
Block              .         6а                            : 
Cartographic_reference_system .         GCS_WGS_1984                  : ESRI,PE_10_3_1- <?xml version="1.0" encoding="utf-16"?><ILateBoundCoordinateReferenceSystem name="GCS_WGS_1984"><AuthorityCode>EPSG,4326</AuthorityCode></ILateBoundCoordinateReferenceSystem>
Category           .         Нефтяная                      : 
Condition          .         Ликвидированная               : 
Date               .         01.10.1974                    : 
EREF               .m        84.8                          : 100.8
Gorizont           .         15                            : 14
HZCS               .GCS_WGS_1984 WGS_1984_EASE-Grid_2.0_Global : ESRI,PE_10_3_1- <?xml version="1.0" encoding="utf-16"?><ILateBoundCoordinateReferenceSystem name="WGS_1984_EASE-Grid_2.0_Global"><AuthorityCode>EPSG,6933</AuthorityCode></ILateBoundCoordinateReferenceSystem>
Interpretator      .         Ткачева И.Г.                  : 
Kupol              .         Основной                      : osnovnoi
LATI               .dega     0.6696001439                  : GCS_WGS_1984
LONG               .dega     0.4650412461                  : GCS_WGS_1984
Mud                .         0                             : 
Mud_density        .         0                             : 
Mud_resistivity    .         0                             : 
NGDU               .         НГДУ-2                        : 
ORIGINALWELLNAME   .         2389                          : 
Spud_date          .         1974                          : 1961
Viscosity          .         0                             : 
X                  .m        44870.1                       : 46154
Y                  .m        85421.2                       : 85761.93
YEAR               .         2018                          : 
Исправ_15гор       .         Исправ.15гор                  : 
~Parameter Information Block
#_______________________________________________________________________________
#
#PARAMETER_NAME    .UNIT     VALUE                         : DESCRIPTION
#_______________________________________________________________________________
SET                .         LQC_KAZNIPI_Petrel            : 
TLFamily_CALI      .         Caliper                       : 
TLFamily_CILD      .         Conductivity                  : 
TLFamily_COLL      .         Net Reservoir Flag            : 
TLFamily_CSAT      .         Fluid Code                    : 
TLFamily_DEPT      .         Measured Depth                : 
TLFamily_GR        .         Russian Gamma Ray             : 
TLFamily_MINV      .         Micro Gradient Resistivity    : 
TLFamily_MNOR      .         Micro Resistivity             : 
TLFamily_NGLD      .         Neutron Gamma                 : 
TLFamily_PHIE      .         Effective Porosity            : 
TLFamily_PHIEN     .         Effective Porosity            : 
TLFamily_PHIT      .         Porosity                      : 
TLFamily_PRMB      .         Permeability                  : 
TLFamily_PRMB_DGR  .         Permeability                  : 
TLFamily_RT        .         Formation Resistivity         : 
TLFamily_SOIL_ARCHIE .         Oil Saturation                : 
TLFamily_SOIL_DW   .         Oil Saturation                : 
TLFamily_SP        .         Spontaneous Potential         : 
TLFamily_VSH_FIN   .         Shale Volume                  : 
TLFamily_VSH_GR    .         Shale Volume                  : 
TLFamily_VSH_SP    .         Shale Volume                  : 
~Curve Information
#_______________________________________________________________________________
#
#LOGNAME           .UNIT     LOG_ID                        : DESCRIPTION
#_______________________________________________________________________________
DEPT               .M                                      : Колонка глубины 
CALI               .м                                      : Каверномер 
CILD               .мСм/м                                  : Индукционный каротаж 
COLL               .unitless                               : Описание 
CSAT               .unitless                               : Описание 
GR                 .uR/h                                   : Гамма каротаж 
MINV               .Ohmm                                   : Микро-градиент зонд 
MNOR               .Ohmm                                   : Микро-потенциал зонд 
NGLD               .у.е.                                   : Показания зонда НГК-60 аппаратуры ДРСТ-3-90 
PHIE               .д.ед.                                  : Описание 
PHIEN              .д.ед.                                  :  
PHIT               .д.ед.                                  : Описание 
PRMB               .mD                                     :  
PRMB_DGR           .mD                                     :  
RT                 .ohmm                                   : УЭС пласта 
SOIL_ARCHIE        .д.ед.                                  :  
SOIL_DW            .д.ед.                                  :  
SP                 .мВ                                     : Потенциал самополяризации 
VSH_FIN            .д.ед.                                  : Описание 
VSH_GR             .д.ед.                                  : Shale volume 
VSH_SP             .д.ед.                                  : Shale Volume 
~Ascii
# ...
977        0.274      360.341    -9999      -9999      4.871      2.284      2.062      0.996      0.1087705  0.1087705  0.3196904  0.4452934  1.498076   2.37       0.04660337 0.4549571  46.101     0.6391513  0.5500951  0.7282075 
977.2000000000001 0.274      358.309    -9999      -9999      4.841      2.41       2.083      0.99       0.1121046  0.1121046  0.321626   0.5161285  1.556141   2.327      0.06212025 0.4576935  46.101     0.6349134  0.5416192  0.7282075 
977.4      0.262      356.955    -9999      -9999      4.803      2.203      2.032      0.983      0.1161034  0.1161034  0.3238842  0.6159903  1.632934   2.31       0.08582492 0.4646275  46.101     0.6296389  0.5310703  0.7282075 
977.6      0.252      356.277    -9999      -9999      4.761      2.533      2.091      0.968      0.1224669  0.1224669  0.3287232  0.8190924  1.722225   2.476      0.1539188  0.4973241  46.143     0.625019   0.5196499  0.730388  
977.8      0.247      356.955    -9999      -9999      4.761      2.05       2.106      0.949      0.1282271  0.1282271  0.3348526  1.065333   1.722225   2.759      0.2268904  0.5372103  46.186     0.6261379  0.5196499  0.7326259 
978        0.253      359.664    -9999      -9999      4.799      2.245      2.129      0.94       0.1290658  0.1290658  0.337756   1.113152   1.641234   3.051      0.2672536  0.5635697  46.228     0.6323946  0.5299719  0.7348172 
978.2000000000001 0.259      363.0509   -9999      -9999      4.951      1.965      2.082      0.941      0.1215855  0.1215855  0.3374334  0.8083685  1.353608   3.005      0.2258435  0.5511474  46.228     0.6540844  0.5733517  0.7348172 
978.4      0.26       365.0829   -9999      -9999      5.066      1.898      2.041      0.944      0.1148156  0.1148156  0.3364656  0.6039986  1.169997   2.763      0.1568274  0.5221106  46.228     0.6716666  0.608516   0.7348172 
978.6      0.258      365.76     -9999      -9999      5.07       1.572      1.972      0.945      0.1139225  0.1139225  0.336143   0.5808985  1.164079   2.488      0.108673   0.4947723  46.27      0.6733955  0.6097773  0.7370138 
978.8      0.251      365.76     -9999      -9999      4.909      1.373      1.939      0.952      0.1193369  0.1193369  0.3338848  0.7271769  1.427626   2.416      0.1281855  0.4924831  46.313     0.6501451  0.5610219  0.7392681 
979        0.247      365.76     -9999      -9999      4.736      1.297      1.774      0.97       0.1210947  0.1210947  0.328078   0.7711328  1.777675   2.467      0.14455    0.4938069  46.355     0.6272222  0.5129689  0.7414755 
979.2000000000001 0.243      366.437    -9999      -9999      4.681      1.204      1.736      0.984      0.1189538  0.1189538  0.3235616  0.6949891  1.906032   2.56       0.1454879  0.4951298  46.355     0.6200236  0.4985717  0.7414755 
979.4      0.243      368.469    -9999      -9999      4.753      1.207      1.677      0.987      0.1148624  0.1148624  0.3225938  0.5821273  1.739778   2.585      0.1248294  0.4906479  46.355     0.629489   0.5175025  0.7414755 
979.6      0.247      371.856    -9999      -9999      4.846      1.208      1.565      0.991      0.1093612  0.1093612  0.3213034  0.4587232  1.54631    2.56       0.08515715 0.4784115  46.355     0.6422492  0.5430228  0.7414755 
979.8      0.252      375.243    -9999      -9999      4.854      1.212      1.469      0.999      0.1064086  0.1064086  0.3187226  0.4015322  1.530708   2.564      0.0645128  0.4710944  46.355     0.6433758  0.545276   0.7414755 
980        0.254      379.307    -9999      -9999      4.833      1.258      1.389      1.008      0.1044778  0.1044778  0.3158192  0.3667953  1.572002   2.624      0.0596713  0.4705537  46.355     0.6404284  0.5393812  0.7414755 
980.2000000000001 0.249      385.403    -9999      -9999      4.837      1.301      1.351      1.015      0.1020352  0.1020352  0.313561   0.3284216  1.564052   2.666      0.04782673 0.4679563  46.355     0.6409873  0.540499   0.7414755 
980.4      0.255      396.9171   -9999      -9999      4.93       1.284      1.236      1.011      0.09892764 0.09892764 0.3148514  0.2886973  1.390125   2.573      0.008420305 0.4547661  46.355     0.6543144  0.5671533  0.7414755 
980.6      0.259      414.528    -9999      -9999      5.049      1.283      1.268      1.005      0.09528223 0.09528223 0.316787   0.2484719  1.195483   2.42       0          0.4337776  46.313     0.6712266  0.603185   0.7392681 
980.8      0.264      434.171    -9999      -9999      5.075      1.28       1.317      1.003      0.09531341 0.09531341 0.3174322  0.2492527  1.156726   2.484      0          0.4420267  46.228     0.6730872  0.6113573  0.7348172 
981        0.26       450.4271   -9999      -9999      5.011      1.347      1.319      1.009      0.09775526 0.09775526 0.3154966  0.2751141  1.254477   2.548      0          0.4508852  46.101     0.6598223  0.5914371  0.7282075 
981.2000000000001 0.256      460.587    -9999      -9999      4.901      1.398      1.321      1.024      0.0993999  0.0993999  0.3106576  0.291129   1.442177   2.747      0.03991889 0.4678419  45.974     0.6401748  0.5587037  0.721646  
981.4      0.252      468.7151   -9999      -9999      4.888      1.521      1.306      1.035      0.09718968 0.09718968 0.307109   0.2623176  1.466139   2.882      0.04255257 0.4722737  45.889     0.6361192  0.5549569  0.7172815 
981.6      0.258      478.8751   -9999      -9999      4.96       1.723      1.3        1.044      0.09151758 0.09151758 0.3042056  0.2042829  1.338254   2.979      0.009630093 0.4673229  45.805     0.6445091  0.5760288  0.7129895 
981.8      0.272      490.389    -9999      -9999      5.041      2.016      1.35       1.058      0.08329284 0.08329284 0.2996892  0.1420341  1.207668   2.78       0          0.4260493  45.762     0.6557466  0.6006925  0.7108006 
982        0.28       491.7281   -9999      -9999      5.129      2.187      1.659      1.066      0.07644501 0.07644501 0.2971084  0.1052962  1.080196   2.421      0          0.3649286  45.72      0.668677   0.6286862  0.7086678 
982.2000000000001 0.289      493.099    -9999      -9999      5.159      2.287      2.1        1.072      0.07288606 0.07288606 0.2951728  0.08997801 1.03989    2.107      0          0.3062809  45.72      0.6735961  0.6385245  0.7086678 
982.4      0.298      485.6479   -9999      -9999      5.1        2.148      2.29       1.084      0.07218365 0.07218365 0.2913016  0.08638017 1.120643   2.061      0          0.2893419  45.72      0.6639938  0.6193197  0.7086678 
982.6      0.296      470.7471   -9999      -9999      4.985      2.042      2.1        1.102      0.07228198 0.07228198 0.2854948  0.08534283 1.29651    2.077      0          0.281169   45.72      0.6460994  0.5835311  0.7086678 
982.8      0.293      457.8771   -9999      -9999      4.884      1.922      1.685      1.115      0.07264042 0.07264042 0.281301   0.08564487 1.473592   2.103      0          0.2784071  45.762     0.6323048  0.553809   0.7108006 
983        0.29       448.395    -9999      -9999      4.824      1.762      1.507      1.115      0.07507348 0.07507348 0.281301   0.09500962 1.590039   1.98       0          0.2635415  45.805     0.6249319  0.5368743  0.7129895 
983.2000000000001 0.291      442.299    -9999      -9999      4.727      1.691      1.591      1.103      0.08257423 0.08257423 0.2851722  0.1322549  1.798071   1.845      0          0.266436   45.889     0.6139332  0.5105849  0.7172815 
983.4      0.292      436.88     -9999      -9999      4.681      1.623      1.63       1.087      0.08935417 0.08935417 0.2903338  0.1791742  1.906032   1.908      0          0.3055515  45.932     0.6090292  0.4985717  0.7194867 
983.6      0.288      430.784    -9999      -9999      4.685      1.721      1.799      1.083      0.08976068 0.08976068 0.2916242  0.1829683  1.896394   2.12       0          0.3443061  46.016     0.6117077  0.4996049  0.7238105 
983.8      0.283      421.301    -9999      -9999      4.795      1.809      1.596      1.079      0.08549586 0.08549586 0.2929146  0.1530917  1.649576   2.344      0          0.3690275  46.101     0.6285416  0.5288758  0.7282075 
