~Version
 VERS              .         2.0                           : CWLS LOG ASCII STANDARD - VERSION 2.0
 WRAP              .         NO                            : ONE LINE PER DEPTH STEP
 DLM               .         SPACE                         : DELIMITING CHARACTER(SPACE TAB OR COMMA)
~Well Information
#_______________________________________________________________________________
#
#PARAMETER_NAME    .UNIT     VALUE                         : DESCRIPTION
#_______________________________________________________________________________
STRT               .M        908                           : First reference value
STOP               .M        1225.8                        : Last reference value
STEP               .M        0.2                           : Step increment
NULL               .         -9999                         : Missing value
COMP               .                                       : Company
WELL               .         3896                          : Well name
FLD                .         Узень                         : Field
LOC                .                                       : Location
CNTY               .                                       : County
STAT               .                                       : State
CTRY               .                                       : Country
SRVC               .                                       : Service Company
DATE               .                                       : Date
UWI                .                                       : Unique Well ID
123                .         1                             : 
4_кв_для_Заказчика .         1                             : 
API                .                                       : 
Block              .         6а                            : 
Category           .         Нефтяная                      : 
Condition          .         В работе                      : 
Date               .         25.05.1989                    : 
EREF               .m        86.7                          : 100.8
Gor                .         15                            : 
Gorizont           .         15                            : 14
Interpretator      .         Кайсанов Е.К                  : 
Kupol              .         Основной                      : osnovnoi
Mud                .                                       : 
Mud_density        .                                       : 
Mud_resistivity    .                                       : 
NGDU               .         НГДУ-2                        : 
ORIGINALWELLNAME   .         3896                          : 
Otmetka            .                                       : 
Spud_date          .         1989                          : 1961
Viscosity          .                                       : 
X                  .m        44634.6                       : 46154
Y                  .m        85593.73                      : 85761.93
YEAR               .         2018                          : 
~Parameter Information Block
#_______________________________________________________________________________
#
#PARAMETER_NAME    .UNIT     VALUE                         : DESCRIPTION
#_______________________________________________________________________________
SET                .         LQC_KAZNIPI_Petrel            : 
TLFamily_CALI      .         Caliper                       : 
TLFamily_CILD      .         Conductivity                  : 
TLFamily_COLL      .         Net Reservoir Flag            : 
TLFamily_CSAT      .         Fluid Code                    : 
TLFamily_DEPT      .         Measured Depth                : 
TLFamily_GR        .         Russian Gamma Ray             : 
TLFamily_GZ1       .         Gradient 045                  : 
TLFamily_GZ2       .         Gradient 105                  : 
TLFamily_GZ3       .         Gradient 225                  : 
TLFamily_GZ4       .         Gradient 425                  : 
TLFamily_GZ5       .         Gradient 850                  : 
TLFamily_LLS       .         Lateral Log Resistivity       : 
TLFamily_MINV      .         Micro Gradient Resistivity    : 
TLFamily_MNOR      .         Micro Resistivity             : 
TLFamily_NGLD      .         Neutron Far                   : 
TLFamily_OGZ3      .         Gradient Inverted 225         : 
TLFamily_PHIE      .         Effective Porosity            : 
TLFamily_PHIEN     .         Effective Porosity            : 
TLFamily_PHIT      .         Porosity                      : 
TLFamily_PRMB      .         Permeability                  : 
TLFamily_PRMB_DGR  .         Permeability                  : 
TLFamily_RT        .         Formation Resistivity         : 
TLFamily_SOIL_ARCHIE .         Oil Saturation                : 
TLFamily_SOIL_DW   .         Oil Saturation                : 
TLFamily_SP        .         Spontaneous Potential         : 
TLFamily_VSH_FIN   .         Shale Volume                  : 
TLFamily_VSH_GR    .         Shale Volume                  : 
TLFamily_VSH_SP    .         Shale Volume                  : 
~Curve Information
#_______________________________________________________________________________
#
#LOGNAME           .UNIT     LOG_ID                        : DESCRIPTION
#_______________________________________________________________________________
DEPT               .M                                      : Колонка глубины 
CALI               .м                                      : Каверномер 
CILD               .мСм/м                                  : Индукционный каротаж 
COLL               .unitless                               :  
CSAT               .unitless                               :  
GR                 .uR/h                                   : Гамма каротаж 
GZ1                .OHMM                                   :  
GZ2                .OHMM                                   :  
GZ3                .OHMM                                   :  
GZ4                .OHMM                                   :  
GZ5                .OHMM                                   :  
LLS                .Ohmm                                   : Боковой каротаж 
MINV               .Ohmm                                   : Микро-градиент зонд 
MNOR               .Ohmm                                   : Микро-потенциал зонд 
NGLD               .у.е.                                   : Показания зонда НГК-60 аппаратуры ДРСТ-3-90 
OGZ3               .OHMM                                   :  
PHIE               .v/v                                    : Описание 
PHIEN              .v/v                                    :  
PHIT               .v/v                                    : Описание 
PRMB               .mD                                     :  
PRMB_DGR           .mD                                     :  
RT                 .ohmm                                   : УЭС пласта 
SOIL_ARCHIE        .v/v                                    :  
SOIL_DW            .v/v                                    :  
SP                 .мВ                                     : Потенциал самополяризации 
VSH_FIN            .v/v                                    : Описание 
VSH_GR             .v/v                                    : Shale volume 
VSH_SP             .v/v                                    : Shale Volume 
~Ascii
# ...
926.4      0.213      179.07     6          6          3.039168   3.276999950408936 3.937000036239624 12.88000011444092 2.971999883651733 1.955999970436096 4.476      4.375      2.654      1.895335   5.638999938964844 0.01780582 0.01780582 0.07808363 0.005983633 935.5745   5.065      0          0          21.43723   0.18266    0.03971219 0.3256079 
926.6      0.212      218.44     6          6          2.911478   3.276999950408936 3.937000036239624 12.24499988555908 2.971999883651733 1.955999970436096 3.594      3.778      3.048      1.844441   3.809999942779541 0.04093685 0.04093685 0.09961704 0.01604752 1082.225   4.152      0          0          21.21206   0.1778187  0.03741978 0.3182177 
926.8      0.212      220.98     6          6          2.839115   3.276999950408936 3.937000036239624 11.99100017547607 2.971999883651733 1.955999970436096 2.422      3.778      3.048      1.816852   2.234999895095825 0.05400345 0.05400345 0.1112901  0.02801773 1175.319   4.105      0          0          20.99767   0.1735958  0.03617989 0.3110118 
927        0.213      233.68     6          6          2.802217   3.276999950408936 3.937000036239624 11.99100017547607 2.971999883651733 1.955999970436096 3.245      3.017      1.829      1.80793    2.234999895095825 0.05903893 0.05903893 0.1150649  0.03472979 1225.827   3.882      0          0          20.80234   0.1697757  0.03556359 0.3039879 
927.2      0.213      251.46     6          6          2.796206   3.276999950408936 3.937000036239624 12.75300025939942 2.971999883651733 1.955999970436096 5.106      2.864      1.905      1.800015   2.591000080108643 0.06255706 0.06255706 0.1184136  0.04035213 1234.259   3.607      0          0          20.62941   0.1692623  0.03546418 0.3030604 
927.4      0.213      251.46     6          6          2.815172   3.276999950408936 3.937000036239624 12.75300025939942 2.971999883651733 1.955999970436096 5.106      4.096      3.569      1.775628   2.591000080108643 0.07394879 0.07394879 0.1287319  0.06559476 1207.851   3.607      0          0.04987917 20.48404   0.1660093  0.03577877 0.2962398 
927.6      0.211      294.64     1          3          2.842654   3.276999950408936 3.937000036239624 11.14400005340576 2.971999883651733 1.955999970436096 3.465      2.978      2.997      1.73244    2.819000005722046 0.09324177 0.09324177 0.1470046  0.1493557  1170.585   3.078      0          0.1343363  20.38686   0.1629176  0.03623956 0.2895957 
927.8      0.212      313.69     1          3          2.860205   3.276999950408936 3.937000036239624 9.53600025177002 2.971999883651733 1.955999970436096 3.491      2.978      2.997      1.683805   2.793999910354614 0.1139151  0.1139151  0.1675823  0.3606962  1147.388   2.891      0.09877274 0.2382213  20.35861   0.1626278  0.03653696 0.2887187 
928        0.213      334.01     1          3          2.862669   3.276999950408936 3.937000036239624 8.366999626159668 2.971999883651733 1.955999970436096 2.804      4.071      3.073      1.644662   2.515000104904175 0.1296728  0.1296728  0.1841437  0.706338   1144.169   2.716      0.171002   0.2950479  20.39622   0.1650634  0.0365789  0.2935479 
928.2      0.213      350.52     1          3          2.860906   3.276999950408936 3.937000036239624 6.817999839782715 2.971999883651733 1.955999970436096 2.763      2.775      2.172      1.620418   2.311000108718872 0.1400821  0.1400821  0.1944011  1.101078   1146.472   2.588      0.2071601  0.3223964  20.47862   0.1646029  0.03654888 0.292657  
928.4      0.213      350.52     1          3          2.871867   3.276999950408936 3.937000036239624 6.817999839782715 2.971999883651733 1.955999970436096 2.763      3.474      2.928      1.608808   2.311000108718872 0.1451099  0.1451099  0.1993132  1.364411   1132.231   2.588      0.2311398  0.3419108  20.58281   0.1642525  0.0367359  0.2917691 
928.6      0.213      375.92     1          3          2.908023   3.276999950408936 3.937000036239624 5.26800012588501 2.971999883651733 1.955999970436096 1.768      3.118      2.883      1.606833   2.158999919891357 0.1445514  0.1445514  0.2001488  1.332296   1086.496   2.413      0.2027861  0.3190469  20.6792    0.1684769  0.03735963 0.2995941 
928.8      0.218      388.62     1          3          2.973998   3.276999950408936 3.937000036239624 3.74399995803833 2.971999883651733 1.955999970436096 1.821      2.813      1.384      1.610367   1.955999970436096 0.1425264  0.1425264  0.1986538  1.22206    1007.753   2.334      0.1802242  0.3004983  20.73072   0.1700832  0.03852516 0.3016413 
929        0.222      394.97     1          3          3.065533   3.276999950408936 3.937000036239624 3.134999990463257 2.971999883651733 1.955999970436096 2.284      4.579      2.324      1.610222   2.056999921798706 0.1434304  0.1434304  0.1987153  1.270097   907.8635   2.296      0.1784219  0.2967027  20.72023   0.16753    0.04020275 0.2948572 
929.2      0.215      402.59     1          3          3.170787   3.276999950408936 3.937000036239624 2.931999921798706 2.971999883651733 1.955999970436096 2.743      3.283      3.581      1.597591   2.388000011444092 0.1485889  0.1485889  0.2040592  1.582651   805.1808   2.253      0.1962205  0.3111297  20.66548   0.1680919  0.04222221 0.2939616 
929.4      0.215      402.59     1          3          3.276767   3.276999950408936 3.937000036239624 2.931999921798706 2.971999883651733 1.955999970436096 2.743      2.496      2.438      1.572757   2.388000011444092 0.1593632  0.1593632  0.2145664  2.505822   713.5201   2.253      0.2437617  0.3502236  20.60355   0.1672824  0.04435814 0.2902067 
929.6      0.213      381        1          3          3.376148   3.276999950408936 3.937000036239624 2.829999923706055 2.971999883651733 1.955999970436096 1.903      2.496      2.438      1.544985   2.565000057220459 0.1713773  0.1713773  0.2263169  4.182938   637.0696   2.381      0.30832    0.4055612  20.57073   0.1664836  0.04645914 0.286508  
929.8      0.211      373.38     1          3          3.466748   3.276999950408936 3.937000036239624 2.525000095367432 2.971999883651733 1.955999970436096 2.032      2.356      1.702      1.523816   2.336999893188477 0.1801463  0.1801463  0.2352734  6.080024   574.5352   2.429      0.3439119  0.4364838  20.58974   0.1670516  0.04846109 0.285642  
930        0.211      368.3      1          3          3.547808   3.276999950408936 3.937000036239624 2.194999933242798 2.971999883651733 1.955999970436096 2.387      2.658      1.766      1.510862   2.134000062942505 0.1845327  0.1845327  0.2407541  7.330786   523.8073   2.463      0.3616928  0.4533615  20.66366   0.170368   0.05032523 0.2904107 
930.2      0.21       367.03     1          3          3.616659   3.276999950408936 3.937000036239624 2.246000051498413 2.971999883651733 1.955999970436096 2.549      2.953      1.829      1.501159   1.955999970436096 0.1885128  0.1885128  0.2448596  8.687054   484.2532   2.471      0.3743993  0.4643907  20.78261   0.1707479  0.05196483 0.2895309 
930.4      0.21       367.03     1          3          3.666974   3.276999950408936 3.937000036239624 2.246000051498413 2.971999883651733 1.955999970436096 2.549      2.686      2.197      1.490915   1.955999970436096 0.1923191  0.1923191  0.2491938  10.21818   457.2505   2.471      0.3851969  0.4742443  20.93098   0.1723477  0.05319668 0.2914987 
930.6      0.21       369.57     1          3          3.693022   3.276999950408936 3.937000036239624 2.194999933242798 2.971999883651733 1.955999970436096 2.549      2.623      2.121      1.482209   2.006999969482422 0.1946059  0.1946059  0.2528775  11.26501   443.8677   2.454      0.3895195  0.4794906  21.08069   0.1765806  0.05384585 0.2993153 
930.8      0.213      372.11     1          3          3.69857    3.276999950408936 3.937000036239624 2.016999959945679 2.971999883651733 1.955999970436096 2.44       2.623      2.121      1.479636   2.158999919891357 0.1953342  0.1953342  0.2539662  11.62041   441.0685   2.438      0.3896317  0.4799021  21.18978   0.1776727  0.05398513 0.3013602 
