~Version
 VERS              .         2.0                           : CWLS LOG ASCII STANDARD - VERSION 2.0
 WRAP              .         NO                            : ONE LINE PER DEPTH STEP
 DLM               .         SPACE                         : DELIMITING CHARACTER(SPACE TAB OR COMMA)
~Well Information
#_______________________________________________________________________________
#
#PARAMETER_NAME    .UNIT     VALUE                         : DESCRIPTION
#_______________________________________________________________________________
STRT               .M        908                           : First reference value
STOP               .M        1225.8                        : Last reference value
STEP               .M        0.2                           : Step increment
NULL               .         -9999                         : Missing value
COMP               .                                       : Company
WELL               .         3896                          : Well name
FLD                .         Узень                         : Field
LOC                .                                       : Location
CNTY               .                                       : County
STAT               .                                       : State
CTRY               .                                       : Country
SRVC               .                                       : Service Company
DATE               .                                       : Date
UWI                .                                       : Unique Well ID
123                .         1                             : 
4_кв_для_Заказчика .         1                             : 
API                .                                       : 
Block              .         6а                            : 
Category           .         Нефтяная                      : 
Condition          .         В работе                      : 
Date               .         25.05.1989                    : 
EREF               .m        86.7                          : 100.8
Gor                .         15                            : 
Gorizont           .         15                            : 14
Interpretator      .         Кайсанов Е.К                  : 
Kupol              .         Основной                      : osnovnoi
Mud                .                                       : 
Mud_density        .                                       : 
Mud_resistivity    .                                       : 
NGDU               .         НГДУ-2                        : 
ORIGINALWELLNAME   .         3896                          : 
Otmetka            .                                       : 
Spud_date          .         1989                          : 1961
Viscosity          .                                       : 
X                  .m        44634.6                       : 46154
Y                  .m        85593.73                      : 85761.93
YEAR               .         2018                          : 
~Parameter Information Block
#_______________________________________________________________________________
#
#PARAMETER_NAME    .UNIT     VALUE                         : DESCRIPTION
#_______________________________________________________________________________
SET                .         LQC_KAZNIPI_Petrel            : 
TLFamily_CALI      .         Caliper                       : 
TLFamily_CILD      .         Conductivity                  : 
TLFamily_COLL      .         Net Reservoir Flag            : 
TLFamily_CSAT      .         Fluid Code                    : 
TLFamily_DEPT      .         Measured Depth                : 
TLFamily_GR        .         Russian Gamma Ray             : 
TLFamily_GZ1       .         Gradient 045                  : 
TLFamily_GZ2       .         Gradient 105                  : 
TLFamily_GZ3       .         Gradient 225                  : 
TLFamily_GZ4       .         Gradient 425                  : 
TLFamily_GZ5       .         Gradient 850                  : 
TLFamily_LLS       .         Lateral Log Resistivity       : 
TLFamily_MINV      .         Micro Gradient Resistivity    : 
TLFamily_MNOR      .         Micro Resistivity             : 
TLFamily_NGLD      .         Neutron Far                   : 
TLFamily_OGZ3      .         Gradient Inverted 225         : 
TLFamily_PHIE      .         Effective Porosity            : 
TLFamily_PHIEN     .         Effective Porosity            : 
TLFamily_PHIT      .         Porosity                      : 
TLFamily_PRMB      .         Permeability                  : 
TLFamily_PRMB_DGR  .         Permeability                  : 
TLFamily_RT        .         Formation Resistivity         : 
TLFamily_SOIL_ARCHIE .         Oil Saturation                : 
TLFamily_SOIL_DW   .         Oil Saturation                : 
TLFamily_SP        .         Spontaneous Potential         : 
TLFamily_VSH_FIN   .         Shale Volume                  : 
TLFamily_VSH_GR    .         Shale Volume                  : 
TLFamily_VSH_SP    .         Shale Volume                  : 
~Curve Information
#_______________________________________________________________________________
#
#LOGNAME           .UNIT     LOG_ID                        : DESCRIPTION
#_______________________________________________________________________________
DEPT               .M                                      : Колонка глубины 
CALI               .м                                      : Каверномер 
CILD               .мСм/м                                  : Индукционный каротаж 
COLL               .unitless                               :  
CSAT               .unitless                               :  
GR                 .uR/h                                   : Гамма каротаж 
GZ1                .OHMM                                   :  
GZ2                .OHMM                                   :  
GZ3                .OHMM                                   :  
GZ4                .OHMM                                   :  
GZ5                .OHMM                                   :  
LLS                .Ohmm                                   : Боковой каротаж 
MINV               .Ohmm                                   : Микро-градиент зонд 
MNOR               .Ohmm                                   : Микро-потенциал зонд 
NGLD               .у.е.                                   : Показания зонда НГК-60 аппаратуры ДРСТ-3-90 
OGZ3               .OHMM                                   :  
PHIE               .v/v                                    : Описание 
PHIEN              .v/v                                    :  
PHIT               .v/v                                    : Описание 
PRMB               .mD                                     :  
PRMB_DGR           .mD                                     :  
RT                 .ohmm                                   : УЭС пласта 
SOIL_ARCHIE        .v/v                                    :  
SOIL_DW            .v/v                                    :  
SP                 .мВ                                     : Потенциал самополяризации 
VSH_FIN            .v/v                                    : Описание 
VSH_GR             .v/v                                    : Shale volume 
VSH_SP             .v/v                                    : Shale Volume 
~Ascii
# ...
1073.6     0.24       370.84     -9999      -9999      8.817408   2.46399998664856 3.072999954223633 2.372999906539917 1.726999998092651 1.498999953269958 2.335      0.743      1.232      1.330803   2.28600001335144 0.1501798  0.1501798  0.3169371  1.693762   4.551625   2.446      0.2337718  0.4950162  36.38247   0.5053251  0.3494321  0.661218  
1073.8     0.24       370.84     -9999      -9999      8.842669   2.46399998664856 3.072999954223633 2.372999906539917 1.726999998092651 1.498999953269958 2.335      0.743      1.232      1.339411   2.28600001335144 0.145862   0.145862   0.3132954  1.408886   4.373838   2.446      0.2140542  0.485727   36.45448   0.507374   0.3551636  0.6595843 
1074       0.241      369.57     -9999      -9999      8.925819   2.311000108718872 2.845000028610229 2.398000001907349 1.675999999046326 1.575000047683716 2.003      0.857      1.168      1.342235   2.361999988555908 0.1406769  0.1406769  0.3121003  1.129368   3.836229   2.454      0.1901251  0.4782814  36.50957   0.519465   0.3747023  0.6642276 
1074.2     0.236      374.65     -9999      -9999      9.064397   2.108000040054321 2.996999979019165 2.575999975204468 1.753000020980835 1.498999953269958 2.171      0.73       1.308      1.337038   2.184000015258789 0.1373745  0.1373745  0.3142991  0.9809946  3.083042   2.421      0.1679249  0.4723835  36.5246    0.5361353  0.4096826  0.6625879 
1074.4     0.236      374.65     -9999      -9999      9.228684   2.108000040054321 2.996999979019165 2.575999975204468 1.753000020980835 1.498999953269958 2.171      0.73       1.308      1.324286   2.184000015258789 0.1344564  0.1344564  0.3196946  0.8661982  2.379267   2.421      0.152219   0.4738453  36.48396   0.5613279  0.4554072  0.6672487 
1074.6     0.238      382.27     -9999      -9999      9.405438   2.032000064849854 2.869999885559082 2.575999975204468 1.853999972343445 1.575000047683716 2.018      0.883      1.245      1.308545   2.108000040054321 0.1354144  0.1354144  0.3263546  0.9023217  1.800392   2.373      0.1494899  0.4768023  36.39073   0.5786067  0.5103161  0.6468973 
1074.8     0.238      382.27     -9999      -9999      9.60711    2.032000064849854 2.869999885559082 2.575999975204468 1.853999972343445 1.575000047683716 2.018      0.883      1.245      1.295975   2.108000040054321 0.1293187  0.1293187  0.331673   0.6957523  1.309853   2.373      0.1146774  0.4734022  36.26554   0.6131949  0.5810965  0.6452933 
1075       0.24       392.43     -9999      -9999      9.841582   2.056999921798706 2.921000003814697 2.551000118255615 1.904999971389771 1.575000047683716 2.235      1.048      1.334      1.290071   2.108000040054321 0.1184599  0.1184599  0.3341709  0.437847   0.9049194  2.311      0.03245379 0.4521179  36.13491   0.6536698  0.6758212  0.6315184 
1075.2     0.242      419.1      -9999      -9999      10.08203   2.210000038146973 3.023000001907349 2.296999931335449 1.802999973297119 1.498999953269958 2.171      0.73       1.168      1.290806   2.108000040054321 0.09973106 0.09973106 0.3338598  0.1969787  0.6193074  2.164      0          0.3991352  36.02453   0.7094811  0.7890159  0.6299462 
1075.4     0.242      419.1      -9999      -9999      10.2783    2.210000038146973 3.023000001907349 2.296999931335449 1.802999973297119 1.498999953269958 2.171      0.73       1.168      1.296467   2.108000040054321 0.09872341 0.09872341 0.3314649  0.1886927  0.4544239  2.164      0          0.394199   35.96239   0.7052772  0.8        0.6105545 
1075.6     0.244      438.15     -9999      -9999      10.39296   2.08299994468689 2.819000005722046 2.170000076293945 1.753000020980835 1.473000049591064 1.875      0.87       1.13       1.303886   1.980999946594239 0.09388813 0.09388813 0.328326   0.1535302  0.3792413  2.07       0          0.366221   35.968     0.7104177  0.8        0.6208354 
1075.8     0.244      438.15     -9999      -9999      10.41752   2.08299994468689 2.819000005722046 2.170000076293945 1.753000020980835 1.473000049591064 1.875      0.87       1.13       1.308394   1.980999946594239 0.09223624 0.09223624 0.3264184  0.1430859  0.3648337  2.07       0          0.360027   36.03897   0.7096428  0.8        0.6192856 
1076       0.246      444.5      -9999      -9999      10.36886   1.929999947547913 2.591000080108643 2.092999935150146 1.600000023841858 1.371999979019165 1.68       0.73       0.914      1.30644    1.955999970436096 0.09134628 0.09134628 0.3272452  0.1377567  0.3939392  2.041      0          0.3545608  36.15905   0.7148452  0.8        0.6296903 
1076.2     0.241      453.39     -9999      -9999      10.2767    1.600000023841858 2.336999893188477 2.270999908447266 1.52400004863739 1.294999957084656 1.644      0.87       0.978      1.299492   1.904999971389771 0.09454487 0.09454487 0.330185   0.1578913  0.4555731  2.001      0          0.3592938  36.31546   0.714061   0.8        0.628122  
1076.4     0.241      453.39     -9999      -9999      10.16831   1.600000023841858 2.336999893188477 2.270999908447266 1.52400004863739 1.294999957084656 1.644      0.87       0.978      1.292953   1.904999971389771 0.0955742  0.0955742  0.3329516  0.1649773  0.5405071  2.001      0          0.3651352  36.49728   0.7193255  0.8        0.6386511 
1076.6     0.24       454.66     -9999      -9999      10.05843   1.600000023841858 2.184000015258789 2.296999931335449 1.549000024795532 1.320999979972839 1.743      0.667      0.902      1.29038    1.828999996185303 0.09765348 0.09765348 0.3340404  0.1802758  0.6427924  1.995      0          0.37005    36.6875    0.7163239  0.777115   0.6555328 
1076.8     0.24       454.66     -9999      -9999      9.948976   1.600000023841858 2.184000015258789 2.296999931335449 1.549000024795532 1.320999979972839 1.743      0.667      0.902      1.290215   1.828999996185303 0.1067183  0.1067183  0.3341099  0.2653626  0.7639164  1.995      0          0.3885935  36.87159   0.6890654  0.7242199  0.6539108 
1077       0.242      452.12     -9999      -9999      9.83134    1.651000022888184 2.108000040054321 2.270999908447266 1.575000047683716 1.345999956130981 1.768      0.591      0.876      1.289033   1.853999972343445 0.114141   0.114141   0.3346102  0.3641888  0.9196571  2.006      0          0.4047772  37.06304   0.6680883  0.6713777  0.6647989 
1077.2     0.242      440.69     -9999      -9999      9.692864   1.675999999046326 2.108000040054321 2.092999935150146 1.575000047683716 1.345999956130981 1.795      0.629      0.889      1.286413   1.929999947547913 0.1249723  0.1249723  0.3357187  0.578026   1.144145   2.058      0.02487944 0.4319987  37.29837   0.6386257  0.6140933  0.6631581 
1077.4     0.242      440.69     -9999      -9999      9.531612   1.675999999046326 2.108000040054321 2.092999935150146 1.575000047683716 1.345999956130981 1.795      0.629      0.889      1.284628   1.929999947547913 0.133905   0.133905   0.336474   0.8460643  1.475497   2.058      0.08178497 0.4467188  37.60364   0.6138454  0.553517   0.6741738 
1077.6     0.242      430.53     -9999      -9999      9.367197   1.702000021934509 2.108000040054321 2.11899995803833 1.651000022888184 1.473000049591064 1.835      0.743      1.029      1.284249   1.955999970436096 0.1359629  0.1359629  0.3366342  0.9236786  1.912327   2.107      0.1038514  0.4563785  37.96202   0.6080948  0.4979008  0.7182886 
1077.8     0.242      430.53     -9999      -9999      9.230021   1.702000021934509 2.108000040054321 2.11899995803833 1.651000022888184 1.473000049591064 1.835      0.743      1.029      1.283221   1.955999970436096 0.1436332  0.1436332  0.3370692  1.28113    2.374253   2.107      0.1456783  0.4676516  38.33002   0.5861697  0.4557995  0.7165399 
1078       0.243      425.45     -9999      -9999      9.137416   1.726999998092651 2.184000015258789 2.170000076293945 1.651000022888184 1.447999954223633 1.889      0.87       1.143      1.279961   1.980999946594239 0.1440295  0.1440295  0.3384486  1.302971   2.747652   2.132      0.1524307  0.4726802  38.68578   0.5891488  0.4294093  0.7488883 
