~Version
 VERS              .         2.0                           : CWLS LOG ASCII STANDARD - VERSION 2.0
 WRAP              .         NO                            : ONE LINE PER DEPTH STEP
 DLM               .         SPACE                         : DELIMITING CHARACTER(SPACE TAB OR COMMA)
~Well Information
#_______________________________________________________________________________
#
#PARAMETER_NAME    .UNIT     VALUE                         : DESCRIPTION
#_______________________________________________________________________________
STRT               .M        908                           : First reference value
STOP               .M        1225.8                        : Last reference value
STEP               .M        0.2                           : Step increment
NULL               .         -9999                         : Missing value
COMP               .                                       : Company
WELL               .         3896                          : Well name
FLD                .         Узень                         : Field
LOC                .                                       : Location
CNTY               .                                       : County
STAT               .                                       : State
CTRY               .                                       : Country
SRVC               .                                       : Service Company
DATE               .                                       : Date
UWI                .                                       : Unique Well ID
123                .         1                             : 
4_кв_для_Заказчика .         1                             : 
API                .                                       : 
Block              .         6а                            : 
Category           .         Нефтяная                      : 
Condition          .         В работе                      : 
Date               .         25.05.1989                    : 
EREF               .m        86.7                          : 100.8
Gor                .         15                            : 
Gorizont           .         15                            : 14
Interpretator      .         Кайсанов Е.К                  : 
Kupol              .         Основной                      : osnovnoi
Mud                .                                       : 
Mud_density        .                                       : 
Mud_resistivity    .                                       : 
NGDU               .         НГДУ-2                        : 
ORIGINALWELLNAME   .         3896                          : 
Otmetka            .                                       : 
Spud_date          .         1989                          : 1961
Viscosity          .                                       : 
X                  .m        44634.6                       : 46154
Y                  .m        85593.73                      : 85761.93
YEAR               .         2018                          : 
~Parameter Information Block
#_______________________________________________________________________________
#
#PARAMETER_NAME    .UNIT     VALUE                         : DESCRIPTION
#_______________________________________________________________________________
SET                .         LQC_KAZNIPI_Petrel            : 
TLFamily_CALI      .         Caliper                       : 
TLFamily_CILD      .         Conductivity                  : 
TLFamily_COLL      .         Net Reservoir Flag            : 
TLFamily_CSAT      .         Fluid Code                    : 
TLFamily_DEPT      .         Measured Depth                : 
TLFamily_GR        .         Russian Gamma Ray             : 
TLFamily_GZ1       .         Gradient 045                  : 
TLFamily_GZ2       .         Gradient 105                  : 
TLFamily_GZ3       .         Gradient 225                  : 
TLFamily_GZ4       .         Gradient 425                  : 
TLFamily_GZ5       .         Gradient 850                  : 
TLFamily_LLS       .         Lateral Log Resistivity       : 
TLFamily_MINV      .         Micro Gradient Resistivity    : 
TLFamily_MNOR      .         Micro Resistivity             : 
TLFamily_NGLD      .         Neutron Far                   : 
TLFamily_OGZ3      .         Gradient Inverted 225         : 
TLFamily_PHIE      .         Effective Porosity            : 
TLFamily_PHIEN     .         Effective Porosity            : 
TLFamily_PHIT      .         Porosity                      : 
TLFamily_PRMB      .         Permeability                  : 
TLFamily_PRMB_DGR  .         Permeability                  : 
TLFamily_RT        .         Formation Resistivity         : 
TLFamily_SOIL_ARCHIE .         Oil Saturation                : 
TLFamily_SOIL_DW   .         Oil Saturation                : 
TLFamily_SP        .         Spontaneous Potential         : 
TLFamily_VSH_FIN   .         Shale Volume                  : 
TLFamily_VSH_GR    .         Shale Volume                  : 
TLFamily_VSH_SP    .         Shale Volume                  : 
~Curve Information
#_______________________________________________________________________________
#
#LOGNAME           .UNIT     LOG_ID                        : DESCRIPTION
#_______________________________________________________________________________
DEPT               .M                                      : Колонка глубины 
CALI               .м                                      : Каверномер 
CILD               .мСм/м                                  : Индукционный каротаж 
COLL               .unitless                               :  
CSAT               .unitless                               :  
GR                 .uR/h                                   : Гамма каротаж 
GZ1                .OHMM                                   :  
GZ2                .OHMM                                   :  
GZ3                .OHMM                                   :  
GZ4                .OHMM                                   :  
GZ5                .OHMM                                   :  
LLS                .Ohmm                                   : Боковой каротаж 
MINV               .Ohmm                                   : Микро-градиент зонд 
MNOR               .Ohmm                                   : Микро-потенциал зонд 
NGLD               .у.е.                                   : Показания зонда НГК-60 аппаратуры ДРСТ-3-90 
OGZ3               .OHMM                                   :  
PHIE               .v/v                                    : Описание 
PHIEN              .v/v                                    :  
PHIT               .v/v                                    : Описание 
PRMB               .mD                                     :  
PRMB_DGR           .mD                                     :  
RT                 .ohmm                                   : УЭС пласта 
SOIL_ARCHIE        .v/v                                    :  
SOIL_DW            .v/v                                    :  
SP                 .мВ                                     : Потенциал самополяризации 
VSH_FIN            .v/v                                    : Описание 
VSH_GR             .v/v                                    : Shale volume 
VSH_SP             .v/v                                    : Shale Volume 
~Ascii
# ...
1133.4     0.216      121.92     -9999      -9999      9.55902    3.835000038146973 7.163000106811523 8.545000076293945 5.079999923706055 4.267000198364258 5.032      2.572      2.756      1.546179   8.864999771118164 0.1356315  0.1356315  0.2258116  0.9107156  3.356528   7.44       0.5031906  0.6294939  21.8142    0.273273   0.3957087  0.1508372 
1133.6     0.215      116.84     -9999      -9999      9.578564   3.759000062942505 7.493000030517578 8.722999572753904 5.486000061035156 4.546999931335448 5.181      1.899      2.438      1.536454   9.194999694824219 0.1391202  0.1391202  0.2299263  1.056821   3.264553   7.763      0.523654   0.6448193  21.56635   0.27517    0.4002237  0.1501163 
1133.8     0.215      116.84     -9999      -9999      9.57181    3.759000062942505 7.493000030517578 8.722999572753904 5.486000061035156 4.546999931335448 5.181      1.899      2.438      1.521938   9.194999694824219 0.145494   0.145494   0.2360678  1.386945   3.296049   7.763      0.541881   0.6566089  20.9168    0.2744663  0.3986576  0.150275  
1134       0.213      114.3      1          2          9.515371   4.013000011444092 7.949999809265137 8.671999931335449 5.968999862670898 4.723999977111816 5.615      1.823      2.388      1.505229   9.550000190734863 0.1568038  0.1568038  0.2431375  2.246699   3.571406   7.936      0.5752137  0.6762296  19.94713   0.2616172  0.3858082  0.1374261 
1134.2     0.213      119.38     1          2          9.402958   4.242000102996826 8.128000259399414 7.731999874114991 6.629000186920166 4.901999950408936 5.909      2.382      2.692      1.490727   9.892999649047852 0.1680611  0.1680611  0.2492733  3.631266   4.190291   7.598      0.5918539  0.6830341  18.88713   0.2460976  0.3614357  0.1307594 
1134.4     0.213      119.38     1          2          9.240094   4.242000102996826 8.128000259399414 7.731999874114991 6.629000186920166 4.901999950408936 5.909      2.382      2.692      1.479942   9.892999649047852 0.1784116  0.1784116  0.2538364  5.646421   5.281992   7.598      0.6125556  0.6940033  17.96989   0.2285601  0.3288302  0.1282899 
1134.6     0.213      121.92     1          2          9.040058   4.242000102996826 8.128000259399414 7.681000232696534 6.374999999999999 4.597000122070312 5.218      2.255      2.4        1.46979    9.906000137329102 0.1889782  0.1889782  0.2581318  8.86122    7.019426   7.44       0.6278414  0.7009966  17.28273   0.2095561  0.2927797  0.1263326 
1134.8     0.213      121.92     1          2          8.821376   4.242000102996826 8.128000259399414 7.681000232696534 6.374999999999999 4.597000122070312 5.218      2.255      2.4        1.456178   9.906000137329102 0.2004858  0.2004858  0.263891   14.47574   9.578952   7.44       0.6465165  0.7119956  16.75735   0.1921371  0.257875   0.1263991 
1135       0.213      123.19     1          2          8.608192   3.861000061035156 8.076999664306641 7.681000232696534 5.918000221252441 4.394000053405762 4.745      2.331      2.451      1.439215   9.906000137329102 0.2127837  0.2127837  0.2710682  24.45843   12.96997   7.363      0.6627352  0.7219893  16.27644   0.1766198  0.2278578  0.1253819 
1135.2     0.211      125.73     1          2          8.438683   3.70799994468689 7.722000122070312 7.859000205993653 5.359000205993651 4.267000198364258 4.886      2.508      2.731      1.423665   9.652000427246094 0.2231928  0.2231928  0.2776472  38.12685   16.50425   7.214      0.6733578  0.7285157  15.78459   0.1650131  0.2065043  0.1235219 
1135.4     0.211      125.73     1          2          8.350252   3.70799994468689 7.722000122070312 7.859000205993653 5.359000205993651 4.267000198364258 4.886      2.508      2.731      1.414668   9.652000427246094 0.2289269  0.2289269  0.281454   48.68992   18.71516   7.214      0.6804952  0.7335108  15.31421   0.1591732  0.1961711  0.1221753 
1135.6     0.209      125.73     1          2          8.34181    3.733999967575073 7.289999961853026 8.11299991607666 5.231999874114991 4.36899995803833 5.181      2.572      2.642      1.41416    10.03299999237061 0.2294673  0.2294673  0.281669   49.82516   18.94112   7.214      0.6811506  0.7338933  14.92917   0.1581871  0.1952121  0.121162  
1135.8     0.209      125.73     1          2          8.374273   3.733999967575073 7.289999961853026 8.11299991607666 5.231999874114991 4.36899995803833 5.181      2.572      2.642      1.420349   10.03299999237061 0.2262283  0.2262283  0.2790502  43.39647   18.08685   7.214      0.6771783  0.7308429  14.6546    0.1600664  0.1989257  0.1212071 
1136       0.208      123.19     1          2          8.411155   3.809999942779541 7.163000106811523 8.366999626159668 5.359000205993651 4.46999979019165 5.143      2.559      2.642      1.429541   10.66800022125244 0.2216651  0.2216651  0.2751611  35.72186   17.16295   7.363      0.6745354  0.7290915  14.46586   0.162109   0.2032306  0.1209875 
1136.2     0.21       113.03     1          2          8.441689   3.759000062942505 7.315000057220459 9.104000091552736 5.69000005722046 4.876999855041504 5.453      2.648      2.87       1.438452   11.30300045013428 0.2173648  0.2173648  0.2713911  29.73588   16.43388   8.025      0.6820431  0.7362582  14.32258   0.1637162  0.206865   0.1205674 
1136.4     0.21       113.03     1          2          8.469104   3.759000062942505 7.315000057220459 9.104000091552736 5.69000005722046 4.876999855041504 5.453      2.648      2.87       1.445615   11.30300045013428 0.2137795  0.2137795  0.2683605  25.51955   15.8057    8.025      0.6774039  0.7326728  14.18796   0.1653969  0.2101835  0.1206103 
1136.6     0.21       102.87     1          2          8.498663   3.861000061035156 7.644999980926515 9.458999633789063 6.27400016784668 5.842000007629395 5.823      2.343      2.527      1.451367   12.19200038909912 0.2107382  0.2107382  0.2659265  22.41508   15.15527   8.817      0.6874658  0.7420623  14.02869   0.1672372  0.2138211  0.1206533 
1136.8     0.21       102.87     1          2          8.536451   3.861000061035156 7.644999980926515 9.458999633789063 6.27400016784668 5.842000007629395 5.823      2.343      2.527      1.456594   12.19200038909912 0.2078517  0.2078517  0.2637149  19.81874   14.36259   8.817      0.6836891  0.7393042  13.82963   0.1692823  0.2185634  0.1200013 
1137       0.21       96.52      1          2          8.592161   3.911999940872192 7.771999835968018 10.2810001373291 6.679999828338622 6.578999996185302 5.782      2.775      2.743      1.461795   13.46199989318848 0.2045282  0.2045282  0.2615145  17.19953   13.26896   9.397      0.6886654  0.7445245  13.61154   0.1726858  0.2257472  0.1196244 
1137.2     0.209      86.36      1          2          8.676143   4.317999839782715 9.524999618530273 10.97500038146973 8.560000419616699 7.238999843597413 7.467      2.547      2.845      1.466975   15.36699962615967 0.2005787  0.2005787  0.2593227  14.53322   11.77569   10.503     0.6994434  0.7551732  13.41775   0.1780123  0.2370254  0.1189993 
1137.4     0.209      86.36      1          2          8.788      4.317999839782715 9.524999618530273 10.97500038146973 8.560000419616699 7.238999843597413 7.467      2.547      2.845      1.47251    15.36699962615967 0.1956068  0.1956068  0.2569808  11.75629   10.04441   10.503     0.6928006  0.7512811  13.27878   0.1859819  0.2529269  0.119037  
1137.6     0.209      77.47      1          2          8.903756   5.028999805450439 10.41399955749512 11.48299980163575 9.220000267028809 7.341000080108643 8.899      2.737      3.061      1.479956   15.23999977111816 0.1895496  0.1895496  0.2538305  9.079785   8.520316   11.708     0.6999568  0.7595956  13.19756   0.1947908  0.2705067  0.1190748 
1137.8     0.209      77.47      1          2          8.987901   5.028999805450439 10.41399955749512 11.48299980163575 9.220000267028809 7.341000080108643 8.899      2.737      3.061      1.49112    15.23999977111816 0.18262    0.18262    0.2491072  6.756519   7.55969    11.708     0.6900648  0.7531512  13.17242   0.2014764  0.2840479  0.1189049 
