~Version
 VERS              .         2.0                           : CWLS LOG ASCII STANDARD - VERSION 2.0
 WRAP              .         NO                            : ONE LINE PER DEPTH STEP
 DLM               .         SPACE                         : DELIMITING CHARACTER(SPACE TAB OR COMMA)
~Well Information
#_______________________________________________________________________________
#
#PARAMETER_NAME    .UNIT     VALUE                         : DESCRIPTION
#_______________________________________________________________________________
STRT               .M        908                           : First reference value
STOP               .M        1225.8                        : Last reference value
STEP               .M        0.2                           : Step increment
NULL               .         -9999                         : Missing value
COMP               .                                       : Company
WELL               .         3896                          : Well name
FLD                .         Узень                         : Field
LOC                .                                       : Location
CNTY               .                                       : County
STAT               .                                       : State
CTRY               .                                       : Country
SRVC               .                                       : Service Company
DATE               .                                       : Date
UWI                .                                       : Unique Well ID
123                .         1                             : 
4_кв_для_Заказчика .         1                             : 
API                .                                       : 
Block              .         6а                            : 
Category           .         Нефтяная                      : 
Condition          .         В работе                      : 
Date               .         25.05.1989                    : 
EREF               .m        86.7                          : 100.8
Gor                .         15                            : 
Gorizont           .         15                            : 14
Interpretator      .         Кайсанов Е.К                  : 
Kupol              .         Основной                      : osnovnoi
Mud                .                                       : 
Mud_density        .                                       : 
Mud_resistivity    .                                       : 
NGDU               .         НГДУ-2                        : 
ORIGINALWELLNAME   .         3896                          : 
Otmetka            .                                       : 
Spud_date          .         1989                          : 1961
Viscosity          .                                       : 
X                  .m        44634.6                       : 46154
Y                  .m        85593.73                      : 85761.93
YEAR               .         2018                          : 
~Parameter Information Block
#_______________________________________________________________________________
#
#PARAMETER_NAME    .UNIT     VALUE                         : DESCRIPTION
#_______________________________________________________________________________
SET                .         LQC_KAZNIPI_Petrel            : 
TLFamily_CALI      .         Caliper                       : 
TLFamily_CILD      .         Conductivity                  : 
TLFamily_COLL      .         Net Reservoir Flag            : 
TLFamily_CSAT      .         Fluid Code                    : 
TLFamily_DEPT      .         Measured Depth                : 
TLFamily_GR        .         Russian Gamma Ray             : 
TLFamily_GZ1       .         Gradient 045                  : 
TLFamily_GZ2       .         Gradient 105                  : 
TLFamily_GZ3       .         Gradient 225                  : 
TLFamily_GZ4       .         Gradient 425                  : 
TLFamily_GZ5       .         Gradient 850                  : 
TLFamily_LLS       .         Lateral Log Resistivity       : 
TLFamily_MINV      .         Micro Gradient Resistivity    : 
TLFamily_MNOR      .         Micro Resistivity             : 
TLFamily_NGLD      .         Neutron Far                   : 
TLFamily_OGZ3      .         Gradient Inverted 225         : 
TLFamily_PHIE      .         Effective Porosity            : 
TLFamily_PHIEN     .         Effective Porosity            : 
TLFamily_PHIT      .         Porosity                      : 
TLFamily_PRMB      .         Permeability                  : 
TLFamily_PRMB_DGR  .         Permeability                  : 
TLFamily_RT        .         Formation Resistivity         : 
TLFamily_SOIL_ARCHIE .         Oil Saturation                : 
TLFamily_SOIL_DW   .         Oil Saturation                : 
TLFamily_SP        .         Spontaneous Potential         : 
TLFamily_VSH_FIN   .         Shale Volume                  : 
TLFamily_VSH_GR    .         Shale Volume                  : 
TLFamily_VSH_SP    .         Shale Volume                  : 
~Curve Information
#_______________________________________________________________________________
#
#LOGNAME           .UNIT     LOG_ID                        : DESCRIPTION
#_______________________________________________________________________________
DEPT               .M                                      : Колонка глубины 
CALI               .м                                      : Каверномер 
CILD               .мСм/м                                  : Индукционный каротаж 
COLL               .unitless                               :  
CSAT               .unitless                               :  
GR                 .uR/h                                   : Гамма каротаж 
GZ1                .OHMM                                   :  
GZ2                .OHMM                                   :  
GZ3                .OHMM                                   :  
GZ4                .OHMM                                   :  
GZ5                .OHMM                                   :  
LLS                .Ohmm                                   : Боковой каротаж 
MINV               .Ohmm                                   : Микро-градиент зонд 
MNOR               .Ohmm                                   : Микро-потенциал зонд 
NGLD               .у.е.                                   : Показания зонда НГК-60 аппаратуры ДРСТ-3-90 
OGZ3               .OHMM                                   :  
PHIE               .v/v                                    : Описание 
PHIEN              .v/v                                    :  
PHIT               .v/v                                    : Описание 
PRMB               .mD                                     :  
PRMB_DGR           .mD                                     :  
RT                 .ohmm                                   : УЭС пласта 
SOIL_ARCHIE        .v/v                                    :  
SOIL_DW            .v/v                                    :  
SP                 .мВ                                     : Потенциал самополяризации 
VSH_FIN            .v/v                                    : Описание 
VSH_GR             .v/v                                    : Shale volume 
VSH_SP             .v/v                                    : Shale Volume 
~Ascii
# ...
1216.4     0.176      695.96     1          3          8.900256   1.726999998092651 1.651000022888184 1.814000010490417 2.691999912261963 1.218999981880188 1.41       1.797      1.562      1.523291   -9999      0.1691583  0.1691583  0.2354955  3.805228   9.584252   1.303      0.08460002 0.2217863  -9999      0.2010217  0.2578168  0.1442266 
1216.6     -9999      650.24     1          3          9.139484   1.651000022888184 1.626000046730042 1.889999985694885 2.66700005531311 1.320999979972839 1.41       1.816      1.575      1.493042   -9999      1          1          0.248294   9323613800000000.0000000 6.858767   1.395      0.8113804  0.3805538  -9999      -4999.352  0.295561   -9999     
1216.8     -9999      650.24     1          3          9.317292   1.651000022888184 1.626000046730042 1.889999985694885 2.66700005531311 1.320999979972839 1.41       1.797      1.524      1.468231   -9999      1          1          0.2587916  9323613800000000.0000000 5.34862    1.395      0.8113804  0.4056808  -9999      -4999.336  0.3271514  -9999     
1217       -9999      633.73     1          3          9.38787    1.675999999046326 1.626000046730042 1.916000008583069 2.641999959945679 1.396999955177307 1.441      1.797      1.524      1.452904   -9999      1          1          0.2652765  9323613800000000.0000000 4.845865   1.431      0.8136222  0.4275489  -9999      -4999.33   0.3406075  -9999     
1217.2     -9999      647.7      1          3          9.339994   1.777999997138977 1.626000046730042 1.889999985694885 2.66700005531311 1.498999953269958 1.596      1.874      1.473      1.447364   -9999      1          1          0.2676204  9323613800000000.0000000 5.181458   1.4        0.8116968  0.4263146  -9999      -4999.334  0.3314207  -9999     
1217.4     -9999      647.7      1          3          9.156693   1.777999997138977 1.626000046730042 1.889999985694885 2.66700005531311 1.498999953269958 1.596      1.874      1.473      1.449412   -9999      1          1          0.2667539  9323613800000000.0000000 6.695651   1.4        0.8116968  0.4244511  -9999      -4999.351  0.2984801  -9999     
1217.6     -9999      670.56     1          3          8.697076   1.802999973297119 1.626000046730042 1.83899998664856 2.615999937057495 1.498999953269958 1.573      1.759      1.206      1.456043   -9999      1          1          0.2639484  9323613800000000.0000000 12.73427   1.353      0.8086551  0.4083171  -9999      -4999.385  0.2295707  -9999     
1217.8     -9999      670.56     1          3          7.63241    1.802999973297119 1.626000046730042 1.83899998664856 2.615999937057495 1.498999953269958 1.573      1.734      1.308      1.46393    -9999      1          1          0.2606111  9323613800000000.0000000 56.45137   1.353      0.8086551  0.4007402  -9999      -4999.438  0.1249819  -9999     
1218       -9999      681.99     1          3          5.671847   1.675999999046326 1.626000046730042 1.865000009536743 2.591000080108643 1.422000050544739 1.517      1.734      1.308      1.469411   -9999      1          1          0.2582921  9323613800000000.0000000 876.1158   1.33       0.8071094  0.3901542  -9999      -4999.479  0.04079136 -9999     
1218.2     -9999      698.5      1          3          2.997522   1.853999972343445 1.626000046730042 1.889999985694885 2.66700005531311 1.473000049591064 1.441      1.175      1.13       1.469133   -9999      1          1          0.2584096  9323613800000000.0000000 36897.95   1.299      0.8049628  0.3832009  -9999      -4999.49   0.02       -9999     
1218.4     -9999      698.5      1          3          0.3472523  1.853999972343445 1.626000046730042 1.889999985694885 2.66700005531311 1.473000049591064 1.441      1.175      1.13       1.462541   -9999      1          1          0.2611991  9323613800000000.0000000 1502559    1.299      0.8049628  0.3897881  -9999      -4999.49   0.02       -9999     
1218.6     -9999      703.58     1          3          -1.550099  1.702000021934509 1.651000022888184 -9999      2.66700005531311 1.447999954223633 1.452      1.404      1.372      1.452546   -9999      1          1          0.2654277  9323613800000000.0000000 21346288.0000000 1.289      0.8042542  0.3971847  -9999      -4999.49   0.02       -9999     
1218.8     -9999      703.58     1          3          -2.527785  1.702000021934509 1.651000022888184 -9999      2.66700005531311 1.447999954223633 1.452      1.34       1.499      1.443474   -9999      1          1          0.2692661  9323613800000000.0000000 83789472.0000000 1.289      0.8042542  0.4057779  -9999      -4999.49   0.02       -9999     
1219       -9999      681.99     1          3          -2.889075  1.777999997138977 1.651000022888184 -9999      2.591000080108643 1.396999955177307 1.473      1.34       1.499      1.438467   -9999      1          1          0.2713847  9323613800000000.0000000 138881660.0000000 1.33       0.8071094  0.4195753  -9999      -4999.49   0.02       -9999     
1219.2     -9999      613.41     1          3          -2.984402  1.702000021934509 1.651000022888184 -9999      2.615999937057495 1.498999953269958 1.209      1.162      1.194      1.438862   -9999      1          1          0.2712176  9323613800000000.0000000 158689570.0000000 1.479      0.8164855  0.4492494  -9999      -4999.49   0.02       -9999     
1219.4     -9999      613.41     1          3          -3         1.702000021934509 1.651000022888184 -9999      2.615999937057495 1.498999953269958 1.209      1.404      1.384      1.444624   -9999      1          1          0.2687798  9323613800000000.0000000 162189410.0000000 1.479      0.8164855  0.444254   -9999      -4999.49   0.02       -9999     
1219.6     -9999      563.88     1          3          -3         1.879999995231628 1.626000046730042 -9999      2.691999912261963 1.549000024795532 1.34       0.857      0.876      1.455869   -9999      1          1          0.2640218  9323613800000000.0000000 162189410.0000000 1.609      0.823599   0.4575756  -9999      -4999.49   0.02       -9999     
1219.8     -9999      563.88     1          3          -2.992016  1.879999995231628 1.626000046730042 -9999      2.691999912261963 1.549000024795532 1.34       0.857      0.876      1.473146   -9999      1          1          0.2567118  9323613800000000.0000000 160388480.0000000 1.609      0.823599   0.4421299  -9999      -4999.49   0.02       -9999     
1220       -9999      541.02     1          3          -9999      1.675999999046326 1.626000046730042 -9999      2.615999937057495 1.600000023841858 1.389      2.356      1.46       1.491541   -9999      -9999      -9999      0.248929   -9999      -9999      1.677      -9999      -9999      -9999      -9999      -9999      -9999     
1220.2     -9999      505.46     -9999      -9999      -9999      1.828999996185303 1.626000046730042 -9999      -9999      1.498999953269958 1.692      2.356      1.46       -9999      -9999      -9999      -9999      -9999      -9999      -9999      1.794      -9999      -9999      -9999      -9999      -9999      -9999     
1220.4     -9999      505.46     -9999      -9999      -9999      1.828999996185303 1.626000046730042 -9999      -9999      1.498999953269958 1.692      1.975      1.295      -9999      -9999      -9999      -9999      -9999      -9999      -9999      1.794      -9999      -9999      -9999      -9999      0.02       -9999     
1220.6     -9999      499.11     -9999      -9999      -9999      1.853999972343445 1.600000023841858 -9999      -9999      1.549000024795532 1.573      2.153      1.613      -9999      -9999      -9999      -9999      -9999      -9999      -9999      1.817      -9999      -9999      -9999      -9999      0.02       -9999     
1220.8     -9999      499.11     -9999      -9999      -9999      1.853999972343445 1.600000023841858 -9999      -9999      1.549000024795532 1.573      2.153      1.613      -9999      -9999      -9999      -9999      -9999      -9999      -9999      1.817      -9999      -9999      -9999      -9999      -9999      -9999     
