~Version
 VERS              .         2.0                           : CWLS LOG ASCII STANDARD - VERSION 2.0
 WRAP              .         NO                            : ONE LINE PER DEPTH STEP
 DLM               .         SPACE                         : DELIMITING CHARACTER(SPACE TAB OR COMMA)
~Well Information
#_______________________________________________________________________________
#
#PARAMETER_NAME    .UNIT     VALUE                         : DESCRIPTION
#_______________________________________________________________________________
STRT               .M        908                           : First reference value
STOP               .M        1225.8                        : Last reference value
STEP               .M        0.2                           : Step increment
NULL               .         -9999                         : Missing value
COMP               .                                       : Company
WELL               .         3896                          : Well name
FLD                .         Узень                         : Field
LOC                .                                       : Location
CNTY               .                                       : County
STAT               .                                       : State
CTRY               .                                       : Country
SRVC               .                                       : Service Company
DATE               .                                       : Date
UWI                .                                       : Unique Well ID
123                .         1                             : 
4_кв_для_Заказчика .         1                             : 
API                .                                       : 
Block              .         6а                            : 
Category           .         Нефтяная                      : 
Condition          .         В работе                      : 
Date               .         25.05.1989                    : 
EREF               .m        86.7                          : 100.8
Gor                .         15                            : 
Gorizont           .         15                            : 14
Interpretator      .         Кайсанов Е.К                  : 
Kupol              .         Основной                      : osnovnoi
Mud                .                                       : 
Mud_density        .                                       : 
Mud_resistivity    .                                       : 
NGDU               .         НГДУ-2                        : 
ORIGINALWELLNAME   .         3896                          : 
Otmetka            .                                       : 
Spud_date          .         1989                          : 1961
Viscosity          .                                       : 
X                  .m        44634.6                       : 46154
Y                  .m        85593.73                      : 85761.93
YEAR               .         2018                          : 
~Parameter Information Block
#_______________________________________________________________________________
#
#PARAMETER_NAME    .UNIT     VALUE                         : DESCRIPTION
#_______________________________________________________________________________
SET                .         LQC_KAZNIPI_Petrel            : 
TLFamily_CALI      .         Caliper                       : 
TLFamily_CILD      .         Conductivity                  : 
TLFamily_COLL      .         Net Reservoir Flag            : 
TLFamily_CSAT      .         Fluid Code                    : 
TLFamily_DEPT      .         Measured Depth                : 
TLFamily_GR        .         Russian Gamma Ray             : 
TLFamily_GZ1       .         Gradient 045                  : 
TLFamily_GZ2       .         Gradient 105                  : 
TLFamily_GZ3       .         Gradient 225                  : 
TLFamily_GZ4       .         Gradient 425                  : 
TLFamily_GZ5       .         Gradient 850                  : 
TLFamily_LLS       .         Lateral Log Resistivity       : 
TLFamily_MINV      .         Micro Gradient Resistivity    : 
TLFamily_MNOR      .         Micro Resistivity             : 
TLFamily_NGLD      .         Neutron Far                   : 
TLFamily_OGZ3      .         Gradient Inverted 225         : 
TLFamily_PHIE      .         Effective Porosity            : 
TLFamily_PHIEN     .         Effective Porosity            : 
TLFamily_PHIT      .         Porosity                      : 
TLFamily_PRMB      .         Permeability                  : 
TLFamily_PRMB_DGR  .         Permeability                  : 
TLFamily_RT        .         Formation Resistivity         : 
TLFamily_SOIL_ARCHIE .         Oil Saturation                : 
TLFamily_SOIL_DW   .         Oil Saturation                : 
TLFamily_SP        .         Spontaneous Potential         : 
TLFamily_VSH_FIN   .         Shale Volume                  : 
TLFamily_VSH_GR    .         Shale Volume                  : 
TLFamily_VSH_SP    .         Shale Volume                  : 
~Curve Information
#_______________________________________________________________________________
#
#LOGNAME           .UNIT     LOG_ID                        : DESCRIPTION
#_______________________________________________________________________________
DEPT               .M                                      : Колонка глубины 
CALI               .м                                      : Каверномер 
CILD               .мСм/м                                  : Индукционный каротаж 
COLL               .unitless                               :  
CSAT               .unitless                               :  
GR                 .uR/h                                   : Гамма каротаж 
GZ1                .OHMM                                   :  
GZ2                .OHMM                                   :  
GZ3                .OHMM                                   :  
GZ4                .OHMM                                   :  
GZ5                .OHMM                                   :  
LLS                .Ohmm                                   : Боковой каротаж 
MINV               .Ohmm                                   : Микро-градиент зонд 
MNOR               .Ohmm                                   : Микро-потенциал зонд 
NGLD               .у.е.                                   : Показания зонда НГК-60 аппаратуры ДРСТ-3-90 
OGZ3               .OHMM                                   :  
PHIE               .v/v                                    : Описание 
PHIEN              .v/v                                    :  
PHIT               .v/v                                    : Описание 
PRMB               .mD                                     :  
PRMB_DGR           .mD                                     :  
RT                 .ohmm                                   : УЭС пласта 
SOIL_ARCHIE        .v/v                                    :  
SOIL_DW            .v/v                                    :  
SP                 .мВ                                     : Потенциал самополяризации 
VSH_FIN            .v/v                                    : Описание 
VSH_GR             .v/v                                    : Shale volume 
VSH_SP             .v/v                                    : Shale Volume 
~Ascii
# ...
1009.2     0.243      447.04     -9999      -9999      7.899029   3.276999950408936 3.937000036239624 2.296999931335449 2.971999883651733 1.955999970436096 1.73       1.734      0.952      1.236849   1.980999946594239 0.1154394  0.1154394  0.3566893  0.3849245  0.1436077  2.029      0          0.4346554  40.51521   0.7310604  0.8        0.6621208 
1009.4     0.243      447.04     -9999      -9999      7.903138   3.276999950408936 3.937000036239624 2.296999931335449 2.971999883651733 1.955999970436096 1.73       1.734      0.952      1.232184   1.980999946594239 0.1175453  0.1175453  0.3586631  0.4210978  0.1427573  2.029      0          0.4401767  40.65223   0.73066    0.8        0.6613199 
1009.6     0.241      448.31     -9999      -9999      7.898812   3.276999950408936 3.937000036239624 2.322000026702881 2.971999883651733 1.955999970436096 1.782      2          1.156      1.229665   2.032000064849854 0.1166577  0.1166577  0.3597287  0.4054544  0.1436526  2.023      0          0.4389872  40.77356   0.7365786  0.8        0.6731572 
1009.8     0.24       448.31     -9999      -9999      7.86456    3.276999950408936 3.937000036239624 2.322000026702881 2.971999883651733 1.955999970436096 1.782      1.835      1.067      1.228192   2.08299994468689 0.1174151  0.1174151  0.360352   0.4187645  0.1509435  2.023      0          0.4408642  40.85988   0.7361726  0.8        0.6723452 
1010       0.24       447.04     -9999      -9999      7.808018   3.276999950408936 3.937000036239624 2.270999908447266 2.971999883651733 1.955999970436096 1.821      1.797      1.092      1.227308   2.158999919891357 0.117923   0.117923   0.3607261  0.4279354  0.1637977  2.029      0          0.4428961  40.9106    0.735767   0.8        0.6715341 
1010.2     0.24       443.23     -9999      -9999      7.762418   3.276999950408936 3.937000036239624 2.144000053405762 2.971999883651733 1.955999970436096 1.835      1.924      1.245      1.226852   2.210000038146973 0.1171977  0.1171977  0.3609189  0.4149011  0.1749576  2.046      0          0.4442388  40.92188   0.7385489  0.8        0.6770979 
1010.4     0.24       443.23     -9999      -9999      7.74825    3.276999950408936 3.937000036239624 2.144000053405762 2.971999883651733 1.955999970436096 1.835      1.924      1.245      1.226701   2.210000038146973 0.1173964  0.1173964  0.360983   0.4184317  0.1785774  2.046      0          0.4446253  40.88258   0.738141   0.8        0.676282  
1010.6     0.241      434.34     -9999      -9999      7.749516   3.276999950408936 3.937000036239624 2.092999935150146 2.971999883651733 1.955999970436096 1.93       2.178      1.168      1.227025   2.260999917984009 0.1184432  0.1184432  0.3608456  0.4375352  0.1782509  2.088      0          0.4517704  40.79776   0.7345527  0.8        0.6691054 
1010.8     0.241      429.26     -9999      -9999      7.735637   3.276999950408936 3.937000036239624 2.144000053405762 2.971999883651733 1.955999970436096 1.945      2.318      1.206      1.228437   2.260999917984009 0.1210761  0.1210761  0.3602484  0.4895324  0.1818628  2.113      0.009935711 0.4585431  40.70395   0.7247646  0.8        0.6495292 
1011       0.244      424.18     -9999      -9999      7.700027   3.276999950408936 3.937000036239624 2.170000076293945 2.971999883651733 1.955999970436096 1.903      2.204      1.054      1.232502   2.260999917984009 0.1193562  0.1193562  0.3585285  0.4549089  0.1914686  2.138      0.003039501 0.4573569  40.64775   0.7247646  0.8        0.6495292 
1011.2     0.25       419.1      -9999      -9999      7.663302   3.276999950408936 3.937000036239624 2.194999933242798 2.971999883651733 1.955999970436096 1.973      2.394      1.143      1.241363   2.28600001335144 0.114583   0.114583   0.3547795  0.3711193  0.2019068  2.164      0          0.4492365  40.64957   0.727868   0.8        0.6557359 
1011.4     0.25       419.1      -9999      -9999      7.646633   3.276999950408936 3.937000036239624 2.194999933242798 2.971999883651733 1.955999970436096 1.973      2.394      1.143      1.255948   2.28600001335144 0.1084119  0.1084119  0.3486084  0.2852399  0.2068304  2.164      0          0.4322544  40.69885   0.727868   0.8        0.6557359 
1011.6     0.251      411.48     -9999      -9999      7.655868   3.276999950408936 3.937000036239624 2.170000076293945 2.971999883651733 1.955999970436096 1.973      2.267      1.27       1.274396   2.260999917984009 0.09957446 0.09957446 0.3408031  0.1956675  0.204088   2.204      0          0.4124459  40.77607   0.730996   0.8        0.661992  
1011.8     0.249      408.94     -9999      -9999      7.687662   3.276999950408936 3.937000036239624 2.194999933242798 2.971999883651733 1.955999970436096 1.903      2.013      1.308      1.292585   2.234999895095825 0.09083798 0.09083798 0.3331071  0.1348024  0.1949213  2.218      0          0.3871355  40.8662    0.7341488  0.8        0.6682976 
1012       0.249      408.94     -9999      -9999      7.733304   3.276999950408936 3.937000036239624 2.246000051498413 2.971999883651733 1.955999970436096 1.973      2.204      1.308      1.305714   2.234999895095825 0.08528329 0.08528329 0.3275524  0.1063681  0.1824771  2.218      0          0.3674556  40.95657   0.7341488  0.8        0.6682976 
1012.2     0.247      408.94     -9999      -9999      7.775296   3.276999950408936 3.937000036239624 2.322000026702881 2.971999883651733 1.955999970436096 1.988      2.382      1.257      1.310318   2.234999895095825 0.08122998 0.08122998 0.3256045  0.08948171 0.1717308  2.218      0          0.3550651  41.02847   0.7405289  0.8        0.6810578 
1012.4     0.247      408.94     -9999      -9999      7.79589    3.276999950408936 3.937000036239624 2.322000026702881 2.971999883651733 1.955999970436096 1.988      2.382      1.257      1.306439   2.234999895095825 0.08287101 0.08287101 0.3272455  0.09596884 0.1666944  2.218      0          0.3612976  41.05676   0.7405289  0.8        0.6810578 
1012.6     0.245      412.75     -9999      -9999      7.793289   3.276999950408936 3.937000036239624 2.346999883651733 2.971999883651733 1.955999970436096 2.003      2.42       1.283      1.297242   2.28600001335144 0.08676246 0.08676246 0.331137   0.1132946  0.1673224  2.198      0          0.37272    41.02034   0.7405289  0.8        0.6810578 
1012.8     0.242      412.75     -9999      -9999      7.780602   3.276999950408936 3.937000036239624 2.398000001907349 2.971999883651733 1.955999970436096 1.93       2.407      1.206      1.286474   2.28600001335144 0.0923751  0.0923751  0.3356928  0.1439359  0.1704188  2.198      0          0.3908769  40.91639   0.7373264  0.8        0.6746528 
1013       0.242      412.75     -9999      -9999      7.770407   3.276999950408936 3.937000036239624 2.424000024795532 2.971999883651733 1.955999970436096 1.917      2.242      1.054      1.277465   2.260999917984009 0.09827605 0.09827605 0.3395047  0.1851266  0.1729488  2.198      0          0.40758    40.76295   0.730996   0.8        0.661992  
1013.2     0.242      411.48     -9999      -9999      7.76315    3.276999950408936 3.937000036239624 2.424000024795532 2.971999883651733 1.955999970436096 1.821      1.962      1.206      1.273061   2.260999917984009 0.1021958  0.1021958  0.3413681  0.2188122  0.1747725  2.204      0          0.4181288  40.58771   0.7247646  0.8        0.6495292 
1013.4     0.242      411.48     -9999      -9999      7.747902   3.276999950408936 3.937000036239624 2.424000024795532 2.971999883651733 1.955999970436096 1.821      1.962      1.206      1.27428    2.260999917984009 0.1016796  0.1016796  0.340852   0.2140482  0.1786672  2.204      0          0.4165592  40.41533   0.7247646  0.8        0.6495292 
1013.6     0.242      407.67     -9999      -9999      7.715261   3.276999950408936 3.937000036239624 2.424000024795532 2.971999883651733 1.955999970436096 1.945      2.331      1.295      1.279657   2.311000108718872 0.1024285  0.1024285  0.3385769  0.2209953  0.1872987  2.225      0          0.4181443  40.27367   0.7156011  0.8        0.6312023 
