~Version
 VERS              .         2.0                           : CWLS LOG ASCII STANDARD - VERSION 2.0
 WRAP              .         NO                            : ONE LINE PER DEPTH STEP
 DLM               .         SPACE                         : DELIMITING CHARACTER(SPACE TAB OR COMMA)
~Well Information
#_______________________________________________________________________________
#
#PARAMETER_NAME    .UNIT     VALUE                         : DESCRIPTION
#_______________________________________________________________________________
STRT               .M        908                           : First reference value
STOP               .M        1225.8                        : Last reference value
STEP               .M        0.2                           : Step increment
NULL               .         -9999                         : Missing value
COMP               .                                       : Company
WELL               .         3896                          : Well name
FLD                .         Узень                         : Field
LOC                .                                       : Location
CNTY               .                                       : County
STAT               .                                       : State
CTRY               .                                       : Country
SRVC               .                                       : Service Company
DATE               .                                       : Date
UWI                .                                       : Unique Well ID
123                .         1                             : 
4_кв_для_Заказчика .         1                             : 
API                .                                       : 
Block              .         6а                            : 
Category           .         Нефтяная                      : 
Condition          .         В работе                      : 
Date               .         25.05.1989                    : 
EREF               .m        86.7                          : 100.8
Gor                .         15                            : 
Gorizont           .         15                            : 14
Interpretator      .         Кайсанов Е.К                  : 
Kupol              .         Основной                      : osnovnoi
Mud                .                                       : 
Mud_density        .                                       : 
Mud_resistivity    .                                       : 
NGDU               .         НГДУ-2                        : 
ORIGINALWELLNAME   .         3896                          : 
Otmetka            .                                       : 
Spud_date          .         1989                          : 1961
Viscosity          .                                       : 
X                  .m        44634.6                       : 46154
Y                  .m        85593.73                      : 85761.93
YEAR               .         2018                          : 
~Parameter Information Block
#_______________________________________________________________________________
#
#PARAMETER_NAME    .UNIT     VALUE                         : DESCRIPTION
#_______________________________________________________________________________
SET                .         LQC_KAZNIPI_Petrel            : 
TLFamily_CALI      .         Caliper                       : 
TLFamily_CILD      .         Conductivity                  : 
TLFamily_COLL      .         Net Reservoir Flag            : 
TLFamily_CSAT      .         Fluid Code                    : 
TLFamily_DEPT      .         Measured Depth                : 
TLFamily_GR        .         Russian Gamma Ray             : 
TLFamily_GZ1       .         Gradient 045                  : 
TLFamily_GZ2       .         Gradient 105                  : 
TLFamily_GZ3       .         Gradient 225                  : 
TLFamily_GZ4       .         Gradient 425                  : 
TLFamily_GZ5       .         Gradient 850                  : 
TLFamily_LLS       .         Lateral Log Resistivity       : 
TLFamily_MINV      .         Micro Gradient Resistivity    : 
TLFamily_MNOR      .         Micro Resistivity             : 
TLFamily_NGLD      .         Neutron Far                   : 
TLFamily_OGZ3      .         Gradient Inverted 225         : 
TLFamily_PHIE      .         Effective Porosity            : 
TLFamily_PHIEN     .         Effective Porosity            : 
TLFamily_PHIT      .         Porosity                      : 
TLFamily_PRMB      .         Permeability                  : 
TLFamily_PRMB_DGR  .         Permeability                  : 
TLFamily_RT        .         Formation Resistivity         : 
TLFamily_SOIL_ARCHIE .         Oil Saturation                : 
TLFamily_SOIL_DW   .         Oil Saturation                : 
TLFamily_SP        .         Spontaneous Potential         : 
TLFamily_VSH_FIN   .         Shale Volume                  : 
TLFamily_VSH_GR    .         Shale Volume                  : 
TLFamily_VSH_SP    .         Shale Volume                  : 
~Curve Information
#_______________________________________________________________________________
#
#LOGNAME           .UNIT     LOG_ID                        : DESCRIPTION
#_______________________________________________________________________________
DEPT               .M                                      : Колонка глубины 
CALI               .м                                      : Каверномер 
CILD               .мСм/м                                  : Индукционный каротаж 
COLL               .unitless                               :  
CSAT               .unitless                               :  
GR                 .uR/h                                   : Гамма каротаж 
GZ1                .OHMM                                   :  
GZ2                .OHMM                                   :  
GZ3                .OHMM                                   :  
GZ4                .OHMM                                   :  
GZ5                .OHMM                                   :  
LLS                .Ohmm                                   : Боковой каротаж 
MINV               .Ohmm                                   : Микро-градиент зонд 
MNOR               .Ohmm                                   : Микро-потенциал зонд 
NGLD               .у.е.                                   : Показания зонда НГК-60 аппаратуры ДРСТ-3-90 
OGZ3               .OHMM                                   :  
PHIE               .v/v                                    : Описание 
PHIEN              .v/v                                    :  
PHIT               .v/v                                    : Описание 
PRMB               .mD                                     :  
PRMB_DGR           .mD                                     :  
RT                 .ohmm                                   : УЭС пласта 
SOIL_ARCHIE        .v/v                                    :  
SOIL_DW            .v/v                                    :  
SP                 .мВ                                     : Потенциал самополяризации 
VSH_FIN            .v/v                                    : Описание 
VSH_GR             .v/v                                    : Shale volume 
VSH_SP             .v/v                                    : Shale Volume 
~Ascii
# ...
1156.4     0.216      347.98     -9999      -9999      8.106621   4.139999866485596 4.698999881744385 2.016999959945679 3.657999992370605 4.572000026702881 2.549      1.111      1.295      1.423113   4.216000080108643 0.1474665  0.1474665  0.2778808  1.508672   26.46146   2.607      0.24445    0.4658915  34.56649   0.3951948  0.1702996  0.6200901 
1156.6     0.223      369.57     -9999      -9999      8.331671   2.388000011444092 3.378000020980835 1.763000011444092 2.108000040054321 3.124000072479248 2.171      0.959      0.927      1.410461   4.495999813079834 0.1487201  0.1487201  0.2832339  1.591528   19.21613   2.454      0.2284088  0.4576621  37.4806    0.4076176  0.1940665  0.6211687 
1156.8     0.223      369.57     -9999      -9999      8.674729   2.388000011444092 3.378000020980835 1.763000011444092 2.108000040054321 3.124000072479248 2.171      0.959      0.927      1.403562   4.495999813079834 0.1444049  0.1444049  0.2861531  1.323995   11.79937   2.454      0.2083654  0.4548857  39.38147   0.4295401  0.236831   0.6222492 
1157       0.229      379.73     -9999      -9999      9.09539    2.134000062942505 3.607000112533569 1.610999941825867 1.753000020980835 2.46399998664856 2.154      0.959      0.927      1.402004   3.861000061035156 0.1164697  0.1164697  0.2868122  0.4022166  6.488421   2.389      0.03324726 0.4019693  40.45972   0.5161893  0.3023366  0.730042  
1157.2     0.238      400.05     -9999      -9999      9.520731   1.575000047683716 2.845000028610229 1.73800003528595 1.218999981880188 1.929999947547913 1.782      0.756      0.8        1.405715   2.641999959945679 0.09991992 0.09991992 0.2852418  0.1985717  3.544297   2.267      0          0.349232   40.99492   0.5615816  0.3870104  0.7361526 
1157.4     0.238      400.05     -9999      -9999      9.876333   1.575000047683716 2.845000028610229 1.73800003528595 1.218999981880188 1.929999947547913 1.782      1.061      0.94       1.415126   2.641999959945679 0.07566    0.07566    0.28126    0.07056101 2.137856   2.267      0          0.2788925  41.11743   0.6230303  0.4757437  0.770317  
1157.6     0.234      417.83     -9999      -9999      10.13589   1.473000049591064 2.743000030517578 2.194999933242798 1.269999980926514 1.777999997138977 1.959      1.061      0.94       1.430074   2.210000038146973 0.06468598 0.06468598 0.2749355  0.04418749 1.478172   2.171      0          0.2139042  40.90618   0.6371198  0.5531077  0.7211319 
1157.8     0.234      417.83     -9999      -9999      10.32115   1.473000049591064 2.743000030517578 2.194999933242798 1.269999980926514 1.777999997138977 1.959      1.759      1.092      1.448707   2.210000038146973 0.04544212 0.04544212 0.2670519  0.01944717 1.135907   2.171      0          0.1123099  40.47169   0.6715448  0.6159078  0.7271819 
1158       0.232      426.72     -9999      -9999      10.46013   1.575000047683716 2.691999912261963 2.525000095367432 1.320999979972839 1.777999997138977 2.003      1.759      1.092      1.466966   1.879999995231628 0.03902337 0.03902337 0.2593266  0.01478991 0.9322643  2.126      0          0.04650994 39.91598   0.6675856  0.6676553  0.6675159 
1158.2     0.232      441.96     -9999      -9999      10.56113   1.575000047683716 2.437999963760376 2.855000019073486 1.320999979972839 1.828999996185303 2.047      2.102      1.219      1.48031    1.726999998092651 0.02578855 0.02578855 0.2536808  0.008410554 0.8075717  2.052      0          0          39.32482   0.6905826  0.7079706  0.6731945 
1158.4     0.232      441.96     -9999      -9999      10.62425   1.575000047683716 2.437999963760376 2.855000019073486 1.320999979972839 1.828999996185303 2.047      2.28       1.422      1.48628    1.726999998092651 0.02813434 0.02813434 0.2511551  0.009295534 0.7382557  2.052      0          0          38.76281   0.6758205  0.734395   0.617246  
1158.6     0.232      443.204    -9999      -9999      10.65705   1.753000020980835 2.311000108718872 2.651999950408936 1.269999980926514 1.853999972343445 1.862      1.918      1.283      1.485248   1.753000020980835 0.02731727 0.02731727 0.2515917  0.008977185 0.7046254  2.047      0          0          38.25298   0.6796194  0.7485104  0.6107284 
1158.8     0.232      444.5      -9999      -9999      10.67101   1.753000020980835 2.311000108718872 2.651999950408936 1.269999980926514 1.853999972343445 1.862      1.556      1.143      1.479567   1.753000020980835 0.02784567 0.02784567 0.2539953  0.009181789 0.6907727  2.041      0          0          37.75009   0.685302   0.7546037  0.6160004 
1159       0.232      444.5      -9999      -9999      10.66878   1.600000023841858 2.134000062942505 2.424000024795532 1.218999981880188 1.753000020980835 1.756      1.721      1.206      1.473071   1.802999973297119 0.03656593 0.03656593 0.2567436  0.01331827 0.6929704  2.041      0          0.003637201 37.14268   0.667205   0.7536256  0.5807844 
1159.2     0.228      444.5      -9999      -9999      10.64072   1.396999955177307 1.980999946594239 2.270999908447266 1.118000030517578 1.651000022888184 1.848      1.835      1.473      1.469604   1.726999998092651 0.03920859 0.03920859 0.2582105  0.01490721 0.7211745  2.041      0          0.02486501 36.33704   0.6636421  0.7414485  0.5858357 
1159.4     0.228      448.31     -9999      -9999      10.58043   1.396999955177307 1.980999946594239 2.270999908447266 1.118000030517578 1.651000022888184 1.848      1.835      1.473      1.470087   1.726999998092651 0.05397215 0.05397215 0.2580062  0.02798035 0.7857142  2.023      0          0.1013     35.36898   0.6182851  0.7159473  0.5206228 
1159.6     0.225      448.31     -9999      -9999      10.50636   1.675999999046326 2.184000015258789 2.346999883651733 1.269999980926514 1.675999999046326 2.032      1.327      1.295      1.471303   1.575000047683716 0.07181396 0.07181396 0.2574918  0.05988622 0.8729565  2.023      0          0.1758436  34.43377   0.56266    0.6858179  0.4395021 
1159.8     0.225      474.98     -9999      -9999      10.4592    1.675999999046326 2.184000015258789 2.346999883651733 1.269999980926514 1.675999999046326 2.032      1.327      1.295      1.468736   1.575000047683716 0.07530653 0.07530653 0.258578   0.06950527 0.9334915  1.91       0          0.1672553  33.7381    0.555368   0.6672969  0.4434391 
1160       0.224      474.98     -9999      -9999      10.46929   1.828999996185303 2.210000038146973 2.220000028610229 1.52400004863739 1.726999998092651 2.268      1.912      1.41       1.460358   1.498999953269958 0.07828149 0.07828149 0.2621226  0.07890803 0.9202054  1.91       0          0.185323   33.3087    0.5570943  0.6712142  0.4429744 
1160.2     0.227      480.344    -9999      -9999      10.52765   1.753000020980835 2.108000040054321 2.296999931335449 1.828999996185303 1.904999971389771 1.808      2          1.448      1.447118   1.651000022888184 0.0794119  0.0794119  0.2677242  0.08280548 0.8469311  1.889      0          0.1961316  32.99006   0.5706435  0.6943464  0.4469407 
1160.4     0.227      486.41     -9999      -9999      10.5999    1.753000020980835 2.108000040054321 2.296999931335449 1.828999996185303 1.904999971389771 1.808      2          1.448      1.431037   1.651000022888184 0.07763148 0.07763148 0.2745281  0.07675053 0.7642636  1.865      0          0.198526   32.64088   0.5966563  0.7240856  0.4692271 
1160.6     0.226      501.65     -9999      -9999      10.66612   1.52400004863739 1.980999946594239 2.703000068664551 2.437999963760376 2.108000040054321 1.621      1.683      1.46       1.414204   1.702000021934509 0.09286795 0.09286795 0.2816504  0.1469934  0.6955985  1.808      0          0.2463587  32.29785   0.5720682  0.7524616  0.3916748 
1160.8     0.226      501.65     -9999      -9999      10.73153   1.52400004863739 1.980999946594239 2.703000068664551 2.437999963760376 2.108000040054321 1.621      1.683      1.46       1.398943   1.702000021934509 0.09393831 0.09393831 0.2881073  0.1538592  0.6338311  1.808      0          0.2604136  32.10041   0.588391   0.7815827  0.3951994 
