~Version
 VERS              .         2.0                           : CWLS LOG ASCII STANDARD - VERSION 2.0
 WRAP              .         NO                            : ONE LINE PER DEPTH STEP
 DLM               .         SPACE                         : DELIMITING CHARACTER(SPACE TAB OR COMMA)
~Well Information
#_______________________________________________________________________________
#
#PARAMETER_NAME    .UNIT     VALUE                         : DESCRIPTION
#_______________________________________________________________________________
STRT               .M        908                           : First reference value
STOP               .M        1225.8                        : Last reference value
STEP               .M        0.2                           : Step increment
NULL               .         -9999                         : Missing value
COMP               .                                       : Company
WELL               .         3896                          : Well name
FLD                .         Узень                         : Field
LOC                .                                       : Location
CNTY               .                                       : County
STAT               .                                       : State
CTRY               .                                       : Country
SRVC               .                                       : Service Company
DATE               .                                       : Date
UWI                .                                       : Unique Well ID
123                .         1                             : 
4_кв_для_Заказчика .         1                             : 
API                .                                       : 
Block              .         6а                            : 
Category           .         Нефтяная                      : 
Condition          .         В работе                      : 
Date               .         25.05.1989                    : 
EREF               .m        86.7                          : 100.8
Gor                .         15                            : 
Gorizont           .         15                            : 14
Interpretator      .         Кайсанов Е.К                  : 
Kupol              .         Основной                      : osnovnoi
Mud                .                                       : 
Mud_density        .                                       : 
Mud_resistivity    .                                       : 
NGDU               .         НГДУ-2                        : 
ORIGINALWELLNAME   .         3896                          : 
Otmetka            .                                       : 
Spud_date          .         1989                          : 1961
Viscosity          .                                       : 
X                  .m        44634.6                       : 46154
Y                  .m        85593.73                      : 85761.93
YEAR               .         2018                          : 
~Parameter Information Block
#_______________________________________________________________________________
#
#PARAMETER_NAME    .UNIT     VALUE                         : DESCRIPTION
#_______________________________________________________________________________
SET                .         LQC_KAZNIPI_Petrel            : 
TLFamily_CALI      .         Caliper                       : 
TLFamily_CILD      .         Conductivity                  : 
TLFamily_COLL      .         Net Reservoir Flag            : 
TLFamily_CSAT      .         Fluid Code                    : 
TLFamily_DEPT      .         Measured Depth                : 
TLFamily_GR        .         Russian Gamma Ray             : 
TLFamily_GZ1       .         Gradient 045                  : 
TLFamily_GZ2       .         Gradient 105                  : 
TLFamily_GZ3       .         Gradient 225                  : 
TLFamily_GZ4       .         Gradient 425                  : 
TLFamily_GZ5       .         Gradient 850                  : 
TLFamily_LLS       .         Lateral Log Resistivity       : 
TLFamily_MINV      .         Micro Gradient Resistivity    : 
TLFamily_MNOR      .         Micro Resistivity             : 
TLFamily_NGLD      .         Neutron Far                   : 
TLFamily_OGZ3      .         Gradient Inverted 225         : 
TLFamily_PHIE      .         Effective Porosity            : 
TLFamily_PHIEN     .         Effective Porosity            : 
TLFamily_PHIT      .         Porosity                      : 
TLFamily_PRMB      .         Permeability                  : 
TLFamily_PRMB_DGR  .         Permeability                  : 
TLFamily_RT        .         Formation Resistivity         : 
TLFamily_SOIL_ARCHIE .         Oil Saturation                : 
TLFamily_SOIL_DW   .         Oil Saturation                : 
TLFamily_SP        .         Spontaneous Potential         : 
TLFamily_VSH_FIN   .         Shale Volume                  : 
TLFamily_VSH_GR    .         Shale Volume                  : 
TLFamily_VSH_SP    .         Shale Volume                  : 
~Curve Information
#_______________________________________________________________________________
#
#LOGNAME           .UNIT     LOG_ID                        : DESCRIPTION
#_______________________________________________________________________________
DEPT               .M                                      : Колонка глубины 
CALI               .м                                      : Каверномер 
CILD               .мСм/м                                  : Индукционный каротаж 
COLL               .unitless                               :  
CSAT               .unitless                               :  
GR                 .uR/h                                   : Гамма каротаж 
GZ1                .OHMM                                   :  
GZ2                .OHMM                                   :  
GZ3                .OHMM                                   :  
GZ4                .OHMM                                   :  
GZ5                .OHMM                                   :  
LLS                .Ohmm                                   : Боковой каротаж 
MINV               .Ohmm                                   : Микро-градиент зонд 
MNOR               .Ohmm                                   : Микро-потенциал зонд 
NGLD               .у.е.                                   : Показания зонда НГК-60 аппаратуры ДРСТ-3-90 
OGZ3               .OHMM                                   :  
PHIE               .v/v                                    : Описание 
PHIEN              .v/v                                    :  
PHIT               .v/v                                    : Описание 
PRMB               .mD                                     :  
PRMB_DGR           .mD                                     :  
RT                 .ohmm                                   : УЭС пласта 
SOIL_ARCHIE        .v/v                                    :  
SOIL_DW            .v/v                                    :  
SP                 .мВ                                     : Потенциал самополяризации 
VSH_FIN            .v/v                                    : Описание 
VSH_GR             .v/v                                    : Shale volume 
VSH_SP             .v/v                                    : Shale Volume 
~Ascii
# ...
1197.8     0.209      76.2       1          2          6.841678   5.079999923706055 12.57299995422363 17.19799995422363 13.33500003814697 4.165999889373779 6.79       1.823      2.108      1.470436   12.44600009918213 0.2249272  0.2249272  0.2578587  41.05398   170.601    11.903     0.7470673  0.78337    1.583108   0.09979243 0.07956493 0.1200199 
1198       0.208      76.2       1          2          6.896249   4.698999881744385 11.9379997253418 17.19799995422363 13.33500003814697 4.190999984741212 6.498      1.696      2.057      1.486081   12.19200038909912 0.2179508  0.2179508  0.2512393  30.4885    158.0644   11.903     0.7400304  0.7771378  1.514919   0.1008741  0.08208369 0.1196645 
1198.2     0.204      74.93      1          2          6.985806   4.445000171661377 11.04899978637695 17.07099914550781 14.09700012207031 4.36899995803833 6.643      1.696      2.057      1.508205   11.9379997253418 0.2079364  0.2079364  0.2418786  19.89047   139.4553   12.105     0.7312894  0.7695601  1.434509   0.1028552  0.08639127 0.1193192 
1198.4     0.204      74.93      1          2          7.100685   4.445000171661377 11.04899978637695 17.07099914550781 14.09700012207031 4.36899995803833 6.643      1.785      2.083      1.531181   11.9379997253418 0.1972343  0.1972343  0.2321572  12.60132   118.756    12.105     0.7186341  0.7586951  1.395747   0.105827   0.09224931 0.1194047 
1198.6     0.202      74.93      1          2          7.220672   4.597000122070313 11.30300045013428 16.69000053405762 15.36699962615967 4.723999977111816 8.211      2.077      2.184      1.547347   11.55700016021729 0.1892649  0.1892649  0.2253176  8.970231   100.409    12.105     0.7083431  0.7501644  1.424755   0.1092505  0.09879243 0.1197087 
1198.8     0.202      74.93      1          2          7.323744   4.597000122070313 11.30300045013428 16.69000053405762 15.36699962615967 4.723999977111816 8.211      2.077      2.184      1.551506   11.55700016021729 0.1865021  0.1865021  0.2235577  7.973155   86.929     12.105     0.7045837  0.7474603  1.522774   0.1122897  0.1047824  0.119797  
1199       0.204      76.2       1          2          7.392434   4.85099983215332 11.30300045013428 16.30900001525879 15.875     5.231999874114991 8.152      2.064      2.426      1.543737   11.17599964141846 0.1890456  0.1890456  0.2268447  8.886701   78.96617   11.903     0.7057338  0.7489043  1.678283   0.1145428  0.1089747  0.120111  
1199.2     0.208      80.01      1          2          7.419101   4.953000068664551 11.68400001525879 16.05500030517578 16.51000022888184 6.527999877929688 7.521      2.064      2.426      1.529046   8.128000259399414 0.1948132  0.1948132  0.2330606  11.36505   76.07516   11.336     0.7066949  0.7498856  1.86377    0.1159012  0.1106471  0.1211554 
1199.4     0.208      80.01      1          2          7.41397    4.953000068664551 11.68400001525879 16.05500030517578 16.51000022888184 6.527999877929688 7.521      2.039      2.413      1.514288   8.128000259399414 0.2010944  0.2010944  0.2393048  14.85641   76.62299   11.336     0.7146903  0.7569607  2.044802   0.1157892  0.1103234  0.1212551 
1199.6     0.207      86.36      1          2          7.398782   5.156000137329102 12.31900024414063 16.43600082397461 16.63699913024902 7.060999870300293 7.305      2.039      2.426      1.505186   6.960000038146973 0.2050007  0.2050007  0.2431557  17.54968   78.26811   10.503     0.7092004  0.7518523  2.203229   0.115621   0.1093705  0.1218714 
1199.8     0.207      86.36      1          2          7.389289   5.156000137329102 12.31900024414063 16.43600082397461 16.63699913024902 7.060999870300293 7.305      2.039      2.426      1.504414   6.960000038146973 0.2054075  0.2054075  0.2434824  17.85681   79.31425   10.503     0.7097021  0.7522528  2.342624   0.1153783  0.1087792  0.1219774 
1200       0.207      91.44      1          2          7.390915   5.105000019073486 12.19200038909912 16.43600082397461 16.63699913024902 6.908999919891357 6.89       2.039      2.426      1.5106     5.816999912261963 0.2026656  0.2026656  0.2408652  15.88607   79.13404   9.919      0.6982924  0.7420044  2.48511    0.1157564  0.1088803  0.1226326 
1200.2     0.208      110.49     1          2          7.407674   4.85099983215332 11.68400001525879 15.80099964141845 16.128999710083 6.833000183105469 6.547      2.051      2.337      1.518833   4.723999977111816 0.1989908  0.1989908  0.2373818  13.58157   77.30072   8.209      0.6649801  0.7117838  2.698086   0.1163364  0.1099274  0.1227454 
1200.4     0.208      110.49     1          2          7.451299   4.85099983215332 11.68400001525879 15.80099964141845 16.128999710083 6.833000183105469 6.547      2.051      2.337      1.522605   4.723999977111816 0.1969183  0.1969183  0.2357856  12.43262   72.72524   8.209      0.6619112  0.7093722  3.116002   0.1177799  0.1127005  0.1228592 
1200.6     0.207      156.21     1          2          7.541178   4.978000164031982 11.81099987030029 15.29300022125244 16.128999710083 7.214000225067139 6.547      1.975      2.248      1.516301   4.445000171661377 0.1982262  0.1982262  0.2384532  13.14586   64.13431   5.806      0.6045331  0.6576155  4.035986   0.1218998  0.1186366  0.125163  
1200.8     0.207      156.21     1          2          7.695893   4.978000164031982 11.81099987030029 15.29300022125244 16.128999710083 7.214000225067139 6.547      1.988      2.299      1.498039   4.445000171661377 0.204122   0.204122   0.2461797  16.9041    51.65515   5.806      0.6145003  0.6679972  5.878089   0.1274478  0.1295963  0.1252993 
1201       0.208      184.15     1          2          7.914871   5.028999805450439 12.0649995803833 11.72799968719483 15.875     7.518000125885011 6.498      1.988      2.299      1.471229   3.98799991607666 0.2120923  0.2120923  0.2575231  23.74774   38.02785   4.925      0.5972141  0.6544122  8.887693   0.137669   0.1468608  0.1284772 
1201.2     0.211      261.62     1          2          8.173158   5.385000228881836 12.57299995422363 7.478000164031982 16.128999710083 7.594999790191651 5.952      2.064      2.375      1.441952   3.226000070571899 0.2027086  0.2027086  0.2699102  15.91521   26.498     3.467      0.5059951  0.5914131  12.74324   0.2036413  0.1702036  0.2370789 
1201.4     0.211      261.62     1          2          8.442756   5.385000228881836 12.57299995422363 7.478000164031982 16.128999710083 7.594999790191651 5.952      2.064      2.375      1.414504   3.226000070571899 0.2095012  0.2095012  0.2815232  21.2632    18.17412   3.467      0.5199748  0.6067618  16.73909   0.2182486  0.1985351  0.2379621 
1201.6     0.215      321.31     1          2          8.711846   5.13100004196167 9.512000083923338 7.326000213623047 13.58899974822998 6.324999809265136 3.038      2.166      2.451      1.390173   2.769000053405762 0.1911785  0.1911785  0.2918177  9.733034   12.4739    2.823      0.4275196  0.5568184  20.3857    0.3049673  0.2315154  0.3784191 
1201.8     0.215      321.31     -9999      -9999      8.973181   5.13100004196167 9.512000083923338 7.326000213623047 13.58899974822998 6.324999809265136 3.038      2.026      2.337      1.369879   2.769000053405762 0.1933651  0.1933651  0.300404   10.68438   8.654903   2.823      0.433162   0.5663742  23.58579   0.3243603  0.2687811  0.3799396 
1202       0.218      332.74     -9999      -9999      9.195898   3.961999893188477 6.908999919891357 7.25       9.930999755859375 5.563000202178955 2.218      2.026      2.337      1.356225   2.311000108718872 0.1578253  0.1578253  0.3061811  2.34674    6.338393   2.726      0.3122919  0.5269122  26.28621   0.4495633  0.3052385  0.593888  
1202.2     0.22       350.52     -9999      -9999      9.334494   2.158999919891357 4.495999813079834 6.283999919891357 6.27400016784668 5.182000160217285 2.062      1.962      1.994      1.352023   1.52400004863739 0.1380195  0.1380195  0.3079589  1.008355   5.221477   2.588      0.2080233  0.490637   28.26958   0.5149679  0.3303811  0.6995546 
