~Version
 VERS              .         2.0                           : CWLS LOG ASCII STANDARD - VERSION 2.0
 WRAP              .         NO                            : ONE LINE PER DEPTH STEP
 DLM               .         SPACE                         : DELIMITING CHARACTER(SPACE TAB OR COMMA)
~Well Information
#_______________________________________________________________________________
#
#PARAMETER_NAME    .UNIT     VALUE                         : DESCRIPTION
#_______________________________________________________________________________
STRT               .M        908                           : First reference value
STOP               .M        1225.8                        : Last reference value
STEP               .M        0.2                           : Step increment
NULL               .         -9999                         : Missing value
COMP               .                                       : Company
WELL               .         3896                          : Well name
FLD                .         Узень                         : Field
LOC                .                                       : Location
CNTY               .                                       : County
STAT               .                                       : State
CTRY               .                                       : Country
SRVC               .                                       : Service Company
DATE               .                                       : Date
UWI                .                                       : Unique Well ID
123                .         1                             : 
4_кв_для_Заказчика .         1                             : 
API                .                                       : 
Block              .         6а                            : 
Category           .         Нефтяная                      : 
Condition          .         В работе                      : 
Date               .         25.05.1989                    : 
EREF               .m        86.7                          : 100.8
Gor                .         15                            : 
Gorizont           .         15                            : 14
Interpretator      .         Кайсанов Е.К                  : 
Kupol              .         Основной                      : osnovnoi
Mud                .                                       : 
Mud_density        .                                       : 
Mud_resistivity    .                                       : 
NGDU               .         НГДУ-2                        : 
ORIGINALWELLNAME   .         3896                          : 
Otmetka            .                                       : 
Spud_date          .         1989                          : 1961
Viscosity          .                                       : 
X                  .m        44634.6                       : 46154
Y                  .m        85593.73                      : 85761.93
YEAR               .         2018                          : 
~Parameter Information Block
#_______________________________________________________________________________
#
#PARAMETER_NAME    .UNIT     VALUE                         : DESCRIPTION
#_______________________________________________________________________________
SET                .         LQC_KAZNIPI_Petrel            : 
TLFamily_CALI      .         Caliper                       : 
TLFamily_CILD      .         Conductivity                  : 
TLFamily_COLL      .         Net Reservoir Flag            : 
TLFamily_CSAT      .         Fluid Code                    : 
TLFamily_DEPT      .         Measured Depth                : 
TLFamily_GR        .         Russian Gamma Ray             : 
TLFamily_GZ1       .         Gradient 045                  : 
TLFamily_GZ2       .         Gradient 105                  : 
TLFamily_GZ3       .         Gradient 225                  : 
TLFamily_GZ4       .         Gradient 425                  : 
TLFamily_GZ5       .         Gradient 850                  : 
TLFamily_LLS       .         Lateral Log Resistivity       : 
TLFamily_MINV      .         Micro Gradient Resistivity    : 
TLFamily_MNOR      .         Micro Resistivity             : 
TLFamily_NGLD      .         Neutron Far                   : 
TLFamily_OGZ3      .         Gradient Inverted 225         : 
TLFamily_PHIE      .         Effective Porosity            : 
TLFamily_PHIEN     .         Effective Porosity            : 
TLFamily_PHIT      .         Porosity                      : 
TLFamily_PRMB      .         Permeability                  : 
TLFamily_PRMB_DGR  .         Permeability                  : 
TLFamily_RT        .         Formation Resistivity         : 
TLFamily_SOIL_ARCHIE .         Oil Saturation                : 
TLFamily_SOIL_DW   .         Oil Saturation                : 
TLFamily_SP        .         Spontaneous Potential         : 
TLFamily_VSH_FIN   .         Shale Volume                  : 
TLFamily_VSH_GR    .         Shale Volume                  : 
TLFamily_VSH_SP    .         Shale Volume                  : 
~Curve Information
#_______________________________________________________________________________
#
#LOGNAME           .UNIT     LOG_ID                        : DESCRIPTION
#_______________________________________________________________________________
DEPT               .M                                      : Колонка глубины 
CALI               .м                                      : Каверномер 
CILD               .мСм/м                                  : Индукционный каротаж 
COLL               .unitless                               :  
CSAT               .unitless                               :  
GR                 .uR/h                                   : Гамма каротаж 
GZ1                .OHMM                                   :  
GZ2                .OHMM                                   :  
GZ3                .OHMM                                   :  
GZ4                .OHMM                                   :  
GZ5                .OHMM                                   :  
LLS                .Ohmm                                   : Боковой каротаж 
MINV               .Ohmm                                   : Микро-градиент зонд 
MNOR               .Ohmm                                   : Микро-потенциал зонд 
NGLD               .у.е.                                   : Показания зонда НГК-60 аппаратуры ДРСТ-3-90 
OGZ3               .OHMM                                   :  
PHIE               .v/v                                    : Описание 
PHIEN              .v/v                                    :  
PHIT               .v/v                                    : Описание 
PRMB               .mD                                     :  
PRMB_DGR           .mD                                     :  
RT                 .ohmm                                   : УЭС пласта 
SOIL_ARCHIE        .v/v                                    :  
SOIL_DW            .v/v                                    :  
SP                 .мВ                                     : Потенциал самополяризации 
VSH_FIN            .v/v                                    : Описание 
VSH_GR             .v/v                                    : Shale volume 
VSH_SP             .v/v                                    : Shale Volume 
~Ascii
# ...
990.8      0.239      349.25     -9999      -9999      6.436044   3.276999950408936 3.937000036239624 2.11899995803833 2.971999883651733 1.955999970436096 1.93       0.807      1.029      1.301153   3.124000072479248 0.107784   0.107784   0.3294822  0.2777022  1.189981   2.597      0.00547187 0.4610063  40.75878   0.6718128  0.6043223  0.7393034 
991        0.236      337.82     -9999      -9999      6.403001   3.276999950408936 3.937000036239624 2.220000028610229 2.971999883651733 1.955999970436096 2.047      0.946      1.232      1.322605   3.226000070571899 0.1030279  0.1030279  0.3204059  0.2267178  1.248194   2.685      0          0.4516855  40.58214   0.658721   0.5926509  0.724791  
991.2      0.234      325.12     -9999      -9999      6.293633   3.276999950408936 3.937000036239624 2.346999883651733 2.971999883651733 1.955999970436096 2.319      1.302      1.397      1.346724   3.302000045776367 0.09907828 0.09907828 0.3102011  0.1915703  1.461962   2.79       0          0.4431346  40.46606   0.6397662  0.5556039  0.7239285 
991.4      0.234      325.12     -9999      -9999      6.103683   3.276999950408936 3.937000036239624 2.346999883651733 2.971999883651733 1.955999970436096 2.319      1.302      1.397      1.369692   3.302000045776367 0.09922526 0.09922526 0.3004834  0.192775   1.92386    2.79       0          0.4316318  40.41066   0.6098732  0.49668    0.7230666 
991.6      0.233      300.99     -9999      -9999      5.861946   3.276999950408936 3.937000036239624 2.525000095367432 2.971999883651733 1.955999970436096 2.44       0.921      1.473      1.390355   3.404000043869019 0.1015213  0.1015213  0.2917407  0.2126079  2.728473   3.013      0.0228101  0.4468099  40.39178   0.5764223  0.4306392  0.7222055 
991.8      0.229      290.83     -9999      -9999      5.617756   3.276999950408936 3.937000036239624 2.727999925613403 2.971999883651733 1.955999970436096 2.513      1.581      1.575      1.409048   3.505000114440918 0.1032915  0.1032915  0.283832   0.2292805  3.883345   3.119      0.05290413 0.449865   40.38872   0.5470923  0.3728394  0.7213452 
992        0.222      280.67     -9999      -9999      5.405364   3.276999950408936 3.937000036239624 2.905999898910522 2.971999883651733 1.955999970436096 2.625      3.08       1.689      1.425352   3.707999944686889 0.1037828  0.1037828  0.2769336  0.2341359  5.278752   3.232      0.07243149 0.4518513  40.39238   0.5246992  0.3289126  0.7204859 
992.2      0.221      271.78     -9999      -9999      5.22603    3.276999950408936 3.937000036239624 3.084000110626221 2.971999883651733 1.955999970436096 2.824      3.067      2.388      1.438462   3.835000038146973 0.1038282  0.1038282  0.2713866  0.2345888  6.840765   3.337      0.0865911  0.4535743  40.39729   0.5077528  0.2958782  0.7196273 
992.4      0.221      271.78     -9999      -9999      5.06657    3.276999950408936 3.937000036239624 3.084000110626221 2.971999883651733 1.955999970436096 2.824      3.067      2.388      1.447908   3.835000038146973 0.1043585  0.1043585  0.2673903  0.2399554  8.613959   3.337      0.09063526 0.4493713  40.38577   0.4940358  0.2693021  0.7187696 
992.6      0.22       262.89     -9999      -9999      4.928899   3.276999950408936 3.937000036239624 3.210999965667725 2.971999883651733 1.955999970436096 3.647      4.794      3.15       1.452699   3.911999940872193 0.1048283  0.1048283  0.265363   0.2448114  10.5105    3.45       0.108231   0.4567087  40.31739   0.4864689  0.2482855  0.7246522 
992.8      0.222      264.16     -9999      -9999      4.834888   3.276999950408936 3.937000036239624 3.210999965667725 2.971999883651733 1.955999970436096 3.128      4.287      2.54       1.451064   3.835000038146973 0.1078736  0.1078736  0.2660548  0.2787651  12.04029   3.434      0.1282982  0.4619745  40.15343   0.479337   0.2348844  0.7237896 
993        0.223      267.97     -9999      -9999      4.803665   3.276999950408936 3.937000036239624 3.210999965667725 2.971999883651733 1.955999970436096 2.844      4.452      1.943      1.442659   3.581000089645385 0.1177452  0.1177452  0.2696112  0.4247017  12.59612   3.385      0.1868394  0.4796749  39.90481   0.4602     0.2305955  0.6898046 
993.2      0.221      265.43     -9999      -9999      4.838306   3.276999950408936 3.937000036239624 3.312999963760376 2.971999883651733 1.955999970436096 2.625      3.296      1.372      1.43101    3.302000045776367 0.126243   0.126243   0.2745398  0.6102166  11.98095   3.417      0.2380962  0.501138   39.64257   0.4493844  0.2353587  0.6634102 
993.4      0.221      265.43     -9999      -9999      4.931706   3.276999950408936 3.937000036239624 3.312999963760376 2.971999883651733 1.955999970436096 2.625      3.296      1.372      1.422146   3.302000045776367 0.1279246  0.1279246  0.2782899  0.6555897  10.46794   3.417      0.2468268  0.5077984  39.44802   0.4556525  0.2486971  0.662608  
993.6      0.218      267.97     -9999      -9999      5.072701   3.276999950408936 3.937000036239624 3.440000057220459 2.971999883651733 1.955999970436096 2.783      4.172      2.388      1.419904   3.150000095367432 0.1275005  0.1275005  0.2792386  0.6438373  8.537967   3.385      0.2413026  0.5059084  39.36558   0.4598124  0.2702782  0.6493466 
993.8      0.216      275.59     -9999      -9999      5.24283    3.276999950408936 3.937000036239624 3.516000032424927 2.971999883651733 1.955999970436096 2.907      4.223      2.438      1.422694   2.996999979019165 0.1207169  0.1207169  0.2780583  0.4820907  6.676654   3.291      0.1937169  0.4871997  39.39437   0.4767921  0.2988266  0.6547576 
994        0.216      284.48     -9999      -9999      5.418195   3.276999950408936 3.937000036239624 3.566999912261962 2.971999883651733 1.955999970436096 2.844      4.287      2.464      1.425418   2.946000099182129 0.1122502  0.1122502  0.2769054  0.3359724  5.181749   3.188      0.128086   0.4634432  39.49594   0.4989553  0.331413   0.6664976 
994.2      0.216      288.29     -9999      -9999      5.581712   3.276999950408936 3.937000036239624 3.566999912261962 2.971999883651733 1.955999970436096 2.549      3.321      2.007      1.424595   2.946000099182129 0.1050924  0.1050924  0.2772539  0.2475847  4.091023   3.146      0.07082096 0.4473043  39.60725   0.5217015  0.3649915  0.6784114 
994.4      0.216      288.29     -9999      -9999      5.727057   3.276999950408936 3.937000036239624 3.566999912261962 2.971999883651733 1.955999970436096 2.549      3.321      2.007      1.420429   2.946000099182129 0.1015957  0.1015957  0.2790166  0.2132834  3.315841   3.146      0.04302895 0.4428872  39.66055   0.5376392  0.3976842  0.6775941 
994.6      0.217      293.37     -9999      -9999      5.844733   3.276999950408936 3.937000036239624 3.540999889373779 2.971999883651733 1.955999970436096 2.586      3.283      1.892      1.414843   2.946000099182129 0.09831459 0.09831459 0.2813797  0.1854312  2.797208   3.092      0.007238801 0.434618   39.59673   0.5547429  0.4262864  0.6831993 
994.8      0.218      299.72     -9999      -9999      5.908847   3.276999950408936 3.937000036239624 3.566999912261962 2.971999883651733 1.955999970436096 2.722      3.067      2.146      1.408993   2.996999979019165 0.09927122 0.09927122 0.2838549  0.1931532  2.549638   3.026      0.005558241 0.4336522  39.38274   0.5593444  0.4427264  0.6759623 
995        0.219      306.07     -9999      -9999      5.896383   3.276999950408936 3.937000036239624 3.490000009536743 2.971999883651733 1.955999970436096 2.844      3.55       2.235      1.40288    3.098999977111816 0.1076923  0.1076923  0.2864415  0.2766186  2.595989   2.963      0.0644457  0.4471484  39.0346    0.5416642  0.4394814  0.6438471 
995.2      0.223      316.23     -9999      -9999      5.822024   3.276999950408936 3.937000036239624 3.388999938964844 2.971999883651733 1.955999970436096 2.549      2.915      1.943      1.395514   3.250999927520752 0.1199774  0.1199774  0.2895582  0.4671217  2.890546   2.868      0.1353309  0.4633348  38.60515   0.5138814  0.420611   0.6071517 
