~Version
 VERS              .         2.0                           : CWLS LOG ASCII STANDARD - VERSION 2.0
 WRAP              .         NO                            : ONE LINE PER DEPTH STEP
 DLM               .         SPACE                         : DELIMITING CHARACTER(SPACE TAB OR COMMA)
~Well Information
#_______________________________________________________________________________
#
#PARAMETER_NAME    .UNIT     VALUE                         : DESCRIPTION
#_______________________________________________________________________________
STRT               .M        908                           : First reference value
STOP               .M        1225.8                        : Last reference value
STEP               .M        0.2                           : Step increment
NULL               .         -9999                         : Missing value
COMP               .                                       : Company
WELL               .         3896                          : Well name
FLD                .         Узень                         : Field
LOC                .                                       : Location
CNTY               .                                       : County
STAT               .                                       : State
CTRY               .                                       : Country
SRVC               .                                       : Service Company
DATE               .                                       : Date
UWI                .                                       : Unique Well ID
123                .         1                             : 
4_кв_для_Заказчика .         1                             : 
API                .                                       : 
Block              .         6а                            : 
Category           .         Нефтяная                      : 
Condition          .         В работе                      : 
Date               .         25.05.1989                    : 
EREF               .m        86.7                          : 100.8
Gor                .         15                            : 
Gorizont           .         15                            : 14
Interpretator      .         Кайсанов Е.К                  : 
Kupol              .         Основной                      : osnovnoi
Mud                .                                       : 
Mud_density        .                                       : 
Mud_resistivity    .                                       : 
NGDU               .         НГДУ-2                        : 
ORIGINALWELLNAME   .         3896                          : 
Otmetka            .                                       : 
Spud_date          .         1989                          : 1961
Viscosity          .                                       : 
X                  .m        44634.6                       : 46154
Y                  .m        85593.73                      : 85761.93
YEAR               .         2018                          : 
~Parameter Information Block
#_______________________________________________________________________________
#
#PARAMETER_NAME    .UNIT     VALUE                         : DESCRIPTION
#_______________________________________________________________________________
SET                .         LQC_KAZNIPI_Petrel            : 
TLFamily_CALI      .         Caliper                       : 
TLFamily_CILD      .         Conductivity                  : 
TLFamily_COLL      .         Net Reservoir Flag            : 
TLFamily_CSAT      .         Fluid Code                    : 
TLFamily_DEPT      .         Measured Depth                : 
TLFamily_GR        .         Russian Gamma Ray             : 
TLFamily_GZ1       .         Gradient 045                  : 
TLFamily_GZ2       .         Gradient 105                  : 
TLFamily_GZ3       .         Gradient 225                  : 
TLFamily_GZ4       .         Gradient 425                  : 
TLFamily_GZ5       .         Gradient 850                  : 
TLFamily_LLS       .         Lateral Log Resistivity       : 
TLFamily_MINV      .         Micro Gradient Resistivity    : 
TLFamily_MNOR      .         Micro Resistivity             : 
TLFamily_NGLD      .         Neutron Far                   : 
TLFamily_OGZ3      .         Gradient Inverted 225         : 
TLFamily_PHIE      .         Effective Porosity            : 
TLFamily_PHIEN     .         Effective Porosity            : 
TLFamily_PHIT      .         Porosity                      : 
TLFamily_PRMB      .         Permeability                  : 
TLFamily_PRMB_DGR  .         Permeability                  : 
TLFamily_RT        .         Formation Resistivity         : 
TLFamily_SOIL_ARCHIE .         Oil Saturation                : 
TLFamily_SOIL_DW   .         Oil Saturation                : 
TLFamily_SP        .         Spontaneous Potential         : 
TLFamily_VSH_FIN   .         Shale Volume                  : 
TLFamily_VSH_GR    .         Shale Volume                  : 
TLFamily_VSH_SP    .         Shale Volume                  : 
~Curve Information
#_______________________________________________________________________________
#
#LOGNAME           .UNIT     LOG_ID                        : DESCRIPTION
#_______________________________________________________________________________
DEPT               .M                                      : Колонка глубины 
CALI               .м                                      : Каверномер 
CILD               .мСм/м                                  : Индукционный каротаж 
COLL               .unitless                               :  
CSAT               .unitless                               :  
GR                 .uR/h                                   : Гамма каротаж 
GZ1                .OHMM                                   :  
GZ2                .OHMM                                   :  
GZ3                .OHMM                                   :  
GZ4                .OHMM                                   :  
GZ5                .OHMM                                   :  
LLS                .Ohmm                                   : Боковой каротаж 
MINV               .Ohmm                                   : Микро-градиент зонд 
MNOR               .Ohmm                                   : Микро-потенциал зонд 
NGLD               .у.е.                                   : Показания зонда НГК-60 аппаратуры ДРСТ-3-90 
OGZ3               .OHMM                                   :  
PHIE               .v/v                                    : Описание 
PHIEN              .v/v                                    :  
PHIT               .v/v                                    : Описание 
PRMB               .mD                                     :  
PRMB_DGR           .mD                                     :  
RT                 .ohmm                                   : УЭС пласта 
SOIL_ARCHIE        .v/v                                    :  
SOIL_DW            .v/v                                    :  
SP                 .мВ                                     : Потенциал самополяризации 
VSH_FIN            .v/v                                    : Описание 
VSH_GR             .v/v                                    : Shale volume 
VSH_SP             .v/v                                    : Shale Volume 
~Ascii
# ...
967.8      0.214      289.56     -9999      -9999      5.569579   3.276999950408936 3.937000036239624 3.617000102996826 2.971999883651733 1.955999970436096 2.644      3.347      1.918      1.329893   3.098999977111816 0.1477308  0.1477308  0.3173222  1.525776   4.163401   3.132      0.3078589  0.5512843  38.20763   0.5139134  0.3623872  0.6654397 
968        0.214      284.48     -9999      -9999      5.547674   3.276999950408936 3.937000036239624 3.490000009536743 2.971999883651733 1.955999970436096 2.494      2.94       1.486      1.31979    3.023000001907349 0.1529645  0.1529645  0.3215969  1.90736    4.297329   3.188      0.3340919  0.5647037  38.66114   0.511007   0.3577322  0.6642817 
968.2      0.214      279.4      -9999      -9999      5.511003   3.276999950408936 3.937000036239624 3.362999916076661 2.971999883651733 1.955999970436096 2.353      3.423      1.727      1.316737   2.996999979019165 0.1471442  0.1471442  0.3228885  1.488079   4.531247   3.246      0.3170116  0.56333    39.08971   0.5325584  0.350073   0.715044  
968.4      0.214      279.4      -9999      -9999      5.465149   3.276999950408936 3.937000036239624 3.362999916076661 2.971999883651733 1.955999970436096 2.353      3.423      1.727      1.321096   2.996999979019165 0.1425668  0.1425668  0.3210444  1.224168   4.841747   3.246      0.2979517  0.5565432  39.3957    0.5408412  0.3407257  0.7409568 
968.6      0.215      278.13     -9999      -9999      5.406491   3.276999950408936 3.937000036239624 3.388999938964844 2.971999883651733 1.955999970436096 3.197      3.969      2.426      1.3293     3.072999954223633 0.1412174  0.1412174  0.3175733  1.155706   5.270155   3.261      0.2936426  0.5529557  39.51826   0.5344119  0.3291316  0.7396922 
968.8      0.217      279.4      -9999      -9999      5.341325   3.276999950408936 3.937000036239624 3.516000032424927 2.971999883651733 1.955999970436096 3.174      3.804      2.235      1.335739   3.250999927520752 0.1452162  0.1452162  0.3148488  1.370612   5.790693   3.246      0.3091206  0.5542023  39.4802    0.5140382  0.316713   0.7113634 
969        0.219      283.21     -9999      -9999      5.291799   3.276999950408936 3.937000036239624 3.540999889373779 2.971999883651733 1.955999970436096 3.083      3.728      2.134      1.336273   3.352999925613404 0.1466977  0.1466977  0.314623   1.460006   6.220414   3.203      0.3109023  0.5527365  39.35172   0.5088646  0.3075893  0.7101398 
969.2      0.216      287.02     -9999      -9999      5.29101    3.276999950408936 3.937000036239624 3.490000009536743 2.971999883651733 1.955999970436096 2.886      3.461      1.943      1.330651   3.276999950408936 0.1493014  0.1493014  0.3170015  1.631481   6.227515   3.16       0.3170631  0.5547811  39.18897   0.5081821  0.3074461  0.7089182 
969.4      0.216      287.02     -9999      -9999      5.364928   3.276999950408936 3.937000036239624 3.490000009536743 2.971999883651733 1.955999970436096 2.886      3.461      1.943      1.322147   3.276999950408936 0.1551514  0.1551514  0.3205994  2.093814   5.596469   3.16       0.3395456  0.564298   39.03185   0.5013578  0.3211559  0.6815597 
969.6      0.216      303.53     -9999      -9999      5.5072     3.276999950408936 3.937000036239624 3.338000059127808 2.971999883651733 1.955999970436096 2.702      3.194      1.892      1.315398   3.124000072479248 0.1546163  0.1546163  0.3234553  2.046576   4.556227   2.988      0.3199268  0.5538     38.92666   0.5116333  0.3492879  0.6739786 
969.8      0.218      306.07     -9999      -9999      5.677353   3.276999950408936 3.937000036239624 3.210999965667725 2.971999883651733 1.955999970436096 2.586      2.902      1.765      1.31352    3.023000001907349 0.1493693  0.1493693  0.3242499  1.636216   3.562827   2.963      0.2963982  0.5467176  38.90694   0.529941   0.3861872  0.6736947 
970        0.229      304.8      -9999      -9999      5.830844   3.276999950408936 3.937000036239624 3.236000061035156 2.971999883651733 1.955999970436096 2.251      2.648      1.511      1.316256   2.869999885559082 0.1400974  0.1400974  0.3230919  1.101797   2.853931   2.976      0.2575374  0.5356968  38.96988   0.5545288  0.4228062  0.6862515 
970.2      0.239      304.8      -9999      -9999      5.94275    3.276999950408936 3.937000036239624 3.26200008392334 2.971999883651733 1.955999970436096 2.284      2.953      1.613      1.320712   2.743000030517578 0.1334966  0.1334966  0.3212068  0.8314558  2.427709   2.976      0.2256637  0.5256023  39.08488   0.5688188  0.4516745  0.6859632 
970.4      0.239      304.8      -9999      -9999      6.003889   3.276999950408936 3.937000036239624 3.26200008392334 2.971999883651733 1.955999970436096 2.284      2.953      1.613      1.324266   2.743000030517578 0.1271516  0.1271516  0.319703   0.6343282  2.222376   2.976      0.1921162  0.5156549  39.2104    0.5834892  0.4682707  0.6987078 
970.6      0.249      308.61     -9999      -9999      6.01363    3.276999950408936 3.937000036239624 3.236000061035156 2.971999883651733 1.955999970436096 2.664      3.182      1.791      1.326025   2.845000028610229 0.1238269  0.1238269  0.3189587  0.5504694  2.191304   2.939      0.1683887  0.5071913  39.30006   0.5913083  0.4709707  0.7116458 
970.8      0.233      306.07     -9999      -9999      5.984539   3.276999950408936 3.937000036239624 3.312999963760376 2.971999883651733 1.955999970436096 2.476      2.788      1.651      1.326306   3.04800009727478 0.1250799  0.1250799  0.3188397  0.5806862  2.28541    2.963      0.1787892  0.5108547  39.31663   0.587151   0.4629532  0.7113488 
971        0.237      306.07     -9999      -9999      5.94766    3.276999950408936 3.937000036239624 3.362999916076661 2.971999883651733 1.955999970436096 2.369      3.08       1.638      1.325248   2.971999883651733 0.129403   0.129403   0.3192876  0.6982582  2.410541   2.963      0.202736   0.5172832  39.24998   0.5754079  0.4529853  0.6978304 
971.2      0.238      309.88     -9999      -9999      5.938283   3.276999950408936 3.937000036239624 3.26200008392334 2.971999883651733 1.955999970436096 2.513      3.372      1.943      1.322511   2.946000099182129 0.1310216  0.1310216  0.3204455  0.7481632  2.443432   2.927      0.2067838  0.5176327  39.10927   0.5740118  0.4504853  0.6975383 
971.4      0.238      309.88     -9999      -9999      5.973231   3.276999950408936 3.937000036239624 3.26200008392334 2.971999883651733 1.955999970436096 2.513      3.372      1.943      1.317764   2.946000099182129 0.133676   0.133676   0.322454   0.8378402  2.323071   2.927      0.2205195  0.5230551  38.90289   0.5720547  0.4598738  0.6842358 
971.6      0.231      312.42     -9999      -9999      6.044077   3.276999950408936 3.937000036239624 3.108999967575073 2.971999883651733 1.955999970436096 2.664      2.394      1.715      1.311703   3.04800009727478 0.1351606  0.1351606  0.3250185  0.8926057  2.09696    2.903      0.2249932  0.5254106  38.64096   0.575327   0.4795105  0.6711434 
971.8      0.223      307.34     -9999      -9999      6.128715   3.276999950408936 3.937000036239624 2.931999921798706 2.971999883651733 1.955999970436096 2.301      2.788      1.308      1.306481   3.023000001907349 0.1364709  0.1364709  0.327228   0.943908   1.855499   2.951      0.2373696  0.5329577  38.35315   0.578052   0.5040721  0.6520319 
972        0.222      298.45     -9999      -9999      6.205342   3.276999950408936 3.937000036239624 2.982000112533569 2.971999883651733 1.955999970436096 2.218      2.547      1.448      1.304794   3.04800009727478 0.1374094  0.1374094  0.3279415  0.9824577  1.660961   3.039      0.25229    0.5415595  38.09008   0.5773699  0.5273927  0.6273471 
972.2      0.223      288.29     -9999      -9999      6.251443   3.276999950408936 3.937000036239624 3.059000015258789 2.971999883651733 1.955999970436096 2.268      3.067      1.435      1.307439   3.150000095367432 0.1339344  0.1339344  0.3268226  0.8471259  1.553889   3.146      0.2477367  0.544184   37.90432   0.5845096  0.5419396  0.6270796 
