~Version
 VERS              .         2.0                           : CWLS LOG ASCII STANDARD - VERSION 2.0
 WRAP              .         NO                            : ONE LINE PER DEPTH STEP
 DLM               .         SPACE                         : DELIMITING CHARACTER(SPACE TAB OR COMMA)
~Well Information
#_______________________________________________________________________________
#
#PARAMETER_NAME    .UNIT     VALUE                         : DESCRIPTION
#_______________________________________________________________________________
STRT               .M        908                           : First reference value
STOP               .M        1225.8                        : Last reference value
STEP               .M        0.2                           : Step increment
NULL               .         -9999                         : Missing value
COMP               .                                       : Company
WELL               .         3896                          : Well name
FLD                .         Узень                         : Field
LOC                .                                       : Location
CNTY               .                                       : County
STAT               .                                       : State
CTRY               .                                       : Country
SRVC               .                                       : Service Company
DATE               .                                       : Date
UWI                .                                       : Unique Well ID
123                .         1                             : 
4_кв_для_Заказчика .         1                             : 
API                .                                       : 
Block              .         6а                            : 
Category           .         Нефтяная                      : 
Condition          .         В работе                      : 
Date               .         25.05.1989                    : 
EREF               .m        86.7                          : 100.8
Gor                .         15                            : 
Gorizont           .         15                            : 14
Interpretator      .         Кайсанов Е.К                  : 
Kupol              .         Основной                      : osnovnoi
Mud                .                                       : 
Mud_density        .                                       : 
Mud_resistivity    .                                       : 
NGDU               .         НГДУ-2                        : 
ORIGINALWELLNAME   .         3896                          : 
Otmetka            .                                       : 
Spud_date          .         1989                          : 1961
Viscosity          .                                       : 
X                  .m        44634.6                       : 46154
Y                  .m        85593.73                      : 85761.93
YEAR               .         2018                          : 
~Parameter Information Block
#_______________________________________________________________________________
#
#PARAMETER_NAME    .UNIT     VALUE                         : DESCRIPTION
#_______________________________________________________________________________
SET                .         LQC_KAZNIPI_Petrel            : 
TLFamily_CALI      .         Caliper                       : 
TLFamily_CILD      .         Conductivity                  : 
TLFamily_COLL      .         Net Reservoir Flag            : 
TLFamily_CSAT      .         Fluid Code                    : 
TLFamily_DEPT      .         Measured Depth                : 
TLFamily_GR        .         Russian Gamma Ray             : 
TLFamily_GZ1       .         Gradient 045                  : 
TLFamily_GZ2       .         Gradient 105                  : 
TLFamily_GZ3       .         Gradient 225                  : 
TLFamily_GZ4       .         Gradient 425                  : 
TLFamily_GZ5       .         Gradient 850                  : 
TLFamily_LLS       .         Lateral Log Resistivity       : 
TLFamily_MINV      .         Micro Gradient Resistivity    : 
TLFamily_MNOR      .         Micro Resistivity             : 
TLFamily_NGLD      .         Neutron Far                   : 
TLFamily_OGZ3      .         Gradient Inverted 225         : 
TLFamily_PHIE      .         Effective Porosity            : 
TLFamily_PHIEN     .         Effective Porosity            : 
TLFamily_PHIT      .         Porosity                      : 
TLFamily_PRMB      .         Permeability                  : 
TLFamily_PRMB_DGR  .         Permeability                  : 
TLFamily_RT        .         Formation Resistivity         : 
TLFamily_SOIL_ARCHIE .         Oil Saturation                : 
TLFamily_SOIL_DW   .         Oil Saturation                : 
TLFamily_SP        .         Spontaneous Potential         : 
TLFamily_VSH_FIN   .         Shale Volume                  : 
TLFamily_VSH_GR    .         Shale Volume                  : 
TLFamily_VSH_SP    .         Shale Volume                  : 
~Curve Information
#_______________________________________________________________________________
#
#LOGNAME           .UNIT     LOG_ID                        : DESCRIPTION
#_______________________________________________________________________________
DEPT               .M                                      : Колонка глубины 
CALI               .м                                      : Каверномер 
CILD               .мСм/м                                  : Индукционный каротаж 
COLL               .unitless                               :  
CSAT               .unitless                               :  
GR                 .uR/h                                   : Гамма каротаж 
GZ1                .OHMM                                   :  
GZ2                .OHMM                                   :  
GZ3                .OHMM                                   :  
GZ4                .OHMM                                   :  
GZ5                .OHMM                                   :  
LLS                .Ohmm                                   : Боковой каротаж 
MINV               .Ohmm                                   : Микро-градиент зонд 
MNOR               .Ohmm                                   : Микро-потенциал зонд 
NGLD               .у.е.                                   : Показания зонда НГК-60 аппаратуры ДРСТ-3-90 
OGZ3               .OHMM                                   :  
PHIE               .v/v                                    : Описание 
PHIEN              .v/v                                    :  
PHIT               .v/v                                    : Описание 
PRMB               .mD                                     :  
PRMB_DGR           .mD                                     :  
RT                 .ohmm                                   : УЭС пласта 
SOIL_ARCHIE        .v/v                                    :  
SOIL_DW            .v/v                                    :  
SP                 .мВ                                     : Потенциал самополяризации 
VSH_FIN            .v/v                                    : Описание 
VSH_GR             .v/v                                    : Shale volume 
VSH_SP             .v/v                                    : Shale Volume 
~Ascii
# ...
1032.2     0.287      361.95     -9999      -9999      5.658833   3.276999950408936 3.937000036239624 3.26200008392334 2.971999883651733 1.955999970436096 3.151      1.518      1.664      1.341527   2.134000062942505 0.1504758  0.1504758  0.3124     1.715282   3.659491   2.506      0.2437341  0.4969967  38.51324   0.4906794  0.3819889  0.5993699 
1032.4     0.287      361.95     -9999      -9999      5.903541   3.276999950408936 3.937000036239624 3.26200008392334 2.971999883651733 1.955999970436096 3.151      1.518      1.664      1.313493   2.134000062942505 0.1656689  0.1656689  0.3242612  3.279051   2.569267   2.506      0.3045097  0.5262281  37.75401   0.4805826  0.4413421  0.5198231 
1032.6     0.284      445.77     -9999      -9999      6.239012   3.276999950408936 3.937000036239624 2.855000019073486 2.971999883651733 1.955999970436096 1.743      1.302      0.775      1.277703   2.006999969482422 0.164552   0.164552   0.3394039  3.126512   1.582061   2.035      0.228601   0.4874998  36.99399   0.5298542  0.5379782  0.5217303 
1032.8     0.284      445.77     -9999      -9999      6.628342   3.276999950408936 3.937000036239624 2.855000019073486 2.971999883651733 1.955999970436096 1.743      1.302      0.775      1.239468   2.006999969482422 0.1671382  0.1671382  0.3555813  3.491111   0.9012154  2.035      0.2390075  0.5050228  36.37005   0.5710396  0.6769539  0.4651253 
1033       0.272      474.98     -9999      -9999      7.015051   3.276999950408936 3.937000036239624 2.601000070571899 2.971999883651733 1.955999970436096 1.41       0.769      0.673      1.205672   1.980999946594239 0.1608499  0.1608499  0.3698803  2.669865   0.5153218  1.91       0.1894024  0.4942918  35.97942   0.6334254  0.8        0.4668507 
1033.2     0.263      480.06     -9999      -9999      7.319417   3.276999950408936 3.937000036239624 2.627000093460083 2.971999883651733 1.955999970436096 1.369      0.819      0.572      1.182129   2.361999988555908 0.1727956  0.1727956  0.3798411  4.443779   0.3319084  1.889      0.2344713  0.513091   35.86039   0.6274105  0.8        0.4548211 
1033.4     0.263      480.06     -9999      -9999      7.469585   3.276999950408936 3.937000036239624 2.627000093460083 2.971999883651733 1.955999970436096 1.369      0.819      0.572      1.172942   2.361999988555908 0.1725719  0.1725719  0.3837283  4.401574   0.2671486  1.889      0.2336069  0.5159434  35.98867   0.639868   0.8        0.479736  
1033.6     0.255      464.82     -9999      -9999      7.450285   3.276999950408936 3.937000036239624 2.448999881744385 2.971999883651733 1.955999970436096 1.668      1.023      1.194      1.179697   2.743000030517578 0.1694211  0.1694211  0.3808704  3.848117   0.2747062  1.951      0.2329215  0.5181525  36.29788   0.6407554  0.8        0.4815107 
1033.8     0.255      464.82     -9999      -9999      7.30234    3.276999950408936 3.937000036239624 2.448999881744385 2.971999883651733 1.955999970436096 1.668      1.023      1.194      1.199763   2.743000030517578 0.1540936  0.1540936  0.3723801  2.001454   0.3402033  1.951      0.1668788  0.4938012  36.71609   0.6614743  0.8        0.5229487 
1034       0.24       453.39     -9999      -9999      7.092651   3.276999950408936 3.937000036239624 2.092999935150146 2.971999883651733 1.955999970436096 2.032      2.877      1.968      1.227895   3.072999954223633 0.1418746  0.1418746  0.3604775  1.188555   0.460645   2.001      0.11529    0.4741472  37.19332   0.662433   0.8        0.524866  
1034.2     0.236      416.56     -9999      -9999      6.889361   3.276999950408936 3.937000036239624 2.11899995803833 2.971999883651733 1.955999970436096 1.585      1.01       0.838      1.260777   3.785000085830688 0.1249882  0.1249882  0.346565   0.5784187  0.6179858  2.177      0.05037097 0.4589856  37.68475   0.6714451  0.7897044  0.5531858 
1034.4     0.236      416.56     -9999      -9999      6.728845   3.276999950408936 3.937000036239624 2.11899995803833 2.971999883651733 1.955999970436096 1.585      1.01       0.838      1.298502   3.785000085830688 0.1130868  0.1130868  0.3306038  0.3481763  0.7793624  2.177      0          0.4222631  38.11699   0.6591424  0.7183242  0.5999606 
1034.6     0.23       344.17     -9999      -9999      6.573253   3.276999950408936 3.937000036239624 2.170000076293945 2.971999883651733 1.955999970436096 2.123      2.267      1.334      1.342329   4.216000080108643 0.1045865  0.1045865  0.3120604  0.2422998  0.9759094  2.635      0          0.4397166  38.38512   0.628709   0.6552976  0.6021204 
1034.8     0.23       344.17     -9999      -9999      6.338196   3.276999950408936 3.937000036239624 2.170000076293945 2.971999883651733 1.955999970436096 2.123      2.267      1.334      1.393678   4.216000080108643 0.09457426 0.09457426 0.290335   0.1580894  1.370762   2.635      0          0.3918725  38.37222   0.5932144  0.570411   0.6160178 
1035       0.221      326.39     -9999      -9999      5.984118   3.276999950408936 3.937000036239624 2.144000053405762 2.971999883651733 1.955999970436096 2.743      2.839      2.095      1.453536   4.673999786376953 0.08663309 0.08663309 0.2650087  0.1126712  2.286802   2.779      0          0.3520382  37.98269   0.5405323  0.4628381  0.6182265 
1035.2     0.216      273.05     -9999      -9999      5.564417   3.276999950408936 3.937000036239624 2.424000024795532 2.971999883651733 1.955999970436096 2.586      3.613      1.88       1.522434   5.182000160217285 0.07962142 0.07962142 0.2358582  0.08354874 4.194577   3.322      0          0.3414323  37.2161    0.4734449  0.3612849  0.5856048 
1035.4     0.216      273.05     -9999      -9999      5.166742   3.276999950408936 3.937000036239624 2.424000024795532 2.971999883651733 1.955999970436096 2.586      3.613      1.88       1.598892   5.182000160217285 0.07820179 0.07820179 0.2035089  0.07864024 7.452837   3.322      0          0.2708284  36.22533   0.3797184  0.2857039  0.4737329 
1035.6     0.215      240.03     -9999      -9999      4.821666   3.276999950408936 3.937000036239624 2.779000043869019 2.971999883651733 1.955999970436096 3.038      3.944      2.375      1.6797     5.231999874114991 0.05240868 0.05240868 0.1693188  0.02617544 12.27261   3.779      0          0.1140403  35.22481   0.354273   0.2330585  0.4754875 
1035.8     0.215      240.03     -9999      -9999      4.492718   3.276999950408936 3.937000036239624 2.779000043869019 2.971999883651733 1.955999970436096 3.038      3.944      2.375      1.760356   5.231999874114991 0.03294245 0.03294245 0.1351936  0.01141122 19.74368   3.779      0          0          34.33021   0.3098518  0.1919321  0.4277715 
1036       0.215      228.6      -9999      -9999      4.149181   3.276999950408936 3.937000036239624 3.26200008392334 2.971999883651733 1.955999970436096 4.443      4.845      3.188      1.83487    5.359000205993651 0.01       0.006963964 0.1036664  0.004289259 32.43972   3.968      0          0          33.54129   0.2930376  0.1567079  0.4293672 
1036.2     0.215      208.28     -9999      -9999      3.833058   3.276999950408936 3.937000036239624 4.429999828338623 2.971999883651733 1.955999970436096 4.923      4.96       3.023      1.895245   4.85099983215332 0.01       0          0.07812191 0.004289259 51.22928   4.355      0          0          32.85869   0.2580521  0.1300352  0.3860691 
1036.4     0.215      208.28     -9999      -9999      3.629874   3.276999950408936 3.937000036239624 4.429999828338623 2.971999883651733 1.955999970436096 4.923      4.96       3.023      1.931435   4.85099983215332 0.01       0          0.06280976 0.004289259 68.71684   4.355      0          0          32.34626   0.2401281  0.11534    0.3649161 
1036.6     0.215      204.47     -9999      -9999      3.585426   3.276999950408936 3.937000036239624 4.557000160217285 2.971999883651733 1.955999970436096 4.476      4.896      2.883      1.936934   4.394000053405762 0.01       0          0.06048313 0.004289259 73.27644   4.436      0          0          32.07265   0.2393173  0.1123536  0.366281  
