~Version
 VERS              .         2.0                           : CWLS LOG ASCII STANDARD - VERSION 2.0
 WRAP              .         NO                            : ONE LINE PER DEPTH STEP
 DLM               .         SPACE                         : DELIMITING CHARACTER(SPACE TAB OR COMMA)
~Well Information
#_______________________________________________________________________________
#
#PARAMETER_NAME    .UNIT     VALUE                         : DESCRIPTION
#_______________________________________________________________________________
STRT               .M        908                           : First reference value
STOP               .M        1225.8                        : Last reference value
STEP               .M        0.2                           : Step increment
NULL               .         -9999                         : Missing value
COMP               .                                       : Company
WELL               .         3896                          : Well name
FLD                .         Узень                         : Field
LOC                .                                       : Location
CNTY               .                                       : County
STAT               .                                       : State
CTRY               .                                       : Country
SRVC               .                                       : Service Company
DATE               .                                       : Date
UWI                .                                       : Unique Well ID
123                .         1                             : 
4_кв_для_Заказчика .         1                             : 
API                .                                       : 
Block              .         6а                            : 
Category           .         Нефтяная                      : 
Condition          .         В работе                      : 
Date               .         25.05.1989                    : 
EREF               .m        86.7                          : 100.8
Gor                .         15                            : 
Gorizont           .         15                            : 14
Interpretator      .         Кайсанов Е.К                  : 
Kupol              .         Основной                      : osnovnoi
Mud                .                                       : 
Mud_density        .                                       : 
Mud_resistivity    .                                       : 
NGDU               .         НГДУ-2                        : 
ORIGINALWELLNAME   .         3896                          : 
Otmetka            .                                       : 
Spud_date          .         1989                          : 1961
Viscosity          .                                       : 
X                  .m        44634.6                       : 46154
Y                  .m        85593.73                      : 85761.93
YEAR               .         2018                          : 
~Parameter Information Block
#_______________________________________________________________________________
#
#PARAMETER_NAME    .UNIT     VALUE                         : DESCRIPTION
#_______________________________________________________________________________
SET                .         LQC_KAZNIPI_Petrel            : 
TLFamily_CALI      .         Caliper                       : 
TLFamily_CILD      .         Conductivity                  : 
TLFamily_COLL      .         Net Reservoir Flag            : 
TLFamily_CSAT      .         Fluid Code                    : 
TLFamily_DEPT      .         Measured Depth                : 
TLFamily_GR        .         Russian Gamma Ray             : 
TLFamily_GZ1       .         Gradient 045                  : 
TLFamily_GZ2       .         Gradient 105                  : 
TLFamily_GZ3       .         Gradient 225                  : 
TLFamily_GZ4       .         Gradient 425                  : 
TLFamily_GZ5       .         Gradient 850                  : 
TLFamily_LLS       .         Lateral Log Resistivity       : 
TLFamily_MINV      .         Micro Gradient Resistivity    : 
TLFamily_MNOR      .         Micro Resistivity             : 
TLFamily_NGLD      .         Neutron Far                   : 
TLFamily_OGZ3      .         Gradient Inverted 225         : 
TLFamily_PHIE      .         Effective Porosity            : 
TLFamily_PHIEN     .         Effective Porosity            : 
TLFamily_PHIT      .         Porosity                      : 
TLFamily_PRMB      .         Permeability                  : 
TLFamily_PRMB_DGR  .         Permeability                  : 
TLFamily_RT        .         Formation Resistivity         : 
TLFamily_SOIL_ARCHIE .         Oil Saturation                : 
TLFamily_SOIL_DW   .         Oil Saturation                : 
TLFamily_SP        .         Spontaneous Potential         : 
TLFamily_VSH_FIN   .         Shale Volume                  : 
TLFamily_VSH_GR    .         Shale Volume                  : 
TLFamily_VSH_SP    .         Shale Volume                  : 
~Curve Information
#_______________________________________________________________________________
#
#LOGNAME           .UNIT     LOG_ID                        : DESCRIPTION
#_______________________________________________________________________________
DEPT               .M                                      : Колонка глубины 
CALI               .м                                      : Каверномер 
CILD               .мСм/м                                  : Индукционный каротаж 
COLL               .unitless                               :  
CSAT               .unitless                               :  
GR                 .uR/h                                   : Гамма каротаж 
GZ1                .OHMM                                   :  
GZ2                .OHMM                                   :  
GZ3                .OHMM                                   :  
GZ4                .OHMM                                   :  
GZ5                .OHMM                                   :  
LLS                .Ohmm                                   : Боковой каротаж 
MINV               .Ohmm                                   : Микро-градиент зонд 
MNOR               .Ohmm                                   : Микро-потенциал зонд 
NGLD               .у.е.                                   : Показания зонда НГК-60 аппаратуры ДРСТ-3-90 
OGZ3               .OHMM                                   :  
PHIE               .v/v                                    : Описание 
PHIEN              .v/v                                    :  
PHIT               .v/v                                    : Описание 
PRMB               .mD                                     :  
PRMB_DGR           .mD                                     :  
RT                 .ohmm                                   : УЭС пласта 
SOIL_ARCHIE        .v/v                                    :  
SOIL_DW            .v/v                                    :  
SP                 .мВ                                     : Потенциал самополяризации 
VSH_FIN            .v/v                                    : Описание 
VSH_GR             .v/v                                    : Shale volume 
VSH_SP             .v/v                                    : Shale Volume 
~Ascii
# ...
1174.8     0.227      455.93     -9999      -9999      10.7892    1.853999972343445 2.28600001335144 1.661999940872192 2.006999969482422 0.9399999976158142 1.93       1.035      1.194      1.339355   2.591000080108643 0.0651772  0.0651772  0.3133188  0.045123   0.5839357  1.989      0          0.2524418  35.91171   0.7519442  0.8        0.7038885 
1175       0.227      454.66     -9999      -9999      10.88806   1.980999946594238 2.234999895095825 1.585000038146973 1.980999946594239 0.9399999976158142 1.93       1.124      1.295      1.350537   2.921000003814697 0.05836783 0.05836783 0.3085877  0.03374984 0.5073745  1.995      0          0.2213433  36.16308   0.758242   0.8        0.716484  
1175.2     0.223      450.85     -9999      -9999      10.97708   1.980999946594238 2.336999893188477 1.45799994468689 1.675999999046326 0.7870000004768372 1.889      1.124      1.295      1.359004   3.555999994277954 0.04925451 0.04925451 0.3050055  0.0228808  0.447064   2.012      0          0.181494   36.39414   0.7750028  0.8        0.7500057 
1175.4     0.223      450.85     -9999      -9999      11.02208   1.980999946594238 2.336999893188477 1.45799994468689 1.675999999046326 0.7870000004768372 1.889      1.137      1.13       1.361793   3.555999994277954 0.04817962 0.04817962 0.3038255  0.02185553 0.4193602  2.012      0          0.1744545  36.54201   0.7746845  0.8        0.7493691 
1175.6     0.22       439.42     -9999      -9999      10.99108   1.853999972343445 2.234999895095825 1.381999969482422 1.396999955177307 0.8130000233650208 1.821      1.137      1.13       1.359507   3.683000087738037 0.05429278 0.05429278 0.3047926  0.02836561 0.5146937  2.064      0          0.2193953  36.55907   0.7590904  0.8        0.7181807 
1175.8     0.22       439.42     -9999      -9999      10.87209   1.853999972343445 2.234999895095825 1.381999969482422 1.396999955177307 0.8130000233650208 1.821      1.162      1.321      1.358638   3.683000087738037 0.05558088 0.05558088 0.3051601  0.02996752 0.6078874  2.064      0          0.225119   36.41747   0.7563006  0.7950352  0.7175661 
1176       0.218      430.53     -9999      -9999      10.67881   1.828999996185303 2.158999919891357 1.330999970436096 1.320999979972839 0.7870000004768372 1.889      1.239      1.206      1.368097   3.657999992370605 0.06649239 0.06649239 0.3011583  0.04772638 0.7965705  2.107      0          0.2650357  36.10261   0.7111087  0.7119468  0.7102708 
1176.2     0.215      401.32     -9999      -9999      10.43548   1.828999996185303 2.108000040054321 2.296999931335449 1.118000030517578 0.7110000252723694 1.821      1.658      1.613      1.392389   3.200000047683716 0.0810966  0.0810966  0.2908804  0.08897416 1.119513   2.26       0          0.3173607  35.62529   0.6357085  0.619575   0.6518419 
1176.4     0.215      401.32     -9999      -9999      10.1567    1.828999996185303 2.108000040054321 2.296999931335449 1.118000030517578 0.7110000252723694 1.821      1.658      1.613      1.428487   3.200000047683716 0.0809639  0.0809639  0.275607   0.08847202 1.653366   2.26       0          0.2919162  35.00408   0.5898275  0.5283805  0.6512744 
1176.6     0.215      353.06     -9999      -9999      9.845738   1.675999999046326 1.904999971389771 3.617000102996826 1.041000008583069 0.9909999966621399 1.889      1.912      2.121      1.470306   3.04800009727478 0.08649661 0.08649661 0.2579135  0.1120173  2.554185   2.569      0          0.3217072  34.21351   0.519445   0.4424044  0.5964856 
1176.8     0.215      353.06     -9999      -9999      9.512813   1.675999999046326 1.904999971389771 3.617000102996826 1.041000008583069 0.9909999966621399 1.889      1.95       2.146      1.515054   3.04800009727478 0.07941438 0.07941438 0.2389806  0.08281422 4.068915   2.569      0          0.2656249  33.19979   0.4835339  0.3658     0.6012678 
1177       0.214      327.66     1          2          9.190157   1.675999999046326 1.929999947547913 4.938000202178954 1.14300000667572 1.422000050544739 2.123      1.95       2.146      1.564079   2.996999979019165 0.08075361 0.08075361 0.2182381  0.08768208 6.389494   2.768      0          0.2541611  31.99804   0.4166197  0.3042393  0.529     
1177.2     0.213      274.32     1          2          8.909816   1.753000020980835 2.184000015258789 5.243000030517578 1.777999997138977 3.124000072479248 2.268      2.204      2.845      1.618626   3.250999927520752 0.08231558 0.08231558 0.1951592  0.09372216 9.456957   3.306      0          0.2724933  30.80332   0.3419503  0.2592282  0.4246724 
1177.4     0.213      274.32     1          2          8.665239   1.753000020980835 2.184000015258789 5.243000030517578 1.777999997138977 3.124000072479248 2.268      2.204      2.845      1.675102   3.250999927520752 0.06341495 0.06341495 0.1712645  0.04185591 13.31411   3.306      0          0.1305699  29.84119   0.3268168  0.2254343  0.4281993 
1177.6     0.211      223.52     1          2          8.42295    2.437999963760376 4.013000011444092 4.455999851226808 4.216000080108643 5.69000005722046 3.868      2.547      3.315      1.725708   5.309000015258789 0.0487496  0.0487496  0.149853   0.02239334 18.68461   4.058      0          0.06126823 29.17566   0.3063739  0.196302   0.4164458 
1177.8     0.211      223.52     1          2          8.183596   2.437999963760376 4.013000011444092 4.455999851226808 4.216000080108643 5.69000005722046 3.868      3.156      3.619      1.761758   5.309000015258789 0.03937028 0.03937028 0.1346001  0.01501036 26.11396   4.058      0          0          28.71387   0.2885751  0.1712213  0.4059288 
1178       0.212      200.66     6          6          8.014015   3.098999977111816 5.282999992370606 3.566999912261962 5.257999897003174 6.426000118255615 7.689      3.156      3.619      1.775924   7.366000175476073 0.0354275  0.0354275  0.1286067  0.01268707 33.10393   4.52       0          0          28.34534   0.2823613  0.1554163  0.4093062 
1178.2     0.214      208.28     6          6          7.994081   6.349999904632568 8.026000022888184 2.805000066757202 5.257999897003174 6.452000141143799 15.971     3.524      2.4        1.764836   7.493000030517578 0.04381587 0.04381587 0.1332978  0.01814405 34.03988   4.355      0          0          28.05208   0.2711572  0.153657   0.3886575 
1178.4     0.214      208.28     0          0          8.144791   6.349999904632568 8.026000022888184 2.805000066757202 5.257999897003174 6.452000141143799 15.971     3.524      2.4        1.730564   7.493000030517578 0.05741734 0.05741734 0.1477984  0.03240907 27.57045   4.355      0          0.1373121  27.90317   0.2738821  0.1674684  0.3802957 
1178.6     0.215      247.65     0          0          8.424003   5.282999992370605 8.128000259399414 2.677999973297119 3.683000087738037 4.394000053405762 3.729      3.169      2.045      1.679858   6.501999855041503 0.07357118 0.07357118 0.1692519  0.06454682 18.65712   3.663      0          0.2119704  27.97477   0.2899417  0.1964201  0.3834633 
1178.8     0.215      247.65     0          0          8.769087   5.282999992370605 8.128000259399414 2.677999973297119 3.683000087738037 4.394000053405762 3.729      1.569      1.715      1.623281   6.501999855041503 0.08529235 0.08529235 0.19319    0.1064092  11.51418   3.663      0          0.313632   28.27976   0.3269625  0.2392089  0.4147161 
1179       0.215      271.78     0          0          9.120275   4.495999813079834 8.00100040435791 3.160000085830688 2.895999908447266 3.023000001907349 3.061      1.569      1.715      1.574575   5.587999820709229 0.0965649  0.0965649  0.2137974  0.1720974  7.045533   3.337      0.04057149 0.3557588  28.7567    0.3552501  0.2923363  0.418164  
1179.2     0.217      307.34     0          0          9.429482   2.793999910354614 5.918000221252441 4.048999786376953 1.396999955177307 1.626000046730042 2.319      2.813      1.702      1.545201   3.480000019073486 0.09257462 0.09257462 0.2262255  0.1451659  4.571887   2.951      0          0.3282322  29.29659   0.4050028  0.3487989  0.4612066 
