~Version
 VERS              .         2.0                           : CWLS LOG ASCII STANDARD - VERSION 2.0
 WRAP              .         NO                            : ONE LINE PER DEPTH STEP
 DLM               .         SPACE                         : DELIMITING CHARACTER(SPACE TAB OR COMMA)
~Well Information
#_______________________________________________________________________________
#
#PARAMETER_NAME    .UNIT     VALUE                         : DESCRIPTION
#_______________________________________________________________________________
STRT               .M        908                           : First reference value
STOP               .M        1225.8                        : Last reference value
STEP               .M        0.2                           : Step increment
NULL               .         -9999                         : Missing value
COMP               .                                       : Company
WELL               .         3896                          : Well name
FLD                .         Узень                         : Field
LOC                .                                       : Location
CNTY               .                                       : County
STAT               .                                       : State
CTRY               .                                       : Country
SRVC               .                                       : Service Company
DATE               .                                       : Date
UWI                .                                       : Unique Well ID
123                .         1                             : 
4_кв_для_Заказчика .         1                             : 
API                .                                       : 
Block              .         6а                            : 
Category           .         Нефтяная                      : 
Condition          .         В работе                      : 
Date               .         25.05.1989                    : 
EREF               .m        86.7                          : 100.8
Gor                .         15                            : 
Gorizont           .         15                            : 14
Interpretator      .         Кайсанов Е.К                  : 
Kupol              .         Основной                      : osnovnoi
Mud                .                                       : 
Mud_density        .                                       : 
Mud_resistivity    .                                       : 
NGDU               .         НГДУ-2                        : 
ORIGINALWELLNAME   .         3896                          : 
Otmetka            .                                       : 
Spud_date          .         1989                          : 1961
Viscosity          .                                       : 
X                  .m        44634.6                       : 46154
Y                  .m        85593.73                      : 85761.93
YEAR               .         2018                          : 
~Parameter Information Block
#_______________________________________________________________________________
#
#PARAMETER_NAME    .UNIT     VALUE                         : DESCRIPTION
#_______________________________________________________________________________
SET                .         LQC_KAZNIPI_Petrel            : 
TLFamily_CALI      .         Caliper                       : 
TLFamily_CILD      .         Conductivity                  : 
TLFamily_COLL      .         Net Reservoir Flag            : 
TLFamily_CSAT      .         Fluid Code                    : 
TLFamily_DEPT      .         Measured Depth                : 
TLFamily_GR        .         Russian Gamma Ray             : 
TLFamily_GZ1       .         Gradient 045                  : 
TLFamily_GZ2       .         Gradient 105                  : 
TLFamily_GZ3       .         Gradient 225                  : 
TLFamily_GZ4       .         Gradient 425                  : 
TLFamily_GZ5       .         Gradient 850                  : 
TLFamily_LLS       .         Lateral Log Resistivity       : 
TLFamily_MINV      .         Micro Gradient Resistivity    : 
TLFamily_MNOR      .         Micro Resistivity             : 
TLFamily_NGLD      .         Neutron Far                   : 
TLFamily_OGZ3      .         Gradient Inverted 225         : 
TLFamily_PHIE      .         Effective Porosity            : 
TLFamily_PHIEN     .         Effective Porosity            : 
TLFamily_PHIT      .         Porosity                      : 
TLFamily_PRMB      .         Permeability                  : 
TLFamily_PRMB_DGR  .         Permeability                  : 
TLFamily_RT        .         Formation Resistivity         : 
TLFamily_SOIL_ARCHIE .         Oil Saturation                : 
TLFamily_SOIL_DW   .         Oil Saturation                : 
TLFamily_SP        .         Spontaneous Potential         : 
TLFamily_VSH_FIN   .         Shale Volume                  : 
TLFamily_VSH_GR    .         Shale Volume                  : 
TLFamily_VSH_SP    .         Shale Volume                  : 
~Curve Information
#_______________________________________________________________________________
#
#LOGNAME           .UNIT     LOG_ID                        : DESCRIPTION
#_______________________________________________________________________________
DEPT               .M                                      : Колонка глубины 
CALI               .м                                      : Каверномер 
CILD               .мСм/м                                  : Индукционный каротаж 
COLL               .unitless                               :  
CSAT               .unitless                               :  
GR                 .uR/h                                   : Гамма каротаж 
GZ1                .OHMM                                   :  
GZ2                .OHMM                                   :  
GZ3                .OHMM                                   :  
GZ4                .OHMM                                   :  
GZ5                .OHMM                                   :  
LLS                .Ohmm                                   : Боковой каротаж 
MINV               .Ohmm                                   : Микро-градиент зонд 
MNOR               .Ohmm                                   : Микро-потенциал зонд 
NGLD               .у.е.                                   : Показания зонда НГК-60 аппаратуры ДРСТ-3-90 
OGZ3               .OHMM                                   :  
PHIE               .v/v                                    : Описание 
PHIEN              .v/v                                    :  
PHIT               .v/v                                    : Описание 
PRMB               .mD                                     :  
PRMB_DGR           .mD                                     :  
RT                 .ohmm                                   : УЭС пласта 
SOIL_ARCHIE        .v/v                                    :  
SOIL_DW            .v/v                                    :  
SP                 .мВ                                     : Потенциал самополяризации 
VSH_FIN            .v/v                                    : Описание 
VSH_GR             .v/v                                    : Shale volume 
VSH_SP             .v/v                                    : Shale Volume 
~Ascii
# ...
1092       0.246      318.77     -9999      -9999      7.200322   2.515000104904175 4.342999935150146 4.251999855041503 2.793999910354614 2.691999912261963 2.44       3.017      1.664      1.356232   2.743000030517578 0.1630109  0.1630109  0.3061784  2.927619   58.32641   2.845      0.3354126  0.536559   37.13621   0.4338411  0.1233254  0.7443568 
1092.2     0.244      350.52     -9999      -9999      7.420016   2.615999937057495 4.46999979019165 3.64299988746643 2.895999908447266 2.539999961853027 2.513      3.296      1.613      1.345347   2.769000053405762 0.1640246  0.1640246  0.3107837  3.056974   41.24542   2.588      0.3089615  0.5196627  36.98588   0.4447246  0.14207    0.7473791 
1092.4     0.244      350.52     -9999      -9999      7.684997   2.615999937057495 4.46999979019165 3.64299988746643 2.895999908447266 2.539999961853027 2.513      3.296      1.613      1.331501   2.769000053405762 0.1661645  0.1661645  0.3166421  3.349099   27.15591   2.588      0.3167189  0.5275013  36.71975   0.4559928  0.1685076  0.7434779 
1092.6     0.24       375.92     -9999      -9999      7.970542   2.743000030517578 4.394000053405762 3.084000110626221 2.769000053405762 2.158999919891357 2.549      3.296      1.626      1.316836   2.743000030517578 0.1751332  0.1751332  0.3228467  4.909651   17.30878   2.413      0.3254966  0.5262392  36.38464   0.4476164  0.2025297  0.6927031 
1092.8     0.24       375.92     -9999      -9999      8.257085   2.743000030517578 4.394000053405762 3.084000110626221 2.769000053405762 2.158999919891357 2.549      3.296      1.626      1.30265    2.743000030517578 0.1738921  0.1738921  0.3288486  4.656518   11.01504   2.413      0.3213055  0.5302273  36.05626   0.4695653  0.2435772  0.6955535 
1093       0.242      391.16     -9999      -9999      8.535187   2.46399998664856 3.555999994277954 2.677999973297119 2.515000104904175 2.006999969482422 1.988      2.127      1.334      1.289815   2.565000057220459 0.1752333  0.1752333  0.3342791  4.930657   7.103736   2.319      0.3131437  0.5269889  35.79818   0.481957   0.2913558  0.6725581 
1093.2     0.251      419.1      -9999      -9999      8.788035   1.853999972343445 2.895999908447266 2.398000001907349 1.904999971389771 1.575000047683716 1.821      2.369      1.016      1.278109   2.210000038146973 0.1712252  0.1712252  0.3392322  4.155898   4.767452   2.164      0.2760369  0.5103746  35.64093   0.509112   0.342884   0.6753401 
1093.4     0.251      419.1      -9999      -9999      8.98361    1.853999972343445 2.895999908447266 2.398000001907349 1.904999971389771 1.575000047683716 1.821      2.369      1.016      1.26608    2.210000038146973 0.1703573  0.1703573  0.3443214  4.004864   3.502017   2.164      0.2728254  0.5138946  35.58651   0.527164   0.3889116  0.6654165 
1093.6     0.249      438.15     -9999      -9999      9.090844   1.675999999046326 2.717999935150146 2.473999977111816 1.626000046730042 1.345999956130981 1.808      2.458      1.194      1.252937   2.032000064849854 0.1677047  0.1677047  0.3498824  3.576488   2.957082   2.07       0.2472944  0.504918   35.61322   0.5520536  0.4167206  0.6873865 
1093.8     0.249      438.15     -9999      -9999      9.095325   1.675999999046326 2.717999935150146 2.473999977111816 1.626000046730042 1.345999956130981 1.808      2.458      1.194      1.240338   2.032000064849854 0.1723695  0.1723695  0.3552132  4.363744   2.936258   2.07       0.2650671  0.5146311  35.68808   0.5540717  0.4179249  0.6902186 
1094       0.247      430.53     -9999      -9999      9.003613   1.675999999046326 2.489000082015991 2.677999973297119 1.600000023841858 1.294999957084656 1.756      2.293      1.156      1.231119   1.904999971389771 0.179756   0.179756   0.3591134  5.979643   3.393257   2.107      0.2973068  0.5297613  35.78971   0.5435074  0.3939542  0.6930606 
1094.2     0.242      405.13     -9999      -9999      8.83978    1.600000023841858 2.184000015258789 3.26200008392334 1.651000022888184 1.498999953269958 1.808      2.331      1.105      1.227004   1.853999972343445 0.1853592  0.1853592  0.3608545  7.59383    4.393813   2.239      0.3350767  0.5505382  35.91464   0.5318038  0.3545035  0.709104  
1094.4     0.242      405.13     -9999      -9999      8.636598   1.600000023841858 2.184000015258789 3.26200008392334 1.651000022888184 1.498999953269958 1.808      2.331      1.105      1.228256   1.853999972343445 0.1915248  0.1915248  0.3603247  9.877836   6.053699   2.239      0.3537588  0.5558127  36.05584   0.511515   0.3110205  0.7120095 
1094.6     0.243      383.54     -9999      -9999      8.42662    1.828999996185303 2.641999959945679 3.26200008392334 2.311000108718872 1.802999973297119 2.405      3.486      1.638      1.234777   2.032000064849854 0.1914259  0.1914259  0.3575658  9.836246   8.430523   2.365      0.3698668  0.5656884  36.18475   0.5034543  0.2716795  0.735229  
1094.8     0.243      383.54     -9999      -9999      8.236944   1.828999996185303 2.641999959945679 3.26200008392334 2.311000108718872 1.802999973297119 2.405      3.486      1.638      1.246316   2.032000064849854 0.1900673  0.1900673  0.3526836  9.282504   11.37057   2.365      0.3659457  0.5608144  36.25698   0.4927767  0.240438   0.7451153 
1095       0.238      373.38     -9999      -9999      8.092257   2.184000015258789 2.793999910354614 3.059000015258789 2.615999937057495 1.929999947547913 2.683      3.042      1.918      1.261623   2.311000108718872 0.186622   0.186622   0.3462075  8.014015   14.28539   2.429      0.3637848  0.5585739  36.24627   0.4835925  0.2190449  0.74814   
1095.2     0.236      359.41     -9999      -9999      8.017632   2.08299994468689 2.717999935150146 2.5        2.565000057220459 2.158999919891357 2.44       2.318      1.372      1.278442   2.971999883651733 0.1841101  0.1841101  0.3390911  7.199852   16.06978   2.524      0.3677177  0.5591196  36.16772   0.4696394  0.2087661  0.7305126 
1095.4     0.236      359.41     -9999      -9999      8.027347   2.08299994468689 2.717999935150146 2.5        2.565000057220459 2.158999919891357 2.44       2.318      1.372      1.294776   2.971999883651733 0.1764921  0.1764921  0.3321804  5.202583   15.82544   2.524      0.3440132  0.5461225  36.0624    0.4717828  0.2100763  0.7334893 
1095.6     0.246      370.84     -9999      -9999      8.110932   2.336999893188477 3.098999977111816 2.322000026702881 2.66700005531311 1.955999970436096 2.369      2.115      1.118      1.308825   3.098999977111816 0.1692647  0.1692647  0.3262362  3.822531   13.87075   2.446      0.3095886  0.5261875  35.96452   0.4756712  0.2216954  0.729647  
1095.8     0.246      370.84     -9999      -9999      8.245017   2.336999893188477 3.098999977111816 2.322000026702881 2.66700005531311 1.955999970436096 2.369      2.115      1.118      1.317337   3.098999977111816 0.1629951  0.1629951  0.3226346  2.925653   11.2267    2.446      0.2865157  0.5159401  35.88824   0.4837561  0.2416914  0.7258208 
1096       0.249      381        -9999      -9999      8.416922   2.28600001335144 3.200000047683716 2.220000028610229 2.489000082015991 1.879999995231628 2.284      1.81       0.838      1.316657   2.895999908447266 0.1581254  0.1581254  0.3229224  2.376977   8.560479   2.381      0.2580984  0.5039039  35.83175   0.4993849  0.2699878  0.728782  
1096.2     0.244      403.86     -9999      -9999      8.620514   2.108000040054321 3.250999927520752 2.144000053405762 1.904999971389771 1.600000023841858 2.186      1.861      1.092      1.30706    2.489000082015991 0.1563218  0.1563218  0.326983   2.200986   6.209233   2.246      0.2298395  0.4909226  35.7767    0.5171552  0.3078153  0.726495  
1096.4     0.244      403.86     -9999      -9999      8.841582   2.108000040054321 3.250999927520752 2.144000053405762 1.904999971389771 1.600000023841858 2.186      1.861      1.092      1.293131   2.489000082015991 0.1548198  0.1548198  0.3328761  2.064416   4.38134    2.246      0.2233361  0.4946919  35.69742   0.5395645  0.3549153  0.7242138 
