~Version
 VERS              .         2.0                           : CWLS LOG ASCII STANDARD - VERSION 2.0
 WRAP              .         NO                            : ONE LINE PER DEPTH STEP
 DLM               .         SPACE                         : DELIMITING CHARACTER(SPACE TAB OR COMMA)
~Well Information
#_______________________________________________________________________________
#
#PARAMETER_NAME    .UNIT     VALUE                         : DESCRIPTION
#_______________________________________________________________________________
STRT               .M        908                           : First reference value
STOP               .M        1225.8                        : Last reference value
STEP               .M        0.2                           : Step increment
NULL               .         -9999                         : Missing value
COMP               .                                       : Company
WELL               .         3896                          : Well name
FLD                .         Узень                         : Field
LOC                .                                       : Location
CNTY               .                                       : County
STAT               .                                       : State
CTRY               .                                       : Country
SRVC               .                                       : Service Company
DATE               .                                       : Date
UWI                .                                       : Unique Well ID
123                .         1                             : 
4_кв_для_Заказчика .         1                             : 
API                .                                       : 
Block              .         6а                            : 
Category           .         Нефтяная                      : 
Condition          .         В работе                      : 
Date               .         25.05.1989                    : 
EREF               .m        86.7                          : 100.8
Gor                .         15                            : 
Gorizont           .         15                            : 14
Interpretator      .         Кайсанов Е.К                  : 
Kupol              .         Основной                      : osnovnoi
Mud                .                                       : 
Mud_density        .                                       : 
Mud_resistivity    .                                       : 
NGDU               .         НГДУ-2                        : 
ORIGINALWELLNAME   .         3896                          : 
Otmetka            .                                       : 
Spud_date          .         1989                          : 1961
Viscosity          .                                       : 
X                  .m        44634.6                       : 46154
Y                  .m        85593.73                      : 85761.93
YEAR               .         2018                          : 
~Parameter Information Block
#_______________________________________________________________________________
#
#PARAMETER_NAME    .UNIT     VALUE                         : DESCRIPTION
#_______________________________________________________________________________
SET                .         LQC_KAZNIPI_Petrel            : 
TLFamily_CALI      .         Caliper                       : 
TLFamily_CILD      .         Conductivity                  : 
TLFamily_COLL      .         Net Reservoir Flag            : 
TLFamily_CSAT      .         Fluid Code                    : 
TLFamily_DEPT      .         Measured Depth                : 
TLFamily_GR        .         Russian Gamma Ray             : 
TLFamily_GZ1       .         Gradient 045                  : 
TLFamily_GZ2       .         Gradient 105                  : 
TLFamily_GZ3       .         Gradient 225                  : 
TLFamily_GZ4       .         Gradient 425                  : 
TLFamily_GZ5       .         Gradient 850                  : 
TLFamily_LLS       .         Lateral Log Resistivity       : 
TLFamily_MINV      .         Micro Gradient Resistivity    : 
TLFamily_MNOR      .         Micro Resistivity             : 
TLFamily_NGLD      .         Neutron Far                   : 
TLFamily_OGZ3      .         Gradient Inverted 225         : 
TLFamily_PHIE      .         Effective Porosity            : 
TLFamily_PHIEN     .         Effective Porosity            : 
TLFamily_PHIT      .         Porosity                      : 
TLFamily_PRMB      .         Permeability                  : 
TLFamily_PRMB_DGR  .         Permeability                  : 
TLFamily_RT        .         Formation Resistivity         : 
TLFamily_SOIL_ARCHIE .         Oil Saturation                : 
TLFamily_SOIL_DW   .         Oil Saturation                : 
TLFamily_SP        .         Spontaneous Potential         : 
TLFamily_VSH_FIN   .         Shale Volume                  : 
TLFamily_VSH_GR    .         Shale Volume                  : 
TLFamily_VSH_SP    .         Shale Volume                  : 
~Curve Information
#_______________________________________________________________________________
#
#LOGNAME           .UNIT     LOG_ID                        : DESCRIPTION
#_______________________________________________________________________________
DEPT               .M                                      : Колонка глубины 
CALI               .м                                      : Каверномер 
CILD               .мСм/м                                  : Индукционный каротаж 
COLL               .unitless                               :  
CSAT               .unitless                               :  
GR                 .uR/h                                   : Гамма каротаж 
GZ1                .OHMM                                   :  
GZ2                .OHMM                                   :  
GZ3                .OHMM                                   :  
GZ4                .OHMM                                   :  
GZ5                .OHMM                                   :  
LLS                .Ohmm                                   : Боковой каротаж 
MINV               .Ohmm                                   : Микро-градиент зонд 
MNOR               .Ohmm                                   : Микро-потенциал зонд 
NGLD               .у.е.                                   : Показания зонда НГК-60 аппаратуры ДРСТ-3-90 
OGZ3               .OHMM                                   :  
PHIE               .v/v                                    : Описание 
PHIEN              .v/v                                    :  
PHIT               .v/v                                    : Описание 
PRMB               .mD                                     :  
PRMB_DGR           .mD                                     :  
RT                 .ohmm                                   : УЭС пласта 
SOIL_ARCHIE        .v/v                                    :  
SOIL_DW            .v/v                                    :  
SP                 .мВ                                     : Потенциал самополяризации 
VSH_FIN            .v/v                                    : Описание 
VSH_GR             .v/v                                    : Shale volume 
VSH_SP             .v/v                                    : Shale Volume 
~Ascii
# ...
1050.6     0.265      457.2      -9999      -9999      8.695327   1.802999973297119 2.66700005531311 2.753999948501587 2.108000040054321 1.929999947547913 1.862      0.553      0.787      1.209594   1.753000020980835 0.2177813  0.2177813  0.3682207  30.26891   5.518125   1.984      0.3884367  0.5572846  33.57914   0.4558768  0.32301    0.5887435 
1050.8     0.265      457.2      -9999      -9999      8.806775   1.802999973297119 2.66700005531311 2.753999948501587 2.108000040054321 1.929999947547913 1.862      0.553      0.787      1.199422   1.753000020980835 0.2179278  0.2179278  0.3725244  30.45864   4.628601   1.984      0.3887948  0.5604876  33.64059   0.4684743  0.3470474  0.5899011 
1051       0.263      471.17     -9999      -9999      8.919581   1.853999972343445 2.46399998664856 2.473999977111816 2.056999921798706 1.828999996185303 1.756      0.629      0.813      1.189582   1.626000046730042 0.2147236  0.2147236  0.3766878  26.56808   3.874162   1.925      0.372025   0.5541733  33.81031   0.4908006  0.3732     0.6084013 
1051.2     0.271      496.57     -9999      -9999      9.049968   1.549000024795532 2.134000062942505 2.170000076293945 1.675999999046326 1.600000023841858 1.539      0.502      0.597      1.188148   1.52400004863739 0.2097397  0.2097397  0.3772946  21.48055   3.154012   1.827      0.3431382  0.5385623  34.09976   0.5077423  0.405893   0.6095917 
1051.4     0.271      496.57     -9999      -9999      9.201277   1.549000024795532 2.134000062942505 2.170000076293945 1.675999999046326 1.600000023841858 1.539      0.502      0.597      1.197305   1.52400004863739 0.1948752  0.1948752  0.3734202  11.39511   2.484375   1.827      0.2997093  0.522118   34.4845    0.5410455  0.447439   0.634652  
1051.6     0.275      500.38     -9999      -9999      9.349981   1.473000049591064 2.056999921798706 2.194999933242798 1.600000023841858 1.575000047683716 1.596      0.476      0.597      1.212517   1.52400004863739 0.1725389  0.1725389  0.3669842  4.395382   1.964966   1.813      0.218565   0.4919328  34.89275   0.5892284  0.4924107  0.6860461 
1051.8     0.275      500.38     -9999      -9999      9.46452    1.473000049591064 2.056999921798706 2.194999933242798 1.600000023841858 1.575000047683716 1.596      0.476      0.597      1.2272     1.52400004863739 0.1598891  0.1598891  0.3607717  2.562668   1.6402     1.813      0.1649863  0.4715754  35.23843   0.6087351  0.5301083  0.687362  
1052       0.267      499.11     -9999      -9999      9.530945   1.396999955177307 1.980999946594239 2.246000051498413 1.626000046730042 1.626000046730042 1.644      0.54       0.635      1.236785   1.52400004863739 0.1485433  0.1485433  0.3567162  1.579572   1.477051   1.817      0.1106243  0.4536973  35.46643   0.630827   0.5532791  0.7083748 
1052.2     0.258      490.22     -9999      -9999      9.56131    1.575000047683716 2.056999921798706 2.11899995803833 1.802999973297119 1.675999999046326 1.756      0.756      0.927      1.240066   1.498999953269958 0.1451294  0.1451294  0.3553281  1.365549   1.407977   1.85       0.1000642  0.4526097  35.55793   0.6369658  0.5642058  0.7097257 
1052.4     0.258      490.22     -9999      -9999      9.573287   1.575000047683716 2.056999921798706 2.11899995803833 1.802999973297119 1.675999999046326 1.756      0.756      0.927      1.2385     1.498999953269958 0.1426326  0.1426326  0.3559907  1.227609   1.381628   1.85       0.0863589  0.4497885  35.52006   0.6465397  0.5685749  0.7245045 
1052.6     0.26       485.14     -9999      -9999      9.568942   1.753000020980835 2.108000040054321 2.042999982833862 1.929999947547913 1.675999999046326 1.73       0.629      0.902      1.234753   1.447999954223633 0.1508082  0.1508082  0.3575758  1.739766   1.391129   1.87       0.1340318  0.4652986  35.39702   0.6265686  0.5669861  0.6861511 
1052.8     0.26       485.14     -9999      -9999      9.536297   1.753000020980835 2.108000040054321 2.042999982833862 1.929999947547913 1.675999999046326 1.73       0.629      0.902      1.232381   1.447999954223633 0.1535413  0.1535413  0.3585797  1.954861   1.464635   1.87       0.1474731  0.4697717  35.26502   0.6213284  0.5551895  0.6874672 
1053       0.258      483.87     -9999      -9999      9.4711     1.675999999046326 2.08299994468689 2.016999959945679 2.056999921798706 1.675999999046326 1.668      0.553      0.775      1.235212   1.422000050544739 0.1569596  0.1569596  0.3573818  2.261677   1.623264   1.875      0.1647137  0.4736834  35.19268   0.6073399  0.5323598  0.6823201 
1053.2     0.251      491.49     -9999      -9999      9.394363   1.802999973297119 2.361999988555908 1.991999983787537 2.336999893188477 1.675999999046326 1.93       0.616      0.927      1.244852   1.575000047683716 0.1569003  0.1569003  0.3533029  2.255965   1.832118   1.845      0.1580905  0.4655136  35.20953   0.5951595  0.506689   0.6836301 
1053.4     0.251      491.49     -9999      -9999      9.344803   1.802999973297119 2.361999988555908 1.991999983787537 2.336999893188477 1.675999999046326 1.93       0.616      0.927      1.257475   1.575000047683716 0.1528996  0.1528996  0.3479624  1.902083   1.981081   1.845      0.1389363  0.455161   35.31055   0.5910993  0.4907712  0.6914275 
1053.6     0.251      511.81     -9999      -9999      9.355264   1.675999999046326 2.184000015258789 1.940999984741211 2.108000040054321 1.726999998092651 1.573      0.603      0.724      1.265709   1.52400004863739 0.1453845  0.1453845  0.3444786  1.380485   1.948663   1.772      0.08309085 0.4299724  35.46601   0.6033155  0.4940888  0.7125421 
1053.8     0.251      511.81     -9999      -9999      9.430653   1.675999999046326 2.184000015258789 1.940999984741211 2.108000040054321 1.726999998092651 1.573      0.603      0.724      1.263911   1.52400004863739 0.141865   0.141865   0.345239   1.188069   1.730196   1.772      0.06331015 0.4256201  35.6385    0.6162851  0.5186709  0.7138993 
1054       0.249      519.43     -9999      -9999      9.54697    1.549000024795532 2.08299994468689 1.814000010490417 2.006999969482422 1.600000023841858 1.539      0.87       0.838      1.251243   1.422000050544739 0.1369918  0.1369918  0.3505991  0.965112   1.440184   1.746      0.02763361 0.4196785  35.7911    0.6472951  0.5590192  0.735571  
1054.2     0.24       535.94     -9999      -9999      9.673828   1.422000050544739 2.032000064849854 1.763000011444092 1.777999997138977 1.626000046730042 1.596      1.023      0.838      1.231115   1.447999954223633 0.1374255  0.1374255  0.3591153  0.9831335  1.179019   1.692      0.01590581 0.4201374  35.8918    0.6717871  0.6066103  0.736964  
1054.4     0.24       535.94     -9999      -9999      9.792762   1.422000050544739 2.032000064849854 1.763000011444092 1.777999997138977 1.626000046730042 1.596      1.023      0.838      1.209652   1.447999954223633 0.1360244  0.1360244  0.3681963  0.9261032  0.9773536  1.692      0.007082776 0.4272804  35.91994   0.7035514  0.654902   0.7522007 
1054.6     0.244      554.99     -9999      -9999      9.897917   1.473000049591064 1.753000020980835 1.687000036239624 1.702000021934509 1.473000049591064 1.441      0.832      0.826      1.192569   1.52400004863739 0.1388646  0.1388646  0.3754241  1.045362   0.8279818  1.634      0.00870011 0.4286734  35.88171   0.7168471  0.7007917  0.7329023 
1054.8     0.244      554.99     -9999      -9999      9.982047   1.473000049591064 1.753000020980835 1.687000036239624 1.702000021934509 1.473000049591064 1.441      0.832      0.826      1.181626   1.52400004863739 0.136827   0.136827   0.3800538  0.9583551  0.72509    1.634      0          0.4302048  35.80708   0.737051   0.739811   0.7342911 
1055       0.249      558.8      -9999      -9999      10.02868   1.498999953269958 1.726999998092651 1.712000012397766 1.600000023841858 1.498999953269958 1.452      0.794      0.826      1.175044   1.52400004863739 0.1367859  0.1367859  0.3828387  0.9566774  0.6736671  1.623      0          0.4309143  35.72445   0.7456145  0.7623698  0.7288591 
