~Version
 VERS              .         2.0                           : CWLS LOG ASCII STANDARD - VERSION 2.0
 WRAP              .         NO                            : ONE LINE PER DEPTH STEP
 DLM               .         SPACE                         : DELIMITING CHARACTER(SPACE TAB OR COMMA)
~Well Information
#_______________________________________________________________________________
#
#PARAMETER_NAME    .UNIT     VALUE                         : DESCRIPTION
#_______________________________________________________________________________
STRT               .M        908                           : First reference value
STOP               .M        1225.8                        : Last reference value
STEP               .M        0.2                           : Step increment
NULL               .         -9999                         : Missing value
COMP               .                                       : Company
WELL               .         3896                          : Well name
FLD                .         Узень                         : Field
LOC                .                                       : Location
CNTY               .                                       : County
STAT               .                                       : State
CTRY               .                                       : Country
SRVC               .                                       : Service Company
DATE               .                                       : Date
UWI                .                                       : Unique Well ID
123                .         1                             : 
4_кв_для_Заказчика .         1                             : 
API                .                                       : 
Block              .         6а                            : 
Category           .         Нефтяная                      : 
Condition          .         В работе                      : 
Date               .         25.05.1989                    : 
EREF               .m        86.7                          : 100.8
Gor                .         15                            : 
Gorizont           .         15                            : 14
Interpretator      .         Кайсанов Е.К                  : 
Kupol              .         Основной                      : osnovnoi
Mud                .                                       : 
Mud_density        .                                       : 
Mud_resistivity    .                                       : 
NGDU               .         НГДУ-2                        : 
ORIGINALWELLNAME   .         3896                          : 
Otmetka            .                                       : 
Spud_date          .         1989                          : 1961
Viscosity          .                                       : 
X                  .m        44634.6                       : 46154
Y                  .m        85593.73                      : 85761.93
YEAR               .         2018                          : 
~Parameter Information Block
#_______________________________________________________________________________
#
#PARAMETER_NAME    .UNIT     VALUE                         : DESCRIPTION
#_______________________________________________________________________________
SET                .         LQC_KAZNIPI_Petrel            : 
TLFamily_CALI      .         Caliper                       : 
TLFamily_CILD      .         Conductivity                  : 
TLFamily_COLL      .         Net Reservoir Flag            : 
TLFamily_CSAT      .         Fluid Code                    : 
TLFamily_DEPT      .         Measured Depth                : 
TLFamily_GR        .         Russian Gamma Ray             : 
TLFamily_GZ1       .         Gradient 045                  : 
TLFamily_GZ2       .         Gradient 105                  : 
TLFamily_GZ3       .         Gradient 225                  : 
TLFamily_GZ4       .         Gradient 425                  : 
TLFamily_GZ5       .         Gradient 850                  : 
TLFamily_LLS       .         Lateral Log Resistivity       : 
TLFamily_MINV      .         Micro Gradient Resistivity    : 
TLFamily_MNOR      .         Micro Resistivity             : 
TLFamily_NGLD      .         Neutron Far                   : 
TLFamily_OGZ3      .         Gradient Inverted 225         : 
TLFamily_PHIE      .         Effective Porosity            : 
TLFamily_PHIEN     .         Effective Porosity            : 
TLFamily_PHIT      .         Porosity                      : 
TLFamily_PRMB      .         Permeability                  : 
TLFamily_PRMB_DGR  .         Permeability                  : 
TLFamily_RT        .         Formation Resistivity         : 
TLFamily_SOIL_ARCHIE .         Oil Saturation                : 
TLFamily_SOIL_DW   .         Oil Saturation                : 
TLFamily_SP        .         Spontaneous Potential         : 
TLFamily_VSH_FIN   .         Shale Volume                  : 
TLFamily_VSH_GR    .         Shale Volume                  : 
TLFamily_VSH_SP    .         Shale Volume                  : 
~Curve Information
#_______________________________________________________________________________
#
#LOGNAME           .UNIT     LOG_ID                        : DESCRIPTION
#_______________________________________________________________________________
DEPT               .M                                      : Колонка глубины 
CALI               .м                                      : Каверномер 
CILD               .мСм/м                                  : Индукционный каротаж 
COLL               .unitless                               :  
CSAT               .unitless                               :  
GR                 .uR/h                                   : Гамма каротаж 
GZ1                .OHMM                                   :  
GZ2                .OHMM                                   :  
GZ3                .OHMM                                   :  
GZ4                .OHMM                                   :  
GZ5                .OHMM                                   :  
LLS                .Ohmm                                   : Боковой каротаж 
MINV               .Ohmm                                   : Микро-градиент зонд 
MNOR               .Ohmm                                   : Микро-потенциал зонд 
NGLD               .у.е.                                   : Показания зонда НГК-60 аппаратуры ДРСТ-3-90 
OGZ3               .OHMM                                   :  
PHIE               .v/v                                    : Описание 
PHIEN              .v/v                                    :  
PHIT               .v/v                                    : Описание 
PRMB               .mD                                     :  
PRMB_DGR           .mD                                     :  
RT                 .ohmm                                   : УЭС пласта 
SOIL_ARCHIE        .v/v                                    :  
SOIL_DW            .v/v                                    :  
SP                 .мВ                                     : Потенциал самополяризации 
VSH_FIN            .v/v                                    : Описание 
VSH_GR             .v/v                                    : Shale volume 
VSH_SP             .v/v                                    : Shale Volume 
~Ascii
# ...
949.4      0.21       448.31     1          3          2.51268    3.276999950408936 3.937000036239624 1.763000011444092 2.971999883651733 1.955999970436096 1.862      1.531      1.397      1.577131   2.234999895095825 0.1676697  0.1676697  0.2127159  3.571149   1705.392   2.023      0.2389997  0.3252913  22.30227   0.1365035  0.03107796 0.2419289 
949.6      0.21       426.72     1          3          2.520698   3.276999950408936 3.937000036239624 1.73800003528595 2.971999883651733 1.955999970436096 1.862      1.518      1.448      1.599955   2.032000064849854 0.1584783  0.1584783  0.2030589  2.413019   1689.87    2.126      0.2191113  0.3076632  22.30861   0.1350926  0.03119421 0.2389909 
949.8      0.21       415.29     1          3          2.521125   3.276999950408936 3.937000036239624 1.73800003528595 2.971999883651733 1.955999970436096 2.047      1.581      1.575      1.618487   1.929999947547913 0.1496317  0.1496317  0.1952183  1.65463    1689.046   2.184      0.1893552  0.284091   22.49441   0.1381409  0.03120043 0.2450815 
950        0.21       400.05     1          3          2.527525   3.276999950408936 3.937000036239624 1.73800003528595 2.971999883651733 1.955999970436096 2.218      1.772      1.689      1.630838   1.702000021934509 0.1445078  0.1445078  0.1899924  1.329823   1676.764   2.267      0.1788763  0.2756623  22.90605   0.1378319  0.03129355 0.2443703 
950.2      0.21       381        1          3          2.560405   3.276999950408936 3.937000036239624 2.042999982833862 2.971999883651733 1.955999970436096 2.018      1.619      1.626      1.638162   1.853999972343445 0.1386881  0.1386881  0.1868936  1.037525   1615.058   2.381      0.1683168  0.2740768  23.57739   0.1460772  0.03177635 0.260378  
950.4      0.21       381        1          3          2.627872   3.276999950408936 3.937000036239624 2.042999982833862 2.971999883651733 1.955999970436096 2.018      1.619      1.626      1.644483   1.853999972343445 0.1329801  0.1329801  0.184219   0.8133388  1495.459   2.381      0.1373091  0.2550544  24.5059    0.1552697  0.03279049 0.2777488 
950.6      0.21       344.17     1          3          2.720885   3.276999950408936 3.937000036239624 2.627000093460083 2.971999883651733 1.955999970436096 2.093      1.861      1.715      1.653795   2.158999919891357 0.1242305  0.1242305  0.1802794  0.5600271  1344.96    2.635      0.1271463  0.2624114  25.64877   0.169845   0.0342419  0.3054481 
950.8      0.21       325.12     -9999      -9999      2.830675   3.276999950408936 3.937000036239624 3.236000061035156 2.971999883651733 1.955999970436096 2.268      2.178      1.918      1.667067   2.895999908447266 0.1103835  0.1103835  0.1746641  0.3102621  1186.685   2.79       0.05812445 0.2336156  26.96249   0.1947896  0.03603798 0.3535412 
951        0.211      306.07     -9999      -9999      2.966096   3.276999950408936 3.937000036239624 3.821000099182129 2.971999883651733 1.955999970436096 2.44       1.772      2.108      1.681195   3.657999992370605 0.1041989  0.1041989  0.1686862  0.2383275  1016.875   2.963      0.03718567 0.222853   28.42663   0.1954162  0.03838368 0.3524487 
951.2      0.211      287.02     -9999      -9999      3.149569   3.276999950408936 3.937000036239624 4.40500020980835 2.971999883651733 1.955999970436096 2.644      2.534      2.07       1.690223   5.13100004196167 0.08426785 0.08426785 0.1648667  0.1018598  824.9009   3.16       0          0.1703257  29.98494   0.244239   0.0418071  0.4466708 
951.4      0.211      287.02     -9999      -9999      3.392453   3.276999950408936 3.937000036239624 4.40500020980835 2.971999883651733 1.955999970436096 2.644      2.534      2.07       1.688823   5.13100004196167 0.0733312  0.0733312  0.1654589  0.06388954 625.3338   3.16       0          0.1272775  31.48451   0.2791748  0.04681321 0.5115365 
951.6      0.212      250.19     -9999      -9999      3.673329   3.276999950408936 3.937000036239624 4.658999919891357 2.971999883651733 1.955999970436096 4.411      4.566      4.089      1.675658   6.807000160217284 0.07121674 0.07121674 0.171029   0.0583801  453.9486   3.625      0          0.193292   32.76326   0.3024614  0.05335434 0.5515685 
951.8      0.214      231.14     -9999      -9999      3.942907   3.276999950408936 3.937000036239624 4.074999809265137 2.971999883651733 1.955999970436096 3.839      3.575      2.362      1.654301   8.711999893188477 0.0710741  0.0710741  0.1800651  0.05802602 333.8079   3.924      0          0.2490387  33.77861   0.3302757  0.06049038 0.6000609 
952        0.213      212.09     -9999      -9999      4.15375    3.276999950408936 3.937000036239624 3.414000034332276 2.971999883651733 1.955999970436096 3.061      3.855      2.4        1.631539   9.803999900817873 0.07997026 0.07997026 0.189696   0.08480107 262.4674   4.277      0          0.333437   34.6133    0.3325021  0.0667306  0.5982736 
952.2      0.213      203.2      -9999      -9999      4.292113   3.276999950408936 3.937000036239624 2.805000066757202 2.971999883651733 1.955999970436096 3.39       4.782      3.315      1.614403   9.829999923706055 0.07791707 0.07791707 0.196946   0.07769109 224.1562   4.464      0          0.3568107  35.37371   0.3606938  0.07117147 0.6502162 
952.4      0.213      203.2      -9999      -9999      4.388756   3.276999950408936 3.937000036239624 2.805000066757202 2.971999883651733 1.955999970436096 3.39       4.782      3.315      1.606884   9.829999923706055 0.07461573 0.07461573 0.2001273  0.06748736 200.7649   4.464      0          0.3534013  36.09362   0.380338   0.07444748 0.6862286 
952.6      0.214      199.39     -9999      -9999      4.494027   3.276999950408936 3.937000036239624 2.322000026702881 2.971999883651733 1.955999970436096 4.443      3.88       3.086      1.607943   8.484000205993652 0.06734005 0.06734005 0.1996791  0.04948335 178.0541   4.549      0          0.3350146  36.74161   0.4010276  0.07818776 0.7238674 
952.8      0.214      207.01     -9999      -9999      4.650296   3.276999950408936 3.937000036239624 2.194999933242798 2.971999883651733 1.955999970436096 3.647      4.388      2.426      1.612401   5.309000015258789 0.05915537 0.05915537 0.1977933  0.0349027  148.9905   4.382      0          0.2875572  37.28064   0.4201151  0.08408937 0.7561408 
953        0.214      215.9      -9999      -9999      4.882504   3.276999950408936 3.937000036239624 2.296999931335449 2.971999883651733 1.955999970436096 5.143      4.274      4.445      1.614163   5.385000228881835 0.05718265 0.05718265 0.1970478  0.03208629 114.3291   4.201      0          0.2622957  37.70579   0.4238338  0.0936915  0.7539762 
953.2      0.213      222.25     -9999      -9999      5.19459    3.276999950408936 3.937000036239624 2.677999973297119 2.971999883651733 1.955999970436096 6.94       3.385      3.467      1.607386   5.156000137329102 0.05212931 0.05212931 0.1999149  0.0258654  80.09293   4.081      0          0.2363103  38.02197   0.4478351  0.1083461  0.7873241 
953.4      0.213      222.25     -9999      -9999      5.548726   3.276999950408936 3.937000036239624 2.677999973297119 2.971999883651733 1.955999970436096 6.94       3.385      3.467      1.586837   5.156000137329102 0.05552735 0.05552735 0.2086094  0.02989918 53.48185   4.081      0          0.2729169  38.21705   0.4638851  0.1277703  0.8       
953.6      0.213      233.68     -9999      -9999      5.866213   3.276999950408936 3.937000036239624 3.540999889373779 2.971999883651733 1.955999970436096 3.341      4.375      2.743      1.552213   5.486000061035156 0.06845386 0.06845386 0.2232589  0.05189072 37.23652   3.882      0          0.3349544  38.29232   0.469106   0.1481273  0.7900847 
953.8      0.213      236.22     -9999      -9999      6.075226   3.276999950408936 3.937000036239624 4.429999828338623 2.971999883651733 1.955999970436096 2.865      2.902      2.21       1.51455    5.486000061035156 0.08345011 0.08345011 0.2391937  0.09836861 29.33963   3.84       0          0.4028745  38.29104   0.4719503  0.1632689  0.7806317 
