~Version
 VERS              .         2.0                           : CWLS LOG ASCII STANDARD - VERSION 2.0
 WRAP              .         NO                            : ONE LINE PER DEPTH STEP
 DLM               .         SPACE                         : DELIMITING CHARACTER(SPACE TAB OR COMMA)
~Well Information
#_______________________________________________________________________________
#
#PARAMETER_NAME    .UNIT     VALUE                         : DESCRIPTION
#_______________________________________________________________________________
STRT               .M        908                           : First reference value
STOP               .M        1225.8                        : Last reference value
STEP               .M        0.2                           : Step increment
NULL               .         -9999                         : Missing value
COMP               .                                       : Company
WELL               .         3896                          : Well name
FLD                .         Узень                         : Field
LOC                .                                       : Location
CNTY               .                                       : County
STAT               .                                       : State
CTRY               .                                       : Country
SRVC               .                                       : Service Company
DATE               .                                       : Date
UWI                .                                       : Unique Well ID
123                .         1                             : 
4_кв_для_Заказчика .         1                             : 
API                .                                       : 
Block              .         6а                            : 
Category           .         Нефтяная                      : 
Condition          .         В работе                      : 
Date               .         25.05.1989                    : 
EREF               .m        86.7                          : 100.8
Gor                .         15                            : 
Gorizont           .         15                            : 14
Interpretator      .         Кайсанов Е.К                  : 
Kupol              .         Основной                      : osnovnoi
Mud                .                                       : 
Mud_density        .                                       : 
Mud_resistivity    .                                       : 
NGDU               .         НГДУ-2                        : 
ORIGINALWELLNAME   .         3896                          : 
Otmetka            .                                       : 
Spud_date          .         1989                          : 1961
Viscosity          .                                       : 
X                  .m        44634.6                       : 46154
Y                  .m        85593.73                      : 85761.93
YEAR               .         2018                          : 
~Parameter Information Block
#_______________________________________________________________________________
#
#PARAMETER_NAME    .UNIT     VALUE                         : DESCRIPTION
#_______________________________________________________________________________
SET                .         LQC_KAZNIPI_Petrel            : 
TLFamily_CALI      .         Caliper                       : 
TLFamily_CILD      .         Conductivity                  : 
TLFamily_COLL      .         Net Reservoir Flag            : 
TLFamily_CSAT      .         Fluid Code                    : 
TLFamily_DEPT      .         Measured Depth                : 
TLFamily_GR        .         Russian Gamma Ray             : 
TLFamily_GZ1       .         Gradient 045                  : 
TLFamily_GZ2       .         Gradient 105                  : 
TLFamily_GZ3       .         Gradient 225                  : 
TLFamily_GZ4       .         Gradient 425                  : 
TLFamily_GZ5       .         Gradient 850                  : 
TLFamily_LLS       .         Lateral Log Resistivity       : 
TLFamily_MINV      .         Micro Gradient Resistivity    : 
TLFamily_MNOR      .         Micro Resistivity             : 
TLFamily_NGLD      .         Neutron Far                   : 
TLFamily_OGZ3      .         Gradient Inverted 225         : 
TLFamily_PHIE      .         Effective Porosity            : 
TLFamily_PHIEN     .         Effective Porosity            : 
TLFamily_PHIT      .         Porosity                      : 
TLFamily_PRMB      .         Permeability                  : 
TLFamily_PRMB_DGR  .         Permeability                  : 
TLFamily_RT        .         Formation Resistivity         : 
TLFamily_SOIL_ARCHIE .         Oil Saturation                : 
TLFamily_SOIL_DW   .         Oil Saturation                : 
TLFamily_SP        .         Spontaneous Potential         : 
TLFamily_VSH_FIN   .         Shale Volume                  : 
TLFamily_VSH_GR    .         Shale Volume                  : 
TLFamily_VSH_SP    .         Shale Volume                  : 
~Curve Information
#_______________________________________________________________________________
#
#LOGNAME           .UNIT     LOG_ID                        : DESCRIPTION
#_______________________________________________________________________________
DEPT               .M                                      : Колонка глубины 
CALI               .м                                      : Каверномер 
CILD               .мСм/м                                  : Индукционный каротаж 
COLL               .unitless                               :  
CSAT               .unitless                               :  
GR                 .uR/h                                   : Гамма каротаж 
GZ1                .OHMM                                   :  
GZ2                .OHMM                                   :  
GZ3                .OHMM                                   :  
GZ4                .OHMM                                   :  
GZ5                .OHMM                                   :  
LLS                .Ohmm                                   : Боковой каротаж 
MINV               .Ohmm                                   : Микро-градиент зонд 
MNOR               .Ohmm                                   : Микро-потенциал зонд 
NGLD               .у.е.                                   : Показания зонда НГК-60 аппаратуры ДРСТ-3-90 
OGZ3               .OHMM                                   :  
PHIE               .v/v                                    : Описание 
PHIEN              .v/v                                    :  
PHIT               .v/v                                    : Описание 
PRMB               .mD                                     :  
PRMB_DGR           .mD                                     :  
RT                 .ohmm                                   : УЭС пласта 
SOIL_ARCHIE        .v/v                                    :  
SOIL_DW            .v/v                                    :  
SP                 .мВ                                     : Потенциал самополяризации 
VSH_FIN            .v/v                                    : Описание 
VSH_GR             .v/v                                    : Shale volume 
VSH_SP             .v/v                                    : Shale Volume 
~Ascii
908.0      0.207      270.51     -9999      -9999      -9999      3.276999950408936 3.937000036239624 3.388999938964844 2.971999883651733 1.955999970436096 2.251      1.594      1.41       -9999      3.683000087738037 -9999      -9999      -9999      -9999      -9999      3.353      -9999      -9999      -9999      -9999      0.2517268  0.2140881 
908.2      0.207      270.51     -9999      -9999      -9999      3.276999950408936 3.937000036239624 3.388999938964844 2.971999883651733 1.955999970436096 2.268      1.581      1.41       -9999      3.683000087738037 -9999      -9999      -9999      -9999      -9999      3.353      -9999      -9999      -9999      -4999.267  -9999      0.4662905 
908.4      0.207      270.51     -9999      -9999      -9999      3.276999950408936 3.937000036239624 3.388999938964844 2.971999883651733 1.955999970436096 2.268      1.581      1.41       -9999      3.683000087738037 -9999      -9999      -9999      -9999      -9999      3.353      -9999      -9999      -9999      -4999.267  -9999      0.4662905 
908.6      0.207      270.51     -9999      -9999      -9999      3.276999950408936 3.937000036239624 3.388999938964844 2.971999883651733 1.955999970436096 2.251      1.594      1.384      -9999      3.683000087738037 -9999      -9999      -9999      -9999      -9999      3.353      -9999      -9999      -9999      -4999.267  -9999      0.4662905 
908.8      0.207      270.51     -9999      -9999      -9999      3.276999950408936 3.937000036239624 3.388999938964844 2.971999883651733 1.955999970436096 2.284      1.581      1.46       -9999      3.683000087738037 -9999      -9999      -9999      -9999      -9999      3.353      -9999      -9999      -9999      -4999.267  -9999      0.4662905 
909        0.207      270.51     -9999      -9999      7.875625   3.276999950408936 3.937000036239624 3.388999938964844 2.971999883651733 1.955999970436096 2.353      1.543      1.473      1.405348   3.683000087738037 0.1461606  0.1461606  0.2853974  1.426942   3.765282   3.353      0.3233862  0.5350691  25.40169   0.42193    0.3775694  0.4662905 
909.2      0.207      270.51     -9999      -9999      7.900376   3.276999950408936 3.937000036239624 3.388999938964844 2.971999883651733 1.955999970436096 2.476      1.569      1.499      1.404093   3.683000087738037 0.1459691  0.1459691  0.2859282  1.415339   3.660493   3.353      0.3226135  0.5353637  25.41428   0.4241183  0.3819461  0.4662905 
909.4      0.207      270.51     -9999      -9999      8.015587   3.276999950408936 3.937000036239624 3.388999938964844 2.971999883651733 1.955999970436096 2.476      1.569      1.499      1.404203   3.683000087738037 0.1424493  0.1424493  0.2858817  1.218051   3.209821   3.353      0.3080589  0.5309285  25.46488   0.4346434  0.4029964  0.4662905 
909.6      0.207      270.51     -9999      -9999      8.225372   3.276999950408936 3.937000036239624 3.388999938964844 2.971999883651733 1.955999970436096 2.702      1.518      1.676      1.404731   3.683000087738037 0.1354025  0.1354025  0.2856583  0.901863   2.526873   3.353      0.2767981  0.5215225  25.61422   0.4553206  0.4443507  0.4662905 
909.8      0.207      270.51     -9999      -9999      8.518406   3.276999950408936 3.937000036239624 3.388999938964844 2.971999883651733 1.955999970436096 2.644      1.594      1.549      1.401886   3.683000087738037 0.1258873  0.1258873  0.2868621  0.6010299  1.809077   3.353      0.2294148  0.5095223  25.93605   0.4878024  0.5093143  0.4662905 
910        0.208      267.97     -9999      -9999      8.868517   3.276999950408936 3.937000036239624 3.74399995803833 2.971999883651733 1.955999970436096 3.016      1.823      1.905      1.392662   4.139999866485597 0.1110023  0.1110023  0.2907645  0.3185593  1.213564   3.385      0.1439832  0.493228   26.45652   0.544734   0.5994991  0.4899689 
910.2      0.207      270.51     -9999      -9999      9.226956   3.276999950408936 3.937000036239624 4.099999904632568 2.971999883651733 1.955999970436096 3.755      2.585      2.718      1.378233   4.520999908447266 0.08902711 0.08902711 0.2968694  0.1247832  0.8063873  3.353      0          0.4578434  27.11581   0.6298252  0.708395   0.5512555 
910.4      0.207      270.51     -9999      -9999      9.527215   3.276999950408936 3.937000036239624 4.099999904632568 2.971999883651733 1.955999970436096 3.755      2.585      2.718      1.364105   4.520999908447266 0.07988992 0.07988992 0.3028471  0.08451097 0.5725837  3.353      0          0.4458767  27.81131   0.6756278  0.8        0.5512555 
910.6      0.208      280.67     -9999      -9999      9.704821   3.276999950408936 3.937000036239624 3.845999956130982 2.971999883651733 1.955999970436096 2.865      1.67       1.562      1.357462   4.978000164031982 0.07440792 0.07440792 0.305658   0.06689186 0.4676046  3.232      0          0.426518   28.45597   0.7007577  0.8        0.6015154 
910.8      0.209      281.94     -9999      -9999      9.71981    3.276999950408936 3.937000036239624 3.490000009536743 2.971999883651733 1.955999970436096 2.586      1.619      1.46       1.363261   5.435999870300294 0.06707451 0.06707451 0.3032042  0.04892612 0.4596801  3.217      0          0.403463   28.98528   0.7155446  0.8        0.6310891 
911        0.21       279.4      -9999      -9999      9.560735   3.276999950408936 3.937000036239624 3.108999967575073 2.971999883651733 1.955999970436096 2.53       1.632      1.499      1.382094   5.385000228881835 0.05709892 0.05709892 0.2952362  0.03197191 0.5511099  3.246      0          0.3659146  29.36179   0.7216282  0.8        0.6432564 
911.2      0.211      266.7      -9999      -9999      9.246247   3.276999950408936 3.937000036239624 2.753999948501587 2.971999883651733 1.955999970436096 2.494      1.632      1.473      1.412324   4.953000068664551 0.05735255 0.05735255 0.2824456  0.03231963 0.7888414  3.401      0          0.3613845  29.59683   0.6821001  0.714787   0.6494132 
911.4      0.211      266.7      -9999      -9999      8.814637   3.276999950408936 3.937000036239624 2.753999948501587 2.971999883651733 1.955999970436096 2.494      1.632      1.473      1.454621   4.953000068664551 0.06093005 0.06093005 0.2645497  0.037647   1.290467   3.401      0          0.3430437  29.74097   0.6170293  0.5846453  0.6494132 
911.6      0.213      234.95     -9999      -9999      8.29901    3.276999950408936 3.937000036239624 2.651999950408936 2.971999883651733 1.955999970436096 2.284      1.594      1.321      1.512041   4.723999977111816 0.05620281 0.05620281 0.2402555  0.03077304 2.323345   3.861      0          0.3242704  29.84796   0.5577353  0.4598516  0.6556191 
911.8      0.215      218.44     -9999      -9999      7.714702   3.276999950408936 3.937000036239624 3.007999897003174 2.971999883651733 1.955999970436096 2.301      1.594      1.372      1.583566   5.156000137329102 0.04298282 0.04298282 0.2099933  0.01751073 4.523716   4.152      0          0.2243879  29.94796   0.5060925  0.3503108  0.6618742 
912        0.218      204.47     -9999      -9999      7.104615   3.276999950408936 3.937000036239624 4.048999786376953 2.971999883651733 1.955999970436096 2.405      3.512      2.324      1.658665   6.071000099182129 0.02550242 0.02550242 0.1782188  0.008308542 9.070771   4.436      0          0.02749898 30.05309   0.4627768  0.2636793  0.6618742 
912.2      0.219      186.69     -9999      -9999      6.576407   3.276999950408936 3.937000036239624 5.039999961853027 2.971999883651733 1.955999970436096 4.643      4.947      4.953      1.718096   6.908999919891357 0.01       0.007754894 0.1530734  0.004289259 16.56693   4.858      0          0          30.16268   0.440359   0.2061849  0.6745331 
912.4      0.219      186.69     -9999      -9999      6.260542   3.276999950408936 3.937000036239624 5.039999961853027 2.971999883651733 1.955999970436096 4.643      4.947      4.953      1.741072   6.908999919891357 0.01       0.002687165 0.1433524  0.004289259 23.75065   4.858      0          0          30.26433   0.4262583  0.1779836  0.6745331 
