~Version
 VERS              .         2.0                           : CWLS LOG ASCII STANDARD - VERSION 2.0
 WRAP              .         NO                            : ONE LINE PER DEPTH STEP
 DLM               .         SPACE                         : DELIMITING CHARACTER(SPACE TAB OR COMMA)
~Well Information
#_______________________________________________________________________________
#
#PARAMETER_NAME    .UNIT     VALUE                         : DESCRIPTION
#_______________________________________________________________________________
STRT               .M        908                           : First reference value
STOP               .M        1225.8                        : Last reference value
STEP               .M        0.2                           : Step increment
NULL               .         -9999                         : Missing value
COMP               .                                       : Company
WELL               .         3896                          : Well name
FLD                .         Узень                         : Field
LOC                .                                       : Location
CNTY               .                                       : County
STAT               .                                       : State
CTRY               .                                       : Country
SRVC               .                                       : Service Company
DATE               .                                       : Date
UWI                .                                       : Unique Well ID
123                .         1                             : 
4_кв_для_Заказчика .         1                             : 
API                .                                       : 
Block              .         6а                            : 
Category           .         Нефтяная                      : 
Condition          .         В работе                      : 
Date               .         25.05.1989                    : 
EREF               .m        86.7                          : 100.8
Gor                .         15                            : 
Gorizont           .         15                            : 14
Interpretator      .         Кайсанов Е.К                  : 
Kupol              .         Основной                      : osnovnoi
Mud                .                                       : 
Mud_density        .                                       : 
Mud_resistivity    .                                       : 
NGDU               .         НГДУ-2                        : 
ORIGINALWELLNAME   .         3896                          : 
Otmetka            .                                       : 
Spud_date          .         1989                          : 1961
Viscosity          .                                       : 
X                  .m        44634.6                       : 46154
Y                  .m        85593.73                      : 85761.93
YEAR               .         2018                          : 
~Parameter Information Block
#_______________________________________________________________________________
#
#PARAMETER_NAME    .UNIT     VALUE                         : DESCRIPTION
#_______________________________________________________________________________
SET                .         LQC_KAZNIPI_Petrel            : 
TLFamily_CALI      .         Caliper                       : 
TLFamily_CILD      .         Conductivity                  : 
TLFamily_COLL      .         Net Reservoir Flag            : 
TLFamily_CSAT      .         Fluid Code                    : 
TLFamily_DEPT      .         Measured Depth                : 
TLFamily_GR        .         Russian Gamma Ray             : 
TLFamily_GZ1       .         Gradient 045                  : 
TLFamily_GZ2       .         Gradient 105                  : 
TLFamily_GZ3       .         Gradient 225                  : 
TLFamily_GZ4       .         Gradient 425                  : 
TLFamily_GZ5       .         Gradient 850                  : 
TLFamily_LLS       .         Lateral Log Resistivity       : 
TLFamily_MINV      .         Micro Gradient Resistivity    : 
TLFamily_MNOR      .         Micro Resistivity             : 
TLFamily_NGLD      .         Neutron Far                   : 
TLFamily_OGZ3      .         Gradient Inverted 225         : 
TLFamily_PHIE      .         Effective Porosity            : 
TLFamily_PHIEN     .         Effective Porosity            : 
TLFamily_PHIT      .         Porosity                      : 
TLFamily_PRMB      .         Permeability                  : 
TLFamily_PRMB_DGR  .         Permeability                  : 
TLFamily_RT        .         Formation Resistivity         : 
TLFamily_SOIL_ARCHIE .         Oil Saturation                : 
TLFamily_SOIL_DW   .         Oil Saturation                : 
TLFamily_SP        .         Spontaneous Potential         : 
TLFamily_VSH_FIN   .         Shale Volume                  : 
TLFamily_VSH_GR    .         Shale Volume                  : 
TLFamily_VSH_SP    .         Shale Volume                  : 
~Curve Information
#_______________________________________________________________________________
#
#LOGNAME           .UNIT     LOG_ID                        : DESCRIPTION
#_______________________________________________________________________________
DEPT               .M                                      : Колонка глубины 
CALI               .м                                      : Каверномер 
CILD               .мСм/м                                  : Индукционный каротаж 
COLL               .unitless                               :  
CSAT               .unitless                               :  
GR                 .uR/h                                   : Гамма каротаж 
GZ1                .OHMM                                   :  
GZ2                .OHMM                                   :  
GZ3                .OHMM                                   :  
GZ4                .OHMM                                   :  
GZ5                .OHMM                                   :  
LLS                .Ohmm                                   : Боковой каротаж 
MINV               .Ohmm                                   : Микро-градиент зонд 
MNOR               .Ohmm                                   : Микро-потенциал зонд 
NGLD               .у.е.                                   : Показания зонда НГК-60 аппаратуры ДРСТ-3-90 
OGZ3               .OHMM                                   :  
PHIE               .v/v                                    : Описание 
PHIEN              .v/v                                    :  
PHIT               .v/v                                    : Описание 
PRMB               .mD                                     :  
PRMB_DGR           .mD                                     :  
RT                 .ohmm                                   : УЭС пласта 
SOIL_ARCHIE        .v/v                                    :  
SOIL_DW            .v/v                                    :  
SP                 .мВ                                     : Потенциал самополяризации 
VSH_FIN            .v/v                                    : Описание 
VSH_GR             .v/v                                    : Shale volume 
VSH_SP             .v/v                                    : Shale Volume 
~Ascii
# ...
1115       0.236      367.03     -9999      -9999      8.861634   2.158999919891357 3.174999952316284 2.398000001907349 1.651000022888184 1.853999972343445 2.154      2.801      1.499      1.386492   3.32699990272522 0.1154236  0.1154236  0.2933752  0.3846654  4.244937   2.471      0.04092982 0.4184832  40.14825   0.5392472  0.3595285  0.7189659 
1115.2     0.232      356.87     -9999      -9999      8.821695   2.006999969482422 2.819000005722046 2.424000024795532 1.575000047683716 1.702000021934509 1.959      2.585      1.384      1.392725   3.32699990272522 0.1132463  0.1132463  0.2907383  0.350554   4.520947   2.542      0.0377669  0.4193653  40.21202   0.5378543  0.3503984  0.7253102 
1115.4     0.232      356.87     -9999      -9999      8.710471   2.006999969482422 2.819000005722046 2.424000024795532 1.575000047683716 1.702000021934509 1.959      2.585      1.384      1.403692   3.32699990272522 0.1137818  0.1137818  0.2860981  0.3586512  5.387876   2.542      0.04171174 0.4143722  40.40673   0.5221708  0.326176   0.7181656 
1115.6     0.227      323.85     -9999      -9999      8.504955   1.879999995231628 2.437999963760376 2.805000066757202 1.447999954223633 1.675999999046326 2.003      2.648      1.46       1.424558   3.226000070571899 0.1083306  0.1083306  0.2772696  0.2842518  7.450669   2.801      0.04436376 0.420631   40.68225   0.5119365  0.2857378  0.7381353 
1115.8     0.227      323.85     -9999      -9999      8.212995   1.879999995231628 2.437999963760376 2.805000066757202 1.447999954223633 1.675999999046326 2.003      2.648      1.46       1.459289   3.226000070571899 0.09718578 0.09718578 0.2625747  0.1767154  11.80831   2.801      0          0.3762315  40.95917   0.5011787  0.2367578  0.7655996 
1116       0.222      304.8      -9999      -9999      7.874487   1.853999972343445 2.336999893188477 3.286999940872193 1.498999953269958 1.828999996185303 2.457      2.877      1.753      1.505479   3.124000072479248 0.08652674 0.08652674 0.2430317  0.1121613  20.14022   2.976      0          0.3371514  41.16153   0.4742574  0.19038    0.7581349 
1116.2     0.222      262.89     6          6          7.545973   2.108000040054321 2.996999979019165 3.897000074386597 1.929999947547913 2.311000108718872 3.542      2.851      2.4        1.554944   3.453999996185303 0.08187757 0.08187757 0.222103   0.09198759 58.7168    3.45       0          0.3345938  41.23765   0.4249256  0.1229899  0.7268614 
1116.4     0.222      262.89     6          6          7.293648   2.108000040054321 2.996999979019165 3.897000074386597 1.929999947547913 2.311000108718872 3.542      2.851      2.4        1.598437   3.453999996185303 0.06742186 0.06742186 0.2037014  0.04965631 84.05235   3.45       0          0.2466384  41.15397   0.4129682  0.1062322  0.7197043 
1116.6     0.222      251.46     6          6          7.17489    3.428999900817871 4.36899995803833 3.64299988746643 2.895999908447266 2.819000005722046 5.952      4.794      3.581      1.62869    5.231999874114991 0.05585536 0.05585536 0.1909011  0.03032039 99.51132   3.607      0          0.1804533  40.89776   0.4092294  0.09915536 0.7193034 
1116.8     0.222      251.46     6          6          7.220108   3.428999900817871 4.36899995803833 3.64299988746643 2.895999908447266 2.819000005722046 5.952      4.794      3.581      1.640648   5.231999874114991 0.06313672 0.06313672 0.1858418  0.04136216 93.31561   3.607      0          0.1996511  40.5106    0.3718335  0.1017926  0.6418744 
1117       0.223      269.24     6          6          7.434682   3.70799994468689 5.004000186920166 3.312999963760376 3.150000095367432 2.971999883651733 4.643      2.813      2.858      1.632368   6.527999877929688 0.06547774 0.06547774 0.1893451  0.04570511 68.78197   3.369      0          0.1921788  40.07504   0.3753557  0.1152954  0.6354159 
1117.2     0.221      307.34     6          6          7.801449   5.105000019073486 7.671000003814698 2.525000095367432 3.631999969482422 2.996999979019165 5.739      4.82       4.521      1.605967   5.537000179290771 0.07805689 0.07805689 0.2005153  0.07815578 40.83472   2.951      0          0.2184552  39.63713   0.3710862  0.1426517  0.5995207 
1117.4     0.221      307.34     -9999      -9999      8.263947   5.105000019073486 7.671000003814698 2.525000095367432 3.631999969482422 2.996999979019165 5.739      4.82       4.521      1.567922   5.537000179290771 0.08791088 0.08791088 0.2166124  0.1189819  21.15821   2.951      0          0.2873854  39.18008   0.3900046  0.1865851  0.5934242 
1117.6     0.221      316.23     -9999      -9999      8.730993   3.098999977111816 5.282999992370606 2.627000093460083 3.072999954223633 2.361999988555908 1.917      2.547      1.486      1.528412   4.495999813079834 0.1006257  0.1006257  0.233329   0.20464    10.89233   2.868      0          0.3437599  38.68768   0.4021311  0.2446939  0.5595684 
1117.8     0.221      316.23     -9999      -9999      9.108445   3.098999977111816 5.282999992370606 2.627000093460083 3.072999954223633 2.361999988555908 1.917      2.547      1.486      1.499364   4.495999813079834 0.1116876  0.1116876  0.245619   0.3280077  6.369114   2.868      0.07969555 0.388798   38.19498   0.4058526  0.3046365  0.5070686 
1118       0.222      311.15     -9999      -9999      9.329117   2.413000106811523 4.242000102996827 4.379000186920166 2.056999921798706 2.134000062942505 1.945      2.458      1.499      1.48875    3.352999925613404 0.110178   0.110178   0.2501098  0.3075548  4.654086   2.915      0.07579945 0.3975203  37.74669   0.4240358  0.3462702  0.5018013 
1118.2     0.223      271.78     -9999      -9999      9.366062   1.726999998092651 3.174999952316284 7.782999992370606 1.549000024795532 2.234999895095825 1.917      2.483      1.283      1.496685   2.869999885559082 0.1088377  0.1088377  0.2467528  0.2904662  4.415949   3.337      0.1233182  0.4295124  37.29405   0.4179246  0.3537768  0.4820723 
1118.4     0.223      271.78     -9999      -9999      9.233219   1.726999998092651 3.174999952316284 7.782999992370606 1.549000024795532 2.234999895095825 1.917      2.483      1.283      1.518406   2.869999885559082 0.1048098  0.1048098  0.2375623  0.2446185  5.33387    3.337      0.09404641 0.4074966  36.70179   0.4022802  0.3275205  0.47704   
1118.6     0.219      245.11     6          6          8.973385   2.691999912261963 4.342999935150146 7.478000164031982 2.869999885559082 4.165999889373779 5.068      2.445      2.794      1.54931    4.190999984741212 0.1024093  0.1024093  0.2244871  0.2208142  7.717316   3.7        0.1193053  0.4119476  35.89403   0.3699325  0.2816645  0.4582006 
1118.8     0.219      245.11     6          6          8.655812   2.691999912261963 4.342999935150146 7.478000164031982 2.869999885559082 4.165999889373779 5.068      2.445      2.794      1.5825     4.190999984741212 0.1135278  0.1135278  0.2104441  0.3547882  12.121     3.7        0.19492    0.4117825  35.00683   0.2936856  0.2342445  0.3531269 
1119       0.215      254        6          6          8.362383   3.961999893188477 5.563000202178955 6.283999919891357 3.961999893188476 5.156000137329102 12.733     2.051      2.743      1.604652   6.223000049591064 0.1108229  0.1108229  0.2010718  0.3161314  18.39519   3.571      0.1640265  0.3785875  34.33788   0.2734813  0.1975574  0.3494053 
1119.2     0.22       284.48     6          6          8.169336   6.071000099182129 6.75600004196167 2.677999973297119 5.563000202178955 5.334000110626222 9.505      2.064      2.019      1.601895   7.568999767303466 0.118285   0.118285   0.2022384  0.4345938  24.20431   3.188      0.1669601  0.36128    34.16058   0.2544042  0.1766138  0.3321945 
1119.4     0.22       284.48     6          6          8.124963   6.071000099182129 6.75600004196167 2.677999973297119 5.563000202178955 5.334000110626222 9.505      2.064      2.019      1.571966   7.568999767303466 0.1322645  0.1322645  0.2149012  0.7888917  25.78037   3.188      0.2441897  0.4110407  34.58791   0.2504143  0.1721225  0.3287061 
