~Version
 VERS              .         2.0                           : CWLS LOG ASCII STANDARD - VERSION 2.0
 WRAP              .         NO                            : ONE LINE PER DEPTH STEP
 DLM               .         SPACE                         : DELIMITING CHARACTER(SPACE TAB OR COMMA)
~Well Information
#_______________________________________________________________________________
#
#PARAMETER_NAME    .UNIT     VALUE                         : DESCRIPTION
#_______________________________________________________________________________
STRT               .M        900                           : First reference value
STOP               .M        1195.30001831055              : Last reference value
STEP               .M        0.1                           : Step increment
NULL               .         -9999                         : Missing value
COMP               .                                       : Company
WELL               .         7768                          : Well name
FLD                .         УЗЕНЬ                         : Field
LOC                .                                       : Location
CNTY               .                                       : County
STAT               .                                       : State
CTRY               .                                       : Country
SRVC               .                                       : Service Company
DATE               .         7/10/2004                     : Date
UWI                .                                       : Unique Well ID
Block              .         6а                            : 
Cartographic_reference_system .         GCS_WGS_1984                  : ESRI,PE_10_3_1- <?xml version="1.0" encoding="utf-16"?><ILateBoundCoordinateReferenceSystem name="GCS_WGS_1984"><AuthorityCode>EPSG,4326</AuthorityCode></ILateBoundCoordinateReferenceSystem>
Category           .         Нефтяная                      : 
Condition          .         В работе                      : 
Date               .         30.03.2004                    : 
EREF               .m        87                            : 100.8
GRP                .         1111                          : Group name
Gorizont           .         14                            : 14
HZCS               .GCS_WGS_1984 WGS_1984_EASE-Grid_2.0_Global : ESRI,PE_10_3_1- <?xml version="1.0" encoding="utf-16"?><ILateBoundCoordinateReferenceSystem name="WGS_1984_EASE-Grid_2.0_Global"><AuthorityCode>EPSG,6933</AuthorityCode></ILateBoundCoordinateReferenceSystem>
ISS                .         БКЗ                           : Well surveys
Interpretator      .         Кушербаева А.С                : 
Kupol              .         основной                      : osnovnoi
LATI               .dega     0.6705369228                  : GCS_WGS_1984
LONG               .dega     0.4642774069                  : GCS_WGS_1984
Mud                .                                       : 
Mud_density        .                                       : 
Mud_resistivity    .                                       : 
NGDU               .         НГДУ-2                        : 
ORIGINALWELLNAME   .         7768                          : 
Spud_date          .         2004                          : 1961
TIME               .         9                             : LOG TIME
Viscosity          .                                       : 
X                  .m        44796.4                       : 46154
Y                  .m        85540.7                       : 85761.93
YEAR               .         2019г                         : 
~Parameter Information Block
#_______________________________________________________________________________
#
#PARAMETER_NAME    .UNIT     VALUE                         : DESCRIPTION
#_______________________________________________________________________________
SET                .         LQC_KAZNIPI_Petrel            : 
TLFamily_CALI      .         Caliper                       : 
TLFamily_CILD      .         Conductivity                  : 
TLFamily_COLL      .         Net Reservoir Flag            : 
TLFamily_CSAT      .         Fluid Code                    : 
TLFamily_DEPT      .         Measured Depth                : 
TLFamily_GR        .         Russian Gamma Ray             : 
TLFamily_GZ1       .         Gradient 045                  : 
TLFamily_GZ2       .         Gradient 105                  : 
TLFamily_GZ3       .         Gradient 225                  : 
TLFamily_GZ4       .         Gradient 425                  : 
TLFamily_GZ5       .         Gradient 850                  : 
TLFamily_LLS       .         Lateral Log Resistivity       : 
TLFamily_MINV      .         Micro Gradient Resistivity    : 
TLFamily_MNOR      .         Micro Resistivity             : 
TLFamily_NGLD      .         Neutron Gamma                 : 
TLFamily_OGZ       .         Gradient Inverted 225         : 
TLFamily_PHIE      .         Effective Porosity            : 
TLFamily_PHIEN     .         Effective Porosity            : 
TLFamily_PHIT      .         Porosity                      : 
TLFamily_PRMB      .         Permeability                  : 
TLFamily_PRMB_DGR  .         Permeability                  : 
TLFamily_RT        .         Formation Resistivity         : 
TLFamily_SOIL_ARCHIE .         Oil Saturation                : 
TLFamily_SOIL_DW   .         Oil Saturation                : 
TLFamily_SP        .         Spontaneous Potential         : 
TLFamily_VSH_FIN   .         Shale Volume                  : 
TLFamily_VSH_GR    .         Shale Volume                  : 
TLFamily_VSH_SP    .         Shale Volume                  : 
~Curve Information
#_______________________________________________________________________________
#
#LOGNAME           .UNIT     LOG_ID                        : DESCRIPTION
#_______________________________________________________________________________
DEPT               .M                                      :  
CALI               .м                                      : Каверномер 
CILD               .мСм/м                                  : Индукционный каротаж 
COLL               .unitless                               : Описание 
CSAT               .unitless                               : Описание 
GR                 .uR/h                                   : Гамма каротаж 
GZ1                .Ом·м                                   :  
GZ2                .Ом·м                                   :  
GZ3                .Ом·м                                   :  
GZ4                .Ом·м                                   :  
GZ5                .Ом·м                                   :  
LLS                .Ohmm                                   : Боковой каротаж 
MINV               .Ohmm                                   : Микро-градиент зонд 
MNOR               .Ohmm                                   : Микро-потенциал зонд 
NGLD               .у.е.                                   : Показания зонда НГК-60 аппаратуры ДРСТ-3-90 
OGZ                .Ом·м                                   :  
PHIE               .v/v                                    : Описание 
PHIEN              .v/v                                    :  
PHIT               .v/v                                    : Описание 
PRMB               .mD                                     :  
PRMB_DGR           .mD                                     :  
RT                 .ohmm                                   : УЭС пласта 
SOIL_ARCHIE        .v/v                                    :  
SOIL_DW            .v/v                                    :  
SP                 .мВ                                     : Потенциал самополяризации 
VSH_FIN            .v/v                                    : Описание 
VSH_GR             .v/v                                    : Shale volume 
VSH_SP             .v/v                                    : Shale Volume 
~Ascii
# ...
939        0.218      694.3352   1          3          2.368782   2.7846     3.1657     3.0803     2.7353     4.2459     2.542      1.782      2.878      2.258      3.9422     0.204269   0.2042692  0.2680567  17.01044   914.6741   2.671692   0.1597599  0.2936575  577.461    0.0818302  0.04008025 0.1235802 
939.1000022888184 0.218      675.9185   1          3          2.35131    2.839301   3.212002   3.205804   3.108811   4.825513   2.603002   1.818002   2.871001   2.283      4.167306   0.202192   0.2021923  0.2603313  15.56841   922.7578   2.740377   0.1622855  0.2861854  577.41     0.08171479 0.0399365  0.1234931 
939.2000007629395 0.218      657.6919   1          3          2.333567   2.8746     3.290901   3.383102   3.611604   5.427604   2.687001   1.924001   2.902001   2.3        4.429302   0.200772   0.2007725  0.2511109  14.65354   935.0845   2.822104   0.1686714  0.2775019  577.471    0.081659   0.03972068 0.1235973 
939.2999992370606 0.218      642.2878   1          3          2.318439   2.9335     3.424899   3.625998   4.176896   6.095495   2.830999   2.084999   3.022999   2.339      4.682598   0.197468   0.1974684  0.2401098  12.72754   952.0347   2.931225   0.1714522  0.2653202  577.655    0.0816735  0.03943038 0.1239166 
939.4000015258789 0.218      629.9985   1          3          2.304362   3.051202   3.626405   3.966906   4.78621    6.759708   2.984002   2.146999   3.116001   2.420002   4.946105   0.190604   0.190604   0.227138   9.49744    973.9715   3.038504   0.1598168  0.242189   577.899    0.08170869 0.03906529 0.1243521 
939.5      0.218      618.7529   1          3          2.279856   3.2        3.9243     4.372      5.4575     7.3427     3.131      2.109      3.154      2.551      5.1993     0.179504   0.1795036  0.2122199  5.915722   1001.191   3.140486   0.1283517  0.2042654  578.194    0.08176291 0.03862807 0.1248977 
939.6000022888184 0.218      608.7655   1          3          2.248081   3.389107   4.32051    4.806211   6.107613   7.876311   3.392017   2.210004   3.406008   2.734005   5.387503   0.164004   0.1640041  0.1956589  3.054288   1033.775   3.29564    0.0781249  0.1549732  578.509    0.08181539 0.0381262  0.1255046 
939.7000007629395 0.218      600.1661   1          3          2.198434   3.722803   4.786505   5.280103   6.668804   8.345901   4.242007   2.411001   3.793003   2.951002   5.5158     0.145622   0.1456223  0.1780332  1.394539   1071.361   3.711307   0.03299394 0.1178678  578.855    0.08188771 0.03757425 0.1262012 
939.7999992370606 0.218      592.4441   6          6          2.155576   4.203096   5.402694   5.748996   7.161696   8.696298   5.171992   2.523999   4.113997   3.170998   5.594399   0.126986   0.1269859  0.1601064  0.629864   1112.962   4.125028   0          0.06030523 579.201    0.0819625  0.03699429 0.1269307 
939.9000015258789 0.219      585.8771   6          6          2.111413   4.757809   6.187512   6.171306   7.574104   8.794698   6.500017   2.476      4.260003   3.362002   5.593698   0.110812   0.1108119  0.1426936  0.315984   1156.87    4.64963    0          0.0001822942 579.506    0.08200833 0.03641438 0.1276023 
940        0.219      581.3159   6          6          2.065506   5.4135     7.0281     6.575      7.8667     8.6267     7.685999   2.462      4.4        3.511      5.517799   0.098229   0.09822856 0.1265285  0.1847555  1200.727   5.075773   0          0          579.689    0.08194195 0.0358653  0.1280186 
940.1000022888184 0.219      579.45     6          6          2.016895   6.131714   7.885222   6.933706   8.024602   8.28999    8.939008   2.619003   4.598002   3.617002   5.407597   0.089315   0.08931453 0.1121709  0.1263248  1241.846   5.482872   0          0          579.76     0.08177917 0.03537555 0.1281828 
940.2000007629395 0.219      580.2331   6          6          1.975929   6.771204   8.883107   7.212001   8.060799   7.841995   9.277996   2.728      4.673      3.691      5.273899   0.083133   0.08313318 0.09999468 0.09704717 1277.707   5.582543   0          0          579.73     0.08153993 0.03496671 0.1281132 
940.2999992370606 0.219      583.09     6          6          1.954602   7.259196   9.935292   7.402399   7.913701   7.320405   8.853004   2.742      4.664001   3.747999   5.085801   0.078387   0.07838655 0.09023483 0.0792639  1306.51    5.439369   0          0          579.669    0.08131122 0.03464986 0.1279726 
940.4000015258789 0.219      588.2449   6          6          1.952976   7.5487     10.85811   7.477899   7.586593   6.694989   8.074986   2.738      4.616999   3.798001   4.859297   0.07422    0.0742204  0.08306998 0.06635789 1327.57    5.172275   0          0          579.598    0.08111735 0.03442434 0.1278104 
940.5      0.219      595.8179   6          6          1.9502     7.568799   11.6144    7.414899   7.1348     6.0279     7.236      2.773      4.583      3.851      4.626801   0.069765   0.06976484 0.07869555 0.05487508 1341.423   4.865075   0          0          579.587    0.08103199 0.03427874 0.1277853 
940.6000022888184 0.219      608.2684   6          6          1.949627   7.382494   12.16921   7.216493   6.572584   5.399185   6.495975   2.847997   4.489992   3.906001   4.367393   0.065122   0.0651216  0.07735038 0.04501689 1349.56    4.562849   0          0          579.598    0.08100227 0.03419419 0.1278104 
940.7000007629395 0.22       625.629    6          6          1.95051    7.100696   12.4629    6.909897   5.900595   4.798395   5.487992   2.716997   4.161995   3.939      4.093298   0.062337   0.0623372  0.07927962 0.03997519 1353.862   4.135948   0          0          579.598    0.08098007 0.03414978 0.1278104 
940.7999992370606 0.22       645.2739   6          6          1.959244   6.614203   12.3397    6.515903   5.219705   4.212504   4.604007   2.349003   3.613004   3.921      3.847402   0.063887   0.06388661 0.08464185 0.04270712 1355.905   3.730055   0          0          579.536    0.08089932 0.03412876 0.1276699 
940.9000015258789 0.22       664.2805   6          6          1.964061   5.950689   11.63318   6.055493   4.59639    3.691393   3.686992   2.193001   3.218998   3.841998   3.630297   0.070601   0.070601   0.09339576 0.05686694 1356.394   3.289577   0          0          579.455    0.08080594 0.03412373 0.1274882 
941        0.22       682.0479   6          6          1.959652   5.3103     10.5646    5.5868     4.0064     3.2611     3.159      2.254      3.105      3.71       3.4402     0.081791   0.08179139 0.1052126  0.09164859 1354.816   3.005259   0          0          579.384    0.08073515 0.03413996 0.1273303 
941.1000022888184 0.219      700.6024   6          6          1.946139   4.724388   9.471274   5.13549    3.481791   2.877192   2.788994   2.261993   3.012994   3.533995   3.297698   0.09668    0.09667968 0.1194511  0.1729443  1349.529   2.785995   0          0          579.364    0.08074039 0.03419451 0.1272863 
941.2000007629395 0.219      719.7909   6          6          1.934401   4.210197   8.385794   4.723897   3.079698   2.531598   2.536999   1.993997   2.749998   3.325998   3.193599   0.114235   0.1142346  0.1352043  0.3656515  1338.258   2.621589   0          0          579.425    0.08086655 0.03431182 0.1274213 
941.2999992370606 0.219      739.4521   6          6          1.937288   3.929102   7.504406   4.423203   2.790302   2.248102   2.360001   1.701002   2.523002   3.111002   3.111001   0.132341   0.1323407  0.1514204  0.7914699  1318.945   2.494659   0          0          579.557    0.08111671 0.03451609 0.1277173 
941.4000015258789 0.219      762.7633   6          6          1.959818   3.8972     7.044395   4.249098   2.552596   2.036797   2.377003   1.681002   2.618005   2.919998   3.026998   0.148376   0.148376   0.1670595  1.568345   1290.626   2.465359   0          0          579.75     0.08149146 0.03482336 0.1281596 
941.5      0.219      789.498    1          3          2.000915   3.8827     6.7546     4.154601   2.3257     1.8597     2.618      1.783      2.978      2.785      2.9047     0.159646   0.1596459  0.1812413  2.536234   1254.078   2.543438   0          0          579.964    0.08194878 0.03523425 0.1286633 
