~Version
 VERS              .         2.0                           : CWLS LOG ASCII STANDARD - VERSION 2.0
 WRAP              .         NO                            : ONE LINE PER DEPTH STEP
 DLM               .         SPACE                         : DELIMITING CHARACTER(SPACE TAB OR COMMA)
~Well Information
#_______________________________________________________________________________
#
#PARAMETER_NAME    .UNIT     VALUE                         : DESCRIPTION
#_______________________________________________________________________________
STRT               .M        900                           : First reference value
STOP               .M        1195.30001831055              : Last reference value
STEP               .M        0.1                           : Step increment
NULL               .         -9999                         : Missing value
COMP               .                                       : Company
WELL               .         7768                          : Well name
FLD                .         УЗЕНЬ                         : Field
LOC                .                                       : Location
CNTY               .                                       : County
STAT               .                                       : State
CTRY               .                                       : Country
SRVC               .                                       : Service Company
DATE               .         7/10/2004                     : Date
UWI                .                                       : Unique Well ID
Block              .         6а                            : 
Cartographic_reference_system .         GCS_WGS_1984                  : ESRI,PE_10_3_1- <?xml version="1.0" encoding="utf-16"?><ILateBoundCoordinateReferenceSystem name="GCS_WGS_1984"><AuthorityCode>EPSG,4326</AuthorityCode></ILateBoundCoordinateReferenceSystem>
Category           .         Нефтяная                      : 
Condition          .         В работе                      : 
Date               .         30.03.2004                    : 
EREF               .m        87                            : 100.8
GRP                .         1111                          : Group name
Gorizont           .         14                            : 14
HZCS               .GCS_WGS_1984 WGS_1984_EASE-Grid_2.0_Global : ESRI,PE_10_3_1- <?xml version="1.0" encoding="utf-16"?><ILateBoundCoordinateReferenceSystem name="WGS_1984_EASE-Grid_2.0_Global"><AuthorityCode>EPSG,6933</AuthorityCode></ILateBoundCoordinateReferenceSystem>
ISS                .         БКЗ                           : Well surveys
Interpretator      .         Кушербаева А.С                : 
Kupol              .         основной                      : osnovnoi
LATI               .dega     0.6705369228                  : GCS_WGS_1984
LONG               .dega     0.4642774069                  : GCS_WGS_1984
Mud                .                                       : 
Mud_density        .                                       : 
Mud_resistivity    .                                       : 
NGDU               .         НГДУ-2                        : 
ORIGINALWELLNAME   .         7768                          : 
Spud_date          .         2004                          : 1961
TIME               .         9                             : LOG TIME
Viscosity          .                                       : 
X                  .m        44796.4                       : 46154
Y                  .m        85540.7                       : 85761.93
YEAR               .         2019г                         : 
~Parameter Information Block
#_______________________________________________________________________________
#
#PARAMETER_NAME    .UNIT     VALUE                         : DESCRIPTION
#_______________________________________________________________________________
SET                .         LQC_KAZNIPI_Petrel            : 
TLFamily_CALI      .         Caliper                       : 
TLFamily_CILD      .         Conductivity                  : 
TLFamily_COLL      .         Net Reservoir Flag            : 
TLFamily_CSAT      .         Fluid Code                    : 
TLFamily_DEPT      .         Measured Depth                : 
TLFamily_GR        .         Russian Gamma Ray             : 
TLFamily_GZ1       .         Gradient 045                  : 
TLFamily_GZ2       .         Gradient 105                  : 
TLFamily_GZ3       .         Gradient 225                  : 
TLFamily_GZ4       .         Gradient 425                  : 
TLFamily_GZ5       .         Gradient 850                  : 
TLFamily_LLS       .         Lateral Log Resistivity       : 
TLFamily_MINV      .         Micro Gradient Resistivity    : 
TLFamily_MNOR      .         Micro Resistivity             : 
TLFamily_NGLD      .         Neutron Gamma                 : 
TLFamily_OGZ       .         Gradient Inverted 225         : 
TLFamily_PHIE      .         Effective Porosity            : 
TLFamily_PHIEN     .         Effective Porosity            : 
TLFamily_PHIT      .         Porosity                      : 
TLFamily_PRMB      .         Permeability                  : 
TLFamily_PRMB_DGR  .         Permeability                  : 
TLFamily_RT        .         Formation Resistivity         : 
TLFamily_SOIL_ARCHIE .         Oil Saturation                : 
TLFamily_SOIL_DW   .         Oil Saturation                : 
TLFamily_SP        .         Spontaneous Potential         : 
TLFamily_VSH_FIN   .         Shale Volume                  : 
TLFamily_VSH_GR    .         Shale Volume                  : 
TLFamily_VSH_SP    .         Shale Volume                  : 
~Curve Information
#_______________________________________________________________________________
#
#LOGNAME           .UNIT     LOG_ID                        : DESCRIPTION
#_______________________________________________________________________________
DEPT               .M                                      :  
CALI               .м                                      : Каверномер 
CILD               .мСм/м                                  : Индукционный каротаж 
COLL               .unitless                               : Описание 
CSAT               .unitless                               : Описание 
GR                 .uR/h                                   : Гамма каротаж 
GZ1                .Ом·м                                   :  
GZ2                .Ом·м                                   :  
GZ3                .Ом·м                                   :  
GZ4                .Ом·м                                   :  
GZ5                .Ом·м                                   :  
LLS                .Ohmm                                   : Боковой каротаж 
MINV               .Ohmm                                   : Микро-градиент зонд 
MNOR               .Ohmm                                   : Микро-потенциал зонд 
NGLD               .у.е.                                   : Показания зонда НГК-60 аппаратуры ДРСТ-3-90 
OGZ                .Ом·м                                   :  
PHIE               .v/v                                    : Описание 
PHIEN              .v/v                                    :  
PHIT               .v/v                                    : Описание 
PRMB               .mD                                     :  
PRMB_DGR           .mD                                     :  
RT                 .ohmm                                   : УЭС пласта 
SOIL_ARCHIE        .v/v                                    :  
SOIL_DW            .v/v                                    :  
SP                 .мВ                                     : Потенциал самополяризации 
VSH_FIN            .v/v                                    : Описание 
VSH_GR             .v/v                                    : Shale volume 
VSH_SP             .v/v                                    : Shale Volume 
~Ascii
# ...
1089.800003051758 0.229      809.2864   -9999      -9999      6.284547   3.3309     4.733901   4.6117     3.4927     2.907499   2.292003   1.49901    2.074013   2.289996   3.192301   0.051187   0.05118686 0.2781258  0.02484651 18.74273   2.349285   0          0.1978152  582.863    0.5375137  0.1960533  0.5375137 
1089.900009155273 0.229      823.3465   -9999      -9999      6.266397   3.3205     4.7455     4.616901   3.508202   2.868794   2.380024   1.863025   2.558026   2.151986   3.2098     0.063486   0.0634855  0.2868935  0.04198294 19.06397   2.373501   0          0.2660903  582.741    0.5356258  0.1946975  0.5356258 
1090       0.229      840.4021   -9999      -9999      6.264872   3.3254     4.7401     4.6274     3.5222     2.8038     2.653      2.158      2.853      1.996      3.2111     0.077206   0.0772056  0.2962136  0.07537034 19.38585   2.480919   0          0.3388583  582.629    0.5340388  0.1933709  0.5340388 
1090.100006103516 0.229      860.3095   -9999      -9999      6.249743   3.336402   4.716298   4.629398   3.522299   2.721194   2.831993   2.024962   2.637968   1.851993   3.184896   0.089911   0.08991098 0.3051655  0.129577   19.60135   2.533237   0          0.3896442  582.517    0.5324557  0.1925     0.5324557 
1090.199996948242 0.229      880.3776   -9999      -9999      6.221175   3.366999   4.670002   4.609701   3.496701   2.629303   2.718003   1.491014   2.168013   1.744003   3.115002   0.099569   0.0995685  0.312921   0.1956219  19.58479   2.453093   0          0.4105282  582.405    0.5308752  0.1925664  0.5308752 
1090.300003051758 0.23       897.9764   -9999      -9999      6.19367    3.369599   4.586296   4.555097   3.442297   2.520996   2.484997   1.055006   1.942007   1.689      3.012096   0.104742   0.1047415  0.3189122  0.2439124  19.20397   2.322698   0          0.41198    582.293    0.5293005  0.1941167  0.5293005 
1090.400009155273 0.2300001  913.0464   -9999      -9999      6.203192   3.325994   4.463885   4.460585   3.356287   2.395689   2.394013   1.278021   2.182012   1.683003   2.880385   0.10537    0.1053702  0.3229195  0.2505337  18.35489   2.260799   0          0.4100668  582.222    0.5289326  0.1977344  0.5289326 
1090.5     0.231      928.1389   -9999      -9999      6.253554   3.2644     4.3068     4.3017     3.2161     2.277      2.538      1.533      2.321      1.716      2.7159     0.102301   0.1023014  0.3250905  0.2197965  17.00579   2.308636   0          0.4129108  582.192    0.5297728  0.2039955  0.5297728 
1090.600006103516 0.2320001  945.7601   -9999      -9999      6.355251   3.144588   4.077583   4.076584   3.038189   2.167493   2.709991   1.523981   2.162983   1.772003   2.549992   0.096799   0.0967995  0.3258743  0.1738243  15.22853   2.363321   0          0.409839   582.212    0.5320879  0.2134005  0.5320879 
1090.699996948242 0.233      965.7617   -9999      -9999      6.514705   2.957505   3.808508   3.829407   2.862705   2.060403   2.560004   1.248008   1.906007   1.828998   2.418804   0.091112   0.09111232 0.3258983  0.1363871  13.1951    2.273467   0          0.3862324  582.242    0.5347104  0.2262623  0.5347104 
1090.800003051758 0.234      985.3956   -9999      -9999      6.72202    2.783195   3.562994   3.579192   2.686095   1.962698   2.270989   1.021002   1.765002   1.866      2.316698   0.087005   0.08700515 0.325828   0.1144726  11.12643   2.119437   0          0.3547015  582.283    0.5376704  0.2425784  0.5376704 
1090.900009155273 0.234      1001.862   -9999      -9999      6.98945    2.635687   3.365185   3.335581   2.516888   1.887895   1.950994   1.085008   1.838      1.874999   2.234795   0.085163   0.08516333 0.3262389  0.1058238  9.224687   1.947993   0          0.3228823  582.334    0.5409448  0.261874   0.5409448 
1091       0.234      1014.95    -9999      -9999      7.257642   2.4931     3.21       3.1427     2.3908     1.8368     1.882      1.17       1.838      1.862      2.1804     0.084878   0.08487801 0.3275312  0.1045453  7.621168   1.900905   0          0.3156696  582.415    0.5451418  0.2831101  0.5451418 
1091.100006103516 0.2339999  1026.984   -9999      -9999      7.522914   2.369094   3.074593   3.012794   2.305596   1.798699   1.843998   1.071989   1.714992   1.830997   2.148799   0.085383   0.08538263 0.3298923  0.1068214  6.364064   1.870803   0          0.3148522  582.568    0.5515606  0.3047352  0.5515606 
1091.199996948242 0.233      1038.936   -9999      -9999      7.713714   2.270803   2.958803   2.918103   2.243002   1.781001   1.813001   0.9020048  1.586004   1.789001   2.134001   0.085971   0.0859711  0.3333042  0.1095341  5.440597   1.844232   0          0.3162581  582.802    0.5605436  0.3248816  0.5605436 
1091.300003051758 0.232      1050.356   -9999      -9999      7.852002   2.2245     2.884698   2.849799   2.2122     1.7764     1.779      0.830002   1.530003   1.736998   2.138101   0.086837   0.08683652 0.3375811  0.1136554  4.804605   1.816602   0          0.3192204  583.087    0.5712528  0.3417988  0.5712528 
1091.400009155273 0.2319999  1059.688   -9999      -9999      7.920757   2.214098   2.828994   2.813099   2.2048     1.784302   1.774001   0.9000059  1.627015   1.676995   2.162304   0.08832    0.08831952 0.3424162  0.1210762  4.400223   1.806208   0          0.3274809  583.372    0.5821416  0.3542926  0.5821416 
1091.5     0.231      1065.751   -9999      -9999      7.94379    2.1933     2.7677     2.7967     2.2055     1.8085     1.783      0.967      1.797      1.617      2.2052     0.09029    0.09028967 0.3474359  0.1316885  4.172659   1.805853   0          0.3387042  583.606    0.5915519  0.3620586  0.5915519 
1091.600006103516 0.231      1068.872   -9999      -9999      7.911269   2.180199   2.701795   2.786799   2.212901   1.842003   1.784999   0.9559975  1.955007   1.556997   2.264304   0.093105   0.09310462 0.3522568  0.148487   4.071586   1.803899   0          0.3508996  583.758    0.5984044  0.365702   0.5984044 
1091.699996948242 0.231      1070.55    -9999      -9999      7.859778   2.1691     2.618002   2.7789     2.225      1.891198   1.766001   0.9160012  2.078996   1.502002   2.331598   0.096235   0.09623506 0.3565278  0.1696929  4.051608   1.792797   0          0.361002   583.84     0.603017   0.3664372  0.603017  
1091.800003051758 0.231      1070.243   -9999      -9999      7.796011   2.127599   2.522797   2.7743     2.241101   1.960802   1.747      0.9180004  2.116999   1.457999   2.398803   0.099212   0.09921238 0.3599774  0.1926659  4.07367    1.783616   0          0.3697449  583.85     0.6052754  0.3656255  0.6052754 
1091.900009155273 0.231      1067.748   -9999      -9999      7.762603   2.097099   2.440494   2.773001   2.277406   2.035606   1.746001   0.9319984  2.072988   1.438      2.478811   0.100932   0.1009316  0.3624358  0.2073307  4.109109   1.785064   0          0.3763753  583.789    0.6051925  0.3643346  0.6051925 
1092       0.231      1063.489   -9999      -9999      7.759654   2.0867     2.3772     2.7895     2.3465     2.109      1.756      0.915      1.951      1.44       2.5963     0.101344   0.1013444  0.3638478  0.211006   4.145175   1.793598   0          0.3803122  583.677    0.6034291  0.3630369  0.6034291 
1092.100006103516 0.2309999  1058.239   -9999      -9999      7.806521   2.079102   2.345202   2.847206   2.449109   2.189005   1.764      0.9139992  1.782988   1.460001   2.760111   0.100569   0.1005689  0.3642535  0.2041456  4.187216   1.802579   0          0.3807845  583.534    0.6006516  0.3615441  0.6006516 
1092.199996948242 0.23       1052.521   -9999      -9999      7.859107   2.115199   2.377199   2.942497   2.596395   2.268497   1.766      0.9010004  1.603005   1.478999   2.943794   0.099863   0.09986331 0.3637505  0.1980902  4.256953   1.808489   0          0.3798077  583.392    0.5979192  0.3591138  0.5979192 
1092.300003051758 0.229      1046.268   -9999      -9999      7.890918   2.221104   2.483304   3.065305   2.778405   2.342602   1.763      0.8319973  1.458002   1.497      3.123905   0.099024   0.09902417 0.3624417  0.1911273  4.3859     1.81231    0          0.3772543  583.27     0.5958472  0.3547645  0.5958472 
