~Version
 VERS              .         2.0                           : CWLS LOG ASCII STANDARD - VERSION 2.0
 WRAP              .         NO                            : ONE LINE PER DEPTH STEP
 DLM               .         SPACE                         : DELIMITING CHARACTER(SPACE TAB OR COMMA)
~Well Information
#_______________________________________________________________________________
#
#PARAMETER_NAME    .UNIT     VALUE                         : DESCRIPTION
#_______________________________________________________________________________
STRT               .M        900                           : First reference value
STOP               .M        1195.30001831055              : Last reference value
STEP               .M        0.1                           : Step increment
NULL               .         -9999                         : Missing value
COMP               .                                       : Company
WELL               .         7768                          : Well name
FLD                .         УЗЕНЬ                         : Field
LOC                .                                       : Location
CNTY               .                                       : County
STAT               .                                       : State
CTRY               .                                       : Country
SRVC               .                                       : Service Company
DATE               .         7/10/2004                     : Date
UWI                .                                       : Unique Well ID
Block              .         6а                            : 
Cartographic_reference_system .         GCS_WGS_1984                  : ESRI,PE_10_3_1- <?xml version="1.0" encoding="utf-16"?><ILateBoundCoordinateReferenceSystem name="GCS_WGS_1984"><AuthorityCode>EPSG,4326</AuthorityCode></ILateBoundCoordinateReferenceSystem>
Category           .         Нефтяная                      : 
Condition          .         В работе                      : 
Date               .         30.03.2004                    : 
EREF               .m        87                            : 100.8
GRP                .         1111                          : Group name
Gorizont           .         14                            : 14
HZCS               .GCS_WGS_1984 WGS_1984_EASE-Grid_2.0_Global : ESRI,PE_10_3_1- <?xml version="1.0" encoding="utf-16"?><ILateBoundCoordinateReferenceSystem name="WGS_1984_EASE-Grid_2.0_Global"><AuthorityCode>EPSG,6933</AuthorityCode></ILateBoundCoordinateReferenceSystem>
ISS                .         БКЗ                           : Well surveys
Interpretator      .         Кушербаева А.С                : 
Kupol              .         основной                      : osnovnoi
LATI               .dega     0.6705369228                  : GCS_WGS_1984
LONG               .dega     0.4642774069                  : GCS_WGS_1984
Mud                .                                       : 
Mud_density        .                                       : 
Mud_resistivity    .                                       : 
NGDU               .         НГДУ-2                        : 
ORIGINALWELLNAME   .         7768                          : 
Spud_date          .         2004                          : 1961
TIME               .         9                             : LOG TIME
Viscosity          .                                       : 
X                  .m        44796.4                       : 46154
Y                  .m        85540.7                       : 85761.93
YEAR               .         2019г                         : 
~Parameter Information Block
#_______________________________________________________________________________
#
#PARAMETER_NAME    .UNIT     VALUE                         : DESCRIPTION
#_______________________________________________________________________________
SET                .         LQC_KAZNIPI_Petrel            : 
TLFamily_CALI      .         Caliper                       : 
TLFamily_CILD      .         Conductivity                  : 
TLFamily_COLL      .         Net Reservoir Flag            : 
TLFamily_CSAT      .         Fluid Code                    : 
TLFamily_DEPT      .         Measured Depth                : 
TLFamily_GR        .         Russian Gamma Ray             : 
TLFamily_GZ1       .         Gradient 045                  : 
TLFamily_GZ2       .         Gradient 105                  : 
TLFamily_GZ3       .         Gradient 225                  : 
TLFamily_GZ4       .         Gradient 425                  : 
TLFamily_GZ5       .         Gradient 850                  : 
TLFamily_LLS       .         Lateral Log Resistivity       : 
TLFamily_MINV      .         Micro Gradient Resistivity    : 
TLFamily_MNOR      .         Micro Resistivity             : 
TLFamily_NGLD      .         Neutron Gamma                 : 
TLFamily_OGZ       .         Gradient Inverted 225         : 
TLFamily_PHIE      .         Effective Porosity            : 
TLFamily_PHIEN     .         Effective Porosity            : 
TLFamily_PHIT      .         Porosity                      : 
TLFamily_PRMB      .         Permeability                  : 
TLFamily_PRMB_DGR  .         Permeability                  : 
TLFamily_RT        .         Formation Resistivity         : 
TLFamily_SOIL_ARCHIE .         Oil Saturation                : 
TLFamily_SOIL_DW   .         Oil Saturation                : 
TLFamily_SP        .         Spontaneous Potential         : 
TLFamily_VSH_FIN   .         Shale Volume                  : 
TLFamily_VSH_GR    .         Shale Volume                  : 
TLFamily_VSH_SP    .         Shale Volume                  : 
~Curve Information
#_______________________________________________________________________________
#
#LOGNAME           .UNIT     LOG_ID                        : DESCRIPTION
#_______________________________________________________________________________
DEPT               .M                                      :  
CALI               .м                                      : Каверномер 
CILD               .мСм/м                                  : Индукционный каротаж 
COLL               .unitless                               : Описание 
CSAT               .unitless                               : Описание 
GR                 .uR/h                                   : Гамма каротаж 
GZ1                .Ом·м                                   :  
GZ2                .Ом·м                                   :  
GZ3                .Ом·м                                   :  
GZ4                .Ом·м                                   :  
GZ5                .Ом·м                                   :  
LLS                .Ohmm                                   : Боковой каротаж 
MINV               .Ohmm                                   : Микро-градиент зонд 
MNOR               .Ohmm                                   : Микро-потенциал зонд 
NGLD               .у.е.                                   : Показания зонда НГК-60 аппаратуры ДРСТ-3-90 
OGZ                .Ом·м                                   :  
PHIE               .v/v                                    : Описание 
PHIEN              .v/v                                    :  
PHIT               .v/v                                    : Описание 
PRMB               .mD                                     :  
PRMB_DGR           .mD                                     :  
RT                 .ohmm                                   : УЭС пласта 
SOIL_ARCHIE        .v/v                                    :  
SOIL_DW            .v/v                                    :  
SP                 .мВ                                     : Потенциал самополяризации 
VSH_FIN            .v/v                                    : Описание 
VSH_GR             .v/v                                    : Shale volume 
VSH_SP             .v/v                                    : Shale Volume 
~Ascii
# ...
1128.800003051758 0.217      662.02     1          2          6.8144     4.206803   5.113608   4.828402   4.4832     4.842297   3.990005   1.713      3.041004   1.886998   5.040696   0.208737   0.2087374  0.3112465  20.58134   17.85986   3.427328   0.629007   0.621214   564.979    0.1634018  0.1999542  0.1268493 
1128.900009155273 0.217      658.0476   1          2          6.830196   4.326503   5.362515   4.869097   4.490498   4.733988   4.180007   1.724014   3.171015   1.833997   4.911687   0.213312   0.2133122  0.3155813  25.01577   17.96833   3.518097   0.644065   0.6324487  564.959    0.1631264  0.1994604  0.1267923 
1129       0.217      654.8939   1          2          6.831981   4.359      5.5251     4.8435     4.4616     4.6035     4.264999   1.885      3.338      1.796      4.7794     0.216702   0.2167019  0.3189844  28.90712   18.24066   3.562673   0.653321   0.6393966  565.04     0.1625956  0.1982391  0.1269521 
1129.100006103516 0.216      652.9392   1          2          6.802049   4.304993   5.625803   4.766694   4.399895   4.477592   4.143983   2.006999   3.400993   1.754999   4.662494   0.220421   0.220421   0.3210869  33.87582   18.67171   3.517071   0.657399   0.6409829  565.213    0.1618366  0.1963574  0.1273157 
1129.199996948242 0.216      652.334    1          2          6.730961   4.196203   5.674899   4.668103   4.319902   4.350803   3.877008   1.999      3.297003   1.731001   4.563004   0.222764   0.2227641  0.3216293  37.43586   19.22741   3.403031   0.654494   0.636959   565.417    0.1608887  0.19402    0.1277573 
1129.300003051758 0.216      652.8001   1          2          6.670786   4.088999   5.686401   4.565597   4.240697   4.210396   3.514994   1.923999   3.133997   1.728001   4.474897   0.223375   0.2233752  0.3205177  38.4242    19.84757   3.239175   0.644724   0.6275498  565.569    0.1598057  0.1915213  0.1280902 
1129.400009155273 0.215      654.1623   1          2          6.632359   4.028797   5.727205   4.472994   4.164794   4.081191   3.334994   1.899      3.030996   1.761006   4.396293   0.220932   0.2209322  0.3178703  34.62222   20.45361   3.151975   0.633965   0.6188651  565.671    0.1587478  0.1891834  0.1283122 
1129.5     0.215      656.3389   1          2          6.625868   3.9921     5.783      4.4035     4.093699   3.9776     3.266      1.902      2.992      1.821      4.3198     0.216144   0.2161438  0.3140497  28.22729   20.9633    3.113961   0.621773   0.6103128  565.742    0.1578775  0.1872915  0.1284636 
1129.600006103516 0.215      658.8779   1          2          6.616629   3.958099   5.769495   4.355597   4.025896   3.882494   3.251998   1.876      3.015004   1.909006   4.237894   0.208889   0.208889   0.3096517  20.71519   21.30599   3.101517   0.60577    0.6007224  565.783    0.1573002  0.1860556  0.1285449 
1129.699996948242 0.215      661.234    1          2          6.601464   3.940901   5.695302   4.316101   3.952602   3.795803   3.218001   1.867      3.075998   2.010997   4.144303   0.20033    0.2003301  0.3054547  14.3799    21.43357   3.079521   0.584902   0.5890969  565.803    0.1570895  0.1856025  0.1285765 
1129.800003051758 0.215      663.3461   1          2          6.598176   3.921398   5.605495   4.269498   3.871397   3.730899   3.237001   1.899999   3.092998   2.105002   4.050298   0.192298   0.1922978  0.3023055  10.20901   21.32762   3.083879   0.565856   0.5799367  565.854    0.1573304  0.1859785  0.1286823 
1129.900009155273 0.215      665.3231   1          2          6.613028   3.852888   5.423275   4.214995   3.779391   3.684297   3.285001   1.88499    3.018987   2.160001   3.972996   0.187426   0.1874265  0.300986   8.293585   21.00292   3.101897   0.554878   0.5756929  565.925    0.157992   0.1871472  0.1288368 
1130       0.215      666.934    1          2          6.646213   3.7247     5.1607     4.1599     3.6834     3.6496     3.289      1.777      2.879      2.173      3.9254     0.186006   0.1860058  0.3020633  7.806212   20.50615   3.100074   0.550965   0.5751759  565.976    0.1589648  0.1889853  0.1289442 
1130.100006103516 0.214      668.0832   1          2          6.682428   3.591194   4.93609    4.106698   3.605497   3.639701   3.134989   1.666996   2.756995   2.140995   3.9092     0.188341   0.188341   0.3057746  8.623636   19.90811   3.024031   0.550516   0.5751334  565.966    0.1600935  0.1912832  0.1289038 
1130.199996948242 0.214      668.939    1          2          6.722367   3.485903   4.783505   4.073201   3.558501   3.658099   2.964005   1.595002   2.680002   2.057003   3.9173     0.195069   0.1950686  0.3119572  11.48971   19.29606   2.938392   0.560165   0.580085   565.905    0.1612395  0.1937378  0.1287411 
1130.300003051758 0.214      669.9401   1          2          6.767913   3.404899   4.672698   4.074502   3.5417     3.700801   2.750997   1.590002   2.679003   1.924995   3.941501   0.205914   0.2059141  0.3200661  18.24673   18.76146   2.828895   0.576332   0.5876455  565.793    0.1622161  0.1959733  0.1284588 
1130.400009155273 0.213      671.051    1          2          6.817841   3.358599   4.6292     4.116607   3.555803   3.755204   2.649      1.667015   2.778018   1.766986   3.969002   0.219074   0.2190738  0.3292497  31.98453   18.39001   2.773571   0.600092   0.6006711  565.651    0.1628457  0.1975801  0.1281114 
1130.5     0.213      672.056    1          2          6.837817   3.3489     4.6292     4.1953     3.5948     3.8064     2.648      1.841      2.976      1.62       3.9892     0.231465   0.2314654  0.3384967  54.25645   18.24734   2.771137   0.624214   0.6157255  565.498    0.1629776  0.1982094  0.1277457 
1130.600006103516 0.213      672.733    1          2          6.835775   3.366201   4.612198   4.303007   3.647103   3.850302   2.845011   2.005999   3.162002   1.493995   4.004601   0.24226    0.2422603  0.3468093  85.98069   18.37202   2.870888   0.651353   0.6347218  565.386    0.1625691  0.197659   0.1274791 
1130.699996948242 0.213      673.0111   1          2          6.80373    3.3849     4.581501   4.419296   3.706898   3.887099   3.020994   1.99       3.199999   1.408003   4.018799   0.249836   0.2498362  0.3533651  118.7755   18.76912   2.957837   0.670099   0.6485579  565.345    0.1616569  0.1959407  0.1273731 
1130.800003051758 0.212      672.8829   1          2          6.761275   3.396701   4.5571     4.539504   3.777502   3.9113     3.065997   1.866998   3.148998   1.371001   4.0235     0.253386   0.2533857  0.3576535  138.1915   19.40835   2.979787   0.677133   0.6543449  565.406    0.1603867  0.1932793  0.1274941 
1130.900009155273 0.213      672.3268   1          2          6.691428   3.432007   4.549603   4.66491    3.853306   3.931002   2.981995   1.799004   3.088      1.389005   4.017398   0.252346   0.2523462  0.3595381  132.196    20.22235   2.939698   0.67271    0.6524811  565.539    0.1589213  0.1900639  0.1277787 
1131       0.213      671.5061   1          2          6.607699   3.5096     4.5747     4.7804     3.9151     3.9487     2.931      1.842      3.085      1.438      3.9959     0.248689   0.2486893  0.3592577  113.1049   21.11263   2.916464   0.665296   0.6488375  565.701    0.1574422  0.1867495  0.128135  
1131.100006103516 0.2130001  670.672    1          2          6.550447   3.595405   4.640704   4.875604   3.956002   3.954      3.03801    1.902999   3.120001   1.505005   3.946896   0.24346    0.2434604  0.3573594  90.4957    21.96899   2.971272   0.660831   0.6479474  565.854    0.1561098  0.1837419  0.1284777 
1131.199996948242 0.214      670.0221   1          2          6.524369   3.675798   4.712898   4.949898   3.9795     3.9481     3.200995   1.881001   3.135      1.581998   3.874902   0.237311   0.2373109  0.3545869  69.61994   22.6982    3.050982   0.656283   0.6473035  565.956    0.1550063  0.1813083  0.1287044 
1131.300003051758 0.214      669.7      1          2          6.52408    3.759502   4.774802   4.999101   3.9849     3.931699   3.358002   1.802997   3.148      1.658002   3.794997   0.231181   0.2311813  0.3517435  53.60323   23.2534    3.125986   0.650968   0.6461402  565.946    0.1540963  0.179528   0.1286647 
