~Version
 VERS              .         2.0                           : CWLS LOG ASCII STANDARD - VERSION 2.0
 WRAP              .         NO                            : ONE LINE PER DEPTH STEP
 DLM               .         SPACE                         : DELIMITING CHARACTER(SPACE TAB OR COMMA)
~Well Information
#_______________________________________________________________________________
#
#PARAMETER_NAME    .UNIT     VALUE                         : DESCRIPTION
#_______________________________________________________________________________
STRT               .M        900                           : First reference value
STOP               .M        1195.30001831055              : Last reference value
STEP               .M        0.1                           : Step increment
NULL               .         -9999                         : Missing value
COMP               .                                       : Company
WELL               .         7768                          : Well name
FLD                .         УЗЕНЬ                         : Field
LOC                .                                       : Location
CNTY               .                                       : County
STAT               .                                       : State
CTRY               .                                       : Country
SRVC               .                                       : Service Company
DATE               .         7/10/2004                     : Date
UWI                .                                       : Unique Well ID
Block              .         6а                            : 
Cartographic_reference_system .         GCS_WGS_1984                  : ESRI,PE_10_3_1- <?xml version="1.0" encoding="utf-16"?><ILateBoundCoordinateReferenceSystem name="GCS_WGS_1984"><AuthorityCode>EPSG,4326</AuthorityCode></ILateBoundCoordinateReferenceSystem>
Category           .         Нефтяная                      : 
Condition          .         В работе                      : 
Date               .         30.03.2004                    : 
EREF               .m        87                            : 100.8
GRP                .         1111                          : Group name
Gorizont           .         14                            : 14
HZCS               .GCS_WGS_1984 WGS_1984_EASE-Grid_2.0_Global : ESRI,PE_10_3_1- <?xml version="1.0" encoding="utf-16"?><ILateBoundCoordinateReferenceSystem name="WGS_1984_EASE-Grid_2.0_Global"><AuthorityCode>EPSG,6933</AuthorityCode></ILateBoundCoordinateReferenceSystem>
ISS                .         БКЗ                           : Well surveys
Interpretator      .         Кушербаева А.С                : 
Kupol              .         основной                      : osnovnoi
LATI               .dega     0.6705369228                  : GCS_WGS_1984
LONG               .dega     0.4642774069                  : GCS_WGS_1984
Mud                .                                       : 
Mud_density        .                                       : 
Mud_resistivity    .                                       : 
NGDU               .         НГДУ-2                        : 
ORIGINALWELLNAME   .         7768                          : 
Spud_date          .         2004                          : 1961
TIME               .         9                             : LOG TIME
Viscosity          .                                       : 
X                  .m        44796.4                       : 46154
Y                  .m        85540.7                       : 85761.93
YEAR               .         2019г                         : 
~Parameter Information Block
#_______________________________________________________________________________
#
#PARAMETER_NAME    .UNIT     VALUE                         : DESCRIPTION
#_______________________________________________________________________________
SET                .         LQC_KAZNIPI_Petrel            : 
TLFamily_CALI      .         Caliper                       : 
TLFamily_CILD      .         Conductivity                  : 
TLFamily_COLL      .         Net Reservoir Flag            : 
TLFamily_CSAT      .         Fluid Code                    : 
TLFamily_DEPT      .         Measured Depth                : 
TLFamily_GR        .         Russian Gamma Ray             : 
TLFamily_GZ1       .         Gradient 045                  : 
TLFamily_GZ2       .         Gradient 105                  : 
TLFamily_GZ3       .         Gradient 225                  : 
TLFamily_GZ4       .         Gradient 425                  : 
TLFamily_GZ5       .         Gradient 850                  : 
TLFamily_LLS       .         Lateral Log Resistivity       : 
TLFamily_MINV      .         Micro Gradient Resistivity    : 
TLFamily_MNOR      .         Micro Resistivity             : 
TLFamily_NGLD      .         Neutron Gamma                 : 
TLFamily_OGZ       .         Gradient Inverted 225         : 
TLFamily_PHIE      .         Effective Porosity            : 
TLFamily_PHIEN     .         Effective Porosity            : 
TLFamily_PHIT      .         Porosity                      : 
TLFamily_PRMB      .         Permeability                  : 
TLFamily_PRMB_DGR  .         Permeability                  : 
TLFamily_RT        .         Formation Resistivity         : 
TLFamily_SOIL_ARCHIE .         Oil Saturation                : 
TLFamily_SOIL_DW   .         Oil Saturation                : 
TLFamily_SP        .         Spontaneous Potential         : 
TLFamily_VSH_FIN   .         Shale Volume                  : 
TLFamily_VSH_GR    .         Shale Volume                  : 
TLFamily_VSH_SP    .         Shale Volume                  : 
~Curve Information
#_______________________________________________________________________________
#
#LOGNAME           .UNIT     LOG_ID                        : DESCRIPTION
#_______________________________________________________________________________
DEPT               .M                                      :  
CALI               .м                                      : Каверномер 
CILD               .мСм/м                                  : Индукционный каротаж 
COLL               .unitless                               : Описание 
CSAT               .unitless                               : Описание 
GR                 .uR/h                                   : Гамма каротаж 
GZ1                .Ом·м                                   :  
GZ2                .Ом·м                                   :  
GZ3                .Ом·м                                   :  
GZ4                .Ом·м                                   :  
GZ5                .Ом·м                                   :  
LLS                .Ohmm                                   : Боковой каротаж 
MINV               .Ohmm                                   : Микро-градиент зонд 
MNOR               .Ohmm                                   : Микро-потенциал зонд 
NGLD               .у.е.                                   : Показания зонда НГК-60 аппаратуры ДРСТ-3-90 
OGZ                .Ом·м                                   :  
PHIE               .v/v                                    : Описание 
PHIEN              .v/v                                    :  
PHIT               .v/v                                    : Описание 
PRMB               .mD                                     :  
PRMB_DGR           .mD                                     :  
RT                 .ohmm                                   : УЭС пласта 
SOIL_ARCHIE        .v/v                                    :  
SOIL_DW            .v/v                                    :  
SP                 .мВ                                     : Потенциал самополяризации 
VSH_FIN            .v/v                                    : Описание 
VSH_GR             .v/v                                    : Shale volume 
VSH_SP             .v/v                                    : Shale Volume 
~Ascii
# ...
957.2000007629395 0.229      507.4671   -9999      -9999      3.765363   4.1396     7.453898   7.448999   4.9371     1.5789     3.572997   3.004995   3.547003   2.696999   5.4748     0.026412   0.0264125  0.2347079  0.008637188 56.11847   3.704093   0          0.1462181  590.706    0.5082466  0.1252841  0.5082466 
957.2999992370606 0.23       513.7451   -9999      -9999      3.721558   4.1291     7.3261     7.382101   4.9518     1.6078     3.282002   2.363004   3.884997   2.564001   5.4674     0.038243   0.03824332 0.2409804  0.01430577 57.37999   3.528728   0          0.2142155  590.686    0.5064915  0.124152   0.5064915 
957.4000015258789 0.23       520.4119   -9999      -9999      3.706225   4.273903   7.489503   7.395199   4.9733     1.658301   3.418015   3.322023   5.076025   2.407998   5.388098   0.052019   0.05201857 0.2484891  0.02574401 57.58506   3.577773   0          0.2984841  590.666    0.5047418  0.1239713  0.5047418 
957.5      0.23       526.5569   -9999      -9999      3.721289   4.4601     7.6711     7.414899   4.9525     1.7173     4.521      5.279      6.961      2.264      5.2591     0.064684   0.0646835  0.256384   0.04418376 56.50642   4.090504   0          0.398989   590.656    0.5032791  0.1249321  0.5032791 
957.6000022888184 0.23       531.8619   -9999      -9999      3.765936   4.633202   7.715298   7.364297   4.872597   1.781002   5.869007   6.692994   7.916976   2.154999   5.127398   0.074396   0.0743961  0.2638231  0.06685785 54.18902   4.637244   0          0.4706182  590.645    0.5017909  0.1270868  0.5017909 
957.7000007629395 0.23       536.7949   -9999      -9999      3.823121   4.705199   7.606998   7.224499   4.751099   1.865001   6.196991   6.427986   6.926982   2.098      5.0407     0.079698   0.07969836 0.2701667  0.08382205 50.92839   4.742898   0.02487809 0.496355   590.635    0.5003359  0.1303483  0.5003359 
957.7999992370606 0.23       541.1449   -9999      -9999      3.902287   4.584801   7.303702   7.061001   4.632901   1.976499   5.180007   4.849011   4.945013   2.088      5.0139     0.081116   0.08111601 0.2751033  0.08904779 47.16708   4.318935   0          0.4816037  590.615    0.4986036  0.1344967  0.4986036 
957.9000015258789 0.23       544.861    -9999      -9999      4.005265   4.329297   6.863295   6.933499   4.559699   2.114303   3.742992   3.834996   3.326993   2.107001   5.030701   0.080179   0.08017868 0.2786745  0.08555938 43.35611   3.659055   0          0.4395011  590.584    0.4965729  0.1392041  0.4965729 
958        0.23       548.5562   -9999      -9999      4.105801   4.1077     6.558001   6.8738     4.5335     2.2927     3.231      3.532      2.94       2.137      5.060201   0.078299   0.07829887 0.2812127  0.07896698 39.84671   3.388177   0          0.4165708  590.554    0.4945785  0.1440856  0.4945785 
958.1000022888184 0.23       552.462    -9999      -9999      4.174545   3.9997     6.503602   6.891601   4.551002   2.557207   3.159003   3.360993   3.015008   2.166      5.0824     0.076511   0.07651126 0.283214   0.07316905 36.84669   3.337934   0          0.4106324  590.523    0.492561   0.1487652  0.492561  
958.2000007629395 0.23       556.2561   -9999      -9999      4.21193    4.004601   6.583201   6.9401     4.5939     2.888502   3.285002   3.045002   3.392004   2.18       5.0817     0.07589    0.07588996 0.2851866  0.07125657 34.42632   3.392251   0          0.4166008  590.503    0.4908547  0.1529503  0.4908547 
958.2999992370606 0.23       559.4279   -9999      -9999      4.228697   4.0731     6.707699   6.9139     4.6141     3.221098   3.594997   3.337998   4.035994   2.176      5.0696     0.07679    0.07679024 0.2875117  0.07404489 32.56502   3.538556   0          0.4340723  590.483    0.489152   0.1564614  0.489152  
958.4000015258789 0.23       561.7949   -9999      -9999      4.245199   4.111897   6.751898   6.790397   4.6117     3.536804   3.964001   4.031005   4.464999   2.149999   5.071701   0.079188   0.07918803 0.2903477  0.08201851 31.19975   3.70825    0          0.4562394  590.503    0.4885516  0.1592217  0.4885516 
958.5      0.23       563.645    -9999      -9999      4.268541   3.9748     6.6369     6.5823     4.6084     3.8234     4.071      4.362      4.401      2.097      5.1012     0.083681   0.08368061 0.2935898  0.09934208 30.26682   3.751459   0          0.4729497  590.544    0.4885248  0.1612078  0.4885248 
958.6000022888184 0.23       564.889    -9999      -9999      4.291796   3.715794   6.337289   6.335895   4.627501   4.033403   3.785985   4.069989   3.782982   2.020998   5.170502   0.089757   0.08975703 0.2968948  0.1287287  29.72462   3.61409    0.001165334 0.4792432  590.625    0.4895956  0.1624021  0.4895956 
958.7000007629395 0.23       565.5999   -9999      -9999      4.313772   3.467299   5.902697   6.129799   4.6973     4.162001   3.186998   3.633998   3.078997   1.941      5.2685     0.096171   0.09617143 0.299762   0.1692304  29.56779   3.313489   0.02032128 0.472018   590.706    0.4906667  0.1627533  0.4906667 
958.7999992370606 0.23       566.0889   -9999      -9999      4.307478   3.351001   5.493903   6.0241     4.815499   4.259099   2.852002   3.376002   2.680003   1.878      5.3646     0.101228   0.101228   0.301657   0.2099646  29.82963   3.133144   0.03815565 0.4686958  590.778    0.4914945  0.1621684  0.4914945 
958.9000015258789 0.23       566.6831   -9999      -9999      4.291714   3.425103   5.315001   6.0097     4.963303   4.338501   2.717003   2.798992   2.623003   1.853      5.437901   0.103452   0.1034522  0.3021376  0.2308554  30.57851   3.056758   0.04519492 0.4666867  590.808    0.4911636  0.1605348  0.4911636 
959        0.23       567.5779   -9999      -9999      4.269325   3.6376     5.392499   6.055      5.1237     4.3988     2.911      2.302      2.833      1.87       5.4829     0.102304   0.1023036  0.3009553  0.2198246  31.90696   3.161244   0.0509572  0.4721902  590.818    0.4902859  0.1577712  0.4902859 
959.1000022888184 0.23       568.761    -9999      -9999      4.22       3.815202   5.655405   6.123301   5.250702   4.4356     3.205016   2.178013   3.374018   1.926002   5.486199   0.097756   0.09775613 0.2981043  0.1810658  33.91692   3.313666   0.03419465 0.4730514  590.839    0.4897094  0.1538842  0.4897094 
959.2000007629395 0.229      570.0779   -9999      -9999      4.17454    3.882401   5.8702     6.16       5.3171     4.449299   4.011005   2.815004   4.286003   2.004001   5.438499   0.090984   0.09098433 0.2938082  0.1356446  36.69952   3.70265    0.02405761 0.484274   590.9      0.490234   0.1490085  0.490234  
959.2999992370606 0.229      571.361    -9999      -9999      4.10248    3.9353     5.8314     6.156099   5.342599   4.4415     4.794994   3.360995   4.726997   2.089999   5.360601   0.082982   0.08298206 0.2884524  0.09642421 40.31017   4.044221   0          0.4849107  591.022    0.4924364  0.1434068  0.4924364 
959.4000015258789 0.229      572.4391   -9999      -9999      3.998083   3.961601   5.7266     6.1384     5.352      4.419199   4.785986   3.379994   4.34199    2.167001   5.269197   0.074996   0.07499623 0.2824897  0.06859081 44.73287   4.036273   0          0.4596543  591.225    0.4968954  0.1374384  0.4968954 
959.5      0.229      573.3889   -9999      -9999      3.865153   3.9838     5.7075     6.1318     5.354      4.3883     4.015      2.985      3.706      2.224      5.1489     0.068116   0.06811565 0.2763457  0.05114835 49.84526   3.694182   0          0.4089794  591.49     0.5031332  0.1314976  0.5031332 
959.6000022888184 0.229      574.411    -9999      -9999      3.753686   4.051702   5.896206   6.1298     5.345299   4.354899   3.296004   2.701998   3.592009   2.271001   5.004396   0.06188    0.0618801  0.2703537  0.03920358 55.39854   3.34415    0          0.3504848  591.774    0.5099795  0.1259464  0.5099795 
959.7000007629395 0.23       575.7221   -9999      -9999      3.683036   4.156901   6.131801   6.1193     5.329199   4.320099   3.483006   2.634999   4.007001   2.313      4.853899   0.055935   0.05593535 0.264732   0.03042355 61.02679   3.433653   0          0.3296618  592.069    0.5172268  0.1210672  0.5172268 
