~Version
 VERS              .         2.0                           : CWLS LOG ASCII STANDARD - VERSION 2.0
 WRAP              .         NO                            : ONE LINE PER DEPTH STEP
 DLM               .         SPACE                         : DELIMITING CHARACTER(SPACE TAB OR COMMA)
~Well Information
#_______________________________________________________________________________
#
#PARAMETER_NAME    .UNIT     VALUE                         : DESCRIPTION
#_______________________________________________________________________________
STRT               .M        900                           : First reference value
STOP               .M        1195.30001831055              : Last reference value
STEP               .M        0.1                           : Step increment
NULL               .         -9999                         : Missing value
COMP               .                                       : Company
WELL               .         7768                          : Well name
FLD                .         УЗЕНЬ                         : Field
LOC                .                                       : Location
CNTY               .                                       : County
STAT               .                                       : State
CTRY               .                                       : Country
SRVC               .                                       : Service Company
DATE               .         7/10/2004                     : Date
UWI                .                                       : Unique Well ID
Block              .         6а                            : 
Cartographic_reference_system .         GCS_WGS_1984                  : ESRI,PE_10_3_1- <?xml version="1.0" encoding="utf-16"?><ILateBoundCoordinateReferenceSystem name="GCS_WGS_1984"><AuthorityCode>EPSG,4326</AuthorityCode></ILateBoundCoordinateReferenceSystem>
Category           .         Нефтяная                      : 
Condition          .         В работе                      : 
Date               .         30.03.2004                    : 
EREF               .m        87                            : 100.8
GRP                .         1111                          : Group name
Gorizont           .         14                            : 14
HZCS               .GCS_WGS_1984 WGS_1984_EASE-Grid_2.0_Global : ESRI,PE_10_3_1- <?xml version="1.0" encoding="utf-16"?><ILateBoundCoordinateReferenceSystem name="WGS_1984_EASE-Grid_2.0_Global"><AuthorityCode>EPSG,6933</AuthorityCode></ILateBoundCoordinateReferenceSystem>
ISS                .         БКЗ                           : Well surveys
Interpretator      .         Кушербаева А.С                : 
Kupol              .         основной                      : osnovnoi
LATI               .dega     0.6705369228                  : GCS_WGS_1984
LONG               .dega     0.4642774069                  : GCS_WGS_1984
Mud                .                                       : 
Mud_density        .                                       : 
Mud_resistivity    .                                       : 
NGDU               .         НГДУ-2                        : 
ORIGINALWELLNAME   .         7768                          : 
Spud_date          .         2004                          : 1961
TIME               .         9                             : LOG TIME
Viscosity          .                                       : 
X                  .m        44796.4                       : 46154
Y                  .m        85540.7                       : 85761.93
YEAR               .         2019г                         : 
~Parameter Information Block
#_______________________________________________________________________________
#
#PARAMETER_NAME    .UNIT     VALUE                         : DESCRIPTION
#_______________________________________________________________________________
SET                .         LQC_KAZNIPI_Petrel            : 
TLFamily_CALI      .         Caliper                       : 
TLFamily_CILD      .         Conductivity                  : 
TLFamily_COLL      .         Net Reservoir Flag            : 
TLFamily_CSAT      .         Fluid Code                    : 
TLFamily_DEPT      .         Measured Depth                : 
TLFamily_GR        .         Russian Gamma Ray             : 
TLFamily_GZ1       .         Gradient 045                  : 
TLFamily_GZ2       .         Gradient 105                  : 
TLFamily_GZ3       .         Gradient 225                  : 
TLFamily_GZ4       .         Gradient 425                  : 
TLFamily_GZ5       .         Gradient 850                  : 
TLFamily_LLS       .         Lateral Log Resistivity       : 
TLFamily_MINV      .         Micro Gradient Resistivity    : 
TLFamily_MNOR      .         Micro Resistivity             : 
TLFamily_NGLD      .         Neutron Gamma                 : 
TLFamily_OGZ       .         Gradient Inverted 225         : 
TLFamily_PHIE      .         Effective Porosity            : 
TLFamily_PHIEN     .         Effective Porosity            : 
TLFamily_PHIT      .         Porosity                      : 
TLFamily_PRMB      .         Permeability                  : 
TLFamily_PRMB_DGR  .         Permeability                  : 
TLFamily_RT        .         Formation Resistivity         : 
TLFamily_SOIL_ARCHIE .         Oil Saturation                : 
TLFamily_SOIL_DW   .         Oil Saturation                : 
TLFamily_SP        .         Spontaneous Potential         : 
TLFamily_VSH_FIN   .         Shale Volume                  : 
TLFamily_VSH_GR    .         Shale Volume                  : 
TLFamily_VSH_SP    .         Shale Volume                  : 
~Curve Information
#_______________________________________________________________________________
#
#LOGNAME           .UNIT     LOG_ID                        : DESCRIPTION
#_______________________________________________________________________________
DEPT               .M                                      :  
CALI               .м                                      : Каверномер 
CILD               .мСм/м                                  : Индукционный каротаж 
COLL               .unitless                               : Описание 
CSAT               .unitless                               : Описание 
GR                 .uR/h                                   : Гамма каротаж 
GZ1                .Ом·м                                   :  
GZ2                .Ом·м                                   :  
GZ3                .Ом·м                                   :  
GZ4                .Ом·м                                   :  
GZ5                .Ом·м                                   :  
LLS                .Ohmm                                   : Боковой каротаж 
MINV               .Ohmm                                   : Микро-градиент зонд 
MNOR               .Ohmm                                   : Микро-потенциал зонд 
NGLD               .у.е.                                   : Показания зонда НГК-60 аппаратуры ДРСТ-3-90 
OGZ                .Ом·м                                   :  
PHIE               .v/v                                    : Описание 
PHIEN              .v/v                                    :  
PHIT               .v/v                                    : Описание 
PRMB               .mD                                     :  
PRMB_DGR           .mD                                     :  
RT                 .ohmm                                   : УЭС пласта 
SOIL_ARCHIE        .v/v                                    :  
SOIL_DW            .v/v                                    :  
SP                 .мВ                                     : Потенциал самополяризации 
VSH_FIN            .v/v                                    : Описание 
VSH_GR             .v/v                                    : Shale volume 
VSH_SP             .v/v                                    : Shale Volume 
~Ascii
# ...
975.4000015258789 0.233      787.861    -9999      -9999      4.999726   3.2187     4.087601   3.4875     3.0932     2.7828     2.798      1.034006   2.285999   2.090002   3.2346     0.061035   0.06103453 0.3032686  0.03781589 10.86766   2.630486   0          0.3219831  593.25     0.5589435  0.2449206  0.5589435 
975.5      0.235      789.8231   -9999      -9999      4.902465   3.2444     4.1141     3.477      3.1053     2.771      2.79       1.55       2.24       2.203      3.2064     0.050568   0.05056829 0.2940378  0.02419915 11.84777   2.623534   0          0.2686687  593.372    0.5616906  0.2364354  0.5616906 
975.5999984741211 0.238      791.9341   -9999      -9999      4.836614   3.2333     4.1237     3.4573     3.1086     2.7566     2.796      2.145989   2.389998   2.275999   3.1836     0.044323   0.04432268 0.2867603  0.01854076 12.81606   2.623158   0          0.2289443  593.412    0.5619025  0.2289713  0.5619025 
975.7000045776367 0.239      795.1111   -9999      -9999      4.805552   3.190298   4.1121     3.4395     3.1066     2.738199   2.763996   2.179969   2.435994   2.303999   3.170799   0.043016   0.04301615 0.281898   0.01753552 13.65027   2.602797   0          0.2100272  593.341    0.5586833  0.2231506  0.5586833 
975.8000030517578 0.24       799.6062   -9999      -9999      4.783062   3.144698   4.106699   3.4251     3.095899   2.7179     2.671997   1.600976   2.300995   2.291999   3.1641     0.045806   0.04580582 0.2795627  0.01975133 14.24717   2.551795   0          0.2100425  593.199    0.5533063  0.2192847  0.5533063 
975.9000015258789 0.241      804.7949   -9999      -9999      4.764464   3.091999   4.097099   3.4146     3.071      2.6982     2.572999   0.9879977  2.141999   2.249999   3.1607     0.051529   0.05152858 0.2795706  0.02521159 14.53986   2.495843   0          0.226061   593.016    0.5467318  0.2174714  0.5467318 
976        0.241      809.8011   -9999      -9999      4.759293   3.0276     4.0638     3.4179     3.0401     2.6798     2.52       0.849      2.109      2.199      3.1641     0.058      0.0580004  0.2815363  0.03322452 14.50768   2.46234    0          0.2501729  592.832    0.5401946  0.2176682  0.5401946 
976.0999984741211 0.241      814.3001   -9999      -9999      4.782468   2.963201   4.010701   3.442199   3.0133     2.6621     2.496001   0.8310003  2.045001   2.148001   3.1728     0.064439   0.06443883 0.2849675  0.04372448 14.17469   2.443958   0          0.2765527  592.649    0.5337585  0.2197419  0.5337585 
976.2000045776367 0.24       818.7449   -9999      -9999      4.822849   2.899598   3.954898   3.482902   2.991099   2.6483     2.446997   0.9150046  1.997996   2.096997   3.184201   0.070856   0.07085609 0.2893449  0.05748877 13.60303   2.413266   0          0.3001977  592.466    0.5273876  0.2234667  0.5273876 
976.3000030517578 0.24       823.084    -9999      -9999      4.870773   2.851799   3.912799   3.532102   2.9797     2.6457     2.392998   1.019      1.907996   2.043998   3.1997     0.077324   0.07732402 0.2941742  0.07575062 12.87939   2.380466   0          0.3221914  592.293    0.5213749  0.2285109  0.5213749 
976.4000015258789 0.239      827.2888   -9999      -9999      4.923069   2.8303     3.8876     3.585301   2.9857     2.6549     2.335999   1.008999   1.778      1.989999   3.2212     0.083468   0.08346782 0.2990164  0.09844369 12.10085   2.345978   0          0.3411437  592.161    0.5166007  0.2344036  0.5166007 
976.5      0.238      831.879    -9999      -9999      5.005171   2.8296     3.8787     3.6405     3.0005     2.6687     2.304      0.956      1.753      1.942      3.2467     0.088704   0.08870375 0.3034987  0.1230754  11.36004   2.323418   0          0.3574753  592.07     0.5130395  0.2405289  0.5130395 
976.5999984741211 0.237      836.723    -9999      -9999      5.087883   2.854599   3.8774     3.6838     3.0072     2.6812     2.327      0.9739997  1.873998   1.899001   3.2682     0.093135   0.09313453 0.3073174  0.1486771  10.73304   2.328      0          0.3736683  592.019    0.5106364  0.2461703  0.5106364 
976.7000045776367 0.237      841.1401   -9999      -9999      5.14578    2.876698   3.856897   3.7042     3.0059     2.6838     2.383001   1.013999   1.992998   1.865999   3.300503   0.096238   0.09623788 0.3102476  0.1697146  10.2722    2.349768   0          0.3872685  592.019    0.5096928  0.2506214  0.5096928 
976.8000030517578 0.236      844.5168   -9999      -9999      5.152095   2.843498   3.786898   3.718001   3.0019     2.671299   2.402999   0.9859959  1.947995   1.841      3.367003   0.098288   0.09828805 0.3121578  0.185221   10.00587   2.355021   0          0.394757   592.059    0.509889   0.2533243  0.509889  
976.9000015258789 0.235      846.8721   -9999      -9999      5.140492   2.779099   3.7154     3.7317     2.9951     2.648999   2.361999   0.8619976  1.779996   1.834      3.451702   0.098806   0.09880626 0.3130358  0.1893585  9.941855   2.3313     0          0.3938943  592.1      0.5101131  0.253989   0.5101131 
977        0.233      848.7729   -9999      -9999      5.126172   2.7431     3.6862     3.7317     2.9877     2.6221     2.291      0.72       1.554      1.843      3.5403     0.098168   0.09816811 0.313009   0.1842755  10.07097   2.293499   0          0.3875446  592.12     0.5097396  0.2526543  0.5097396 
977.0999984741211 0.232      850.1719   -9999      -9999      5.104338   2.7029     3.6528     3.7271     2.9884     2.5985     2.228001   0.6310013  1.383003   1.871      3.636498   0.096204   0.09620402 0.3123502  0.1694687  10.36728   2.259774   0          0.3779074  592.11     0.5085134  0.2496804  0.5085134 
977.2000045776367 0.23       850.9219   -9999      -9999      5.052008   2.6621     3.596998   3.730399   2.984399   2.583999   2.071      0.7260069  1.371008   1.912002   3.7103     0.093325   0.09332549 0.3114536  0.1498868  10.787     2.177749   0          0.3586028  592.08     0.5067246  0.2456667  0.5067246 
977.3000030517578 0.229      850.9111   -9999      -9999      4.988209   2.671101   3.547398   3.704198   2.956198   2.5703     2.075005   0.894004   1.563007   1.963001   3.7258     0.089608   0.08960849 0.3107752  0.1279133  11.268     2.179853   0          0.3492881  592.049    0.5049139  0.2413293  0.5049139 
977.4000015258789 0.229      850.1169   -9999      -9999      4.93604    2.7099     3.469798   3.635799   2.911199   2.5545     2.225003   1.037      1.811001   2.006      3.705      0.086558   0.08655786 0.3107463  0.112311   11.73493   2.258253   0          0.3533706  592.019    0.5031349  0.2373612  0.5031349 
977.5      0.229      848.561    -9999      -9999      4.891743   2.7175     3.3365     3.5577     2.8602     2.5447     2.402      1.066      1.9        2.019      3.6754     0.086052   0.08605237 0.3116793  0.1099132  12.11138   2.348913   0          0.366052   591.988    0.501334   0.2343204  0.501334  
977.5999984741211 0.229      846.2549   -9999      -9999      4.869303   2.7203     3.216702   3.471701   2.801101   2.5361     2.427      0.9810013  1.819001   1.99       3.6364     0.089088   0.08908796 0.3136955  0.1251077  12.33847   2.364187   0          0.3779017  591.958    0.4995697  0.2325497  0.4995697 
977.7000045776367 0.229      843.1392   -9999      -9999      4.872716   2.7507     3.145998   3.374497   2.746699   2.5263     2.308998   0.964999   1.659999   1.923996   3.603499   0.095354   0.09535445 0.3166958  0.1634351  12.39103   2.309999   0          0.3885245  591.917    0.4975014  0.2321464  0.4975014 
977.8000030517578 0.23       839.2941   -9999      -9999      4.912395   2.7611     3.1004     3.299699   2.7151     2.523      2.257999   0.9439999  1.646003   1.842998   3.5941     0.103069   0.1030694  0.3203888  0.2271151  12.286     2.289776   0          0.4063074  591.856    0.4948878  0.2329547  0.4948878 
977.9000015258789 0.229      834.1381   -9999      -9999      4.951313   2.7472     3.098401   3.259599   2.701      2.5224     2.237      0.9429988  1.751001   1.768999   3.5968     0.11038    0.1103796  0.3243623  0.3102155  12.07673   2.285964   0          0.4243207  591.774    0.4917063  0.2345946  0.4917063 
