~Version
 VERS              .         2.0                           : CWLS LOG ASCII STANDARD - VERSION 2.0
 WRAP              .         NO                            : ONE LINE PER DEPTH STEP
 DLM               .         SPACE                         : DELIMITING CHARACTER(SPACE TAB OR COMMA)
~Well Information
#_______________________________________________________________________________
#
#PARAMETER_NAME    .UNIT     VALUE                         : DESCRIPTION
#_______________________________________________________________________________
STRT               .M        900                           : First reference value
STOP               .M        1195.30001831055              : Last reference value
STEP               .M        0.1                           : Step increment
NULL               .         -9999                         : Missing value
COMP               .                                       : Company
WELL               .         7768                          : Well name
FLD                .         УЗЕНЬ                         : Field
LOC                .                                       : Location
CNTY               .                                       : County
STAT               .                                       : State
CTRY               .                                       : Country
SRVC               .                                       : Service Company
DATE               .         7/10/2004                     : Date
UWI                .                                       : Unique Well ID
Block              .         6а                            : 
Cartographic_reference_system .         GCS_WGS_1984                  : ESRI,PE_10_3_1- <?xml version="1.0" encoding="utf-16"?><ILateBoundCoordinateReferenceSystem name="GCS_WGS_1984"><AuthorityCode>EPSG,4326</AuthorityCode></ILateBoundCoordinateReferenceSystem>
Category           .         Нефтяная                      : 
Condition          .         В работе                      : 
Date               .         30.03.2004                    : 
EREF               .m        87                            : 100.8
GRP                .         1111                          : Group name
Gorizont           .         14                            : 14
HZCS               .GCS_WGS_1984 WGS_1984_EASE-Grid_2.0_Global : ESRI,PE_10_3_1- <?xml version="1.0" encoding="utf-16"?><ILateBoundCoordinateReferenceSystem name="WGS_1984_EASE-Grid_2.0_Global"><AuthorityCode>EPSG,6933</AuthorityCode></ILateBoundCoordinateReferenceSystem>
ISS                .         БКЗ                           : Well surveys
Interpretator      .         Кушербаева А.С                : 
Kupol              .         основной                      : osnovnoi
LATI               .dega     0.6705369228                  : GCS_WGS_1984
LONG               .dega     0.4642774069                  : GCS_WGS_1984
Mud                .                                       : 
Mud_density        .                                       : 
Mud_resistivity    .                                       : 
NGDU               .         НГДУ-2                        : 
ORIGINALWELLNAME   .         7768                          : 
Spud_date          .         2004                          : 1961
TIME               .         9                             : LOG TIME
Viscosity          .                                       : 
X                  .m        44796.4                       : 46154
Y                  .m        85540.7                       : 85761.93
YEAR               .         2019г                         : 
~Parameter Information Block
#_______________________________________________________________________________
#
#PARAMETER_NAME    .UNIT     VALUE                         : DESCRIPTION
#_______________________________________________________________________________
SET                .         LQC_KAZNIPI_Petrel            : 
TLFamily_CALI      .         Caliper                       : 
TLFamily_CILD      .         Conductivity                  : 
TLFamily_COLL      .         Net Reservoir Flag            : 
TLFamily_CSAT      .         Fluid Code                    : 
TLFamily_DEPT      .         Measured Depth                : 
TLFamily_GR        .         Russian Gamma Ray             : 
TLFamily_GZ1       .         Gradient 045                  : 
TLFamily_GZ2       .         Gradient 105                  : 
TLFamily_GZ3       .         Gradient 225                  : 
TLFamily_GZ4       .         Gradient 425                  : 
TLFamily_GZ5       .         Gradient 850                  : 
TLFamily_LLS       .         Lateral Log Resistivity       : 
TLFamily_MINV      .         Micro Gradient Resistivity    : 
TLFamily_MNOR      .         Micro Resistivity             : 
TLFamily_NGLD      .         Neutron Gamma                 : 
TLFamily_OGZ       .         Gradient Inverted 225         : 
TLFamily_PHIE      .         Effective Porosity            : 
TLFamily_PHIEN     .         Effective Porosity            : 
TLFamily_PHIT      .         Porosity                      : 
TLFamily_PRMB      .         Permeability                  : 
TLFamily_PRMB_DGR  .         Permeability                  : 
TLFamily_RT        .         Formation Resistivity         : 
TLFamily_SOIL_ARCHIE .         Oil Saturation                : 
TLFamily_SOIL_DW   .         Oil Saturation                : 
TLFamily_SP        .         Spontaneous Potential         : 
TLFamily_VSH_FIN   .         Shale Volume                  : 
TLFamily_VSH_GR    .         Shale Volume                  : 
TLFamily_VSH_SP    .         Shale Volume                  : 
~Curve Information
#_______________________________________________________________________________
#
#LOGNAME           .UNIT     LOG_ID                        : DESCRIPTION
#_______________________________________________________________________________
DEPT               .M                                      :  
CALI               .м                                      : Каверномер 
CILD               .мСм/м                                  : Индукционный каротаж 
COLL               .unitless                               : Описание 
CSAT               .unitless                               : Описание 
GR                 .uR/h                                   : Гамма каротаж 
GZ1                .Ом·м                                   :  
GZ2                .Ом·м                                   :  
GZ3                .Ом·м                                   :  
GZ4                .Ом·м                                   :  
GZ5                .Ом·м                                   :  
LLS                .Ohmm                                   : Боковой каротаж 
MINV               .Ohmm                                   : Микро-градиент зонд 
MNOR               .Ohmm                                   : Микро-потенциал зонд 
NGLD               .у.е.                                   : Показания зонда НГК-60 аппаратуры ДРСТ-3-90 
OGZ                .Ом·м                                   :  
PHIE               .v/v                                    : Описание 
PHIEN              .v/v                                    :  
PHIT               .v/v                                    : Описание 
PRMB               .mD                                     :  
PRMB_DGR           .mD                                     :  
RT                 .ohmm                                   : УЭС пласта 
SOIL_ARCHIE        .v/v                                    :  
SOIL_DW            .v/v                                    :  
SP                 .мВ                                     : Потенциал самополяризации 
VSH_FIN            .v/v                                    : Описание 
VSH_GR             .v/v                                    : Shale volume 
VSH_SP             .v/v                                    : Shale Volume 
~Ascii
# ...
1014.400001525879 0.229      1043.16    -9999      -9999      6.168364   2.4814     2.4173     2.5471     2.0994     1.8709     2.147999   1.954997   2.353997   1.672      3.0505     0.083779   0.08377893 0.3455169  0.09975815 2.160092   2.003113   0          0.3547922  596.505    0.5971814  0.4737377  0.5971814 
1014.5     0.228      1035.021   -9999      -9999      6.176872   2.5008     2.4425     2.5301     2.1074     1.8702     2.049      1.739      2.172      1.679      3.066      0.081524   0.08152407 0.3427722  0.09061087 2.186213   1.964247   0          0.3393128  596.556    0.6022198  0.4714182  0.6022198 
1014.599998474121 0.228      1027.027   -9999      -9999      6.205803   2.476501   2.465      2.5202     2.1215     1.8768     1.950001   1.570002   2.042002   1.673      3.0996     0.081916   0.08191638 0.3395761  0.09213848 2.198354   1.923825   0          0.3290496  596.464    0.6025691  0.4703534  0.6025691 
1014.700004577637 0.227      1018.015   -9999      -9999      6.230105   2.421098   2.502403   2.5183     2.136301   1.8886     1.893      1.591004   2.033001   1.659      3.141202   0.084522   0.08452215 0.3356127  0.10297    2.208375   1.903472   0          0.3265697  596.23     0.598262   0.4694808  0.598262  
1014.800003051758 0.227      1007.994   -9999      -9999      6.257261   2.3935     2.559502   2.5196     2.1504     1.901      1.898      1.683002   2.053001   1.655001   3.184201   0.087365   0.08736502 0.3305866  0.1162438  2.23121    1.915421   0          0.3287572  595.894    0.5906724  0.4675127  0.5906724 
1014.900001525879 0.227      998.116    -9999      -9999      6.279593   2.3945     2.621401   2.5248     2.1632     1.9129     1.910001   1.756002   2.081002   1.685001   3.2219     0.087514   0.08751437 0.3243444  0.1169848  2.280524   1.931381   0          0.3231815  595.538    0.5825289  0.463358   0.5825289 
1015       0.227      989.5041   -9999      -9999      6.268535   2.4035     2.6772     2.5327     2.1712     1.9194     1.982      1.879      2.215      1.762      3.246      0.083438   0.08343813 0.3169812  0.09831782 2.364797   1.975489   0          0.309801   595.203    0.5751414  0.4565429  0.5751414 
1015.099998474121 0.227      982.077    -9999      -9999      6.188529   2.457199   2.728299   2.5399     2.1766     1.9207     2.090998   2.070997   2.423997   1.882998   3.2541     0.074785   0.07478492 0.3088894  0.06797633 2.484886   2.036797   0          0.2839446  594.948    0.5703437  0.4474015  0.5703437 
1015.200004577637 0.227      974.5933   -9999      -9999      6.063877   2.547803   2.777902   2.5458     2.1847     1.9181     2.211002   2.272003   2.587002   2.027006   3.248699   0.063742   0.06374207 0.300725   0.04244382 2.633118   2.102857   0          0.2466421  594.735    0.5668885  0.4369403  0.5668885 
1015.300003051758 0.227      965.9255   -9999      -9999      5.979204   2.612201   2.816701   2.5544     2.1961     1.9129     2.257001   2.346001   2.640001   2.169003   3.236      0.052555   0.05255467 0.2932942  0.02633929 2.794131   2.134158   0          0.1960278  594.552    0.5643868  0.4264781  0.5643868 
1015.400001525879 0.227      956.2538   -9999      -9999      5.936081   2.660001   2.8548     2.5649     2.2095     1.9096     2.286      2.379      2.670001   2.275001   3.2239     0.044829   0.04482931 0.2873745  0.01894523 2.948749   2.158441   0          0.1537814  594.328    0.5606231  0.417201   0.5606231 
1015.5     0.228      946.9981   -9999      -9999      5.913772   2.7106     2.8885     2.5767     2.2249     1.9129     2.301      2.423      2.708      2.328      3.2192     0.041783   0.04178284 0.2835307  0.01663721 3.080319   2.176111   0          0.1335125  594.084    0.5562677  0.4098305  0.5562677 
1015.599998474121 0.228      939.5269   -9999      -9999      5.906296   2.744499   2.9041     2.5931     2.2431     1.9234     2.29       2.405      2.711      2.319      3.2232     0.044184   0.04418372 0.2819691  0.01843117 3.180652   2.179326   0          0.1426843  593.819    0.5512996  0.4045013  0.5512996 
1015.700004577637 0.228      933.9099   -9999      -9999      5.917003   2.7452     2.924902   2.614101   2.262601   1.939801   2.257998   2.308994   2.669997   2.254996   3.235301   0.050704   0.05070442 0.2824802  0.02433992 3.252057   2.170816   0          0.1727134  593.606    0.5479483  0.4008509  0.5479483 
1015.800003051758 0.228      928.95     -9999      -9999      5.938551   2.7472     2.969102   2.640401   2.28       1.9575     2.209999   2.176999   2.601      2.159997   3.260201   0.059554   0.05955375 0.2844761  0.03550116 3.304266   2.153272   0          0.2101349  593.422    0.5454864  0.3982525  0.5454864 
1015.900001525879 0.229      924.5999   -9999      -9999      5.944016   2.7562     3.035101   2.673901   2.2941     1.9732     2.187      2.138001   2.590001   2.059999   3.2864     0.068305   0.06830537 0.2871148  0.05156231 3.349098   2.147137   0          0.2456407  593.29     0.5446022  0.3960668  0.5446022 
1016       0.228      920.2379   -9999      -9999      5.925935   2.7431     3.1038     2.7126     2.3062     1.9837     2.198      2.199      2.649      1.981      3.3032     0.074982   0.07498199 0.2894723  0.06854987 3.394954   2.157629   0          0.2731176  593.188    0.5446225  0.3938737  0.5446225 
1016.099998474121 0.228      915.7662   -9999      -9999      5.89912    2.7376     3.174599   2.752      2.3176     1.9844     2.237999   2.290998   2.715999   1.937001   3.3166     0.078289   0.07828899 0.2907177  0.07893331 3.443596   2.182307   0          0.2891903  593.127    0.545881   0.3915923  0.545881  
1016.200004577637 0.228      911.633    -9999      -9999      5.856167   2.779101   3.242602   2.793402   2.329701   1.9798     2.28       2.357      2.745999   1.937002   3.330001   0.077663   0.07766281 0.2902531  0.07685377 3.489542   2.207859   0          0.2907247  593.087    0.5477783  0.3894787  0.5477783 
1016.300003051758 0.228      908.3159   -9999      -9999      5.831672   2.8137     3.2814     2.831501   2.343801   1.9765     2.291      2.362      2.721999   1.974002   3.3428     0.073814   0.07381399 0.2877982  0.06521873 3.522346   2.216798   0          0.2764546  593.056    0.5499559  0.3879935  0.5499559 
1016.400001525879 0.228      905.7828   -9999      -9999      5.835321   2.822001   3.2957     2.8604     2.3599     1.9745     2.29       2.352999   2.693      2.038001   3.3475     0.067669   0.06766872 0.2834119  0.05018247 3.530373   2.219412   0          0.249166   593.026    0.5521708  0.387633   0.5521708 
1016.5     0.227      903.5048   -9999      -9999      5.855095   2.849      3.31       2.8834     2.372      1.9752     2.283      2.309      2.707      2.118      3.3448     0.060581   0.06058149 0.2774604  0.03709071 3.504257   2.219106   0          0.2120546  592.955    0.5531385  0.3888101  0.5531385 
1016.599998474121 0.227      901.2439   -9999      -9999      5.863494   2.8642     3.3222     2.9011     2.3754     1.9818     2.289      2.284      2.776999   2.215999   3.3415     0.052798   0.05279758 0.2705485  0.02661369 3.44015    2.224594   0          0.1662838  592.802    0.5516028  0.3917524  0.5516028 
1016.700004577637 0.227      899.0108   -9999      -9999      5.863337   2.846899   3.3236     2.9103     2.369999   1.9896     2.306      2.291      2.843      2.324005   3.3421     0.044778   0.0447777  0.2634311  0.01890407 3.341758   2.235936   0          0.1130202  592.588    0.5482167  0.3964219  0.5482167 
1016.800003051758 0.228      897.0388   -9999      -9999      5.8972     2.828299   3.309299   2.9142     2.3579     1.9942     2.317      2.300001   2.849      2.427002   3.351501   0.037065   0.03706544 0.256917   0.01360479 3.220039   2.243329   0          0.05325178 592.385    0.5451823  0.4024737  0.5451823 
1016.900001525879 0.228      895.517    -9999      -9999      5.961494   2.789499   3.2882     2.9188     2.3451     1.9922     2.315      2.323998   2.836998   2.508001   3.371701   0.030614   0.03061449 0.2517654  0.01033246 3.09088    2.244424   0          0          592.242    0.5439656  0.4092581  0.5439656 
