~Version
 VERS              .         2.0                           : CWLS LOG ASCII STANDARD - VERSION 2.0
 WRAP              .         NO                            : ONE LINE PER DEPTH STEP
 DLM               .         SPACE                         : DELIMITING CHARACTER(SPACE TAB OR COMMA)
~Well Information
#_______________________________________________________________________________
#
#PARAMETER_NAME    .UNIT     VALUE                         : DESCRIPTION
#_______________________________________________________________________________
STRT               .M        900                           : First reference value
STOP               .M        1195.30001831055              : Last reference value
STEP               .M        0.1                           : Step increment
NULL               .         -9999                         : Missing value
COMP               .                                       : Company
WELL               .         7768                          : Well name
FLD                .         УЗЕНЬ                         : Field
LOC                .                                       : Location
CNTY               .                                       : County
STAT               .                                       : State
CTRY               .                                       : Country
SRVC               .                                       : Service Company
DATE               .         7/10/2004                     : Date
UWI                .                                       : Unique Well ID
Block              .         6а                            : 
Cartographic_reference_system .         GCS_WGS_1984                  : ESRI,PE_10_3_1- <?xml version="1.0" encoding="utf-16"?><ILateBoundCoordinateReferenceSystem name="GCS_WGS_1984"><AuthorityCode>EPSG,4326</AuthorityCode></ILateBoundCoordinateReferenceSystem>
Category           .         Нефтяная                      : 
Condition          .         В работе                      : 
Date               .         30.03.2004                    : 
EREF               .m        87                            : 100.8
GRP                .         1111                          : Group name
Gorizont           .         14                            : 14
HZCS               .GCS_WGS_1984 WGS_1984_EASE-Grid_2.0_Global : ESRI,PE_10_3_1- <?xml version="1.0" encoding="utf-16"?><ILateBoundCoordinateReferenceSystem name="WGS_1984_EASE-Grid_2.0_Global"><AuthorityCode>EPSG,6933</AuthorityCode></ILateBoundCoordinateReferenceSystem>
ISS                .         БКЗ                           : Well surveys
Interpretator      .         Кушербаева А.С                : 
Kupol              .         основной                      : osnovnoi
LATI               .dega     0.6705369228                  : GCS_WGS_1984
LONG               .dega     0.4642774069                  : GCS_WGS_1984
Mud                .                                       : 
Mud_density        .                                       : 
Mud_resistivity    .                                       : 
NGDU               .         НГДУ-2                        : 
ORIGINALWELLNAME   .         7768                          : 
Spud_date          .         2004                          : 1961
TIME               .         9                             : LOG TIME
Viscosity          .                                       : 
X                  .m        44796.4                       : 46154
Y                  .m        85540.7                       : 85761.93
YEAR               .         2019г                         : 
~Parameter Information Block
#_______________________________________________________________________________
#
#PARAMETER_NAME    .UNIT     VALUE                         : DESCRIPTION
#_______________________________________________________________________________
SET                .         LQC_KAZNIPI_Petrel            : 
TLFamily_CALI      .         Caliper                       : 
TLFamily_CILD      .         Conductivity                  : 
TLFamily_COLL      .         Net Reservoir Flag            : 
TLFamily_CSAT      .         Fluid Code                    : 
TLFamily_DEPT      .         Measured Depth                : 
TLFamily_GR        .         Russian Gamma Ray             : 
TLFamily_GZ1       .         Gradient 045                  : 
TLFamily_GZ2       .         Gradient 105                  : 
TLFamily_GZ3       .         Gradient 225                  : 
TLFamily_GZ4       .         Gradient 425                  : 
TLFamily_GZ5       .         Gradient 850                  : 
TLFamily_LLS       .         Lateral Log Resistivity       : 
TLFamily_MINV      .         Micro Gradient Resistivity    : 
TLFamily_MNOR      .         Micro Resistivity             : 
TLFamily_NGLD      .         Neutron Gamma                 : 
TLFamily_OGZ       .         Gradient Inverted 225         : 
TLFamily_PHIE      .         Effective Porosity            : 
TLFamily_PHIEN     .         Effective Porosity            : 
TLFamily_PHIT      .         Porosity                      : 
TLFamily_PRMB      .         Permeability                  : 
TLFamily_PRMB_DGR  .         Permeability                  : 
TLFamily_RT        .         Formation Resistivity         : 
TLFamily_SOIL_ARCHIE .         Oil Saturation                : 
TLFamily_SOIL_DW   .         Oil Saturation                : 
TLFamily_SP        .         Spontaneous Potential         : 
TLFamily_VSH_FIN   .         Shale Volume                  : 
TLFamily_VSH_GR    .         Shale Volume                  : 
TLFamily_VSH_SP    .         Shale Volume                  : 
~Curve Information
#_______________________________________________________________________________
#
#LOGNAME           .UNIT     LOG_ID                        : DESCRIPTION
#_______________________________________________________________________________
DEPT               .M                                      :  
CALI               .м                                      : Каверномер 
CILD               .мСм/м                                  : Индукционный каротаж 
COLL               .unitless                               : Описание 
CSAT               .unitless                               : Описание 
GR                 .uR/h                                   : Гамма каротаж 
GZ1                .Ом·м                                   :  
GZ2                .Ом·м                                   :  
GZ3                .Ом·м                                   :  
GZ4                .Ом·м                                   :  
GZ5                .Ом·м                                   :  
LLS                .Ohmm                                   : Боковой каротаж 
MINV               .Ohmm                                   : Микро-градиент зонд 
MNOR               .Ohmm                                   : Микро-потенциал зонд 
NGLD               .у.е.                                   : Показания зонда НГК-60 аппаратуры ДРСТ-3-90 
OGZ                .Ом·м                                   :  
PHIE               .v/v                                    : Описание 
PHIEN              .v/v                                    :  
PHIT               .v/v                                    : Описание 
PRMB               .mD                                     :  
PRMB_DGR           .mD                                     :  
RT                 .ohmm                                   : УЭС пласта 
SOIL_ARCHIE        .v/v                                    :  
SOIL_DW            .v/v                                    :  
SP                 .мВ                                     : Потенциал самополяризации 
VSH_FIN            .v/v                                    : Описание 
VSH_GR             .v/v                                    : Shale volume 
VSH_SP             .v/v                                    : Shale Volume 
~Ascii
# ...
918.2000007629395 0.22       589.6511   -9999      -9999      7.913117   3.669499   6.383799   5.9716     4.481101   2.251401   3.710998   2.392998   3.104997   1.623      4.5509     -9999      -9999      -9999      -9999      -9999      3.50212    -9999      -9999      579.486    -9999      0.2234893  0.8       
918.3000011444092 0.22       596.8059   -9999      -9999      8.077139   3.467998   6.145698   5.814599   4.530801   2.331401   3.433997   2.144997   2.758997   1.604      4.616801   -9999      -9999      -9999      -9999      -9999      3.348945   -9999      -9999      579.221    -9999      0.2529077  0.8       
918.3999996185303 0.22       602.9279   -9999      -9999      8.2101     3.3039     5.910201   5.696401   4.5819     2.4233     3.173001   1.887001   2.493001   1.615      4.7135     -9999      -9999      -9999      -9999      -9999      3.202365   -9999      -9999      578.967    -9999      0.277532   0.8       
918.5      0.22       608.012    -9999      -9999      8.317442   3.2589     5.7912     5.6288     4.626801   2.485      2.932      1.892      2.516      1.648      4.8103     -9999      -9999      -9999      -9999      -9999      3.065462   -9999      -9999      578.702    -9999      0.2983083  0.8       
918.6000003814697 0.22       612.9621   -9999      -9999      8.396504   3.3032     5.741499   5.6341     4.6571     2.5788     2.808      2.101003   2.716002   1.699      4.8909     -9999      -9999      -9999      -9999      -9999      2.987747   -9999      -9999      578.428    -9999      0.3130163  0.8       
918.7000007629395 0.221      617.7279   -9999      -9999      8.438277   3.375201   5.714301   5.6652     4.6624     2.707401   2.876003   2.909005   3.389004   1.752      4.9433     -9999      -9999      -9999      -9999      -9999      3.012273   -9999      -9999      578.143    -9999      0.3161704  0.8       
918.8000011444092 0.221      622.2059   -9999      -9999      8.458899   3.4617     5.696699   5.6685     4.6335     2.838602   3.222005   3.718      4.012999   1.802001   4.9615     -9999      -9999      -9999      -9999      -9999      3.176683   -9999      -9999      577.889    -9999      0.3130162  0.8       
918.8999996185303 0.222      626.2781   -9999      -9999      8.461473   3.5081     5.6061     5.6583     4.5731     2.970499   3.671998   3.737      3.971      1.844      4.9729     -9999      -9999      -9999      -9999      -9999      3.380423   -9999      -9999      577.675    -9999      0.3037411  0.8       
919        0.222      630.2621   -9999      -9999      8.486269   3.4867     5.4123     5.6229     4.4925     3.0827     3.852      3.035      3.357      1.873      5.0132     -9999      -9999      -9999      -9999      -9999      3.451143   -9999      -9999      577.512    -9999      0.3037411  0.8       
919.1000003814697 0.222      634.1009   -9999      -9999      8.532429   3.430599   5.1992     5.5697     4.4052     3.168      3.635998   2.265999   2.684999   1.883      5.077701   -9999      -9999      -9999      -9999      -9999      3.342667   -9999      -9999      577.41     -9999      0.3119719  0.8       
919.2000007629395 0.222      637.4509   -9999      -9999      8.604488   3.3641     5.034599   5.508      4.3267     3.243401   3.230998   2.065001   2.508      1.882      5.167101   -9999      -9999      -9999      -9999      -9999      3.142795   -9999      -9999      577.37     -9999      0.3310947  0.8       
919.3000011444092 0.222      640.0391   -9999      -9999      8.692786   3.294199   4.9081     5.461399   4.268899   3.313601   3.023999   2.146003   2.483001   1.878      5.286001   -9999      -9999      -9999      -9999      -9999      3.034481   -9999      -9999      577.4      -9999      0.3592269  0.8       
919.3999996185303 0.222      641.9949   -9999      -9999      8.801323   3.2319     4.8305     5.4239     4.2286     3.3727     2.934      2.391999   2.544      1.878      5.406299   -9999      -9999      -9999      -9999      -9999      2.984073   -9999      -9999      577.492    -9999      0.4021877  0.8       
919.5      0.222      643.7231   -9999      -9999      8.890987   3.18       4.7904     5.3707     4.1991     3.4166     2.907      2.665      2.622      1.885      5.508399   -9999      -9999      -9999      -9999      -9999      2.966393   -9999      -9999      577.624    -9999      0.4431208  0.8       
919.6000003814697 0.222      645.0671   -9999      -9999      8.9194     3.1336     4.7359     5.2959     4.1796     3.4514     2.911      2.762      2.626      1.904      5.616601   -9999      -9999      -9999      -9999      -9999      2.96549    -9999      -9999      577.746    -9999      0.4560422  0.8       
919.7000007629395 0.222      645.5999   -9999      -9999      8.892296   3.0955     4.654999   5.203299   4.1675     3.4796     2.926      2.810001   2.689001   1.934      5.7362     -9999      -9999      -9999      -9999      -9999      2.971644   -9999      -9999      577.777    -9999      0.4431206  0.8       
919.8000011444092 0.222      644.9552   -9999      -9999      8.835081   3.083      4.576799   5.101498   4.1595     3.4987     2.941      2.945001   2.810001   1.969      5.865201   -9999      -9999      -9999      -9999      -9999      2.980732   -9999      -9999      577.665    -9999      0.4208904  0.8       
919.8999996185303 0.222      643.105    -9999      -9999      8.768019   3.1066     4.5196     5.000401   4.1561     3.5078     2.984      3.043      2.876      1.996      6.027899   -9999      -9999      -9999      -9999      -9999      3.006912   -9999      -9999      577.421    -9999      0.400846   0.8       
920        0.222      640.2938   -9999      -9999      8.668523   3.153      4.4809     4.9157     4.1608     3.5164     3.034      3.012      2.87       2.002      6.220601   -9999      -9999      -9999      -9999      -9999      3.038996   -9999      -9999      577.136    -9999      0.3699488  0.8       
920.1000003814697 0.222      636.7769   -9999      -9999      8.525581   3.2084     4.4761     4.8546     4.1675     3.5334     3.065      3.028001   2.958001   1.978      6.431001   -9999      -9999      -9999      -9999      -9999      3.062499   -9999      -9999      576.871    -9999      0.3243041  0.8       
920.2000007629395 0.222      632.6329   -9999      -9999      8.368032   3.2845     4.5203     4.8021     4.1628     3.5544     3.078001   3.232002   3.184001   1.927      6.669502   -9999      -9999      -9999      -9999      -9999      3.079      -9999      -9999      576.678    -9999      0.27902    0.8       
920.3000011444092 0.222      628.0381   -9999      -9999      8.2472     3.3641     4.5741     4.7456     4.1447     3.576101   3.192002   3.454      3.371      1.861999   6.924803   -9999      -9999      -9999      -9999      -9999      3.147187   -9999      -9999      576.556    -9999      0.2510546  0.8       
920.3999996185303 0.222      623.188    -9999      -9999      8.188667   3.4071     4.6013     4.6898     4.1192     3.6023     3.355999   3.486      3.38       1.795      7.196999   -9999      -9999      -9999      -9999      -9999      3.239477   -9999      -9999      576.495    -9999      0.2436156  0.8       
920.5      0.222      618.2429   -9999      -9999      8.168265   3.4195     4.6108     4.6314     4.0843     3.6377     3.484      3.33       3.254      1.745      7.5141     -9999      -9999      -9999      -9999      -9999      3.313845   -9999      -9999      576.434    -9999      0.2465643  0.8       
920.6000003814697 0.222      612.5049   -9999      -9999      8.143511   3.4223     4.616199   4.5709     4.0433     3.6784     3.486      3.165999   3.128      1.711      7.849502   -9999      -9999      -9999      -9999      -9999      3.330533   -9999      -9999      576.342    -9999      0.2462349  0.8       
920.7000007629395 0.222      606        -9999      -9999      8.119848   3.4105     4.6122     4.5237     4.0111     3.723701   3.389999   3.049      3.03       1.695      8.179302   -9999      -9999      -9999      -9999      -9999      3.301854   -9999      -9999      576.22     -9999      0.2452495  0.8       
