~Version
 VERS              .         2.0                           : CWLS LOG ASCII STANDARD - VERSION 2.0
 WRAP              .         NO                            : ONE LINE PER DEPTH STEP
 DLM               .         SPACE                         : DELIMITING CHARACTER(SPACE TAB OR COMMA)
~Well Information
#_______________________________________________________________________________
#
#PARAMETER_NAME    .UNIT     VALUE                         : DESCRIPTION
#_______________________________________________________________________________
STRT               .M        900                           : First reference value
STOP               .M        1195.30001831055              : Last reference value
STEP               .M        0.1                           : Step increment
NULL               .         -9999                         : Missing value
COMP               .                                       : Company
WELL               .         7768                          : Well name
FLD                .         УЗЕНЬ                         : Field
LOC                .                                       : Location
CNTY               .                                       : County
STAT               .                                       : State
CTRY               .                                       : Country
SRVC               .                                       : Service Company
DATE               .         7/10/2004                     : Date
UWI                .                                       : Unique Well ID
Block              .         6а                            : 
Cartographic_reference_system .         GCS_WGS_1984                  : ESRI,PE_10_3_1- <?xml version="1.0" encoding="utf-16"?><ILateBoundCoordinateReferenceSystem name="GCS_WGS_1984"><AuthorityCode>EPSG,4326</AuthorityCode></ILateBoundCoordinateReferenceSystem>
Category           .         Нефтяная                      : 
Condition          .         В работе                      : 
Date               .         30.03.2004                    : 
EREF               .m        87                            : 100.8
GRP                .         1111                          : Group name
Gorizont           .         14                            : 14
HZCS               .GCS_WGS_1984 WGS_1984_EASE-Grid_2.0_Global : ESRI,PE_10_3_1- <?xml version="1.0" encoding="utf-16"?><ILateBoundCoordinateReferenceSystem name="WGS_1984_EASE-Grid_2.0_Global"><AuthorityCode>EPSG,6933</AuthorityCode></ILateBoundCoordinateReferenceSystem>
ISS                .         БКЗ                           : Well surveys
Interpretator      .         Кушербаева А.С                : 
Kupol              .         основной                      : osnovnoi
LATI               .dega     0.6705369228                  : GCS_WGS_1984
LONG               .dega     0.4642774069                  : GCS_WGS_1984
Mud                .                                       : 
Mud_density        .                                       : 
Mud_resistivity    .                                       : 
NGDU               .         НГДУ-2                        : 
ORIGINALWELLNAME   .         7768                          : 
Spud_date          .         2004                          : 1961
TIME               .         9                             : LOG TIME
Viscosity          .                                       : 
X                  .m        44796.4                       : 46154
Y                  .m        85540.7                       : 85761.93
YEAR               .         2019г                         : 
~Parameter Information Block
#_______________________________________________________________________________
#
#PARAMETER_NAME    .UNIT     VALUE                         : DESCRIPTION
#_______________________________________________________________________________
SET                .         LQC_KAZNIPI_Petrel            : 
TLFamily_CALI      .         Caliper                       : 
TLFamily_CILD      .         Conductivity                  : 
TLFamily_COLL      .         Net Reservoir Flag            : 
TLFamily_CSAT      .         Fluid Code                    : 
TLFamily_DEPT      .         Measured Depth                : 
TLFamily_GR        .         Russian Gamma Ray             : 
TLFamily_GZ1       .         Gradient 045                  : 
TLFamily_GZ2       .         Gradient 105                  : 
TLFamily_GZ3       .         Gradient 225                  : 
TLFamily_GZ4       .         Gradient 425                  : 
TLFamily_GZ5       .         Gradient 850                  : 
TLFamily_LLS       .         Lateral Log Resistivity       : 
TLFamily_MINV      .         Micro Gradient Resistivity    : 
TLFamily_MNOR      .         Micro Resistivity             : 
TLFamily_NGLD      .         Neutron Gamma                 : 
TLFamily_OGZ       .         Gradient Inverted 225         : 
TLFamily_PHIE      .         Effective Porosity            : 
TLFamily_PHIEN     .         Effective Porosity            : 
TLFamily_PHIT      .         Porosity                      : 
TLFamily_PRMB      .         Permeability                  : 
TLFamily_PRMB_DGR  .         Permeability                  : 
TLFamily_RT        .         Formation Resistivity         : 
TLFamily_SOIL_ARCHIE .         Oil Saturation                : 
TLFamily_SOIL_DW   .         Oil Saturation                : 
TLFamily_SP        .         Spontaneous Potential         : 
TLFamily_VSH_FIN   .         Shale Volume                  : 
TLFamily_VSH_GR    .         Shale Volume                  : 
TLFamily_VSH_SP    .         Shale Volume                  : 
~Curve Information
#_______________________________________________________________________________
#
#LOGNAME           .UNIT     LOG_ID                        : DESCRIPTION
#_______________________________________________________________________________
DEPT               .M                                      :  
CALI               .м                                      : Каверномер 
CILD               .мСм/м                                  : Индукционный каротаж 
COLL               .unitless                               : Описание 
CSAT               .unitless                               : Описание 
GR                 .uR/h                                   : Гамма каротаж 
GZ1                .Ом·м                                   :  
GZ2                .Ом·м                                   :  
GZ3                .Ом·м                                   :  
GZ4                .Ом·м                                   :  
GZ5                .Ом·м                                   :  
LLS                .Ohmm                                   : Боковой каротаж 
MINV               .Ohmm                                   : Микро-градиент зонд 
MNOR               .Ohmm                                   : Микро-потенциал зонд 
NGLD               .у.е.                                   : Показания зонда НГК-60 аппаратуры ДРСТ-3-90 
OGZ                .Ом·м                                   :  
PHIE               .v/v                                    : Описание 
PHIEN              .v/v                                    :  
PHIT               .v/v                                    : Описание 
PRMB               .mD                                     :  
PRMB_DGR           .mD                                     :  
RT                 .ohmm                                   : УЭС пласта 
SOIL_ARCHIE        .v/v                                    :  
SOIL_DW            .v/v                                    :  
SP                 .мВ                                     : Потенциал самополяризации 
VSH_FIN            .v/v                                    : Описание 
VSH_GR             .v/v                                    : Shale volume 
VSH_SP             .v/v                                    : Shale Volume 
~Ascii
# ...
1167.800018310547 0.222      1284.281   -9999      -9999      9.535378   2.055594   1.755992   1.684893   1.483594   1.610991   1.589003   1.348034   1.692035   1.787988   3.13591    0.09513    0.09512991 0.3403526  0.1618812  0.8761487  1.552585   0          0.2887737  581.856    0.5330495  0.6847964  0.3813026 
1167.899993896484 0.222      1273.797   -9999      -9999      9.520823   2.025802   1.711803   1.647502   1.452702   1.561203   1.603999   1.547987   1.893987   1.720004   3.190296   0.103067   0.1030673  0.3410752  0.2270958  0.9051843  1.566562   0          0.3113816  581.51     0.5264254  0.6757403  0.3771103 
1168       0.221      1260.12    -9999      -9999      9.447503   2.0168     1.7301     1.6383     1.446      1.5199     1.64       1.681      1.996      1.64       3.2843     0.148844   0.1606874  0.342767   1.599964   0.9441556  1.592821   0.275599   0.4021002  581.134    0.372329   0.6642089  0.3723291 
1168.100006103516 0.2209999  1242.851   -9999      -9999      9.382196   2.036901   1.830107   1.654702   1.4534     1.487099   1.624998   1.660994   1.933993   1.609998   3.318594   0.156142   0.1650654  0.3447568  2.184171   0.9914102  1.596245   0.315074   0.4154446  580.717    0.366754   0.6510943  0.3667541 
1168.200012207031 0.2199998  1224.03    -9999      -9999      9.312471   2.0618     1.95471    1.687003   1.454797   1.467399   1.584997   1.560993   1.828      1.573997   3.227772   0.16344    0.1704082  0.3464054  2.981697   1.044339   1.588496   0.348382   0.4257403  580.228    0.359793   0.6374125  0.3597931 
1168.300018310547 0.2179998  1206.043   -9999      -9999      9.228777   2.057696   2.039706   1.709298   1.431892   1.458199   1.560007   1.506995   1.832016   1.547001   3.009936   0.171198   0.1754722  0.3471968  4.151072   1.100045   1.587759   0.382703   0.4364662  579.6589   0.351368   0.6240292  0.3513676 
1168.399993896484 0.2170001  1189.316   -9999      -9999      9.2064     2.038301   2.071698   1.697401   1.387603   1.4542     1.596998   1.478002   1.919994   1.554      2.679419   0.172432   0.1781861  0.3467779  4.375394   1.156586   1.617862   0.395225   0.4428546  578.9971   0.34135    0.6113874  0.3413504 
1168.5     0.215      1169.154   8          2          9.184719   1.9752     2.0377     1.6607     1.3332     1.4595     1.653      1.513      2.049      1.562      2.2892     0.172288   0.1808341  0.3449717  4.348604   1.214137   1.659985   0.404521   0.44802    578.316    0.331275   0.5993835  0.3312752 
1168.600006103516 0.2129999  1146.063   8          2          9.165879   1.902599   1.921391   1.613397   1.281498   1.480502   1.739003   1.587      2.150999   1.614003   1.946085   0.170402   0.1796003  0.3417713  4.012515   1.275004   1.719898   0.410251   0.4522864  577.6439   0.321682   0.5875301  0.3216816 
1168.700012207031 0.2119998  1123.509   8          2          9.132341   1.887402   1.774287   1.564797   1.2479     1.517907   1.794      1.583989   2.125986   1.656005   1.721384   0.168249   0.1788691  0.3373133  3.660477   1.344026   1.764255   0.410959   0.4521557  577.0139   0.31313    0.5750175  0.3131303 
1168.800018310547 0.2099998  1104.843   8          2          9.097254   1.906108   1.674993   1.540505   1.250607   1.574416   1.796      1.493982   2.010979   1.695019   1.597091   0.164993   0.1785438  0.3318582  3.185875   1.428075   1.77993    0.40048    0.4449179  576.3419   0.304114   0.5609501  0.3041141 
1168.899993896484 0.2090001  1088.551   8          2          9.016964   1.948298   1.639002   1.568098   1.290298   1.664894   1.794      1.399006   1.902007   1.798994   1.546803   0.164588   0.1728422  0.3257547  3.131318   1.535222   1.791998   0.401324   0.4399048  575.6301   0.294736   0.5446208  0.2947364 
1169       0.208      1072.044   8          2          8.94977    2.0259     1.69       1.6416     1.3581     1.7797     1.788      1.39       1.918      1.862      1.5662     0.162405   0.1710802  0.3194059  2.85294    1.674201   1.802938   0.39411    0.4318956  574.806    0.283923   0.5256855  0.283923  
1169.100006103516 0.208      1057.311   8          2          8.883569   2.148411   1.965321   1.75511    1.458007   1.892507   1.855011   1.448004   2.090014   1.913006   1.621304   0.159743   0.1703281  0.3132468  2.546747   1.852566   1.848997   0.391995   0.4286355  573.952    0.273126   0.5043979  0.2731265 
1169.200012207031 0.208      1045.936   8          2          8.767161   2.34253    2.343338   1.920824   1.581114   2.012716   2.047033   1.51001    2.335029   2.013005   1.686608   0.161081   0.1652709  0.3077034  2.696305   2.073985   1.952851   0.4188     0.4397324  573.0969   0.262815   0.4816726  0.2628154 
1169.300018310547 0.2080002  1037.449   8          2          8.666084   2.596554   2.672557   2.132941   1.698619   2.147824   2.332072   1.597011   2.587029   2.051005   1.75171    0.161481   0.1647422  0.3031469  2.742697   2.333138   2.092758   0.446071   0.4543562  572.3649   0.254675   0.4590625  0.2546746 
1169.399993896484 0.2089999  1028.841   8          2          8.535687   2.90738    3.004279   2.370685   1.803293   2.285591   2.756972   1.656996   2.74999    2.078998   1.808796   0.16481    0.164288   0.2998677  3.161107   2.609138   2.285104   0.490437   0.4785362  571.785    0.248875   0.4385756  0.2488754 
1169.5     0.21       1020.555   8          2          8.306353   3.264      3.3132     2.6089     1.902      2.4968     3.127      1.674      2.84       2.107      1.8525     0.17508    0.1627262  0.2980447  4.898515   2.862204   2.443884   0.549332   0.5058487  571.449    0.246429   0.4223068  0.2464292 
1169.600006103516 0.2120001  1014.239   8          2          8.173734   3.608715   3.583313   2.82611    1.983204   2.838425   3.442014   1.657999   2.898003   2.104999   1.887403   0.18044    0.1627246  0.2977334  6.156651   3.038041   2.571402   0.582125   0.5237244  571.337    0.246947   0.4121498  0.2469471 
1169.700012207031 0.2140004  1011.435   8          2          8.15622    3.867014   3.793113   2.996413   2.045709   3.281862   3.677015   1.647002   2.949006   2.089993   1.92981    0.181518   0.1627929  0.2988714  6.44632    3.086171   2.66188    0.595641   0.5340711  571.459    0.250587   0.4095129  0.2505867 
1169.800018310547 0.2170004  1013.915   8          2          8.198715   3.983788   3.896399   3.10211    2.12162    3.835706   3.805007   1.664005   3.000998   2.030992   2.011824   0.181504   0.1657721  0.3012908  6.44247    2.984297   2.704296   0.600214   0.5399545  571.7541   0.256685   0.4151646  0.2566852 
1169.899993896484 0.2189999  1021.308   8          2          8.30123    3.918604   3.8917     3.157197   2.233793   4.460859   3.844997   1.691998   2.989001   1.986003   2.147591   0.17999    0.1668721  0.3047578  6.039617   2.755997   2.708553   0.596136   0.5419353  572.182    0.264885   0.4288779  0.2648845 
1170       0.221      1032.545   -9999      -9999      8.455591   3.688      3.8624     3.2058     2.4069     5.031301   3.497      1.729      2.864      1.945      2.3867     0.176658   0.1673257  0.309027   5.239537   2.462033   2.56882    0.569942   0.5300955  572.65     0.274022   0.4490925  0.2740217 
1170.100006103516 0.222      1045.762   -9999      -9999      8.63952    3.378481   3.840009   3.33832    2.816839   5.49162    2.889957   1.705992   2.595976   1.904997   2.844539   0.13648    0.1364797  0.3138563  0.9442757  2.17464    2.320964   0.366441   0.4593442  573.087    0.3777502  0.472441   0.2830594 
1170.200012207031 0.2220001  1059.861   -9999      -9999      8.871584   3.087585   3.991956   3.682868   3.530896   5.835823   2.258945   1.587978   2.230953   1.855994   3.562494   0.135816   0.1358162  0.3190516  0.9179093  1.952738   2.038183   0.30892    0.4279559  573.433    0.3923235  0.4936674  0.2909794 
1170.300018310547 0.223      1077.967   -9999      -9999      9.08286    2.970912   4.482306   4.28523    4.41066    6.022109   1.846969   1.415969   1.873953   1.804991   4.419242   0.136939   0.136939   0.3244929  0.9629431  1.834976   1.827377   0.26788    0.4040866  573.687    0.4019962  0.5063666  0.2976258 
