~Version
 VERS              .         2.0                           : CWLS LOG ASCII STANDARD - VERSION 2.0
 WRAP              .         NO                            : ONE LINE PER DEPTH STEP
 DLM               .         SPACE                         : DELIMITING CHARACTER(SPACE TAB OR COMMA)
~Well Information
#_______________________________________________________________________________
#
#PARAMETER_NAME    .UNIT     VALUE                         : DESCRIPTION
#_______________________________________________________________________________
STRT               .M        900                           : First reference value
STOP               .M        1195.30001831055              : Last reference value
STEP               .M        0.1                           : Step increment
NULL               .         -9999                         : Missing value
COMP               .                                       : Company
WELL               .         7768                          : Well name
FLD                .         УЗЕНЬ                         : Field
LOC                .                                       : Location
CNTY               .                                       : County
STAT               .                                       : State
CTRY               .                                       : Country
SRVC               .                                       : Service Company
DATE               .         7/10/2004                     : Date
UWI                .                                       : Unique Well ID
Block              .         6а                            : 
Cartographic_reference_system .         GCS_WGS_1984                  : ESRI,PE_10_3_1- <?xml version="1.0" encoding="utf-16"?><ILateBoundCoordinateReferenceSystem name="GCS_WGS_1984"><AuthorityCode>EPSG,4326</AuthorityCode></ILateBoundCoordinateReferenceSystem>
Category           .         Нефтяная                      : 
Condition          .         В работе                      : 
Date               .         30.03.2004                    : 
EREF               .m        87                            : 100.8
GRP                .         1111                          : Group name
Gorizont           .         14                            : 14
HZCS               .GCS_WGS_1984 WGS_1984_EASE-Grid_2.0_Global : ESRI,PE_10_3_1- <?xml version="1.0" encoding="utf-16"?><ILateBoundCoordinateReferenceSystem name="WGS_1984_EASE-Grid_2.0_Global"><AuthorityCode>EPSG,6933</AuthorityCode></ILateBoundCoordinateReferenceSystem>
ISS                .         БКЗ                           : Well surveys
Interpretator      .         Кушербаева А.С                : 
Kupol              .         основной                      : osnovnoi
LATI               .dega     0.6705369228                  : GCS_WGS_1984
LONG               .dega     0.4642774069                  : GCS_WGS_1984
Mud                .                                       : 
Mud_density        .                                       : 
Mud_resistivity    .                                       : 
NGDU               .         НГДУ-2                        : 
ORIGINALWELLNAME   .         7768                          : 
Spud_date          .         2004                          : 1961
TIME               .         9                             : LOG TIME
Viscosity          .                                       : 
X                  .m        44796.4                       : 46154
Y                  .m        85540.7                       : 85761.93
YEAR               .         2019г                         : 
~Parameter Information Block
#_______________________________________________________________________________
#
#PARAMETER_NAME    .UNIT     VALUE                         : DESCRIPTION
#_______________________________________________________________________________
SET                .         LQC_KAZNIPI_Petrel            : 
TLFamily_CALI      .         Caliper                       : 
TLFamily_CILD      .         Conductivity                  : 
TLFamily_COLL      .         Net Reservoir Flag            : 
TLFamily_CSAT      .         Fluid Code                    : 
TLFamily_DEPT      .         Measured Depth                : 
TLFamily_GR        .         Russian Gamma Ray             : 
TLFamily_GZ1       .         Gradient 045                  : 
TLFamily_GZ2       .         Gradient 105                  : 
TLFamily_GZ3       .         Gradient 225                  : 
TLFamily_GZ4       .         Gradient 425                  : 
TLFamily_GZ5       .         Gradient 850                  : 
TLFamily_LLS       .         Lateral Log Resistivity       : 
TLFamily_MINV      .         Micro Gradient Resistivity    : 
TLFamily_MNOR      .         Micro Resistivity             : 
TLFamily_NGLD      .         Neutron Gamma                 : 
TLFamily_OGZ       .         Gradient Inverted 225         : 
TLFamily_PHIE      .         Effective Porosity            : 
TLFamily_PHIEN     .         Effective Porosity            : 
TLFamily_PHIT      .         Porosity                      : 
TLFamily_PRMB      .         Permeability                  : 
TLFamily_PRMB_DGR  .         Permeability                  : 
TLFamily_RT        .         Formation Resistivity         : 
TLFamily_SOIL_ARCHIE .         Oil Saturation                : 
TLFamily_SOIL_DW   .         Oil Saturation                : 
TLFamily_SP        .         Spontaneous Potential         : 
TLFamily_VSH_FIN   .         Shale Volume                  : 
TLFamily_VSH_GR    .         Shale Volume                  : 
TLFamily_VSH_SP    .         Shale Volume                  : 
~Curve Information
#_______________________________________________________________________________
#
#LOGNAME           .UNIT     LOG_ID                        : DESCRIPTION
#_______________________________________________________________________________
DEPT               .M                                      :  
CALI               .м                                      : Каверномер 
CILD               .мСм/м                                  : Индукционный каротаж 
COLL               .unitless                               : Описание 
CSAT               .unitless                               : Описание 
GR                 .uR/h                                   : Гамма каротаж 
GZ1                .Ом·м                                   :  
GZ2                .Ом·м                                   :  
GZ3                .Ом·м                                   :  
GZ4                .Ом·м                                   :  
GZ5                .Ом·м                                   :  
LLS                .Ohmm                                   : Боковой каротаж 
MINV               .Ohmm                                   : Микро-градиент зонд 
MNOR               .Ohmm                                   : Микро-потенциал зонд 
NGLD               .у.е.                                   : Показания зонда НГК-60 аппаратуры ДРСТ-3-90 
OGZ                .Ом·м                                   :  
PHIE               .v/v                                    : Описание 
PHIEN              .v/v                                    :  
PHIT               .v/v                                    : Описание 
PRMB               .mD                                     :  
PRMB_DGR           .mD                                     :  
RT                 .ohmm                                   : УЭС пласта 
SOIL_ARCHIE        .v/v                                    :  
SOIL_DW            .v/v                                    :  
SP                 .мВ                                     : Потенциал самополяризации 
VSH_FIN            .v/v                                    : Описание 
VSH_GR             .v/v                                    : Shale volume 
VSH_SP             .v/v                                    : Shale Volume 
~Ascii
# ...
1053.400009155273 0.2300001  1429.346   -9999      -9999      8.177      1.751601   1.7465     2.0067     1.944898   1.7377     1.447      1.149005   1.531003   1.255001   1.8364     0.152698   0.1526977  0.3784842  1.885799   2.860445   1.404372   0.02017454 0.4075225  583.606    0.4952399  0.4224128  0.4952399 
1053.5     0.231      1432.306   -9999      -9999      8.168795   1.7648     1.7492     2.01       1.9261     1.7324     1.444      1.201      1.568      1.269      1.833      0.150955   0.1509548  0.3803889  1.750697   2.858793   1.401886   0.009505186 0.4064184  583.667    0.4969327  0.4225125  0.4969327 
1053.600006103516 0.232      1434.839   -9999      -9999      8.173366   1.791102   1.7533     2.0107     1.903998   1.721899   1.482003   1.268002   1.619002   1.326004   1.8283     0.145571   0.1455713  0.3814497  1.391509   2.82491    1.418647   0          0.4032206  583.728    0.4986326  0.4245745  0.4986326 
1053.699996948242 0.232      1437.506   -9999      -9999      8.204304   1.820899   1.7608     2.0054     1.876401   1.7101     1.524999   1.298999   1.653999   1.386998   1.8243     0.139849   0.1398491  0.3819737  1.090187   2.759423   1.438019   0          0.3992499  583.789    0.5003358  0.4286603  0.5003358 
1053.800003051758 0.232      1440.507   -9999      -9999      8.24497    1.8354     1.7635     1.9942     1.849599   1.7062     1.56       1.287999   1.661999   1.428      1.8222     0.136011   0.1360109  0.3823148  0.9255754  2.667927   1.452818   0          0.3967677  583.829    0.5014555  0.4346034  0.5014555 
1053.900009155273 0.231      1443.629   -9999      -9999      8.294953   1.829198   1.753999   1.979799   1.828799   1.711401   1.547998   1.265997   1.622996   1.428997   1.822901   0.135547   0.1355467  0.382721   0.9074387  2.56021    1.445613   0          0.3949572  583.87     0.5026067  0.441979   0.5026067 
1054       0.231      1446.567   -9999      -9999      8.357715   1.8091     1.7397     1.9673     1.814      1.7272     1.523      1.237      1.578      1.393      1.8276     0.138211   0.1382114  0.3832276  1.016626   2.448241   1.432299   0          0.3968177  583.911    0.50376    0.4501238  0.50376   
1054.100006103516 0.231      1449.317   -9999      -9999      8.435865   1.777198   1.7302     1.956199   1.802599   1.746901   1.474998   1.238002   1.553998   1.327996   1.8343     0.143711   0.1437107  0.3836384  1.285389   2.344014   1.4085     0          0.4005208  583.911    0.5037599  0.4581915  0.5037599 
1054.199996948242 0.231      1452.228   -9999      -9999      8.505848   1.746801   1.7268     1.9463     1.7925     1.766599   1.446001   1.262999   1.518001   1.266002   1.8411     0.149429   0.1494288  0.3836028  1.640384   2.258196   1.39303    0          0.4055441  583.86     0.5023255  0.4652233  0.5023255 
1054.300003051758 0.232      1455.847   -9999      -9999      8.54295    1.7309     1.7308     1.9437     1.7845     1.790801   1.423      1.274999   1.495      1.23       1.8485     0.153224   0.1532235  0.3827609  1.928583   2.198661   1.380361   0.01516727 0.4073903  583.779    0.5000558  0.4703266  0.5000558 
1054.400009155273 0.2330001  1460.108   -9999      -9999      8.546577   1.726      1.741701   1.947001   1.7804     1.818403   1.421      1.254998   1.509003   1.238005   1.858501   0.153108   0.1531082  0.3808989  1.919065   2.170216   1.377329   0.01349991 0.4047305  583.718    0.4983534  0.472834   0.4983534 
1054.5     0.234      1464.312   -9999      -9999      8.536177   1.7281     1.7506     1.9522     1.7824     1.8486     1.424      1.238      1.547      1.293      1.8713     0.148557   0.1485572  0.3780613  1.580499   2.174064   1.376715   0          0.3951702  583.707    0.4980455  0.4724922  0.4980455 
1054.600006103516 0.235      1467.705   -9999      -9999      8.524273   1.744002   1.7546     1.960801   1.789801   1.889903   1.433001   1.237      1.567      1.389007   1.884701   0.14015    0.1401497  0.3745657  1.104272   2.208078   1.379502   0          0.3793241  583.738    0.4989101  0.4695064  0.4989101 
1054.699996948242 0.235      1470.078   -9999      -9999      8.49049    1.770399   1.754      1.9719     1.7992     1.937199   1.447999   1.229      1.571      1.497997   1.8975     0.130837   0.1308369  0.3709247  0.7422951  2.266461   1.385658   0          0.3614442  583.748    0.4991895  0.4645299  0.4991895 
1054.800003051758 0.235      1471.795   -9999      -9999      8.430855   1.7856     1.7451     1.9798     1.8066     1.971901   1.465      1.244      1.575999   1.587001   1.9116     0.123685   0.1236847  0.3676869  0.5471475  2.339438   1.392717   0          0.3467581  583.707    0.4980454  0.4585574  0.4980454 
1054.900009155273 0.235      1472.573   -9999      -9999      8.347515   1.7953     1.731499   1.9831     1.805899   1.992301   1.474002   1.251997   1.550995   1.621998   1.927702   0.122116   0.1221163  0.3652722  0.511732   2.413359   1.396461   0          0.3419203  583.555    0.4938264  0.4527692  0.4938264 
1055       0.235      1472.284   -9999      -9999      8.284199   1.7987     1.7193     1.9811     1.7965     2.0008     1.493      1.215      1.493      1.598      1.9452     0.126269   0.126269   0.3638462  0.6108945  2.472488   1.405963   0          0.3500522  583.321    0.4873945  0.4483161  0.4873945 
1055.100006103516 0.2339999  1471.089   -9999      -9999      8.272036   1.786298   1.704299   1.973199   1.7871     1.996799   1.499998   1.125994   1.414998   1.536996   1.967402   0.133981   0.1339813  0.3632891  0.8488116  2.502601   1.409787   0          0.3637061  583.036    0.4796632  0.4461055  0.4796632 
1055.199996948242 0.233      1469.372   -9999      -9999      8.271999   1.758501   1.6866     1.9654     1.7831     1.9824     1.474001   1.030003   1.376001   1.470002   1.995599   0.141716   0.1417161  0.3632635  1.180544   2.495413   1.398043   0          0.3737218  582.802    0.4733991  0.4466297  0.4733991 
1055.300003051758 0.231      1467.482   -9999      -9999      8.29846    1.7385     1.6771     1.9581     1.7824     1.9673     1.415999   0.9839993  1.392001   1.424      2.027201   0.147034   0.1470336  0.3633504  1.481101   2.451877   1.371294   0          0.3761305  582.639    0.4690787  0.4498512  0.4690787 
1055.400009155273 0.2299998  1465.266   -9999      -9999      8.335054   1.728099   1.672999   1.948299   1.7818     1.956799   1.374      0.9609992  1.414      1.419003   2.058102   0.147899   0.1478995  0.3632002  1.536761   2.382613   1.351821   0          0.3728317  582.588    0.4677358  0.4551458  0.4677358 
1055.5     0.228      1462.8     -9999      -9999      8.429862   1.7149     1.6648     1.9378     1.7771     1.9509     1.374      0.952      1.417      1.451      2.0863     0.144923   0.1449231  0.3626427  1.353579   2.305198   1.352837   0          0.3677917  582.619    0.4685524  0.4613263  0.4685524 
1055.600006103516 0.227      1460.317   -9999      -9999      8.524985   1.696898   1.648498   1.925999   1.764299   1.941099   1.39       1.030005   1.432002   1.504003   2.113802   0.139646   0.1396455  0.3617203  1.080788   2.239934   1.361712   0          0.3603091  582.71     0.4709571  0.4667683  0.4709571 
1055.699996948242 0.227      1457.938   -9999      -9999      8.577701   1.669901   1.622001   1.908201   1.744801   1.9312     1.398      1.110997   1.457999   1.553998   2.144799   0.13497    0.1349699  0.3606445  0.8853802  2.206226   1.36716    0          0.3525116  582.761    0.4723085  0.4696674  0.4723085 
1055.800003051758 0.226      1455.426   -9999      -9999      8.576885   1.642199   1.588599   1.885899   1.7274     1.924      1.388      1.117998   1.445998   1.588      2.203902   0.132356   0.1323558  0.3596968  0.7919766  2.220645   1.36328    0          0.3459559  582.731    0.4715133  0.4684197  0.4715133 
1055.900009155273 0.226      1452.276   -9999      -9999      8.541265   1.6201     1.557999   1.866199   1.726701   1.916099   1.372999   1.064994   1.379994   1.596999   2.271804   0.132659   0.1326588  0.3591234  0.8022776  2.296583   1.357411   0          0.3444014  582.609    0.4682881  0.4620323  0.4682881 
