~Version
 VERS              .         2.0                           : CWLS LOG ASCII STANDARD - VERSION 2.0
 WRAP              .         NO                            : ONE LINE PER DEPTH STEP
 DLM               .         SPACE                         : DELIMITING CHARACTER(SPACE TAB OR COMMA)
~Well Information
#_______________________________________________________________________________
#
#PARAMETER_NAME    .UNIT     VALUE                         : DESCRIPTION
#_______________________________________________________________________________
STRT               .M        900                           : First reference value
STOP               .M        1195.30001831055              : Last reference value
STEP               .M        0.1                           : Step increment
NULL               .         -9999                         : Missing value
COMP               .                                       : Company
WELL               .         7768                          : Well name
FLD                .         УЗЕНЬ                         : Field
LOC                .                                       : Location
CNTY               .                                       : County
STAT               .                                       : State
CTRY               .                                       : Country
SRVC               .                                       : Service Company
DATE               .         7/10/2004                     : Date
UWI                .                                       : Unique Well ID
Block              .         6а                            : 
Cartographic_reference_system .         GCS_WGS_1984                  : ESRI,PE_10_3_1- <?xml version="1.0" encoding="utf-16"?><ILateBoundCoordinateReferenceSystem name="GCS_WGS_1984"><AuthorityCode>EPSG,4326</AuthorityCode></ILateBoundCoordinateReferenceSystem>
Category           .         Нефтяная                      : 
Condition          .         В работе                      : 
Date               .         30.03.2004                    : 
EREF               .m        87                            : 100.8
GRP                .         1111                          : Group name
Gorizont           .         14                            : 14
HZCS               .GCS_WGS_1984 WGS_1984_EASE-Grid_2.0_Global : ESRI,PE_10_3_1- <?xml version="1.0" encoding="utf-16"?><ILateBoundCoordinateReferenceSystem name="WGS_1984_EASE-Grid_2.0_Global"><AuthorityCode>EPSG,6933</AuthorityCode></ILateBoundCoordinateReferenceSystem>
ISS                .         БКЗ                           : Well surveys
Interpretator      .         Кушербаева А.С                : 
Kupol              .         основной                      : osnovnoi
LATI               .dega     0.6705369228                  : GCS_WGS_1984
LONG               .dega     0.4642774069                  : GCS_WGS_1984
Mud                .                                       : 
Mud_density        .                                       : 
Mud_resistivity    .                                       : 
NGDU               .         НГДУ-2                        : 
ORIGINALWELLNAME   .         7768                          : 
Spud_date          .         2004                          : 1961
TIME               .         9                             : LOG TIME
Viscosity          .                                       : 
X                  .m        44796.4                       : 46154
Y                  .m        85540.7                       : 85761.93
YEAR               .         2019г                         : 
~Parameter Information Block
#_______________________________________________________________________________
#
#PARAMETER_NAME    .UNIT     VALUE                         : DESCRIPTION
#_______________________________________________________________________________
SET                .         LQC_KAZNIPI_Petrel            : 
TLFamily_CALI      .         Caliper                       : 
TLFamily_CILD      .         Conductivity                  : 
TLFamily_COLL      .         Net Reservoir Flag            : 
TLFamily_CSAT      .         Fluid Code                    : 
TLFamily_DEPT      .         Measured Depth                : 
TLFamily_GR        .         Russian Gamma Ray             : 
TLFamily_GZ1       .         Gradient 045                  : 
TLFamily_GZ2       .         Gradient 105                  : 
TLFamily_GZ3       .         Gradient 225                  : 
TLFamily_GZ4       .         Gradient 425                  : 
TLFamily_GZ5       .         Gradient 850                  : 
TLFamily_LLS       .         Lateral Log Resistivity       : 
TLFamily_MINV      .         Micro Gradient Resistivity    : 
TLFamily_MNOR      .         Micro Resistivity             : 
TLFamily_NGLD      .         Neutron Gamma                 : 
TLFamily_OGZ       .         Gradient Inverted 225         : 
TLFamily_PHIE      .         Effective Porosity            : 
TLFamily_PHIEN     .         Effective Porosity            : 
TLFamily_PHIT      .         Porosity                      : 
TLFamily_PRMB      .         Permeability                  : 
TLFamily_PRMB_DGR  .         Permeability                  : 
TLFamily_RT        .         Formation Resistivity         : 
TLFamily_SOIL_ARCHIE .         Oil Saturation                : 
TLFamily_SOIL_DW   .         Oil Saturation                : 
TLFamily_SP        .         Spontaneous Potential         : 
TLFamily_VSH_FIN   .         Shale Volume                  : 
TLFamily_VSH_GR    .         Shale Volume                  : 
TLFamily_VSH_SP    .         Shale Volume                  : 
~Curve Information
#_______________________________________________________________________________
#
#LOGNAME           .UNIT     LOG_ID                        : DESCRIPTION
#_______________________________________________________________________________
DEPT               .M                                      :  
CALI               .м                                      : Каверномер 
CILD               .мСм/м                                  : Индукционный каротаж 
COLL               .unitless                               : Описание 
CSAT               .unitless                               : Описание 
GR                 .uR/h                                   : Гамма каротаж 
GZ1                .Ом·м                                   :  
GZ2                .Ом·м                                   :  
GZ3                .Ом·м                                   :  
GZ4                .Ом·м                                   :  
GZ5                .Ом·м                                   :  
LLS                .Ohmm                                   : Боковой каротаж 
MINV               .Ohmm                                   : Микро-градиент зонд 
MNOR               .Ohmm                                   : Микро-потенциал зонд 
NGLD               .у.е.                                   : Показания зонда НГК-60 аппаратуры ДРСТ-3-90 
OGZ                .Ом·м                                   :  
PHIE               .v/v                                    : Описание 
PHIEN              .v/v                                    :  
PHIT               .v/v                                    : Описание 
PRMB               .mD                                     :  
PRMB_DGR           .mD                                     :  
RT                 .ohmm                                   : УЭС пласта 
SOIL_ARCHIE        .v/v                                    :  
SOIL_DW            .v/v                                    :  
SP                 .мВ                                     : Потенциал самополяризации 
VSH_FIN            .v/v                                    : Описание 
VSH_GR             .v/v                                    : Shale volume 
VSH_SP             .v/v                                    : Shale Volume 
~Ascii
# ...
1147       0.214      815.1221   1          2          6.133189   3.2957     4.3603     3.5906     3.5975     2.5945     2.288      1.664      2.945      1.666      3.9045     0.235959   0.2359594  0.3412722  65.71902   35.65953   2.338933   0.592069   0.5870057  564.928    0.1375668  0.150768   0.1243655 
1147.100006103516 0.2140001  817.6499   1          2          6.138867   3.481311   4.493006   3.662106   3.686003   2.618801   2.531024   1.482995   2.867998   1.734003   3.865595   0.230187   0.2301869  0.3394045  51.3783    35.7254    2.455897   0.59277    0.5915269  565.061    0.1376256  0.1506544  0.1245969 
1147.199996948242 0.215      820.4512   1          2          6.171432   3.668294   4.596597   3.760697   3.735098   2.6306     2.952986   1.408002   2.831001   1.777999   3.777503   0.226424   0.2264239  0.3378955  43.76025   35.6401    2.648272   0.603744   0.6029388  565.122    0.1377496  0.1508015  0.1246978 
1147.300003051758 0.216      823.5409   1          2          6.203339   3.830904   4.666603   3.858502   3.7459     2.6339     3.334008   1.501005   2.945007   1.791      3.648395   0.225286   0.225286   0.3370343  41.68708   35.48828   2.808605   0.615581   0.6130609  565.111    0.1378648  0.1510646  0.124665  
1147.400009155273 0.2170001  827.8744   1          2          6.208966   3.969308   4.719604   3.937305   3.738498   2.634599   3.604002   1.668015   3.179014   1.778996   3.495886   0.226285   0.2262851  0.3369447  43.50159   35.3591    2.912699   0.626029   0.6206642  565.05     0.1379149  0.1512897  0.1245401 
1147.5     0.218      833.3279   1          2          6.204914   4.0572     4.7639     3.9905     3.7176     2.626      3.626      1.843      3.344      1.729      3.3482     0.230525   0.2305249  0.3375628  52.12432   35.32368   2.912252   0.633916   0.6239129  564.989    0.137884   0.1513517  0.1244163 
1147.600006103516 0.2190001  838.9556   1          2          6.198723   4.085601   4.825107   4.022601   3.690798   2.606398   3.47699    1.908      3.296994   1.701998   3.223894   0.232854   0.2328537  0.3386643  57.56771   35.418     2.842014   0.632602   0.6215877  564.938    0.1377493  0.151187   0.1243117 
1147.699996948242 0.22       843.7782   1          2          6.188577   4.1022     4.939497   4.042299   3.665901   2.575501   3.311005   1.905      3.207003   1.673001   3.124403   0.235381   0.2353811  0.3399386  64.1188    35.62863   2.765578   0.630945   0.6189346  564.898    0.1375245  0.1508214  0.1242276 
1147.800003051758 0.22       848.0752   1          2          6.176232   4.139602   5.125808   4.060101   3.645799   2.533499   3.196      1.92       3.240002   1.626      3.046398   0.23945    0.2394504  0.3410862  76.26984   35.89649   2.710057   0.633584   0.6185123  564.847    0.1372426  0.1503608  0.1241243 
1147.900009155273 0.2199999  852.3974   1          2          6.159811   4.204007   5.376725   4.085702   3.611494   2.487596   3.179999   1.913995   3.299995   1.614      2.980594   0.240543   0.2405428  0.3418949  79.9094    36.13208   2.696196   0.634343   0.6187811  564.816    0.1370085  0.1499597  0.1240574 
1148       0.219      856.2179   1          2          6.145025   4.2829     5.6543     4.1113     3.5464     2.443      3.168      1.857      3.252      1.618      2.9161     0.240241   0.2402413  0.3422942  78.8868    36.23639   2.685213   0.632879   0.6180668  564.796    0.1368968  0.1497833  0.1240103 
1148.100006103516 0.2169999  859.1612   1          2          6.112393   4.312596   5.8463     4.111998   3.44579    2.400998   3.129994   1.825002   3.144996   1.643003   2.852996   0.238091   0.2380912  0.3423755  71.97491   36.12553   2.664362   0.627251   0.6152084  564.816    0.1370024  0.1499708  0.124034  
1148.199996948242 0.216      861.4059   1          2          6.11838    4.234202   5.845601   4.079701   3.285105   2.368801   3.041003   1.857999   3.089002   1.683999   2.790402   0.234508   0.2345081  0.3423564  61.77533   35.76428   2.622737   0.616997   0.6097324  564.867    0.1373502  0.1505875  0.1241128 
1148.300003051758 0.215      863.9908   1          2          6.168899   4.033489   5.625185   3.990395   3.080994   2.3505     2.916995   1.902998   3.081994   1.725      2.748801   0.230843   0.2308428  0.3424393  52.83605   35.16711   2.564727   0.604668   0.6028472  564.959    0.1379461  0.1516265  0.1242658 
1148.400009155273 0.214      867.0356   1          2          6.22506    3.691957   5.171741   3.812978   2.894288   2.340601   2.762978   1.837987   2.902968   1.731998   2.765708   0.230009   0.2300094  0.3426951  50.98975   34.41421   2.492222   0.596037   0.5966935  565.03     0.1386774  0.1529723  0.1243824 
1148.5     0.214      870.2668   1          2          6.244983   3.2503     4.5575     3.5781     2.7621     2.3492     2.532      1.697      2.577      1.711      2.853      0.231531   0.2315308  0.3430551  54.40938   33.62005   2.380997   0.587756   0.588747   565.081    0.1394505  0.1544376  0.1244633 
1148.600006103516 0.2140001  873.3889   1          2          6.253664   2.83488    3.978373   3.344487   2.695001   2.380003   2.156976   1.520989   2.227986   1.670997   3.000711   0.234687   0.2346874  0.3431595  62.24876   32.89898   2.193675   0.573376   0.5739924  565.091    0.1401402  0.155811   0.1244694 
1148.699996948242 0.215      876.4292   1          2          6.27809    2.530209   3.560112   3.143906   2.7105     2.421999   1.79101    1.346005   2.005007   1.622002   3.184294   0.238659   0.2386592  0.3423338  73.73975   32.35623   1.995349   0.556813   0.5557592  565.091    0.1406652  0.1568729  0.1244574 
1148.800003051758 0.215      880.2969   1          2          6.315982   2.3387     3.293598   3.0206     2.797103   2.485003   1.537      1.378005   1.957003   1.573999   3.365804   0.242627   0.2426269  0.3396755  87.33707   32.0754    1.8447     0.544011   0.5389969  565.101    0.1409479  0.1574323  0.1244635 
1148.900009155273 0.2160001  884.7086   1          2          6.31384    2.333316   3.239111   3.019309   2.90861    2.569707   1.541019   1.548016   2.06903    1.543001   3.502806   0.245251   0.2452511  0.3342462  97.67908   32.12135   1.842515   0.549065   0.5364165  565.152    0.1409426  0.1573403  0.1245448 
1149       0.217      888.6182   1          2          6.276547   2.5141     3.3602     3.1204     3.016      2.6497     1.761      1.738      2.42       1.551      3.5692     0.244686   0.2446855  0.32536    95.35342   32.54105   1.965165   0.564959   0.5435563  565.244    0.1406057  0.1565085  0.1247029 
1149.100006103516 0.218      890.9942   1          2          6.253551   2.802826   3.516012   3.286412   3.110605   2.713303   2.113033   1.829998   2.859025   1.574001   3.564596   0.242956   0.2429561  0.3128789  88.57121   33.35238   2.149698   0.584551   0.552208   565.386    0.1399497  0.1549426  0.1249569 
1149.199996948242 0.218      891.5491   1          2          6.226743   3.269985   3.716294   3.487594   3.185898   2.757899   2.733979   1.789001   3.292986   1.594999   3.502002   0.241473   0.2414726  0.2974574  83.14267   34.51588   2.444684   0.61321    0.5664934  565.59     0.139062   0.1527881  0.1253358 
1149.300003051758 0.219      890.3209   6          6          6.274674   3.922621   4.009411   3.691206   3.229501   2.767099   3.409026   1.772022   3.765041   1.950023   3.407897   0.211759   0.2117587  0.2805514  23.41254   35.90101   2.731732   0.580651   0.5517101  565.844    0.1380889  0.150353   0.1258248 
1149.400009155273 0.2179999  887.5485   6          6          6.18374    4.674561   4.39964    3.876314   3.239598   2.747398   4.390079   2.664104   5.361147   2.709025   3.307092   0.147826   0.1478264  0.2641939  1.531984   37.24614   3.104934   0.425424   0.4958029  566.119    0.1372429  0.1481117  0.1263741 
1149.5     0.217      884.3332   6          6          6.014443   5.3883     4.854101   4.0285     3.2167     2.7225     5.354      4.09       7.223      2.978      3.2192     0.125218   0.1252179  0.2505215  0.5841162  38.15902   3.435144   0.354572   0.4717897  566.393    0.1367978  0.1466545  0.1269411 
