~Version
 VERS              .         2.0                           : CWLS LOG ASCII STANDARD - VERSION 2.0
 WRAP              .         NO                            : ONE LINE PER DEPTH STEP
 DLM               .         SPACE                         : DELIMITING CHARACTER(SPACE TAB OR COMMA)
~Well Information
#_______________________________________________________________________________
#
#PARAMETER_NAME    .UNIT     VALUE                         : DESCRIPTION
#_______________________________________________________________________________
STRT               .M        900                           : First reference value
STOP               .M        1195.30001831055              : Last reference value
STEP               .M        0.1                           : Step increment
NULL               .         -9999                         : Missing value
COMP               .                                       : Company
WELL               .         7768                          : Well name
FLD                .         УЗЕНЬ                         : Field
LOC                .                                       : Location
CNTY               .                                       : County
STAT               .                                       : State
CTRY               .                                       : Country
SRVC               .                                       : Service Company
DATE               .         7/10/2004                     : Date
UWI                .                                       : Unique Well ID
Block              .         6а                            : 
Cartographic_reference_system .         GCS_WGS_1984                  : ESRI,PE_10_3_1- <?xml version="1.0" encoding="utf-16"?><ILateBoundCoordinateReferenceSystem name="GCS_WGS_1984"><AuthorityCode>EPSG,4326</AuthorityCode></ILateBoundCoordinateReferenceSystem>
Category           .         Нефтяная                      : 
Condition          .         В работе                      : 
Date               .         30.03.2004                    : 
EREF               .m        87                            : 100.8
GRP                .         1111                          : Group name
Gorizont           .         14                            : 14
HZCS               .GCS_WGS_1984 WGS_1984_EASE-Grid_2.0_Global : ESRI,PE_10_3_1- <?xml version="1.0" encoding="utf-16"?><ILateBoundCoordinateReferenceSystem name="WGS_1984_EASE-Grid_2.0_Global"><AuthorityCode>EPSG,6933</AuthorityCode></ILateBoundCoordinateReferenceSystem>
ISS                .         БКЗ                           : Well surveys
Interpretator      .         Кушербаева А.С                : 
Kupol              .         основной                      : osnovnoi
LATI               .dega     0.6705369228                  : GCS_WGS_1984
LONG               .dega     0.4642774069                  : GCS_WGS_1984
Mud                .                                       : 
Mud_density        .                                       : 
Mud_resistivity    .                                       : 
NGDU               .         НГДУ-2                        : 
ORIGINALWELLNAME   .         7768                          : 
Spud_date          .         2004                          : 1961
TIME               .         9                             : LOG TIME
Viscosity          .                                       : 
X                  .m        44796.4                       : 46154
Y                  .m        85540.7                       : 85761.93
YEAR               .         2019г                         : 
~Parameter Information Block
#_______________________________________________________________________________
#
#PARAMETER_NAME    .UNIT     VALUE                         : DESCRIPTION
#_______________________________________________________________________________
SET                .         LQC_KAZNIPI_Petrel            : 
TLFamily_CALI      .         Caliper                       : 
TLFamily_CILD      .         Conductivity                  : 
TLFamily_COLL      .         Net Reservoir Flag            : 
TLFamily_CSAT      .         Fluid Code                    : 
TLFamily_DEPT      .         Measured Depth                : 
TLFamily_GR        .         Russian Gamma Ray             : 
TLFamily_GZ1       .         Gradient 045                  : 
TLFamily_GZ2       .         Gradient 105                  : 
TLFamily_GZ3       .         Gradient 225                  : 
TLFamily_GZ4       .         Gradient 425                  : 
TLFamily_GZ5       .         Gradient 850                  : 
TLFamily_LLS       .         Lateral Log Resistivity       : 
TLFamily_MINV      .         Micro Gradient Resistivity    : 
TLFamily_MNOR      .         Micro Resistivity             : 
TLFamily_NGLD      .         Neutron Gamma                 : 
TLFamily_OGZ       .         Gradient Inverted 225         : 
TLFamily_PHIE      .         Effective Porosity            : 
TLFamily_PHIEN     .         Effective Porosity            : 
TLFamily_PHIT      .         Porosity                      : 
TLFamily_PRMB      .         Permeability                  : 
TLFamily_PRMB_DGR  .         Permeability                  : 
TLFamily_RT        .         Formation Resistivity         : 
TLFamily_SOIL_ARCHIE .         Oil Saturation                : 
TLFamily_SOIL_DW   .         Oil Saturation                : 
TLFamily_SP        .         Spontaneous Potential         : 
TLFamily_VSH_FIN   .         Shale Volume                  : 
TLFamily_VSH_GR    .         Shale Volume                  : 
TLFamily_VSH_SP    .         Shale Volume                  : 
~Curve Information
#_______________________________________________________________________________
#
#LOGNAME           .UNIT     LOG_ID                        : DESCRIPTION
#_______________________________________________________________________________
DEPT               .M                                      :  
CALI               .м                                      : Каверномер 
CILD               .мСм/м                                  : Индукционный каротаж 
COLL               .unitless                               : Описание 
CSAT               .unitless                               : Описание 
GR                 .uR/h                                   : Гамма каротаж 
GZ1                .Ом·м                                   :  
GZ2                .Ом·м                                   :  
GZ3                .Ом·м                                   :  
GZ4                .Ом·м                                   :  
GZ5                .Ом·м                                   :  
LLS                .Ohmm                                   : Боковой каротаж 
MINV               .Ohmm                                   : Микро-градиент зонд 
MNOR               .Ohmm                                   : Микро-потенциал зонд 
NGLD               .у.е.                                   : Показания зонда НГК-60 аппаратуры ДРСТ-3-90 
OGZ                .Ом·м                                   :  
PHIE               .v/v                                    : Описание 
PHIEN              .v/v                                    :  
PHIT               .v/v                                    : Описание 
PRMB               .mD                                     :  
PRMB_DGR           .mD                                     :  
RT                 .ohmm                                   : УЭС пласта 
SOIL_ARCHIE        .v/v                                    :  
SOIL_DW            .v/v                                    :  
SP                 .мВ                                     : Потенциал самополяризации 
VSH_FIN            .v/v                                    : Описание 
VSH_GR             .v/v                                    : Shale volume 
VSH_SP             .v/v                                    : Shale Volume 
~Ascii
# ...
1032.600006103516 0.2299999  1167.455   -9999      -9999      7.266406   1.722603   2.278594   2.755999   2.2028     1.8512     1.375001   1.235004   1.405005   1.513      3.467711   0.125779   0.1257788  0.3517474  0.5982605  0.689701   1.514885   0          0.3590734  584.155    0.5106709  0.7550822  0.5106709 
1032.699996948242 0.229      1167.675   -9999      -9999      7.27986    1.773098   2.177103   2.732301   2.2041     1.8466     1.391999   1.307998   1.479998   1.518      3.650594   0.126313   0.1263129  0.3561768  0.6120421  0.6289475  1.52422    0          0.3671466  584.053    0.5077706  0.7840552  0.5077706 
1032.800003051758 0.228      1162.968   -9999      -9999      7.266724   1.827101   2.073697   2.705399   2.2088     1.8492     1.451002   1.439008   1.523005   1.529      3.806504   0.125475   0.1254753  0.3592873  0.5905539  0.6117377  1.559449   0          0.3764082  584.043    0.5074886  0.7929881  0.5074886 
1032.900009155273 0.227      1154.573   -9999      -9999      7.231544   1.878403   1.985994   2.673196   2.208799   1.860401   1.537015   1.710024   1.684023   1.531999   3.938913   0.124932   0.1249321  0.3613699  0.5770345  0.6286294  1.61074    0          0.3877959  584.074    0.5083662  0.7842171  0.5083662 
1033       0.227      1144.323   -9999      -9999      7.165003   1.9109     1.9207     2.6279     2.192      1.8755     1.713      1.991      1.952      1.522      4.0859     0.125497   0.1254965  0.3625184  0.5911081  0.6758199  1.707993   0          0.4076407  584.104    0.509219   0.761377   0.509219  
1033.100006103516 0.227      1133.21    -9999      -9999      7.070236   1.9102     1.862898   2.566196   2.164498   1.900402   1.805001   2.046987   2.06399    1.493997   4.278714   0.127575   0.1275745  0.3625715  0.6458869  0.7537262  1.761989   0          0.4201798  584.135    0.5101011  0.7282022  0.5101011 
1033.199996948242 0.227      1120.809   -9999      -9999      6.954633   1.9047     1.822001   2.501802   2.140301   1.939099   1.818      1.842006   1.915004   1.453001   4.501293   0.130186   0.130186   0.3611228  0.7219693  0.8665332  1.778061   0          0.4254124  584.226    0.5126973  0.6878893  0.5126973 
1033.300003051758 0.228      1104.237   -9999      -9999      6.828597   1.8915     1.817201   2.450599   2.1343     1.977801   1.701998   1.536997   1.653997   1.409      4.764109   0.132459   0.132459   0.357614   0.7954632  1.023033   1.733213   0          0.417924   584.379    0.5170897  0.6427999  0.5170897 
1033.400009155273 0.227      1083.144   -9999      -9999      6.680422   1.883904   1.849907   2.419099   2.153104   2.008003   1.632001   1.453012   1.558009   1.393004   5.059124   0.131777   0.1317767  0.3514923  0.772659   1.237712   1.713945   0          0.4070291  584.592    0.5232582  0.5946954  0.5232582 
1033.5     0.227      1060.047   -9999      -9999      6.538567   1.9275     1.924      2.4112     2.1947     2.0369     1.643      1.594      1.657      1.432      5.3216     0.126314   0.1263136  0.342402   0.6120681  1.532675   1.73824    0          0.3920729  584.816    0.5298159  0.5449903  0.5298159 
1033.600006103516 0.227      1037.843   -9999      -9999      6.389707   2.036211   2.04981    2.430202   2.253104   2.063701   1.711007   1.777011   1.822016   1.546011   5.513706   0.114382   0.1143816  0.3303392  0.3679512  1.938972   1.792561   0          0.3655048  585.05     0.5367449  0.4950958  0.5367449 
1033.699996948242 0.227      1016.952   -9999      -9999      6.217949   2.215694   2.228294   2.467099   2.319698   2.084799   1.836996   1.967994   2.11199    1.729994   5.619997   0.096703   0.09670313 0.3157535  0.173114   2.495429   1.876571   0          0.3234125  585.264    0.5431495  0.4466287  0.5431495 
1033.800003051758 0.228      990.9637   -9999      -9999      5.987579   2.471908   2.435806   2.5038     2.374001   2.104501   2.071009   2.385015   2.545014   1.967008   5.598996   0.074926   0.0749264  0.2995048  0.06838632 3.242641   2.018848   0          0.2657296  585.437    0.5483781  0.401326   0.5483781 
1033.900009155273 0.2280001  960.0436   -9999      -9999      5.710746   2.746019   2.634412   2.5209     2.4029     2.128102   2.384026   2.92402    3.024022   2.21802    5.460581   0.052465   0.05246548 0.2827358  0.02623839 4.207533   2.20099    0          0.1865898  585.559    0.5520909  0.3608303  0.5520909 
1034       0.229      928.3402   -9999      -9999      5.456376   2.962      2.7677     2.5163     2.4083     2.1504     2.689      3.149      3.274      2.442      5.2591     0.032902   0.03290187 0.266637   0.01139155 5.380635   2.376886   0          0.0806097  585.62     0.5539544  0.3263551  0.5539544 
1034.100006103516 0.2290001  900.1264   -9999      -9999      5.240363   3.071999   2.8153     2.489397   2.390098   2.166801   2.846009   3.652042   3.983037   2.599005   5.036189   0.019518   0.01951818 0.2521961  0.006436929 6.701309   2.482834   0          0          585.63     0.5542606  0.2983772  0.5542606 
1034.199996948242 0.23       875.8409   -9999      -9999      5.088509   3.047701   2.8078     2.436802   2.353801   2.180599   3.002995   4.411974   4.641978   2.679998   4.863306   0.013795   0.01379491 0.2400201  0.005042837 8.068369   2.585471   0          0          585.518    0.5508403  0.2765943  0.5508403 
1034.300003051758 0.23       851.9352   -9999      -9999      4.984662   2.931295   2.7799     2.379699   2.321      2.198301   2.891993   4.711975   4.59797    2.697999   4.78       0.014512   0.01451155 0.230234   0.005199427 9.394245   2.572893   0          0          585.294    0.5440536  0.2599335  0.5440536 
1034.400009155273 0.2299999  828.7716   -9999      -9999      4.957988   2.78449    2.769107   2.343599   2.3035     2.225804   2.667958   3.955868   3.704888   2.679998   4.759202   0.019339   0.01933912 0.2225257  0.006387976 10.67294   2.505538   0          0          584.9589   0.5340396  0.2467355  0.5340396 
1034.5     0.229      803.448    -9999      -9999      4.97982    2.6738     2.8418     2.335      2.3096     2.2724     2.246      2.744      2.663      2.654      4.7713     0.025193   0.02519273 0.2162746  0.008199616 12.02814   2.334747   0          0          584.582    0.5229663  0.2349812  0.5229663 
1034.600006103516 0.2279999  776.3082   -9999      -9999      4.998035   2.647504   3.023414   2.358003   2.345106   2.337304   2.044001   2.323029   2.555027   2.650002   4.785398   0.029401   0.02940083 0.2107254  0.009811511 13.7242    2.266404   0          0          584.175    0.5112394  0.2226591  0.5112394 
1034.699996948242 0.227      750.7798   -9999      -9999      4.940472   2.720998   3.256292   2.415198   2.441897   2.409598   2.065999   2.839983   3.038984   2.680999   4.762501   0.030469   0.03046891 0.2051614  0.01026876 16.16092   2.316332   0          0          583.779    0.5000563  0.2082846  0.5000563 
1034.800003051758 0.226      729.9557   -9999      -9999      4.791772   2.853905   3.484907   2.501203   2.536201   2.481702   2.316017   3.804022   3.832014   2.739002   4.700697   0.029008   0.02900847 0.1989989  0.009648428 19.89657   2.487184   0          0          583.402    0.489612   0.1913285  0.489612  
1034.900009155273 0.2259999  713.5585   -9999      -9999      4.545757   3.022918   3.714819   2.610911   2.577105   2.557207   2.933044   4.61701    4.309008   2.805007   4.618693   0.026343   0.02634276 0.1918249  0.008611807 25.69166   2.83074    0          0          583.077    0.4807687  0.1723651  0.4807687 
1035       0.225      698.1271   -9999      -9999      4.265811   3.2202     3.9283     2.7369     2.6346     2.6339     3.46       4.731      4.4        2.879      4.5415     0.022603   0.02260285 0.1833682  0.007342102 34.52965   3.108106   0          0          582.792    0.4731326  0.1527633  0.4731326 
1035.100006103516 0.225      681.775    -9999      -9999      3.924527   3.436813   4.086212   2.867509   2.719105   2.711305   3.782996   4.18299    4.351035   2.953005   4.485097   0.018297   0.01829691 0.1734505  0.006110305 47.51515   3.288708   0          0          582.568    0.4672088  0.1340936  0.4672088 
