~Version
 VERS              .         2.0                           : CWLS LOG ASCII STANDARD - VERSION 2.0
 WRAP              .         NO                            : ONE LINE PER DEPTH STEP
 DLM               .         SPACE                         : DELIMITING CHARACTER(SPACE TAB OR COMMA)
~Well Information
#_______________________________________________________________________________
#
#PARAMETER_NAME    .UNIT     VALUE                         : DESCRIPTION
#_______________________________________________________________________________
STRT               .M        900                           : First reference value
STOP               .M        1195.30001831055              : Last reference value
STEP               .M        0.1                           : Step increment
NULL               .         -9999                         : Missing value
COMP               .                                       : Company
WELL               .         7768                          : Well name
FLD                .         УЗЕНЬ                         : Field
LOC                .                                       : Location
CNTY               .                                       : County
STAT               .                                       : State
CTRY               .                                       : Country
SRVC               .                                       : Service Company
DATE               .         7/10/2004                     : Date
UWI                .                                       : Unique Well ID
Block              .         6а                            : 
Cartographic_reference_system .         GCS_WGS_1984                  : ESRI,PE_10_3_1- <?xml version="1.0" encoding="utf-16"?><ILateBoundCoordinateReferenceSystem name="GCS_WGS_1984"><AuthorityCode>EPSG,4326</AuthorityCode></ILateBoundCoordinateReferenceSystem>
Category           .         Нефтяная                      : 
Condition          .         В работе                      : 
Date               .         30.03.2004                    : 
EREF               .m        87                            : 100.8
GRP                .         1111                          : Group name
Gorizont           .         14                            : 14
HZCS               .GCS_WGS_1984 WGS_1984_EASE-Grid_2.0_Global : ESRI,PE_10_3_1- <?xml version="1.0" encoding="utf-16"?><ILateBoundCoordinateReferenceSystem name="WGS_1984_EASE-Grid_2.0_Global"><AuthorityCode>EPSG,6933</AuthorityCode></ILateBoundCoordinateReferenceSystem>
ISS                .         БКЗ                           : Well surveys
Interpretator      .         Кушербаева А.С                : 
Kupol              .         основной                      : osnovnoi
LATI               .dega     0.6705369228                  : GCS_WGS_1984
LONG               .dega     0.4642774069                  : GCS_WGS_1984
Mud                .                                       : 
Mud_density        .                                       : 
Mud_resistivity    .                                       : 
NGDU               .         НГДУ-2                        : 
ORIGINALWELLNAME   .         7768                          : 
Spud_date          .         2004                          : 1961
TIME               .         9                             : LOG TIME
Viscosity          .                                       : 
X                  .m        44796.4                       : 46154
Y                  .m        85540.7                       : 85761.93
YEAR               .         2019г                         : 
~Parameter Information Block
#_______________________________________________________________________________
#
#PARAMETER_NAME    .UNIT     VALUE                         : DESCRIPTION
#_______________________________________________________________________________
SET                .         LQC_KAZNIPI_Petrel            : 
TLFamily_CALI      .         Caliper                       : 
TLFamily_CILD      .         Conductivity                  : 
TLFamily_COLL      .         Net Reservoir Flag            : 
TLFamily_CSAT      .         Fluid Code                    : 
TLFamily_DEPT      .         Measured Depth                : 
TLFamily_GR        .         Russian Gamma Ray             : 
TLFamily_GZ1       .         Gradient 045                  : 
TLFamily_GZ2       .         Gradient 105                  : 
TLFamily_GZ3       .         Gradient 225                  : 
TLFamily_GZ4       .         Gradient 425                  : 
TLFamily_GZ5       .         Gradient 850                  : 
TLFamily_LLS       .         Lateral Log Resistivity       : 
TLFamily_MINV      .         Micro Gradient Resistivity    : 
TLFamily_MNOR      .         Micro Resistivity             : 
TLFamily_NGLD      .         Neutron Gamma                 : 
TLFamily_OGZ       .         Gradient Inverted 225         : 
TLFamily_PHIE      .         Effective Porosity            : 
TLFamily_PHIEN     .         Effective Porosity            : 
TLFamily_PHIT      .         Porosity                      : 
TLFamily_PRMB      .         Permeability                  : 
TLFamily_PRMB_DGR  .         Permeability                  : 
TLFamily_RT        .         Formation Resistivity         : 
TLFamily_SOIL_ARCHIE .         Oil Saturation                : 
TLFamily_SOIL_DW   .         Oil Saturation                : 
TLFamily_SP        .         Spontaneous Potential         : 
TLFamily_VSH_FIN   .         Shale Volume                  : 
TLFamily_VSH_GR    .         Shale Volume                  : 
TLFamily_VSH_SP    .         Shale Volume                  : 
~Curve Information
#_______________________________________________________________________________
#
#LOGNAME           .UNIT     LOG_ID                        : DESCRIPTION
#_______________________________________________________________________________
DEPT               .M                                      :  
CALI               .м                                      : Каверномер 
CILD               .мСм/м                                  : Индукционный каротаж 
COLL               .unitless                               : Описание 
CSAT               .unitless                               : Описание 
GR                 .uR/h                                   : Гамма каротаж 
GZ1                .Ом·м                                   :  
GZ2                .Ом·м                                   :  
GZ3                .Ом·м                                   :  
GZ4                .Ом·м                                   :  
GZ5                .Ом·м                                   :  
LLS                .Ohmm                                   : Боковой каротаж 
MINV               .Ohmm                                   : Микро-градиент зонд 
MNOR               .Ohmm                                   : Микро-потенциал зонд 
NGLD               .у.е.                                   : Показания зонда НГК-60 аппаратуры ДРСТ-3-90 
OGZ                .Ом·м                                   :  
PHIE               .v/v                                    : Описание 
PHIEN              .v/v                                    :  
PHIT               .v/v                                    : Описание 
PRMB               .mD                                     :  
PRMB_DGR           .mD                                     :  
RT                 .ohmm                                   : УЭС пласта 
SOIL_ARCHIE        .v/v                                    :  
SOIL_DW            .v/v                                    :  
SP                 .мВ                                     : Потенциал самополяризации 
VSH_FIN            .v/v                                    : Описание 
VSH_GR             .v/v                                    : Shale volume 
VSH_SP             .v/v                                    : Shale Volume 
~Ascii
# ...
1186       0.211      713.7371   1          2          6.953391   2.0861     2.7391     4.5979     -9999      1.3571     5.562      1.748      3.201      1.995      -9999      0.194928   0.1949275  0.3163392  11.42083   23.88892   3.896698   0.5161355  0.6432424  556.739    0.177562   0.1775622  0.3944116 
1186.100006103516 0.2110001  717.0833   1          2          7.080368   2.0895     2.7384     4.395087   -9999      1.370201   4.732938   1.777      3.172993   1.947995   -9999      0.197034   0.1970343  0.3201132  12.49412   22.12008   3.586658   0.5016256  0.6323608  555.6099   0.183228   0.1832284  0.3699223 
1186.200012207031 0.212      723.936    1          2          7.221413   2.0916     2.7398     4.188681   -9999      1.384701   3.8259     1.784995   3.062979   1.872988   -9999      0.200974   0.2009739  0.3253288  14.78033   20.10422   3.209253   0.4839099  0.6181378  554.4199   0.190519   0.1905191  0.3457769 
1186.300018310547 0.212      733.041    1          2          7.318794   2.093692   2.7412     4.030385   -9999      1.3913     3.086934   1.74499    2.893976   1.777973   -9999      0.206272   0.2062725  0.331364   18.52747   18.11021   2.864985   0.4678801  0.6044322  553.2398   0.198821   0.1988209  0.3234644 
1186.399993896484 0.212      743.426    1          2          7.419946   2.052803   2.7412     3.951005   -9999      1.3932     2.748019   1.692003   2.768008   1.632009   -9999      0.215688   0.2156884  0.3375361  27.68364   16.27098   2.684271   0.4722798  0.603052   552.334    0.207708   0.2077082  0.3073999 
1186.5     0.212      757.191    -9999      -9999      7.521499   1.9621     2.7405     3.9176     -9999      1.388      2.577      1.675      2.727      1.527      -9999      0.221485   0.221485   0.3432485  35.44849   14.60695   2.5755     0.4742224  0.6030799  551.795    0.217063   0.2170629  0.2982652 
1186.600006103516 0.2130001  773.9708   -9999      -9999      7.604218   1.869295   2.7398     3.893299   -9999      1.3854     2.562001   1.714002   2.759002   1.503      -9999      0.220216   0.220216   0.3480955  33.58093   13.08169   2.540408   0.4681718  0.6027268  551.755    0.227061   0.2270613  0.2976006 
1186.700012207031 0.2140002  791.3687   -9999      -9999      7.670892   1.78269    2.7384     3.872299   -9999      1.386      2.567      1.755002   2.793003   1.511005   -9999      0.215893   0.215893   0.3519495  27.92674   11.6449    2.51446    0.4562955  0.6000867  552.182    0.238109   0.2381088  0.3047918 
1186.800018310547 0.2160002  807.1611   -9999      -9999      7.769407   1.704493   2.7391     3.8624     -9999      1.3873     2.571003   1.773999   2.815005   1.551006   -9999      0.208351   0.2083509  0.3549431  20.24529   10.2634    2.491776   0.4368037  0.5945368  552.182    0.250709   0.2507092  0.3047918 
1186.899993896484 0.2169999  823.9493   -9999      -9999      7.880751   1.664402   2.7391     3.8611     -9999      1.3886     2.587999   1.771      2.840998   1.585998   -9999      0.200585   0.2005848  0.357372   14.53713   8.937943   2.474513   0.4159569  0.5886018  -9999      0.265272   0.2652724  -9999     
1187       0.219      844.0052   -9999      -9999      8.033563   1.6623     2.7215     3.8591     -9999      1.3926     2.605      1.775      2.851      1.597      -9999      0.194144   0.1941444  0.3595503  11.04526   7.696967   2.453069   0.3966574  0.5829734  -9999      0.281968   0.2819683  -9999     
1187.100006103516 0.2210001  864.7068   -9999      -9999      8.238239   1.6603     2.662295   3.8578     -9999      1.3991     2.618994   1.841002   2.857992   1.573997   -9999      0.189955   0.1899551  0.361661   9.238159   6.582776   2.429651   0.3823114  0.5788624  -9999      0.30056    0.3005596  -9999     
1187.200012207031 0.222      881.8787   -9999      -9999      8.476896   1.658199   2.57849    3.855799   -9999      1.399099   2.531976   1.86899    2.73197    1.525992   -9999      0.187478   0.1874783  0.3636689  8.312      5.630054   2.365514   0.3673166  0.5724409  -9999      0.320372   0.3203723  -9999     
1187.300018310547 0.2219998  893.9142   -9999      -9999      8.684555   1.651899   2.497585   3.852599   -9999      1.3939     2.342948   1.790995   2.49496    1.458988   -9999      0.186553   0.1865534  0.3653114  7.990469   4.854793   2.260003   0.3508328  0.5629342  -9999      0.340352   0.3403516  -9999     
1187.399993896484 0.2210001  907.108    -9999      -9999      8.81893    1.6436     2.418005   3.8493     -9999      1.3959     2.076015   1.765002   2.287012   1.394004   -9999      0.185772   0.1857722  0.3661777  7.728696   4.249261   2.112193   0.3274445  0.5478167  -9999      0.359379   0.3593791  -9999     
1187.5     0.219      923.9742   -9999      -9999      8.893318   1.6388     2.3507     3.846      -9999      1.4024     1.919      1.79       2.18       1.353      -9999      0.183553   0.1835529  0.3658412  7.030802   3.788661   2.012235   0.3047296  0.5342938  -9999      0.376616   0.3766163  -9999     
1187.600006103516 0.2139995  943.079    -9999      -9999      8.963898   1.6346     2.3221     3.8421     -9999      -9999      1.886003   1.773003   2.362042   1.362003   -9999      0.177788   0.1777881  0.3640155  5.498234   3.439614   1.974427   0.2787432  0.5225584  -9999      0.391777   0.3917773  -9999     
1187.700012207031 0.2059988  960.3594   -9999      -9999      9.021749   1.6319     2.3207     3.838099   -9999      -9999      1.932003   1.829058   3.172111   1.41201    -9999      0.169109   0.1691092  0.3606636  3.797231   3.166141   1.979906   0.2475875  0.5112003  -9999      0.405257   0.4052574  -9999     
1187.800018310547 0.1959976  974.4167   -9999      -9999      9.052526   1.634      2.3214     3.833499   -9999      -9999      1.958045   2.371121   4.226056   1.493018   -9999      0.158068   0.1580678  0.3560466  2.37116    2.935854   1.978909   0.2018263  0.4943703  -9999      0.417948   0.4179483  -9999     
1187.899993896484 0.1830008  989.5541   -9999      -9999      9.048895   1.6367     2.3234     3.8302     -9999      -9999      2.218983   3.129947   4.54098    1.592994   -9999      0.145341   0.145341   0.3507123  1.377926   2.724679   2.09079    0.1631636  0.487597   -9999      0.430884   0.4308841  -9999     
1188       0.171      1005.467   -9999      -9999      9.102607   1.6326     2.3248     3.8296     -9999      -9999      2.228      3.386      3.826      1.695      -9999      0.132082   0.1320824  0.3454035  0.7827753  2.519089   2.077947   0.08782217 0.4625192  -9999      0.444911   0.4449109  -9999     
1188.100006103516 0.1599996  1020.056   -9999      -9999      9.235373   1.622899   2.3241     3.8302     -9999      -9999      2.18898    3.02097    2.811962   1.785004   -9999      0.119365   0.1193649  0.3409456  0.4550797  2.316878   2.045272   0          0.4335527  -9999      0.460375   0.4603752  -9999     
1188.200012207031 0.1529994  1031.452   -9999      -9999      9.420238   1.606895   2.321399   3.833501   -9999      -9999      1.886993   2.57098    2.255964   1.844003   -9999      0.108881   0.1088807  0.3381043  0.2910035  2.123869   1.887996   0          0.3878873  -9999      0.47702    0.4770204  -9999     
1188.300018310547 0.1479996  1039.868   -9999      -9999      9.505039   1.568782   2.3193     3.840102   -9999      -9999      1.834999   2.409987   1.976963   1.868998   -9999      0.101152   0.1011522  0.337461   0.2092852  1.949216   1.854396   0          0.365885   -9999      0.494032   0.4940315  -9999     
1188.399993896484 0.1460001  1048.464   -9999      -9999      9.586523   1.473906   2.3187     3.848599   -9999      -9999      1.829      2.338004   1.784011   1.856001   -9999      0.096905   0.09690478 0.3393182  0.1746119  1.801096   1.84394    0          0.3572667  -9999      0.510235   0.5102346  -9999     
1188.5     0.146      1057.411   -9999      -9999      9.656162   1.2443     2.3187     3.8585     -9999      -9999      1.803      2.274      1.76       1.802      -9999      0.096803   0.09680308 0.3436526  0.1738539  1.684374   1.82289    0          0.3588128  -9999      0.524387   0.5243868  -9999     
