~Version
 VERS              .         2.0                           : CWLS LOG ASCII STANDARD - VERSION 2.0
 WRAP              .         NO                            : ONE LINE PER DEPTH STEP
 DLM               .         SPACE                         : DELIMITING CHARACTER(SPACE TAB OR COMMA)
~Well Information
#_______________________________________________________________________________
#
#PARAMETER_NAME    .UNIT     VALUE                         : DESCRIPTION
#_______________________________________________________________________________
STRT               .M        900                           : First reference value
STOP               .M        1195.30001831055              : Last reference value
STEP               .M        0.1                           : Step increment
NULL               .         -9999                         : Missing value
COMP               .                                       : Company
WELL               .         7768                          : Well name
FLD                .         УЗЕНЬ                         : Field
LOC                .                                       : Location
CNTY               .                                       : County
STAT               .                                       : State
CTRY               .                                       : Country
SRVC               .                                       : Service Company
DATE               .         7/10/2004                     : Date
UWI                .                                       : Unique Well ID
Block              .         6а                            : 
Cartographic_reference_system .         GCS_WGS_1984                  : ESRI,PE_10_3_1- <?xml version="1.0" encoding="utf-16"?><ILateBoundCoordinateReferenceSystem name="GCS_WGS_1984"><AuthorityCode>EPSG,4326</AuthorityCode></ILateBoundCoordinateReferenceSystem>
Category           .         Нефтяная                      : 
Condition          .         В работе                      : 
Date               .         30.03.2004                    : 
EREF               .m        87                            : 100.8
GRP                .         1111                          : Group name
Gorizont           .         14                            : 14
HZCS               .GCS_WGS_1984 WGS_1984_EASE-Grid_2.0_Global : ESRI,PE_10_3_1- <?xml version="1.0" encoding="utf-16"?><ILateBoundCoordinateReferenceSystem name="WGS_1984_EASE-Grid_2.0_Global"><AuthorityCode>EPSG,6933</AuthorityCode></ILateBoundCoordinateReferenceSystem>
ISS                .         БКЗ                           : Well surveys
Interpretator      .         Кушербаева А.С                : 
Kupol              .         основной                      : osnovnoi
LATI               .dega     0.6705369228                  : GCS_WGS_1984
LONG               .dega     0.4642774069                  : GCS_WGS_1984
Mud                .                                       : 
Mud_density        .                                       : 
Mud_resistivity    .                                       : 
NGDU               .         НГДУ-2                        : 
ORIGINALWELLNAME   .         7768                          : 
Spud_date          .         2004                          : 1961
TIME               .         9                             : LOG TIME
Viscosity          .                                       : 
X                  .m        44796.4                       : 46154
Y                  .m        85540.7                       : 85761.93
YEAR               .         2019г                         : 
~Parameter Information Block
#_______________________________________________________________________________
#
#PARAMETER_NAME    .UNIT     VALUE                         : DESCRIPTION
#_______________________________________________________________________________
SET                .         LQC_KAZNIPI_Petrel            : 
TLFamily_CALI      .         Caliper                       : 
TLFamily_CILD      .         Conductivity                  : 
TLFamily_COLL      .         Net Reservoir Flag            : 
TLFamily_CSAT      .         Fluid Code                    : 
TLFamily_DEPT      .         Measured Depth                : 
TLFamily_GR        .         Russian Gamma Ray             : 
TLFamily_GZ1       .         Gradient 045                  : 
TLFamily_GZ2       .         Gradient 105                  : 
TLFamily_GZ3       .         Gradient 225                  : 
TLFamily_GZ4       .         Gradient 425                  : 
TLFamily_GZ5       .         Gradient 850                  : 
TLFamily_LLS       .         Lateral Log Resistivity       : 
TLFamily_MINV      .         Micro Gradient Resistivity    : 
TLFamily_MNOR      .         Micro Resistivity             : 
TLFamily_NGLD      .         Neutron Gamma                 : 
TLFamily_OGZ       .         Gradient Inverted 225         : 
TLFamily_PHIE      .         Effective Porosity            : 
TLFamily_PHIEN     .         Effective Porosity            : 
TLFamily_PHIT      .         Porosity                      : 
TLFamily_PRMB      .         Permeability                  : 
TLFamily_PRMB_DGR  .         Permeability                  : 
TLFamily_RT        .         Formation Resistivity         : 
TLFamily_SOIL_ARCHIE .         Oil Saturation                : 
TLFamily_SOIL_DW   .         Oil Saturation                : 
TLFamily_SP        .         Spontaneous Potential         : 
TLFamily_VSH_FIN   .         Shale Volume                  : 
TLFamily_VSH_GR    .         Shale Volume                  : 
TLFamily_VSH_SP    .         Shale Volume                  : 
~Curve Information
#_______________________________________________________________________________
#
#LOGNAME           .UNIT     LOG_ID                        : DESCRIPTION
#_______________________________________________________________________________
DEPT               .M                                      :  
CALI               .м                                      : Каверномер 
CILD               .мСм/м                                  : Индукционный каротаж 
COLL               .unitless                               : Описание 
CSAT               .unitless                               : Описание 
GR                 .uR/h                                   : Гамма каротаж 
GZ1                .Ом·м                                   :  
GZ2                .Ом·м                                   :  
GZ3                .Ом·м                                   :  
GZ4                .Ом·м                                   :  
GZ5                .Ом·м                                   :  
LLS                .Ohmm                                   : Боковой каротаж 
MINV               .Ohmm                                   : Микро-градиент зонд 
MNOR               .Ohmm                                   : Микро-потенциал зонд 
NGLD               .у.е.                                   : Показания зонда НГК-60 аппаратуры ДРСТ-3-90 
OGZ                .Ом·м                                   :  
PHIE               .v/v                                    : Описание 
PHIEN              .v/v                                    :  
PHIT               .v/v                                    : Описание 
PRMB               .mD                                     :  
PRMB_DGR           .mD                                     :  
RT                 .ohmm                                   : УЭС пласта 
SOIL_ARCHIE        .v/v                                    :  
SOIL_DW            .v/v                                    :  
SP                 .мВ                                     : Потенциал самополяризации 
VSH_FIN            .v/v                                    : Описание 
VSH_GR             .v/v                                    : Shale volume 
VSH_SP             .v/v                                    : Shale Volume 
~Ascii
900.0      0.212      -9999      -9999      -9999      6.065      2.0674     2.5677     3.3095     3.165      -9999      -9999      1.845      2.424      1.894      3.4295     -9999      -9999      -9999      -9999      -9999      -9999      -9999      -9999      576.871    -9999      0.06242614 0.8       
900.1000000014901 0.213      -9999      -9999      -9999      6.071      2.066      2.6065     3.2438     3.1375     -9999      -9999      1.825      2.437      1.855      3.3623     -9999      -9999      -9999      -9999      -9999      -9999      -9999      -9999      576.912    -9999      0.06267701 0.8       
900.2000000029802 0.213      -9999      -9999      -9999      6.15       2.0604     2.6446     3.1848     3.1187     -9999      -9999      1.824      2.467      1.785      3.2346     -9999      -9999      -9999      -9999      -9999      -9999      -9999      -9999      576.922    -9999      0.06607571 0.8       
900.3000000119209 0.214      -9999      -9999      -9999      6.236      2.0487     2.6711     3.125      3.0912     -9999      -9999      1.821      2.472      1.704      3.0653     -9999      -9999      -9999      -9999      -9999      -9999      -9999      -9999      576.892    -9999      0.06998542 0.8       
900.4000000059605 0.215      -9999      -9999      -9999      6.264      2.0341     2.6153     3.0633     3.0448     -9999      -9999      1.802      2.449      1.639      2.8751     -9999      -9999      -9999      -9999      -9999      -9999      -9999      -9999      576.851    -9999      0.07130761 0.8       
900.5      0.216      -9999      -9999      -9999      6.23       2.012      2.516      3.0029     2.9589     -9999      -9999      1.809      2.435      1.607      2.7038     -9999      -9999      -9999      -9999      -9999      -9999      -9999      -9999      576.8      -9999      0.06970529 0.8       
900.6000000238419 0.217      -9999      -9999      -9999      6.179      1.9863     2.4465     2.9411     2.8827     -9999      -9999      1.825      2.427      1.609      2.5848     -9999      -9999      -9999      -9999      -9999      -9999      -9999      -9999      576.708    -9999      0.06736906 0.8       
900.6999999880791 0.218      894.8609   -9999      -9999      6.143      1.9635     2.384      2.8827     2.8511     -9999      -9999      1.793      2.385      1.652      2.513      -9999      -9999      -9999      -9999      -9999      2.178      -9999      -9999      576.586    -9999      0.06576727 0.8       
900.8000000119209 0.219      894.8609   -9999      -9999      6.092      1.9358     2.3398     2.8367     2.8179     -9999      -9999      1.681      2.287      1.736      2.4747     -9999      -9999      -9999      -9999      -9999      2.178      -9999      -9999      576.444    -9999      0.06356302 0.8       
900.9000000357628 0.22       893.978    -9999      -9999      6.014      1.8984     2.3098     2.8045     2.7876     -9999      -9999      1.546      2.163      1.843      2.4666     -9999      -9999      -9999      -9999      -9999      2.18       -9999      -9999      576.322    -9999      0.06033387 0.8       
901        0.22       892.1111   -9999      -9999      5.940116   1.8617     2.2881     2.7842     2.7662     -9999      -9999      1.469      2.083      1.933      2.4827     -9999      -9999      -9999      -9999      -9999      2.184      -9999      -9999      576.23     -9999      0.05639506 0.8       
901.1000000238419 0.22       889.2331   -9999      -9999      5.889039   1.825      2.2717     2.7763     2.7514     -9999      -9999      1.459      2.073      1.979      2.5224     -9999      -9999      -9999      -9999      -9999      2.191      -9999      -9999      576.21     -9999      0.05403335 0.8       
901.2000000476837 0.22       885.416    -9999      -9999      5.859868   1.7925     2.2513     2.7803     2.738      -9999      -9999      1.507      2.118      1.98       2.5755     -9999      -9999      -9999      -9999      -9999      2.201      -9999      -9999      576.24     -9999      0.05313791 0.8       
901.3000000715256 0.22       880.0162   -9999      -9999      5.843398   1.7717     2.2227     2.7927     2.7239     -9999      2.036      1.584      2.176      1.953      2.6427     -9999      -9999      -9999      -9999      -9999      2.123135   -9999      -9999      576.332    -9999      0.0529606  0.8       
901.3999999761581 0.22       873.4162   -9999      -9999      5.837296   1.7551     2.1853     2.8052     2.7138     -9999      2.036      1.651      2.21       1.907      2.7341     -9999      -9999      -9999      -9999      -9999      2.131271   -9999      -9999      576.454    -9999      0.05335145 0.8       
901.5      0.221      866.8709   -9999      -9999      5.829726   1.7364     2.1357     2.8177     2.7198     -9999      2.052      1.675      2.214      1.862      2.853      -9999      -9999      -9999      -9999      -9999      2.147765   -9999      -9999      576.586    -9999      0.05353006 0.8       
901.6000000238419 0.221      861.5      -9999      -9999      5.81907    1.7163     2.0798     2.8348     2.7514     -9999      2.048      1.674      2.205      1.836      3.0069     -9999      -9999      -9999      -9999      -9999      2.152342   -9999      -9999      576.708    -9999      0.05345855 0.8       
901.7000000476837 0.221      857.3491   -9999      -9999      5.797188   1.6928     2.0336     2.8637     2.8138     -9999      2.038      1.681      2.195      1.855      3.197      -9999      -9999      -9999      -9999      -9999      2.152295   -9999      -9999      576.831    -9999      0.05264296 0.8       
901.8000000715256 0.22       853.4772   -9999      -9999      5.774693   1.6693     2.0057     2.9116     2.9535     -9999      2.045      1.694      2.18       1.918      3.4436     -9999      -9999      -9999      -9999      -9999      2.160726   -9999      -9999      576.963    -9999      0.05190916 0.8       
901.8999999761581 0.22       849.8052   -9999      -9999      5.749154   1.6644     2.0384     3.0128     3.2101     3.1044     2.073      1.707      2.156      2.022      3.8079     -9999      -9999      -9999      -9999      -9999      2.180227   -9999      -9999      577.115    -9999      0.0511172  0.8       
902        0.219      846.2939   -9999      -9999      5.729722   1.69       2.169      3.2366     3.5827     3.3307     2.12       1.681      2.109      2.151      4.2889     -9999      -9999      -9999      -9999      -9999      2.209606   -9999      -9999      577.258    -9999      0.05087858 0.8       
902.1000001430512 0.218      842.5219   -9999      -9999      5.689189   1.8078     2.429101   3.618301   4.068301   3.519      2.156      1.613      2.081      2.291      4.8676     -9999      -9999      -9999      -9999      -9999      2.233121   -9999      -9999      577.37     -9999      0.049305   0.8       
902.2000000476837 0.217      838.5941   -9999      -9999      5.632446   2.0577     2.9183     4.0949     4.6564     3.6686     2.22       1.561      2.104      2.409      5.495      -9999      -9999      -9999      -9999      -9999      2.271405   -9999      -9999      577.4      -9999      0.04673767 0.8       
902.2999999523163 0.216      835.0549   -9999      -9999      5.564891   2.3982     3.543299   4.609      5.2265     3.7775     2.305      1.565      2.194      2.494      6.0426     -9999      -9999      -9999      -9999      -9999      2.319455   -9999      -9999      577.339    -9999      0.0435407  0.8       
902.4000000953674 0.216      832.3939   -9999      -9999      5.53317    2.7119     4.0367     5.0701     5.6281     3.8359     2.514      1.643      2.405      2.536      6.338901   -9999      -9999      -9999      -9999      -9999      2.425958   -9999      -9999      577.197    -9999      0.04230703 0.8       
902.5      0.215      830.5999   -9999      -9999      5.521838   2.9328     4.3033     5.3346     5.787099   3.8313     2.816      1.903      2.988      2.555      6.2737     -9999      -9999      -9999      -9999      -9999      2.570279   -9999      -9999      577.024    -9999      0.04188496 0.8       
