~Version
 VERS              .         2.0                           : CWLS LOG ASCII STANDARD - VERSION 2.0
 WRAP              .         NO                            : ONE LINE PER DEPTH STEP
 DLM               .         SPACE                         : DELIMITING CHARACTER(SPACE TAB OR COMMA)
~Well Information
#_______________________________________________________________________________
#
#PARAMETER_NAME    .UNIT     VALUE                         : DESCRIPTION
#_______________________________________________________________________________
STRT               .M        900                           : First reference value
STOP               .M        1195.30001831055              : Last reference value
STEP               .M        0.1                           : Step increment
NULL               .         -9999                         : Missing value
COMP               .                                       : Company
WELL               .         7768                          : Well name
FLD                .         УЗЕНЬ                         : Field
LOC                .                                       : Location
CNTY               .                                       : County
STAT               .                                       : State
CTRY               .                                       : Country
SRVC               .                                       : Service Company
DATE               .         7/10/2004                     : Date
UWI                .                                       : Unique Well ID
Block              .         6а                            : 
Cartographic_reference_system .         GCS_WGS_1984                  : ESRI,PE_10_3_1- <?xml version="1.0" encoding="utf-16"?><ILateBoundCoordinateReferenceSystem name="GCS_WGS_1984"><AuthorityCode>EPSG,4326</AuthorityCode></ILateBoundCoordinateReferenceSystem>
Category           .         Нефтяная                      : 
Condition          .         В работе                      : 
Date               .         30.03.2004                    : 
EREF               .m        87                            : 100.8
GRP                .         1111                          : Group name
Gorizont           .         14                            : 14
HZCS               .GCS_WGS_1984 WGS_1984_EASE-Grid_2.0_Global : ESRI,PE_10_3_1- <?xml version="1.0" encoding="utf-16"?><ILateBoundCoordinateReferenceSystem name="WGS_1984_EASE-Grid_2.0_Global"><AuthorityCode>EPSG,6933</AuthorityCode></ILateBoundCoordinateReferenceSystem>
ISS                .         БКЗ                           : Well surveys
Interpretator      .         Кушербаева А.С                : 
Kupol              .         основной                      : osnovnoi
LATI               .dega     0.6705369228                  : GCS_WGS_1984
LONG               .dega     0.4642774069                  : GCS_WGS_1984
Mud                .                                       : 
Mud_density        .                                       : 
Mud_resistivity    .                                       : 
NGDU               .         НГДУ-2                        : 
ORIGINALWELLNAME   .         7768                          : 
Spud_date          .         2004                          : 1961
TIME               .         9                             : LOG TIME
Viscosity          .                                       : 
X                  .m        44796.4                       : 46154
Y                  .m        85540.7                       : 85761.93
YEAR               .         2019г                         : 
~Parameter Information Block
#_______________________________________________________________________________
#
#PARAMETER_NAME    .UNIT     VALUE                         : DESCRIPTION
#_______________________________________________________________________________
SET                .         LQC_KAZNIPI_Petrel            : 
TLFamily_CALI      .         Caliper                       : 
TLFamily_CILD      .         Conductivity                  : 
TLFamily_COLL      .         Net Reservoir Flag            : 
TLFamily_CSAT      .         Fluid Code                    : 
TLFamily_DEPT      .         Measured Depth                : 
TLFamily_GR        .         Russian Gamma Ray             : 
TLFamily_GZ1       .         Gradient 045                  : 
TLFamily_GZ2       .         Gradient 105                  : 
TLFamily_GZ3       .         Gradient 225                  : 
TLFamily_GZ4       .         Gradient 425                  : 
TLFamily_GZ5       .         Gradient 850                  : 
TLFamily_LLS       .         Lateral Log Resistivity       : 
TLFamily_MINV      .         Micro Gradient Resistivity    : 
TLFamily_MNOR      .         Micro Resistivity             : 
TLFamily_NGLD      .         Neutron Gamma                 : 
TLFamily_OGZ       .         Gradient Inverted 225         : 
TLFamily_PHIE      .         Effective Porosity            : 
TLFamily_PHIEN     .         Effective Porosity            : 
TLFamily_PHIT      .         Porosity                      : 
TLFamily_PRMB      .         Permeability                  : 
TLFamily_PRMB_DGR  .         Permeability                  : 
TLFamily_RT        .         Formation Resistivity         : 
TLFamily_SOIL_ARCHIE .         Oil Saturation                : 
TLFamily_SOIL_DW   .         Oil Saturation                : 
TLFamily_SP        .         Spontaneous Potential         : 
TLFamily_VSH_FIN   .         Shale Volume                  : 
TLFamily_VSH_GR    .         Shale Volume                  : 
TLFamily_VSH_SP    .         Shale Volume                  : 
~Curve Information
#_______________________________________________________________________________
#
#LOGNAME           .UNIT     LOG_ID                        : DESCRIPTION
#_______________________________________________________________________________
DEPT               .M                                      :  
CALI               .м                                      : Каверномер 
CILD               .мСм/м                                  : Индукционный каротаж 
COLL               .unitless                               : Описание 
CSAT               .unitless                               : Описание 
GR                 .uR/h                                   : Гамма каротаж 
GZ1                .Ом·м                                   :  
GZ2                .Ом·м                                   :  
GZ3                .Ом·м                                   :  
GZ4                .Ом·м                                   :  
GZ5                .Ом·м                                   :  
LLS                .Ohmm                                   : Боковой каротаж 
MINV               .Ohmm                                   : Микро-градиент зонд 
MNOR               .Ohmm                                   : Микро-потенциал зонд 
NGLD               .у.е.                                   : Показания зонда НГК-60 аппаратуры ДРСТ-3-90 
OGZ                .Ом·м                                   :  
PHIE               .v/v                                    : Описание 
PHIEN              .v/v                                    :  
PHIT               .v/v                                    : Описание 
PRMB               .mD                                     :  
PRMB_DGR           .mD                                     :  
RT                 .ohmm                                   : УЭС пласта 
SOIL_ARCHIE        .v/v                                    :  
SOIL_DW            .v/v                                    :  
SP                 .мВ                                     : Потенциал самополяризации 
VSH_FIN            .v/v                                    : Описание 
VSH_GR             .v/v                                    : Shale volume 
VSH_SP             .v/v                                    : Shale Volume 
~Ascii
# ...
996.2000045776367 0.244      861.3685   -9999      -9999      5.155671   2.97089    4.182092   3.540696   3.138198   2.5007     2.32299    0.9809733  1.34099    2.09       2.3954     0.062446   0.06244608 0.2872597  0.04016145 8.880612   2.292799   0          0.2502922  596.291    0.5546665  0.2659704  0.5546665 
996.3000030517578 0.245      870.8403   -9999      -9999      5.271092   2.761096   4.017496   3.461899   3.085799   2.5112     2.116995   0.5409986  1.147999   2.085      2.3887     0.063274   0.06327357 0.2883537  0.04160506 7.666593   2.176656   0          0.2355937  596.251    0.5534407  0.2824239  0.5534407 
996.4000015258789 0.246      880.5511   -9999      -9999      5.402883   2.630199   3.894399   3.4264     3.0582     2.5263     1.952999   0.4960003  1.123001   2.087      2.3981     0.064342   0.06434201 0.2897774  0.04354396 6.594313   2.078939   0          0.2244069  596.128    0.5496903  0.3003447  0.5496903 
996.5      0.247      890.3742   -9999      -9999      5.536787   2.579      3.8229     3.4205     3.0549     2.544      1.915      0.52       1.224      2.091      2.4135     0.06613    0.06612987 0.291609   0.04699439 5.67787    2.047421   0          0.2282605  595.915    0.543247   0.3192678  0.543247  
996.5999984741211 0.247      900.206    -9999      -9999      5.659956   2.549901   3.765801   3.437599   3.0717     2.5604     1.952999   0.5489996  1.345998   2.092      2.431      0.068562   0.06856201 0.2939796  0.05213059 4.911544   2.056269   0          0.2425745  595.66     0.5356206  0.3387403  0.5356206 
996.7000045776367 0.2469999  911.5624   -9999      -9999      5.760547   2.5368     3.686196   3.472402   3.101202   2.573601   2.019003   0.6020025  1.494006   2.085999   2.4471     0.071448   0.07144849 0.2970138  0.05895876 4.278119   2.077649   0          0.2612075  595.416    0.5284122  0.3583873  0.5284122 
996.8000030517578 0.246      924.4293   -9999      -9999      5.843686   2.549201   3.601097   3.513101   3.133501   2.5847     2.090001   0.659001   1.635003   2.059999   2.4579     0.075318   0.07531802 0.3007624  0.06953927 3.755906   2.098981   0          0.2831233  595.243    0.5233518  0.3779541  0.5233518 
996.9000015258789 0.245      937.3229   -9999      -9999      5.920359   2.593501   3.526299   3.556401   3.1583     2.5926     2.137001   0.693      1.722      2.013999   2.4633     0.079497   0.07949736 0.3051526  0.08310658 3.323712   2.107801   0          0.303628   595.213    0.5224798  0.3972994  0.5224798 
997        0.244      948.869    -9999      -9999      5.989092   2.6545     3.4664     3.5991     3.1657     2.5985     2.184      0.692      1.712      1.948      2.4653     0.084003   0.08400317 0.3099676  0.1007158  2.964488   2.118003   0          0.3246634  595.325    0.5257456  0.4162951  0.5257456 
997.0999984741211 0.243      959.3119   -9999      -9999      6.069033   2.702299   3.407201   3.633899   3.1603     2.5998     2.202      0.6740003  1.696      1.870001   2.4639     0.088926   0.08892574 0.3148718  0.1242463  2.667493   2.115293   0          0.3435857  595.498    0.5308247  0.4346323  0.5308247 
997.2000045776367 0.2409999  970.4737   -9999      -9999      6.156672   2.727199   3.338496   3.646999   3.142198   2.595199   2.217      0.6870069  1.777007   1.795997   2.4586     0.093604   0.0936038  0.3194775  0.151681   2.428079   2.109913   0          0.3599924  595.66     0.5356207  0.4516463  0.5356207 
997.3000030517578 0.2379999  982.4858   -9999      -9999      6.245178   2.706398   3.252097   3.630599   3.105899   2.580799   2.209999   0.8560071  1.926003   1.736999   2.4518     0.097089   0.09708864 0.3234304  0.1759875  2.246696   2.093952   0          0.3704955  595.813    0.5401856  0.4661942  0.5401856 
997.4000015258789 0.236      997.7517   -9999      -9999      6.317181   2.636499   3.156199   3.589199   3.061599   2.5565     2.176999   1.123002   2.023      1.704      2.4465     0.098472   0.09847204 0.326503   0.1866803  2.126722   2.06196    0          0.372582   595.955    0.5444532  0.476759   0.5444532 
997.5      0.233      1016.197   -9999      -9999      6.358189   2.5548     3.0745     3.5282     3.018      2.5309     2.112      1.287      1.987      1.701      2.4438     0.097398   0.09739829 0.3286633  0.1783221  2.073283   2.012664   0          0.3654232  596.088    0.5484761  0.481739   0.5484761 
997.5999984741211 0.231      1035.228   -9999      -9999      6.371277   2.492401   3.025501   3.460501   2.983701   2.5086     2.043001   1.244001   1.839002   1.726      2.4478     0.094159   0.09415874 0.3301047  0.1553142  2.092301   1.96137    0          0.3518799  596.2      0.5518839  0.4799463  0.5518839 
997.7000045776367 0.23       1052.164   -9999      -9999      6.348254   2.453001   3.014701   3.406698   2.960899   2.486899   1.983999   1.118998   1.724998   1.761001   2.458601   0.09038    0.09038048 0.3312251  0.132195   2.189823   1.916863   0          0.3371355  596.281    0.55436    0.4711008  0.55436   
997.8000030517578 0.23       1066.668   -9999      -9999      6.267101   2.462702   3.031001   3.366599   2.944099   2.4692     1.956001   1.068999   1.680999   1.791001   2.4693     0.087529   0.08752894 0.3325621  0.1170597  2.370703   1.8904     0          0.3274696  596.312    0.5553103  0.4560783  0.5553103 
997.9000015258789 0.231      1080.846   -9999      -9999      6.142511   2.5188     3.0616     3.3318     2.927999   2.4574     1.987001   1.036999   1.644999   1.81       2.4727     0.086235   0.08623524 0.3346935  0.1107744  2.635705   1.892766   0          0.3276507  596.281    0.5543599  0.4367651  0.5543599 
998        0.232      1094.458   -9999      -9999      5.995078   2.5402     3.0814     3.2997     2.9072     2.4397     2.045      0.957      1.58       1.814      2.4666     0.086824   0.08682446 0.338128   0.1135924  2.976527   1.90844    0          0.3365069  596.189    0.5515489  0.4156068  0.5515489 
998.0999984741211 0.233      1107.262   -9999      -9999      5.84216    2.5181     3.0779     3.255701   2.8743     2.4089     2.102999   0.8300018  1.508001   1.793      2.446501   0.090125   0.09012538 0.3431953  0.1307651  3.370297   1.923871   0          0.3535389  596.037    0.5469297  0.3950478  0.5469297 
998.2000045776367 0.234      1120.591   -9999      -9999      5.727054   2.501499   3.048698   3.195897   2.820597   2.368198   2.121      0.714996   1.459998   1.731995   2.409498   0.097106   0.09710638 0.3499663  0.1761152  3.777361   1.920525   0          0.3766141  595.854    0.5414146  0.3770759  0.5414146 
998.3000030517578 0.235      1134.179   -9999      -9999      5.651789   2.483498   3.000398   3.120397   2.751398   2.320299   2.109998   0.6329995  1.412998   1.631996   2.363799   0.107576   0.107576   0.3582128  0.2752495  4.145741   1.903937   0          0.4040169  595.65     0.5353246  0.3630167  0.5353246 
998.4000015258789 0.235      1146.323   -9999      -9999      5.622043   2.427399   2.927598   3.027099   2.680199   2.269799   2.064998   0.6180003  1.355999   1.501998   2.322099   0.120458   0.1204576  0.3674293  0.4767958  4.423701   1.873632   0          0.4313909  595.457    0.5296164  0.3535235  0.5296164 
998.5      0.235      1155.512   -9999      -9999      5.602035   2.3526     2.8194     2.9293     2.6097     2.2258     1.966      0.637      1.304      1.361      2.2919     0.134251   0.1342514  0.3769055  0.8586422  4.574305   1.820625   0.02961349 0.4536367  595.264    0.5239636  0.3487236  0.5239636 
998.5999984741211 0.235      1161.873   -9999      -9999      5.597622   2.270201   2.693502   2.836701   2.538501   2.196301   1.867001   0.6499998  1.243001   1.225002   2.2751     0.147223   0.1472227  0.3858475  1.493087   4.585488   1.769452   0.09245896 0.4716996  595.111    0.5195215  0.3483761  0.5195215 
998.7000045776367 0.235      1166.962   -9999      -9999      5.633086   2.164295   2.577195   2.746096   2.476098   2.1851     1.748996   0.6419981  1.158996   1.121997   2.279201   0.157193   0.1571934  0.3935149  2.284304   4.47081    1.709041   0.1287144  0.4815677  594.979    0.515714   0.3519976  0.515714  
