~Version
 VERS              .         2.0                           : CWLS LOG ASCII STANDARD - VERSION 2.0
 WRAP              .         NO                            : ONE LINE PER DEPTH STEP
 DLM               .         SPACE                         : DELIMITING CHARACTER(SPACE TAB OR COMMA)
~Well Information
#_______________________________________________________________________________
#
#PARAMETER_NAME    .UNIT     VALUE                         : DESCRIPTION
#_______________________________________________________________________________
STRT               .M        900                           : First reference value
STOP               .M        1195.30001831055              : Last reference value
STEP               .M        0.1                           : Step increment
NULL               .         -9999                         : Missing value
COMP               .                                       : Company
WELL               .         7768                          : Well name
FLD                .         УЗЕНЬ                         : Field
LOC                .                                       : Location
CNTY               .                                       : County
STAT               .                                       : State
CTRY               .                                       : Country
SRVC               .                                       : Service Company
DATE               .         7/10/2004                     : Date
UWI                .                                       : Unique Well ID
Block              .         6а                            : 
Cartographic_reference_system .         GCS_WGS_1984                  : ESRI,PE_10_3_1- <?xml version="1.0" encoding="utf-16"?><ILateBoundCoordinateReferenceSystem name="GCS_WGS_1984"><AuthorityCode>EPSG,4326</AuthorityCode></ILateBoundCoordinateReferenceSystem>
Category           .         Нефтяная                      : 
Condition          .         В работе                      : 
Date               .         30.03.2004                    : 
EREF               .m        87                            : 100.8
GRP                .         1111                          : Group name
Gorizont           .         14                            : 14
HZCS               .GCS_WGS_1984 WGS_1984_EASE-Grid_2.0_Global : ESRI,PE_10_3_1- <?xml version="1.0" encoding="utf-16"?><ILateBoundCoordinateReferenceSystem name="WGS_1984_EASE-Grid_2.0_Global"><AuthorityCode>EPSG,6933</AuthorityCode></ILateBoundCoordinateReferenceSystem>
ISS                .         БКЗ                           : Well surveys
Interpretator      .         Кушербаева А.С                : 
Kupol              .         основной                      : osnovnoi
LATI               .dega     0.6705369228                  : GCS_WGS_1984
LONG               .dega     0.4642774069                  : GCS_WGS_1984
Mud                .                                       : 
Mud_density        .                                       : 
Mud_resistivity    .                                       : 
NGDU               .         НГДУ-2                        : 
ORIGINALWELLNAME   .         7768                          : 
Spud_date          .         2004                          : 1961
TIME               .         9                             : LOG TIME
Viscosity          .                                       : 
X                  .m        44796.4                       : 46154
Y                  .m        85540.7                       : 85761.93
YEAR               .         2019г                         : 
~Parameter Information Block
#_______________________________________________________________________________
#
#PARAMETER_NAME    .UNIT     VALUE                         : DESCRIPTION
#_______________________________________________________________________________
SET                .         LQC_KAZNIPI_Petrel            : 
TLFamily_CALI      .         Caliper                       : 
TLFamily_CILD      .         Conductivity                  : 
TLFamily_COLL      .         Net Reservoir Flag            : 
TLFamily_CSAT      .         Fluid Code                    : 
TLFamily_DEPT      .         Measured Depth                : 
TLFamily_GR        .         Russian Gamma Ray             : 
TLFamily_GZ1       .         Gradient 045                  : 
TLFamily_GZ2       .         Gradient 105                  : 
TLFamily_GZ3       .         Gradient 225                  : 
TLFamily_GZ4       .         Gradient 425                  : 
TLFamily_GZ5       .         Gradient 850                  : 
TLFamily_LLS       .         Lateral Log Resistivity       : 
TLFamily_MINV      .         Micro Gradient Resistivity    : 
TLFamily_MNOR      .         Micro Resistivity             : 
TLFamily_NGLD      .         Neutron Gamma                 : 
TLFamily_OGZ       .         Gradient Inverted 225         : 
TLFamily_PHIE      .         Effective Porosity            : 
TLFamily_PHIEN     .         Effective Porosity            : 
TLFamily_PHIT      .         Porosity                      : 
TLFamily_PRMB      .         Permeability                  : 
TLFamily_PRMB_DGR  .         Permeability                  : 
TLFamily_RT        .         Formation Resistivity         : 
TLFamily_SOIL_ARCHIE .         Oil Saturation                : 
TLFamily_SOIL_DW   .         Oil Saturation                : 
TLFamily_SP        .         Spontaneous Potential         : 
TLFamily_VSH_FIN   .         Shale Volume                  : 
TLFamily_VSH_GR    .         Shale Volume                  : 
TLFamily_VSH_SP    .         Shale Volume                  : 
~Curve Information
#_______________________________________________________________________________
#
#LOGNAME           .UNIT     LOG_ID                        : DESCRIPTION
#_______________________________________________________________________________
DEPT               .M                                      :  
CALI               .м                                      : Каверномер 
CILD               .мСм/м                                  : Индукционный каротаж 
COLL               .unitless                               : Описание 
CSAT               .unitless                               : Описание 
GR                 .uR/h                                   : Гамма каротаж 
GZ1                .Ом·м                                   :  
GZ2                .Ом·м                                   :  
GZ3                .Ом·м                                   :  
GZ4                .Ом·м                                   :  
GZ5                .Ом·м                                   :  
LLS                .Ohmm                                   : Боковой каротаж 
MINV               .Ohmm                                   : Микро-градиент зонд 
MNOR               .Ohmm                                   : Микро-потенциал зонд 
NGLD               .у.е.                                   : Показания зонда НГК-60 аппаратуры ДРСТ-3-90 
OGZ                .Ом·м                                   :  
PHIE               .v/v                                    : Описание 
PHIEN              .v/v                                    :  
PHIT               .v/v                                    : Описание 
PRMB               .mD                                     :  
PRMB_DGR           .mD                                     :  
RT                 .ohmm                                   : УЭС пласта 
SOIL_ARCHIE        .v/v                                    :  
SOIL_DW            .v/v                                    :  
SP                 .мВ                                     : Потенциал самополяризации 
VSH_FIN            .v/v                                    : Описание 
VSH_GR             .v/v                                    : Shale volume 
VSH_SP             .v/v                                    : Shale Volume 
~Ascii
# ...
1110.600006103516 0.217      908.0891   -9999      -9999      7.116642   2.7099     3.1378     2.731001   2.278      2.208102   2.243001   2.325002   2.394997   2.023998   3.394502   0.070928   0.07092844 0.3045816  0.05766558 8.333711   2.193965   0          0.291929   594.928    0.5458829  0.2729639  0.5458829 
1110.699996948242 0.217      904.6722   -9999      -9999      7.104975   2.7085     3.1467     2.741499   2.2672     2.238999   2.263999   2.365999   2.350001   1.985001   3.422099   0.073985   0.07398455 0.3054663  0.06569613 8.493478   2.208315   0          0.3046915  594.959    0.5466192  0.2708554  0.5466192 
1110.800003051758 0.217      901.376    -9999      -9999      7.085523   2.7085     3.1555     2.758601   2.2599     2.269801   2.281      2.503003   2.311      1.941999   3.455701   0.077189   0.07718877 0.3069097  0.07531571 8.661159   2.220703   0          0.3179253  595.009    0.5479337  0.2687018  0.5479337 
1110.900009155273 0.2170001  898.1757   -9999      -9999      7.061102   2.712601   3.167103   2.780903   2.258501   2.296002   2.283      2.603002   2.316005   1.906998   3.492704   0.079495   0.07949475 0.3086121  0.08309947 8.84896    2.225783   0          0.3275333  595.081    0.5499189  0.2663585  0.5499189 
1111       0.218      895.4048   -9999      -9999      7.041681   2.7258     3.1943     2.8118     2.2666     2.3223     2.283      2.629      2.376      1.883      3.537      0.080878   0.08087772 0.310339   0.08814847 9.067533   2.228858   0          0.3341985  595.152    0.5518802  0.2637178  0.5518802 
1111.100006103516 0.218      893.3942   -9999      -9999      7.030428   2.766704   3.246005   2.848502   2.281301   2.346501   2.307006   2.690003   2.53201    1.875      3.586703   0.080805   0.08080463 0.3119868  0.08787448 9.32499    2.243118   0          0.3385265  595.233    0.5541525  0.26072    0.5541525 
1111.199996948242 0.218      892.1498   -9999      -9999      7.010432   2.837998   3.316098   2.887299   2.297499   2.3643     2.406997   2.737998   2.694995   1.88       3.635098   0.079729   0.07972945 0.3136081  0.08393296 9.622669   2.292789   0          0.3452883  595.304    0.556129   0.257396   0.556129  
1111.300003051758 0.218      891.4551   -9999      -9999      6.96139    2.921802   3.407903   2.932001   2.3116     2.3748     2.519003   2.814001   2.796003   1.896      3.686201   0.077824   0.07782449 0.3154006  0.0773833  9.950234   2.346602   0          0.3504822  595.365    0.5577996  0.2539017  0.5577996 
1111.400009155273 0.217      891.4609   -9999      -9999      6.901254   2.996505   3.509207   2.979904   2.3203     2.3761     2.604004   2.868001   2.907008   1.909      3.741305   0.076477   0.07647651 0.3176547  0.07306302 10.28071   2.385865   0          0.3555405  595.396    0.5585517  0.2505367  0.5585517 
1111.5     0.217      892.1718   -9999      -9999      6.84409    3.0457     3.5855     3.0226     2.3196     2.3721     2.642      2.883      2.997      1.912      3.791      0.076605   0.07660548 0.3206726  0.07346297 10.57087   2.402109   0          0.3622444  595.365    0.5573919  0.2477054  0.5573919 
1111.600006103516 0.2169999  893.4388   -9999      -9999      6.815742   3.062999   3.639903   3.057302   2.3143     2.353799   2.669001   2.914998   3.098996   1.893998   3.830601   0.078703   0.07870293 0.3246787  0.08033939 10.76674   2.412693   0          0.3743142  595.315    0.5556511  0.2458553  0.5556511 
1111.699996948242 0.216      895.0839   -9999      -9999      6.789462   3.0491     3.688298   3.082999   2.3096     2.329501   2.679      2.886001   3.034002   1.853001   3.858199   0.082552   0.08255163 0.329732   0.09467196 10.81512   2.414991   0          0.3903405  595.284    0.5544984  0.2454058  0.5544984 
1111.800003051758 0.216      897.0398   -9999      -9999      6.783937   3.011698   3.7168     3.0987     2.302799   2.300599   2.640997   2.818999   2.820993   1.785997   3.8716     0.088287   0.08828746 0.3356747  0.1209059  10.67842   2.395046   0          0.4079182  595.284    0.5542945  0.2466837  0.5542945 
1111.900009155273 0.216      899.6734   -9999      -9999      6.805445   2.966696   3.7182     3.106      2.288698   2.265797   2.542992   2.770991   2.598988   1.69599    3.872899   0.096484   0.09648366 0.342111   0.1715046  10.34796   2.346938   0          0.4261781  595.233    0.552532   0.2498706  0.552532  
1112       0.216      902.8721   -9999      -9999      6.886072   2.9258     3.71       3.1073     2.2713     2.2284     2.453      2.673      2.475      1.592      3.8635     0.106874   0.1068738  0.3484415  0.2671307  9.849489   2.300777   0          0.4465614  595.081    0.5477061  0.2549589  0.5477061 
1112.100006103516 0.2170001  906.0171   -9999      -9999      6.991462   2.884997   3.696397   3.106      2.254499   2.196298   2.373997   2.580994   2.456001   1.488995   3.834697   0.118287   0.118287   0.3539472  0.4346305  9.233326   2.25975    0.02097315 0.4660566  594.816    0.5395272  0.2617738  0.5395272 
1112.199996948242 0.218      908.4062   -9999      -9999      7.094516   2.839301   3.649401   3.1027     2.237      2.165401   2.331002   2.487003   2.461      1.408002   3.774102   0.12859    0.1285902  0.3578999  0.6744611  8.559752   2.236068   0.0851455  0.4823973  594.47     0.5290692  0.2699971  0.5290692 
1112.300003051758 0.219      909.7392   -9999      -9999      7.185581   2.799799   3.572597   3.093499   2.2202     2.137199   2.296      2.446999   2.523001   1.364      3.686096   0.135895   0.135895   0.3596959  0.9210074  7.880941   2.217663   0.1247406  0.4919929  594.104    0.518214   0.2792617  0.518214  
1112.400009155273 0.2190001  909.7392   -9999      -9999      7.287298   2.765897   3.497792   3.075097   2.204098   2.114899   2.276      2.422995   2.575997   1.359004   3.575889   0.139452   0.1394516  0.35897    1.071883   7.232424   2.207984   0.1424587  0.4949279  593.779    0.5087172  0.2892277  0.5087172 
1112.5     0.22       907.962    -9999      -9999      7.380024   2.7327     3.4155     3.0462     2.1853     2.0992     2.271      2.365      2.548      1.401      3.4557     0.138048   0.1380476  0.3556792  1.009583   6.630562   2.207615   0.1347999  0.4900452  593.555    0.5022055  0.2996731  0.5022055 
1112.600006103516 0.221      904.4716   -9999      -9999      7.456402   2.692497   3.310694   3.005497   2.161198   2.097201   2.245997   2.325995   2.451996   1.492007   3.354897   0.132004   0.1320044  0.350124   0.7801754  6.077024   2.200029   0.0989433  0.4756276  593.382    0.4971871  0.3105325  0.4971871 
1112.699996948242 0.221      899.6368   -9999      -9999      7.511475   2.647501   3.210603   2.956201   2.135001   2.1084     2.204001   2.249002   2.390002   1.615996   3.299802   0.122884   0.1228837  0.3429111  0.5287712  5.567548   2.184918   0.03786464 0.4529838  593.239    0.4930395  0.3218361  0.4930395 
1112.800003051758 0.221      893.718    -9999      -9999      7.575606   2.596998   3.115397   2.901698   2.1108     2.136001   2.150998   2.118994   2.349997   1.749004   3.299102   0.112709   0.1127086  0.3348467  0.3426117  5.10023    2.165947   0          0.4249322  593.127    0.4897747  0.3335659  0.4897747 
1112.900009155273 0.221      886.6413   -9999      -9999      7.675257   2.533293   3.011992   2.843895   2.0953     2.185206   2.097996   1.918983   2.252989   1.870009   3.361012   0.102803   0.1028034  0.3267999  0.2245531  4.681163   2.147417   0          0.3943842  593.097    0.4887691  0.345451   0.4887691 
1113       0.221      876.936    -9999      -9999      7.772451   2.4626     2.9181     2.7901     2.0927     2.254      2.058      1.741      2.134      1.97       3.4973     0.093761   0.09376062 0.3195491  0.1527001  4.325718   2.138428   0          0.3647211  593.168    0.4905375  0.3567717  0.4905375 
1113.100006103516 0.221      864.7012   -9999      -9999      7.901192   2.394796   2.830395   2.747399   2.103402   2.340608   2.001998   1.641999   2.091002   2.032001   3.690114   0.087183   0.08718334 0.3136428  0.115345   4.056309   2.124266   0          0.3389999  593.321    0.4945738  0.3662637  0.4945738 
