~Version
 VERS              .         2.0                           : CWLS LOG ASCII STANDARD - VERSION 2.0
 WRAP              .         NO                            : ONE LINE PER DEPTH STEP
 DLM               .         SPACE                         : DELIMITING CHARACTER(SPACE TAB OR COMMA)
~Well Information
#_______________________________________________________________________________
#
#PARAMETER_NAME    .UNIT     VALUE                         : DESCRIPTION
#_______________________________________________________________________________
STRT               .M        900                           : First reference value
STOP               .M        1195.30001831055              : Last reference value
STEP               .M        0.1                           : Step increment
NULL               .         -9999                         : Missing value
COMP               .                                       : Company
WELL               .         7768                          : Well name
FLD                .         УЗЕНЬ                         : Field
LOC                .                                       : Location
CNTY               .                                       : County
STAT               .                                       : State
CTRY               .                                       : Country
SRVC               .                                       : Service Company
DATE               .         7/10/2004                     : Date
UWI                .                                       : Unique Well ID
Block              .         6а                            : 
Cartographic_reference_system .         GCS_WGS_1984                  : ESRI,PE_10_3_1- <?xml version="1.0" encoding="utf-16"?><ILateBoundCoordinateReferenceSystem name="GCS_WGS_1984"><AuthorityCode>EPSG,4326</AuthorityCode></ILateBoundCoordinateReferenceSystem>
Category           .         Нефтяная                      : 
Condition          .         В работе                      : 
Date               .         30.03.2004                    : 
EREF               .m        87                            : 100.8
GRP                .         1111                          : Group name
Gorizont           .         14                            : 14
HZCS               .GCS_WGS_1984 WGS_1984_EASE-Grid_2.0_Global : ESRI,PE_10_3_1- <?xml version="1.0" encoding="utf-16"?><ILateBoundCoordinateReferenceSystem name="WGS_1984_EASE-Grid_2.0_Global"><AuthorityCode>EPSG,6933</AuthorityCode></ILateBoundCoordinateReferenceSystem>
ISS                .         БКЗ                           : Well surveys
Interpretator      .         Кушербаева А.С                : 
Kupol              .         основной                      : osnovnoi
LATI               .dega     0.6705369228                  : GCS_WGS_1984
LONG               .dega     0.4642774069                  : GCS_WGS_1984
Mud                .                                       : 
Mud_density        .                                       : 
Mud_resistivity    .                                       : 
NGDU               .         НГДУ-2                        : 
ORIGINALWELLNAME   .         7768                          : 
Spud_date          .         2004                          : 1961
TIME               .         9                             : LOG TIME
Viscosity          .                                       : 
X                  .m        44796.4                       : 46154
Y                  .m        85540.7                       : 85761.93
YEAR               .         2019г                         : 
~Parameter Information Block
#_______________________________________________________________________________
#
#PARAMETER_NAME    .UNIT     VALUE                         : DESCRIPTION
#_______________________________________________________________________________
SET                .         LQC_KAZNIPI_Petrel            : 
TLFamily_CALI      .         Caliper                       : 
TLFamily_CILD      .         Conductivity                  : 
TLFamily_COLL      .         Net Reservoir Flag            : 
TLFamily_CSAT      .         Fluid Code                    : 
TLFamily_DEPT      .         Measured Depth                : 
TLFamily_GR        .         Russian Gamma Ray             : 
TLFamily_GZ1       .         Gradient 045                  : 
TLFamily_GZ2       .         Gradient 105                  : 
TLFamily_GZ3       .         Gradient 225                  : 
TLFamily_GZ4       .         Gradient 425                  : 
TLFamily_GZ5       .         Gradient 850                  : 
TLFamily_LLS       .         Lateral Log Resistivity       : 
TLFamily_MINV      .         Micro Gradient Resistivity    : 
TLFamily_MNOR      .         Micro Resistivity             : 
TLFamily_NGLD      .         Neutron Gamma                 : 
TLFamily_OGZ       .         Gradient Inverted 225         : 
TLFamily_PHIE      .         Effective Porosity            : 
TLFamily_PHIEN     .         Effective Porosity            : 
TLFamily_PHIT      .         Porosity                      : 
TLFamily_PRMB      .         Permeability                  : 
TLFamily_PRMB_DGR  .         Permeability                  : 
TLFamily_RT        .         Formation Resistivity         : 
TLFamily_SOIL_ARCHIE .         Oil Saturation                : 
TLFamily_SOIL_DW   .         Oil Saturation                : 
TLFamily_SP        .         Spontaneous Potential         : 
TLFamily_VSH_FIN   .         Shale Volume                  : 
TLFamily_VSH_GR    .         Shale Volume                  : 
TLFamily_VSH_SP    .         Shale Volume                  : 
~Curve Information
#_______________________________________________________________________________
#
#LOGNAME           .UNIT     LOG_ID                        : DESCRIPTION
#_______________________________________________________________________________
DEPT               .M                                      :  
CALI               .м                                      : Каверномер 
CILD               .мСм/м                                  : Индукционный каротаж 
COLL               .unitless                               : Описание 
CSAT               .unitless                               : Описание 
GR                 .uR/h                                   : Гамма каротаж 
GZ1                .Ом·м                                   :  
GZ2                .Ом·м                                   :  
GZ3                .Ом·м                                   :  
GZ4                .Ом·м                                   :  
GZ5                .Ом·м                                   :  
LLS                .Ohmm                                   : Боковой каротаж 
MINV               .Ohmm                                   : Микро-градиент зонд 
MNOR               .Ohmm                                   : Микро-потенциал зонд 
NGLD               .у.е.                                   : Показания зонда НГК-60 аппаратуры ДРСТ-3-90 
OGZ                .Ом·м                                   :  
PHIE               .v/v                                    : Описание 
PHIEN              .v/v                                    :  
PHIT               .v/v                                    : Описание 
PRMB               .mD                                     :  
PRMB_DGR           .mD                                     :  
RT                 .ohmm                                   : УЭС пласта 
SOIL_ARCHIE        .v/v                                    :  
SOIL_DW            .v/v                                    :  
SP                 .мВ                                     : Потенциал самополяризации 
VSH_FIN            .v/v                                    : Описание 
VSH_GR             .v/v                                    : Shale volume 
VSH_SP             .v/v                                    : Shale Volume 
~Ascii
# ...
1071.600006103516 0.2330001  985.8772   -9999      -9999      7.583955   2.774897   2.990198   2.708      2.2666     1.920699   2.459993   3.290987   3.36498    2.367993   2.630599   0.048969   0.0489687  0.2707257  0.02260387 4.781531   2.205313   0          0.1453633  582.446    0.5242396  0.3424714  0.5242396 
1071.699996948242 0.234      982.4269   -9999      -9999      7.648975   2.736101   2.957501   2.7054     2.2659     1.9089     2.349003   3.081006   3.045009   2.258003   2.6144     0.057269   0.05726861 0.2765099  0.03220467 4.647032   2.158801   0          0.1858907  582.527    0.5272858  0.3464847  0.5272858 
1071.800003051758 0.235      979.4651   -9999      -9999      7.74085    2.657898   2.9126     2.7047     2.275301   1.8925     2.115994   2.760992   2.621991   2.131996   2.6138     0.067209   0.06720945 0.2836269  0.04920755 4.48672    2.05203    0          0.2179222  582.578    0.5294656  0.3514874  0.5294656 
1071.900009155273 0.235      977.5881   -9999      -9999      7.833554   2.596997   2.906504   2.714602   2.296102   1.8879     1.920994   2.514989   2.335997   2.016991   2.6191     0.077005   0.07700534 0.2911808  0.07472698 4.337652   1.956666   0          0.2461603  582.548    0.5292643  0.3563705  0.5292643 
1072       0.235      976.9111   -9999      -9999      7.910133   2.5638     2.9527     2.7395     2.3223     1.8925     1.857      2.397      2.3        1.918      2.6198     0.08595    0.08594958 0.2983281  0.1094361  4.235891   1.924764   0          0.2784267  582.466    0.5275382  0.3598419  0.5275382 
1072.100006103516 0.235      977.0999   -9999      -9999      7.942833   2.558902   3.022804   2.771702   2.3418     1.901701   1.91701    2.415008   2.540021   1.851998   2.611799   0.092189   0.09218857 0.3044049  0.1427979  4.209347   1.955126   0          0.3098497  582.375    0.5255527  0.3607667  0.5255527 
1072.199996948242 0.235      978.7572   -9999      -9999      7.927057   2.587399   3.086798   2.796699   2.3492     1.9129     2.092994   2.552996   2.903988   1.816001   2.5983     0.0958     0.09579999 0.3090063  0.1665737  4.274143   2.04136    0          0.3398467  582.293    0.5238373  0.3585233  0.5238373 
1072.300003051758 0.235      981.9859   -9999      -9999      7.849913   2.6164     3.113999   2.8111     2.3492     1.9194     2.195      2.615995   3.073994   1.811001   2.5876     0.096874   0.09687421 0.3120189  0.1743812  4.433561   2.086835   0          0.3536981  582.202    0.5218641  0.3532023  0.5218641 
1072.400009155273 0.235      986.2853   -9999      -9999      7.74565    2.607397   3.086195   2.8164     2.350501   1.9181     2.213988   2.443969   2.900965   1.831004   2.5815     0.096223   0.09622256 0.3135956  0.1696061  4.677418   2.091611   0          0.3551329  582.07     0.5187107  0.3455639  0.5187107 
1072.5     0.235      991.011    -9999      -9999      7.622022   2.5755     3.027      2.8131     2.3559     1.9161     2.082      2.128      2.546      1.87       2.5795     0.095234   0.09523418 0.3140924  0.1626008  4.982216   2.023169   0          0.3427361  581.856    0.5117086  0.3367699  0.5117086 
1072.600006103516 0.2360001  995.9677   -9999      -9999      7.513208   2.5485     2.981399   2.8105     2.366001   1.9168     1.993998   1.983009   2.322      1.909002   2.5788     0.094877   0.09487736 0.3139784  0.1601438  5.313907   1.975412   0          0.3338428  581.571    0.5027912  0.3280224  0.5027912 
1072.699996948242 0.237      1001.546   -9999      -9999      7.428004   2.5416     2.9677     2.817      2.3774     1.9194     1.968001   2.137995   2.321      1.938999   2.5734     0.09551    0.09550973 0.3137417  0.1645261  5.633255   1.95697    0          0.3318616  581.256    0.4931847  0.3202978  0.4931847 
1072.800003051758 0.238      1009.044   -9999      -9999      7.396544   2.548501   2.989501   2.831501   2.3868     1.921399   2.041003   2.468009   2.477007   1.949      2.556599   0.09751    0.09750988 0.3138133  0.179176   5.904731   1.985239   0          0.3413356  580.971    0.4845598  0.3142009  0.4845598 
1072.900009155273 0.2390001  1018.522   -9999      -9999      7.397742   2.572103   3.027603   2.849202   2.393501   1.910198   2.137006   2.775011   2.712014   1.939998   2.530397   0.1008     0.1007995  0.3145201  0.2061667  6.102872   2.021902   0          0.3555861  580.717    0.4768988  0.3099947  0.4768988 
1073       0.24       1028.674   -9999      -9999      7.409044   2.6039     3.0636     2.8689     2.3982     1.8899     2.197      2.896      2.866      1.92       2.5002     0.104633   0.1046329  0.3160716  0.2427812  6.21412    2.04042    0          0.3687005  580.503    0.4704093  0.3077165  0.4704093 
1073.100006103516 0.2410001  1038.04    -9999      -9999      7.409038   2.621202   3.088102   2.886601   2.395499   1.872199   2.184998   2.853993   2.874995   1.895998   2.465297   0.108779   0.1087792  0.3185753  0.2897404  6.232541   2.025151   0          0.3779949  580.289    0.4639981  0.3073448  0.4639981 
1073.199996948242 0.242      1046.352   -9999      -9999      7.409971   2.655199   3.116799   2.8985     2.380001   1.853801   2.147001   2.738003   2.802002   1.868001   2.424301   0.113228   0.1132277  0.3220617  0.35028    6.154279   1.999429   0          0.387055   580.076    0.4576952  0.3089348  0.4576952 
1073.300003051758 0.2440001  1056.08    -9999      -9999      7.408008   2.694599   3.175201   2.9031     2.350499   1.832799   2.118999   2.546992   2.669995   1.833999   2.381899   0.118251   0.1182512  0.3265131  0.4339638  5.975138   1.977259   0          0.3983445  579.852    0.4511895  0.3126838  0.4511895 
1073.400009155273 0.2460002  1067.2     -9999      -9999      7.424064   2.678693   3.208595   2.893797   2.301494   1.813098   2.078994   2.306985   2.508978   1.792995   2.342297   0.123414   0.1234145  0.3318707  0.5408599  5.693778   1.948394   0          0.4092579  579.679    0.4460549  0.3189032  0.4460549 
1073.5     0.248      1078.396   -9999      -9999      7.474755   2.599      3.1576     2.8623     2.239      1.7875     2.012      2.154      2.28       1.742      2.3087     0.128903   0.1289027  0.338033   0.683525   5.318669   1.906747   0.01621167 0.418965   579.567    0.4424974  0.3279024  0.4424974 
1073.600006103516 0.2490001  1088.333   -9999      -9999      7.573347   2.490291   3.060992   2.811196   2.179297   1.756099   1.929993   2.145      2.039985   1.682996   2.2879     0.134305   0.1343053  0.344845   0.8606221  4.872651   1.859198   0.03945001 0.4275657  579.547    0.4412524  0.3398416  0.4412524 
1073.699996948242 0.25       1096.963   -9999      -9999      7.713676   2.347604   2.937004   2.749402   2.130901   1.731101   1.818003   2.137      1.816007   1.612002   2.2852     0.140136   0.1401365  0.3520721  1.103613   4.392267   1.797385   0.05955111 0.4342279  579.598    0.4417823  0.3545544  0.4417823 
1073.800003051758 0.25       1105.527   -9999      -9999      7.866717   2.189796   2.766995   2.684298   2.093299   1.7101     1.711997   1.915989   1.660998   1.534997   2.300701   0.146064   0.1460642  0.3593993  1.421077   3.919023   1.737311   0.07829542 0.4405192  579.699    0.4435606  0.3714496  0.4435606 
1073.900009155273 0.249      1115.083   -9999      -9999      8.033783   2.076995   2.611292   2.627196   2.069799   1.6983     1.601995   1.585988   1.579997   1.451993   2.327503   0.152488   0.1524877  0.366425   1.868984   3.489736   1.673405   0.09645568 0.4456927  579.801    0.4453748  0.3894699  0.4453748 
1074       0.249      1125.384   -9999      -9999      8.193363   2.023      2.5276     2.5885     2.0598     1.6983     1.545      1.456      1.551      1.375      2.3571     0.15866    0.1586595  0.372689   2.43179    3.128729   1.63583    0.1177947  0.4533808  579.872    0.4464105  0.4072292  0.4464105 
1074.100006103516 0.248      1134.984   -9999      -9999      8.330593   1.990498   2.471097   2.5701     2.0598     1.697      1.532003   1.622016   1.591004   1.303997   2.386602   0.16474    0.1647395  0.37772    3.151683   2.845928   1.621866   0.1427789  0.4631799  579.893    0.446189   0.4232914  0.446189  
