~Version
 VERS              .         2.0                           : CWLS LOG ASCII STANDARD - VERSION 2.0
 WRAP              .         NO                            : ONE LINE PER DEPTH STEP
 DLM               .         SPACE                         : DELIMITING CHARACTER(SPACE TAB OR COMMA)
~Well Information
#_______________________________________________________________________________
#
#PARAMETER_NAME    .UNIT     VALUE                         : DESCRIPTION
#_______________________________________________________________________________
STRT               .M        900                           : First reference value
STOP               .M        1217.2                        : Last reference value
STEP               .M        0.2                           : Step increment
NULL               .         -9999                         : Missing value
COMP               .                                       : Company
WELL               .         8435                          : Well name
FLD                .         Узень                         : Field
LOC                .                                       : Location
CNTY               .                                       : County
STAT               .                                       : State
CTRY               .                                       : Country
SRVC               .                                       : Service Company
DATE               .                                       : Date
UWI                .                                       : Unique Well ID
Block              .         6а                            : 
Category           .         Нефтяная                      : 
Condition          .         В работе                      : 
Date               .         22.09.1997                    : 
EREF               .m        85.9                          : 100.8
GRP                .                                       : Group name
Gorizont           .         13                            : 14
ISS                .         БКЗ, магнитная лента          : Well surveys
Interpretator      .         Бекбулатова А.А.              : 
Kupol              .         Основной                      : osnovnoi
Mud                .         0                             : 
Mud_density        .         0                             : 
Mud_resistivity    .         0                             : 
NGDU               .         НГДУ-2                        : 
ORIGINALWELLNAME   .         8435                          : 
Spud_date          .         1997                          : 1961
TIME               .         14_38                         : LOG TIME
Viscosity          .         0                             : 
X                  .m        45090.2                       : 46154
Y                  .m        85538.63                      : 85761.93
YEAR               .         2019                          : 
~Parameter Information Block
#_______________________________________________________________________________
#
#PARAMETER_NAME    .UNIT     VALUE                         : DESCRIPTION
#_______________________________________________________________________________
SET                .         LQC_KAZNIPI_Petrel            : 
TLFamily_CALI      .         Caliper                       : 
TLFamily_CILD      .         Conductivity                  : 
TLFamily_COLL      .         Net Reservoir Flag            : 
TLFamily_CSAT      .         Fluid Code                    : 
TLFamily_DEPT      .         Measured Depth                : 
TLFamily_GR        .         Russian Gamma Ray             : 
TLFamily_GZ1       .         Gradient 045                  : 
TLFamily_GZ2       .         Gradient 105                  : 
TLFamily_GZ3       .         Gradient 225                  : 
TLFamily_GZ4       .         Gradient 425                  : 
TLFamily_GZ5       .         Gradient 850                  : 
TLFamily_LLS       .         Lateral Log Resistivity       : 
TLFamily_MINV      .         Micro Gradient Resistivity    : 
TLFamily_MNOR      .         Micro Resistivity             : 
TLFamily_NGLD      .         Neutron Gamma                 : 
TLFamily_OGZ       .         Gradient Inverted 225         : 
TLFamily_PHIE      .         Effective Porosity            : 
TLFamily_PHIEN     .         Effective Porosity            : 
TLFamily_PHIT      .         Porosity                      : 
TLFamily_PRMB      .         Permeability                  : 
TLFamily_PRMB_DGR  .         Permeability                  : 
TLFamily_RT        .         Formation Resistivity         : 
TLFamily_SOIL_ARCHIE .         Oil Saturation                : 
TLFamily_SOIL_DW   .         Oil Saturation                : 
TLFamily_SP        .         Spontaneous Potential         : 
TLFamily_VSH_FIN   .         Shale Volume                  : 
TLFamily_VSH_GR    .         Shale Volume                  : 
TLFamily_VSH_SP    .         Shale Volume                  : 
~Curve Information
#_______________________________________________________________________________
#
#LOGNAME           .UNIT     LOG_ID                        : DESCRIPTION
#_______________________________________________________________________________
DEPT               .M                                      : Колонка глубины 
CALI               .м                                      : Каверномер 
CILD               .мСм/м                                  : Индукционный каротаж 
COLL               .unitless                               : Описание 
CSAT               .unitless                               : Описание 
GR                 .uR/h                                   : Гамма каротаж 
GZ1                .Ом·м                                   :  
GZ2                .Ом·м                                   :  
GZ3                .Ом·м                                   : 519.13 - 1435.53<_techsia_sc_> 575.93 - 1187.33 
GZ4                .Ом·м                                   :  
GZ5                .Ом·м                                   :  
LLS                .Ohmm                                   : Боковой каротаж 
MINV               .Ohmm                                   : Микро-градиент зонд 
MNOR               .Ohmm                                   : Микро-потенциал зонд 
NGLD               .у.е.                                   : Показания зонда НГК-60 аппаратуры ДРСТ-3-90 
OGZ                .Ом·м                                   : 514.65 - 1431.05<_techsia_sc_> 571.45 - 1182.85 
PHIE               .v/v                                    : Описание 
PHIEN              .v/v                                    :  
PHIT               .v/v                                    : Описание 
PRMB               .mD                                     :  
PRMB_DGR           .mD                                     :  
RT                 .ohmm                                   : УЭС пласта 
SOIL_ARCHIE        .v/v                                    :  
SOIL_DW            .v/v                                    :  
SP                 .мВ                                     : Потенциал самополяризации 
VSH_FIN            .v/v                                    : Описание 
VSH_GR             .v/v                                    : Shale volume 
VSH_SP             .v/v                                    : Shale Volume 
~Ascii
# ...
1045.6     0.269      312        -9999      -9999      5.478      2.248      5.842      4.2589     4.922      4.249      1.898      2.102      2.302      0.787      2.2712     0.1976402  0.1976402  0.3350928  12.82133   5.428081   2.511      0.4041456  0.5670933  265.532    0.4165232  0.3251873  0.5078591 
1045.8     0.261      331        -9999      -9999      5.527      1.829      5.22       3.8164     3.309      3.169      2.24       1.505      1.936      0.779      1.7425     0.1990236  0.1990236  0.3375376  13.6006    5.07941    2.367      0.3911118  0.5572971  265.172    0.4197394  0.3341236  0.5053552 
1046       0.258      361        -9999      -9999      5.328      1.6        4.877      3.5424     2.928      2.725      2.445      2.277      2.644      0.765      1.6642     0.2109702  0.2109702  0.341816   22.63802   6.65137    2.17       0.3971666  0.5516998  263.477    0.3965023  0.2992899  0.4937147 
1046.2     0.258      392        -9999      -9999      5.361      1.549      4.254001   3.2238     2.737      2.42       2.719      2.61       2.939      0.71       1.7817     0.2299657  0.2299657  0.358624   50.89576   6.360521   1.999      0.4188143  0.5616214  260.666    0.3898735  0.3048044  0.4749427 
1046.4     0.283      405        -9999      -9999      5.395      1.511      3.607      2.8966     2.598      2.28       2.21       2.86       3.056      0.71       1.8209     0.2326028  0.2326028  0.358624   56.95417   6.074161   1.935      0.4157028  0.5564856  257.276    0.3818825  0.3105922  0.4531729 
1046.6     0.287      405        -9999      -9999      5.461      1.397      2.883      2.7286     2.458      2.141      1.572      0.857      1.804      0.679      1.7425     0.243481   0.243481   0.3680976  90.57665   5.554562   1.935      0.4385059  0.5713359  254.015    0.3776262  0.3221431  0.4331092 
1046.8     0.264      410        -9999      -9999      5.262      1.232      2.629      2.8082     2.242      2.064      1.693      0.543      1.757      0.691      1.6251     0.2477538  0.2477538  0.3644304  108.6824   7.27357    1.911      0.4437008  0.5691615  251.562    0.3535655  0.2885585  0.4185725 
1047       0.262      426        -9999      -9999      5.395      1.194      2.591      2.9895     2.128      2.014      2.088      0.548      1.89       0.71       1.6251     0.2394456  0.2394456  0.358624   76.25555   6.074161   1.839      0.4165051  0.5503932  250.374    0.3611467  0.3105922  0.4117011 
1047.2     0.258      448.9999   -9999      -9999      5.478      1.219      2.54       2.9541     2.166      1.899      2.02       2.406      2.659      0.734      1.7034     0.2295096  0.2295096  0.3512896  49.91513   5.428081   1.745      0.379473   0.5246198  250.578    0.3690303  0.3251873  0.4128734 
1047.4     0.267      469        -9999      -9999      5.793      1.245      2.476      2.6578     2.166      1.874      2.081      1.554      2.084      0.691      1.7034     0.2311119  0.2311119  0.3644304  53.4455    3.542339   1.671      0.3705516  0.5260411  251.959    0.4039955  0.3870977  0.4208932 
1047.6     0.278      474        -9999      -9999      6.175      1.181      2.21       2.2776     2.077      1.81       1.374      0.842      1.734      0.691      1.723      0.2140203  0.2140203  0.3644304  25.78295   2.111102   1.653      0.3235608  0.5085534  254.06     0.4557883  0.4781963  0.4333803 
1047.8     0.286      472.0001   -9999      -9999      6.125      1.041      1.968      2.0652     1.937      1.721      1.276      1.265      2.131      0.701      1.5859     0.210824   0.210824   0.3613744  22.49732   2.259076   1.66       0.3159953  0.5041384  256.332    0.4562132  0.4651493  0.4472771 
1048       0.285      469        -9999      -9999      6.092      0.965      1.905      1.9414     1.848      1.645      1.245      0.737      1.617      0.693      1.4684     0.2126148  0.2126148  0.3638192  24.28292   2.362377   1.671      0.323117   0.509429   258.301    0.458195   0.4567339  0.4596561 
1048.2     0.274      470        -9999      -9999      6.009      0.991      1.956      2.0299     1.836      1.645      1.496      1.4        2.348      0.734      1.4293     0.2020082  0.2020082  0.3512896  15.44687   2.64356    1.667      0.2914694  0.4880553  259.678    0.4523678  0.4362347  0.4685008 
1048.4     0.255      473        -9999      -9999      6.424      1.041      2.007      2.0741     1.836      1.658      1.678      0.588      1.571      0.712      1.4684     0.1893687  0.1893687  0.3580128  9.010014   1.506572   1.657      0.2483346  0.4793406  260.409    0.5110428  0.5488263  0.4732593 
1048.6     0.257      471        -9999      -9999      6.374      1.041      1.968      1.9635     1.836      1.696      1.777      1.26       2.418      0.712      1.5076     0.1915951  0.1915951  0.3580128  9.907517   1.612172   1.664      0.2574185  0.4827987  260.635    0.5042959  0.5338524  0.4747395 
1048.8     0.262      470        -9999      -9999      6.092      1.092      2.007      1.9414     1.887      1.734      1.663      3.198      1.711      0.697      1.5272     0.2089481  0.2089481  0.3625968  20.76745   2.362377   1.667      0.3120097  0.5044318  260.594    0.4656022  0.4567339  0.4744705 
1049       0.276      466        -9999      -9999      6.025      1.143      2.07       1.9193     1.937      1.734      1.815      1.774      2.193      0.71       1.5272     0.2078095  0.2078095  0.358624   19.7831    2.586866   1.681      0.3114355  0.5021308  260.509    0.4570136  0.4401135  0.4739137 
1049.2     0.275      452.9999   -9999      -9999      5.926      1.105      1.905      1.8972     1.975      1.734      1.648      1.883      2.309      0.693      1.5272     0.2168871  0.2168871  0.3638192  29.13627   2.958209   1.73       0.3454892  0.5216736  260.498    0.4452487  0.4166557  0.4738416 
1049.4     0.261      444        -9999      -9999      5.66       1.105      1.892      1.9282     2.102      1.709      1.511      0.683      1.54       0.705      1.5076     0.2225946  0.2225946  0.360152   37.1664    4.241815   1.765      0.366116   0.528489   260.529    0.4168406  0.3596365  0.4740446 
1049.6     0.252      458        -9999      -9999      5.428      1.181      2.007      2.0962     2.217      1.683      2.217      1.724      2.263      0.707      1.5076     0.2292254  0.2292254  0.3595408  49.3139    5.808552   1.711      0.3730408  0.5262628  260.442    0.394895   0.316315   0.4734751 
1049.8     0.259      478        -9999      -9999      5.809      1.333      2.172      1.9679     2.356      1.671      2.84       2.192      2.667      0.71       1.6055     0.2165116  0.2165116  0.358624   28.67338   3.466373   1.639      0.3276669  0.5039698  260.024    0.4306435  0.3905396  0.4707475 
1050       0.278      489        -9999      -9999      6.324      1.333      2.248      1.853      2.268      1.658      1.815      1.654      1.967      0.73       1.7034     0.1901438  0.1901438  0.352512   9.312846   1.725174   1.602      0.2390452  0.4663054  259.099    0.4920249  0.5192869  0.4647629 
1050.2     0.271      496.9999   -9999      -9999      6.324      1.257      2.045      1.7335     2.166      1.683      1.488      1.255      1.726      0.669      1.6251     0.2103403  0.2103403  0.3711536  22.03793   1.725174   1.577      0.2979283  0.4989357  257.62     0.487313   0.5192869  0.4553392 
1050.4     0.28       505.9999   -9999      -9999      5.992      1.219      2.007      1.6672     2.077      1.658      1.405      1.156      1.594      0.693      1.5076     0.219344   0.219344   0.3638192  32.35494   2.705156   1.548      0.3171742  0.4966076  255.714    0.4378037  0.4321511  0.4434563 
1050.6     0.289      512        -9999      -9999      5.677      1.067      1.892      1.6053     1.975      1.594      1.238      0.837      1.571      0.685      1.4293     0.2352442  0.2352442  0.366264   63.74589   4.145226   1.53       0.354015   0.5096895  253.668    0.3970296  0.3630351  0.4310241 
