~Version
 VERS              .         2.0                           : CWLS LOG ASCII STANDARD - VERSION 2.0
 WRAP              .         NO                            : ONE LINE PER DEPTH STEP
 DLM               .         SPACE                         : DELIMITING CHARACTER(SPACE TAB OR COMMA)
~Well Information
#_______________________________________________________________________________
#
#PARAMETER_NAME    .UNIT     VALUE                         : DESCRIPTION
#_______________________________________________________________________________
STRT               .M        900                           : First reference value
STOP               .M        1217.2                        : Last reference value
STEP               .M        0.2                           : Step increment
NULL               .         -9999                         : Missing value
COMP               .                                       : Company
WELL               .         8435                          : Well name
FLD                .         Узень                         : Field
LOC                .                                       : Location
CNTY               .                                       : County
STAT               .                                       : State
CTRY               .                                       : Country
SRVC               .                                       : Service Company
DATE               .                                       : Date
UWI                .                                       : Unique Well ID
Block              .         6а                            : 
Category           .         Нефтяная                      : 
Condition          .         В работе                      : 
Date               .         22.09.1997                    : 
EREF               .m        85.9                          : 100.8
GRP                .                                       : Group name
Gorizont           .         13                            : 14
ISS                .         БКЗ, магнитная лента          : Well surveys
Interpretator      .         Бекбулатова А.А.              : 
Kupol              .         Основной                      : osnovnoi
Mud                .         0                             : 
Mud_density        .         0                             : 
Mud_resistivity    .         0                             : 
NGDU               .         НГДУ-2                        : 
ORIGINALWELLNAME   .         8435                          : 
Spud_date          .         1997                          : 1961
TIME               .         14_38                         : LOG TIME
Viscosity          .         0                             : 
X                  .m        45090.2                       : 46154
Y                  .m        85538.63                      : 85761.93
YEAR               .         2019                          : 
~Parameter Information Block
#_______________________________________________________________________________
#
#PARAMETER_NAME    .UNIT     VALUE                         : DESCRIPTION
#_______________________________________________________________________________
SET                .         LQC_KAZNIPI_Petrel            : 
TLFamily_CALI      .         Caliper                       : 
TLFamily_CILD      .         Conductivity                  : 
TLFamily_COLL      .         Net Reservoir Flag            : 
TLFamily_CSAT      .         Fluid Code                    : 
TLFamily_DEPT      .         Measured Depth                : 
TLFamily_GR        .         Russian Gamma Ray             : 
TLFamily_GZ1       .         Gradient 045                  : 
TLFamily_GZ2       .         Gradient 105                  : 
TLFamily_GZ3       .         Gradient 225                  : 
TLFamily_GZ4       .         Gradient 425                  : 
TLFamily_GZ5       .         Gradient 850                  : 
TLFamily_LLS       .         Lateral Log Resistivity       : 
TLFamily_MINV      .         Micro Gradient Resistivity    : 
TLFamily_MNOR      .         Micro Resistivity             : 
TLFamily_NGLD      .         Neutron Gamma                 : 
TLFamily_OGZ       .         Gradient Inverted 225         : 
TLFamily_PHIE      .         Effective Porosity            : 
TLFamily_PHIEN     .         Effective Porosity            : 
TLFamily_PHIT      .         Porosity                      : 
TLFamily_PRMB      .         Permeability                  : 
TLFamily_PRMB_DGR  .         Permeability                  : 
TLFamily_RT        .         Formation Resistivity         : 
TLFamily_SOIL_ARCHIE .         Oil Saturation                : 
TLFamily_SOIL_DW   .         Oil Saturation                : 
TLFamily_SP        .         Spontaneous Potential         : 
TLFamily_VSH_FIN   .         Shale Volume                  : 
TLFamily_VSH_GR    .         Shale Volume                  : 
TLFamily_VSH_SP    .         Shale Volume                  : 
~Curve Information
#_______________________________________________________________________________
#
#LOGNAME           .UNIT     LOG_ID                        : DESCRIPTION
#_______________________________________________________________________________
DEPT               .M                                      : Колонка глубины 
CALI               .м                                      : Каверномер 
CILD               .мСм/м                                  : Индукционный каротаж 
COLL               .unitless                               : Описание 
CSAT               .unitless                               : Описание 
GR                 .uR/h                                   : Гамма каротаж 
GZ1                .Ом·м                                   :  
GZ2                .Ом·м                                   :  
GZ3                .Ом·м                                   : 519.13 - 1435.53<_techsia_sc_> 575.93 - 1187.33 
GZ4                .Ом·м                                   :  
GZ5                .Ом·м                                   :  
LLS                .Ohmm                                   : Боковой каротаж 
MINV               .Ohmm                                   : Микро-градиент зонд 
MNOR               .Ohmm                                   : Микро-потенциал зонд 
NGLD               .у.е.                                   : Показания зонда НГК-60 аппаратуры ДРСТ-3-90 
OGZ                .Ом·м                                   : 514.65 - 1431.05<_techsia_sc_> 571.45 - 1182.85 
PHIE               .v/v                                    : Описание 
PHIEN              .v/v                                    :  
PHIT               .v/v                                    : Описание 
PRMB               .mD                                     :  
PRMB_DGR           .mD                                     :  
RT                 .ohmm                                   : УЭС пласта 
SOIL_ARCHIE        .v/v                                    :  
SOIL_DW            .v/v                                    :  
SP                 .мВ                                     : Потенциал самополяризации 
VSH_FIN            .v/v                                    : Описание 
VSH_GR             .v/v                                    : Shale volume 
VSH_SP             .v/v                                    : Shale Volume 
~Ascii
# ...
1102.8     0.244      310        -9999      -9999      5.677      2.197      5.041999   -9999      2.61       2.217      3.721      10.193     4.331      0.8        2.4865     0.1826783  0.1826783  0.33112    6.773347   4.145226   2.528      0.3638766  0.5516823  269.557    0.4498233  0.3630351  0.5366117 
1103       0.255      332.0001   -9999      -9999      6.025      2.286      4.661      -9999      2.496      2.191      2.984      2.75       3.375      0.8        2.3691     0.1723454  0.1723454  0.33112    4.359262   2.586866   2.36       0.3088378  0.5253316  267.558    0.4811351  0.4401135  0.5221567 
1103.2     0.271      348        -9999      -9999      6.324      2.07       4.407      -9999      2.395      1.988      2.438      2.346      3.507      0.769      2.2124     0.1717621  0.1717621  0.3405936  4.252149   1.725174   2.252      0.2913874  0.5217937  264.967    0.5116107  0.5192869  0.5039345 
1103.4     0.282      359        -9999      -9999      6.324      1.803      4.039      -9999      2.255      1.734      2.066      1.275      2.434      0.748      2.1341     0.181238   0.181238   0.3470112  6.369787   1.725174   2.183      0.3138193  0.5296916  262.244    0.5023431  0.5192869  0.4853994 
1103.6     0.28       370        -9999      -9999      6.025      1.524      3.619      -9999      2.09       1.887      2.088      1.126      2.317      0.742      2.0558     0.1987404  0.1987404  0.3488448  13.43733   2.586866   2.118      0.3577138  0.5409454  259.849    0.4548618  0.4401135  0.4696099 
1103.8     0.28       380        -9999      -9999      5.793      1.359      3.162      -9999      1.988      1.95       2.012      1.505      2.504      0.748      2.0362     0.2074899  0.2074899  0.3470112  19.51523   3.542339   2.062      0.3735399  0.5411994  258.117    0.4227919  0.3870977  0.4584861 
1104       0.26       387        -9999      -9999      6.092      1.308      2.946      -9999      1.975      2.128      2.187      1.659      2.356      0.773      1.9971     0.1893402  0.1893402  0.3393712  8.999078   2.362377   2.025      0.3157617  0.5134155  257.176    0.4546394  0.4567339  0.4525449 
1104.2     0.285      389        -9999      -9999      6.224      1.346      2.692      -9999      2.001      1.175      1.974      1.793      1.812      0.73       2.0166     0.197001   0.197001   0.352512   12.47653   1.975496   2.014      0.3373032  0.5305861  256.954    0.4712455  0.4913373  0.4511538 
1104.4     0.289      389        -9999      -9999      6.158      1.232      2.603      -9999      2.102      0.794      1.99       0.538      1.353      0.71       1.9971     0.2057241  0.2057241  0.358624   18.09951   2.160293   2.014      0.3618447  0.543326   257.24     0.4633332  0.4737197  0.4529467 
1104.6     0.261      389        -9999      -9999      6.424      1.219      2.553      -9999      2.166      0.49       2.05       0.668      1.555      0.714      2.0166     0.1915298  0.1915298  0.3574016  9.879927   1.506572   2.014      0.3208457  0.5293297  257.797    0.502642   0.5488263  0.4564576 
1104.8     0.261      389        -9999      -9999      6.108      1.232      2.54       -9999      2.217      0.312      2.293      1.176      1.897      0.769      1.9971     0.1885499  0.1885499  0.3405936  8.700801   2.311715   2.014      0.3115068  0.5123494  258.462    0.4607386  0.4607948  0.4606823 
1105       0.26       388        -9999      -9999      5.926      1.283      2.54       -9999      2.382      0.35       2.134      1.699      2.348      0.742      2.1341     0.2032939  0.2032939  0.3488448  16.31752   2.958209   2.019      0.3559556  0.5340293  259.209    0.4410634  0.4166557  0.465471  
1105.2     0.255      390        -9999      -9999      6.224      1.283      2.553      -9999      2.496      0.909      2.384      1.206      2.247      0.742      2.1733     0.1899751  0.1899751  0.3488448  9.246077   1.975496   2.009      0.3152093  0.5202122  260.141    0.4814234  0.4913373  0.4715095 
1105.4     0.254      396        -9999      -9999      6.374      1.359      2.553      -9999      2.572      1.823      2.407      1.724      2.644      0.74       2.2516     0.1821781  0.1821781  0.349456   6.630383   1.612172   1.979      0.2847204  0.5091498  261.426    0.5069027  0.5338524  0.4799531 
1105.6     0.256      397        -9999      -9999      6.507      1.486      2.565      -9999      2.636      1.607      2.233      1.958      2.426      0.714      2.2907     0.1814382  0.1814382  0.3574016  6.424407   1.346325   1.974      0.2813278  0.5144931  263.199    0.5332226  0.5746163  0.4918289 
1105.8     0.262      396        -9999      -9999      6.374      1.511      2.565      -9999      2.649      0.959      2.035      2.142      2.582      0.742      2.3299     0.1770234  0.1770234  0.3488448  5.321818   1.612172   1.979      0.2666137  0.5031362  265.479    0.5206711  0.5338524  0.5074897 
1106       0.265      397        -9999      -9999      6.058      1.473      2.553      -9999      2.636      1.036      2.119      0.887      1.983      0.732      2.2907     0.1911057  0.1911057  0.3519008  9.702834   2.47375    1.974      0.3130972  0.5196565  268.135    0.487258   0.4482227  0.5262933 
1106.2     0.265      397        -9999      -9999      5.809      1.46       2.515      -9999      2.585      1.531      2.126      1.704      2.317      0.703      2.3103     0.2061276  0.2061276  0.3607632  18.41373   3.466373   1.974      0.3569075  0.5407329  270.917    0.4685926  0.3905396  0.5466457 
1106.4     0.265      393        -9999      -9999      6.058      1.397      2.502      -9999      2.547      1.823      2.035      1.485      2.403      0.753      2.4082     0.1780604  0.1780604  0.3454832  5.562479   2.47375    1.994      0.2729161  0.503181   273.54     0.5073419  0.4482227  0.566461  
1106.6     0.266      388        -9999      -9999      5.892      1.346      2.464      -9999      2.217      2.09       2.058      1.206      2.364      0.777      2.4474     0.1743274  0.1743274  0.3381488  4.743773   3.097671   2.019      0.263692   0.4956102  275.792    0.4964285  0.4088914  0.5839657 
1106.8     0.259      384        -9999      -9999      5.793      1.333      2.438      -9999      2.344      2.026      2.179      1.973      2.613      0.757      2.5061     0.1816482  0.1816482  0.3442608  6.482209   3.542339   2.04       0.2930467  0.5115436  277.61     0.4927655  0.3870977  0.5984332 
1107       0.259      379        -9999      -9999      5.809      1.321      2.413      -9999      2.242      1.645      2.346      2.053      2.418      0.771      2.5649     0.1748121  0.1748121  0.3399824  4.842863   3.466373   2.067      0.2735247  0.5036845  279.097    0.5005161  0.3905396  0.6104925 
1107.2     0.248      371        -9999      -9999      5.395      1.308      2.4        -9999      2.115      0.998      2.453      0.598      1.928      0.769      2.6432     0.1867336  0.1867336  0.3405936  8.052248   6.074161   2.112      0.3209872  0.5219839  280.48     0.4662425  0.3105922  0.6218927 
1107.4     0.255      362        -9999      -9999      5.112      1.321      2.4        -9999      2.077      1.048      2.605      2.257      3.141      0.769      2.6823     0.1920358  0.1920358  0.3405936  10.0955    8.912764   2.164      0.3448657  0.5329367  282.017    0.450175   0.2655782  0.6347718 
1107.6     0.258      356        -9999      -9999      5.328      1.435      2.451      -9999      2.077      1.785      2.552      2.456      2.9        0.779      2.6823     0.1807737  0.1807737  0.3375376  6.24491    6.65137    2.201      0.3149298  0.5231575  283.893    0.475042   0.2992899  0.6507941 
1107.8     0.261      354        -9999      -9999      5.229      1.537      2.591      -9999      2.09       1.429      2.673      2.341      3.095      0.761      2.7998     0.1856585  0.1856585  0.3430384  7.691364   7.606164   2.213      0.3323608  0.5339934  286.146    0.4769089  0.283338   0.6704799 
