~Version
 VERS              .         2.0                           : CWLS LOG ASCII STANDARD - VERSION 2.0
 WRAP              .         NO                            : ONE LINE PER DEPTH STEP
 DLM               .         SPACE                         : DELIMITING CHARACTER(SPACE TAB OR COMMA)
~Well Information
#_______________________________________________________________________________
#
#PARAMETER_NAME    .UNIT     VALUE                         : DESCRIPTION
#_______________________________________________________________________________
STRT               .M        900                           : First reference value
STOP               .M        1217.2                        : Last reference value
STEP               .M        0.2                           : Step increment
NULL               .         -9999                         : Missing value
COMP               .                                       : Company
WELL               .         8435                          : Well name
FLD                .         Узень                         : Field
LOC                .                                       : Location
CNTY               .                                       : County
STAT               .                                       : State
CTRY               .                                       : Country
SRVC               .                                       : Service Company
DATE               .                                       : Date
UWI                .                                       : Unique Well ID
Block              .         6а                            : 
Category           .         Нефтяная                      : 
Condition          .         В работе                      : 
Date               .         22.09.1997                    : 
EREF               .m        85.9                          : 100.8
GRP                .                                       : Group name
Gorizont           .         13                            : 14
ISS                .         БКЗ, магнитная лента          : Well surveys
Interpretator      .         Бекбулатова А.А.              : 
Kupol              .         Основной                      : osnovnoi
Mud                .         0                             : 
Mud_density        .         0                             : 
Mud_resistivity    .         0                             : 
NGDU               .         НГДУ-2                        : 
ORIGINALWELLNAME   .         8435                          : 
Spud_date          .         1997                          : 1961
TIME               .         14_38                         : LOG TIME
Viscosity          .         0                             : 
X                  .m        45090.2                       : 46154
Y                  .m        85538.63                      : 85761.93
YEAR               .         2019                          : 
~Parameter Information Block
#_______________________________________________________________________________
#
#PARAMETER_NAME    .UNIT     VALUE                         : DESCRIPTION
#_______________________________________________________________________________
SET                .         LQC_KAZNIPI_Petrel            : 
TLFamily_CALI      .         Caliper                       : 
TLFamily_CILD      .         Conductivity                  : 
TLFamily_COLL      .         Net Reservoir Flag            : 
TLFamily_CSAT      .         Fluid Code                    : 
TLFamily_DEPT      .         Measured Depth                : 
TLFamily_GR        .         Russian Gamma Ray             : 
TLFamily_GZ1       .         Gradient 045                  : 
TLFamily_GZ2       .         Gradient 105                  : 
TLFamily_GZ3       .         Gradient 225                  : 
TLFamily_GZ4       .         Gradient 425                  : 
TLFamily_GZ5       .         Gradient 850                  : 
TLFamily_LLS       .         Lateral Log Resistivity       : 
TLFamily_MINV      .         Micro Gradient Resistivity    : 
TLFamily_MNOR      .         Micro Resistivity             : 
TLFamily_NGLD      .         Neutron Gamma                 : 
TLFamily_OGZ       .         Gradient Inverted 225         : 
TLFamily_PHIE      .         Effective Porosity            : 
TLFamily_PHIEN     .         Effective Porosity            : 
TLFamily_PHIT      .         Porosity                      : 
TLFamily_PRMB      .         Permeability                  : 
TLFamily_PRMB_DGR  .         Permeability                  : 
TLFamily_RT        .         Formation Resistivity         : 
TLFamily_SOIL_ARCHIE .         Oil Saturation                : 
TLFamily_SOIL_DW   .         Oil Saturation                : 
TLFamily_SP        .         Spontaneous Potential         : 
TLFamily_VSH_FIN   .         Shale Volume                  : 
TLFamily_VSH_GR    .         Shale Volume                  : 
TLFamily_VSH_SP    .         Shale Volume                  : 
~Curve Information
#_______________________________________________________________________________
#
#LOGNAME           .UNIT     LOG_ID                        : DESCRIPTION
#_______________________________________________________________________________
DEPT               .M                                      : Колонка глубины 
CALI               .м                                      : Каверномер 
CILD               .мСм/м                                  : Индукционный каротаж 
COLL               .unitless                               : Описание 
CSAT               .unitless                               : Описание 
GR                 .uR/h                                   : Гамма каротаж 
GZ1                .Ом·м                                   :  
GZ2                .Ом·м                                   :  
GZ3                .Ом·м                                   : 519.13 - 1435.53<_techsia_sc_> 575.93 - 1187.33 
GZ4                .Ом·м                                   :  
GZ5                .Ом·м                                   :  
LLS                .Ohmm                                   : Боковой каротаж 
MINV               .Ohmm                                   : Микро-градиент зонд 
MNOR               .Ohmm                                   : Микро-потенциал зонд 
NGLD               .у.е.                                   : Показания зонда НГК-60 аппаратуры ДРСТ-3-90 
OGZ                .Ом·м                                   : 514.65 - 1431.05<_techsia_sc_> 571.45 - 1182.85 
PHIE               .v/v                                    : Описание 
PHIEN              .v/v                                    :  
PHIT               .v/v                                    : Описание 
PRMB               .mD                                     :  
PRMB_DGR           .mD                                     :  
RT                 .ohmm                                   : УЭС пласта 
SOIL_ARCHIE        .v/v                                    :  
SOIL_DW            .v/v                                    :  
SP                 .мВ                                     : Потенциал самополяризации 
VSH_FIN            .v/v                                    : Описание 
VSH_GR             .v/v                                    : Shale volume 
VSH_SP             .v/v                                    : Shale Volume 
~Ascii
# ...
957.2000000000001 0.218      202        -9999      -9999      2.772      2.121      5.842      -9999      4.122      2.28       3.63       2.675      3.546      1.027      4.4836     0.1290151  0.1290151  0.2617488  0.6867995  9.923237   3.879      0.295567   0.5216923  301.952    0.4022235  0.2541835  0.5502635 
957.4      0.218      202        -9999      -9999      2.739      2.057      5.118001   -9999      4.185      2.814      4.45       2.83       3.561      1.12       4.4053     0.1035454  0.1035454  0.233328   0.2317769  10.31774   3.879      0.1468528  0.4416943  300.077    0.3932806  0.2501691  0.5363921 
957.6      0.218      198        -9999      -9999      2.772      2.197      5.105      -9999      4.515      3.347      4.435      4.304      3.896      1.105      4.6598     0.1092105  0.1092105  0.237912   0.2951214  9.923237   3.957      0.1931023  0.4647053  298.62     0.3900046  0.2541835  0.5258258 
957.8      0.218      195        -9999      -9999      2.872      2.07       5.041999   -9999      4.693      3.563      3.956      3.592      3.725      1.093      4.836      0.1122624  0.1122624  0.2415792  0.3361472  8.817529   4.018      0.2178762  0.4792626  297.382    0.3918691  0.2667457  0.5169925 
958        0.219      198        -9999      -9999      3.154      2.146      5.08       -9999      4.871      3.69       5.43       2.919      4.183      1.058      4.8556     0.1181     0.1181     0.2522752  0.4311779  6.319197   3.957      0.2462651  0.4989101  296.04     0.4065916  0.3056168  0.5075664 
958.2000000000001 0.218      202        -9999      -9999      3.104      2.667      5.613      -9999      4.909      3.652      5.247      3.427      4.37       1.003      4.601099   0.1381516  0.1381516  0.2690832  1.014052   6.703711   3.879      0.3363197  0.5419765  294.244    0.3967625  0.2983336  0.4951914 
958.4      0.218      210        -9999      -9999      3.187      2.984      6.045001   -9999      4.718999   3.588      4.746      3.069      3.981      1.005      4.3661     0.1383188  0.1383188  0.268472   1.021311   6.077579   3.731      0.3248048  0.5325477  291.724    0.3944036  0.3105209  0.4782864 
958.6      0.218      210        -9999      -9999      3.486      2.934      6.096      -9999      4.579      3.538      4.085      4.374      4.276999   0.952      4.0529     0.1501343  0.1501343  0.2846688  1.690479   4.268974   3.731      0.3713274  0.5631272  288.379    0.4076803  0.3587005  0.4566601 
958.8      0.218      209        -9999      -9999      3.37       2.54       5.943      -9999      4.16       3.512      3.303      2.421      3.126      0.952      3.6417     0.1574971  0.1574971  0.2846688  2.314122   4.895978   3.749      0.3983633  0.5722614  284.307    0.3853688  0.3391795  0.431558  
959        0.218      220        -9999      -9999      3.32       2.172      5.728      -9999      3.969      3.512      3.911      2.68       3.017      0.943      3.4263     0.1659305  0.1659305  0.2874192  3.315841   5.193892   3.561      0.4110357  0.5725574  279.782    0.3681476  0.3310965  0.4051986 
959.2000000000001 0.218      230        -9999      -9999      3.154      2.286      6.032      -9999      4.312      3.499      4.23       5.131      4.261      0.927      3.6613     0.1791955  0.1791955  0.2923088  5.838389   6.319197   3.407      0.437648   0.5804865  275.165    0.3427677  0.3056168  0.3799185 
959.4      0.218      225        -9999      -9999      2.905      2.299      5.791      -9999      4.375999   3.499      3.599      2.7        4.113      0.929      3.9745     0.1879825  0.1879825  0.2916976  8.492766   8.480386   3.482      0.4660959  0.592458   270.816    0.3142883  0.2710261  0.3575505 
959.6      0.218      218        -9999      -9999      2.573      2.007      5.029      -9999      4.211      3.538      3.06       2.591      3.188      0.97       4.0333     0.1851208  0.1851208  0.279168   7.517004   12.55319   3.594      0.4668941  0.5856925  267.005    0.2849914  0.2309172  0.3390657 
959.8      0.219      223        -9999      -9999      2.407      2.019      4.801      -9999      4.325      3.55       4.382      3.069      4.168      0.988      3.8179     0.1849262  0.1849262  0.2736672  7.454862   15.27295   3.514      0.4607389  0.5758574  263.883    0.2689122  0.2131469  0.3246776 
960        0.22       229        -9999      -9999      2.49       2.121      5.182001   -9999      4.503      3.499      4.974      3.926      4.526      0.993      4.1312     0.1837113  0.1837113  0.2721392  7.078447   13.84645   3.422      0.45084    0.5676051  261.484    0.2679632  0.2218542  0.3140723 
960.2000000000001 0.218      231        -9999      -9999      2.689      2.032      5.029      -9999      4.35       3.334      3.873      3.089      3.857      0.952      4.5228     0.193755   0.193755   0.2846688  10.86354   10.94557   3.392      0.473547   0.5862063  259.783    0.2754962  0.2442073  0.3067852 
960.4      0.218      234        -9999      -9999      3.021      2.019      4.635      -9999      4.071      3.207      3.729      3.866      3.655      0.943      4.1312     0.1902207  0.1902207  0.2874192  9.343454   7.394348   3.348      0.4617502  0.5827327  258.751    0.2945408  0.2866245  0.3024571 
960.6      0.219      239        -9999      -9999      3.004      1.905      4.623      -9999      3.677      2.966      4.222      3.975      4.261      0.917      3.4459     0.1987942  0.1987942  0.2953648  13.46819   7.544353   3.278      0.4768636  0.592451   258.398    0.2926381  0.2842836  0.3009926 
960.8      0.219      238        -9999      -9999      3.087      1.753      4.61       -9999      3.423      2.763      3.334      4.409      3.919      0.935      3.1718     0.1911102  0.1911102  0.289864   9.704702   6.839708   3.292      0.4596725  0.5821007  258.788    0.299254   0.2958969  0.302611  
961        0.218      242        -9999      -9999      3.137      1.981      4.572      -9999      3.309      2.776      3.417      3.009      3.608      0.91       2.976      0.1967228  0.1967228  0.297504   12.32937   6.44739    3.238      0.4690188  0.5899408  259.993    0.3053977  0.3031208  0.3076746 
961.2000000000001 0.219      257        -9999      -9999      3.154      2.146      4.94       -9999      3.385      2.737      4.245      3.368      4.02       0.882      2.976      0.2034108  0.2034108  0.3060608  16.39908   6.319197   3.049      0.4694939  0.5900858  262.042    0.3110606  0.3056168  0.3165044 
961.4      0.219      263        -9999      -9999      3.502      2.388      5.232      -9999      3.614      2.814      4.245      4.563      4.269      0.871      3.1914     0.1954761  0.1954761  0.3094224  11.69095   4.189041   2.979      0.4447685  0.5812745  264.859    0.3452918  0.3614798  0.3291037 
961.6      0.219      250        -9999      -9999      3.436      2.337      4.877      -9999      3.69       2.903      2.916      2.81       3.312      0.79       3.3872     0.2194907  0.2194907  0.334176   32.55807   4.528735   3.134      0.5098732  0.6279151  268.233    0.3475311  0.3501522  0.3449101 
961.8      0.219      239        -9999      -9999      3.187      1.943      4.191      -9999      3.499      2.966      2.688      2.038      3.017      0.855      3.348      0.2032383  0.2032383  0.314312   16.27888   6.077579   3.278      0.4868407  0.61072    271.832    0.3365869  0.3105209  0.362653  
962        0.22       245        -9999      -9999      3.353      1.778      3.835      -9999      3.474      2.966      4.01       3.099      4.051      0.941      3.2305     0.1697487  0.1697487  0.2880304  3.902263   4.9953     3.198      0.3927112  0.5535823  275.265    0.3584293  0.3364094  0.3804492 
962.2000000000001 0.22       256        -9999      -9999      3.37       2.07       4.331      -9999      3.576      2.966      4.609      5.021      4.316      0.937      3.3676     0.1679178  0.1679178  0.2892528  3.609138   4.895978   3.061      0.3742219  0.5428967  278.169    0.3676818  0.3391795  0.396184  
