~Version
 VERS              .         2.0                           : CWLS LOG ASCII STANDARD - VERSION 2.0
 WRAP              .         NO                            : ONE LINE PER DEPTH STEP
 DLM               .         SPACE                         : DELIMITING CHARACTER(SPACE TAB OR COMMA)
~Well Information
#_______________________________________________________________________________
#
#PARAMETER_NAME    .UNIT     VALUE                         : DESCRIPTION
#_______________________________________________________________________________
STRT               .M        900                           : First reference value
STOP               .M        1217.2                        : Last reference value
STEP               .M        0.2                           : Step increment
NULL               .         -9999                         : Missing value
COMP               .                                       : Company
WELL               .         8435                          : Well name
FLD                .         Узень                         : Field
LOC                .                                       : Location
CNTY               .                                       : County
STAT               .                                       : State
CTRY               .                                       : Country
SRVC               .                                       : Service Company
DATE               .                                       : Date
UWI                .                                       : Unique Well ID
Block              .         6а                            : 
Category           .         Нефтяная                      : 
Condition          .         В работе                      : 
Date               .         22.09.1997                    : 
EREF               .m        85.9                          : 100.8
GRP                .                                       : Group name
Gorizont           .         13                            : 14
ISS                .         БКЗ, магнитная лента          : Well surveys
Interpretator      .         Бекбулатова А.А.              : 
Kupol              .         Основной                      : osnovnoi
Mud                .         0                             : 
Mud_density        .         0                             : 
Mud_resistivity    .         0                             : 
NGDU               .         НГДУ-2                        : 
ORIGINALWELLNAME   .         8435                          : 
Spud_date          .         1997                          : 1961
TIME               .         14_38                         : LOG TIME
Viscosity          .         0                             : 
X                  .m        45090.2                       : 46154
Y                  .m        85538.63                      : 85761.93
YEAR               .         2019                          : 
~Parameter Information Block
#_______________________________________________________________________________
#
#PARAMETER_NAME    .UNIT     VALUE                         : DESCRIPTION
#_______________________________________________________________________________
SET                .         LQC_KAZNIPI_Petrel            : 
TLFamily_CALI      .         Caliper                       : 
TLFamily_CILD      .         Conductivity                  : 
TLFamily_COLL      .         Net Reservoir Flag            : 
TLFamily_CSAT      .         Fluid Code                    : 
TLFamily_DEPT      .         Measured Depth                : 
TLFamily_GR        .         Russian Gamma Ray             : 
TLFamily_GZ1       .         Gradient 045                  : 
TLFamily_GZ2       .         Gradient 105                  : 
TLFamily_GZ3       .         Gradient 225                  : 
TLFamily_GZ4       .         Gradient 425                  : 
TLFamily_GZ5       .         Gradient 850                  : 
TLFamily_LLS       .         Lateral Log Resistivity       : 
TLFamily_MINV      .         Micro Gradient Resistivity    : 
TLFamily_MNOR      .         Micro Resistivity             : 
TLFamily_NGLD      .         Neutron Gamma                 : 
TLFamily_OGZ       .         Gradient Inverted 225         : 
TLFamily_PHIE      .         Effective Porosity            : 
TLFamily_PHIEN     .         Effective Porosity            : 
TLFamily_PHIT      .         Porosity                      : 
TLFamily_PRMB      .         Permeability                  : 
TLFamily_PRMB_DGR  .         Permeability                  : 
TLFamily_RT        .         Formation Resistivity         : 
TLFamily_SOIL_ARCHIE .         Oil Saturation                : 
TLFamily_SOIL_DW   .         Oil Saturation                : 
TLFamily_SP        .         Spontaneous Potential         : 
TLFamily_VSH_FIN   .         Shale Volume                  : 
TLFamily_VSH_GR    .         Shale Volume                  : 
TLFamily_VSH_SP    .         Shale Volume                  : 
~Curve Information
#_______________________________________________________________________________
#
#LOGNAME           .UNIT     LOG_ID                        : DESCRIPTION
#_______________________________________________________________________________
DEPT               .M                                      : Колонка глубины 
CALI               .м                                      : Каверномер 
CILD               .мСм/м                                  : Индукционный каротаж 
COLL               .unitless                               : Описание 
CSAT               .unitless                               : Описание 
GR                 .uR/h                                   : Гамма каротаж 
GZ1                .Ом·м                                   :  
GZ2                .Ом·м                                   :  
GZ3                .Ом·м                                   : 519.13 - 1435.53<_techsia_sc_> 575.93 - 1187.33 
GZ4                .Ом·м                                   :  
GZ5                .Ом·м                                   :  
LLS                .Ohmm                                   : Боковой каротаж 
MINV               .Ohmm                                   : Микро-градиент зонд 
MNOR               .Ohmm                                   : Микро-потенциал зонд 
NGLD               .у.е.                                   : Показания зонда НГК-60 аппаратуры ДРСТ-3-90 
OGZ                .Ом·м                                   : 514.65 - 1431.05<_techsia_sc_> 571.45 - 1182.85 
PHIE               .v/v                                    : Описание 
PHIEN              .v/v                                    :  
PHIT               .v/v                                    : Описание 
PRMB               .mD                                     :  
PRMB_DGR           .mD                                     :  
RT                 .ohmm                                   : УЭС пласта 
SOIL_ARCHIE        .v/v                                    :  
SOIL_DW            .v/v                                    :  
SP                 .мВ                                     : Потенциал самополяризации 
VSH_FIN            .v/v                                    : Описание 
VSH_GR             .v/v                                    : Shale volume 
VSH_SP             .v/v                                    : Shale Volume 
~Ascii
# ...
936.4      0.208      200        6          6          1.693      2.984      5.739999   -9999      3.207      4.058      4.108      2.182      3.701      1.089      4.1312     0.1884923  0.1884923  0.2428016  8.679443   35.502     3.918      0.4960403  0.5725322  216.557    0.1645738  0.1510408  0.1781068 
936.6      0.209      200        6          6          1.643      2.972      6.121      -9999      3.233      4.046      4.23       1.788      3.452      1.081      3.9354     0.1919243  0.1919243  0.2452464  10.04759   37.66224   3.918      0.5038984  0.5782146  215.281    0.1615821  0.1474413  0.175723  
936.8      0.21       208        6          6          1.643      2.883      6.413      -9999      3.22       3.919      4.397      2.302      3.655      1.06       3.7396     0.198939   0.198939   0.251664   13.55158   37.66224   3.767      0.5102185  0.5825804  213.271    0.1597729  0.1474413  0.1721046 
937        0.212      219        6          6          1.61       2.845      6.413      -9999      3.106      3.512      4.169      2.257      3.771      1.087      3.5047     0.191783   0.191783   0.2434128  9.987216   39.15953   3.578      0.4819764  0.5565655  210.749    0.1564539  0.1451127  0.1677951 
937.2000000000001 0.212      228        6          6          1.577      2.794      6.236001   -9999      2.864      3.245      3.789      1.803      3.53       1.046      3.2305     0.2054024  0.2054024  0.2559424  17.85294   40.71632   3.437      0.5027294  0.5730286  208.065    0.1531514  0.142821   0.1634817 
937.4      0.212      236        1          3          1.577      2.489      5.766      -9999      2.674      3.004      3.486      1.813      3.359      1.011      2.839      0.2167141  0.2167141  0.2666384  28.92204   40.71632   3.32       0.517637   0.5852175  205.594    0.1512857  0.142821   0.1597505 
937.6      0.212      246        1          3          1.494      2.299      5.397      -9999      2.509      2.763      3.683      1.734      3.522      1.046      2.5649     0.2074064  0.2074064  0.2559424  19.4459    44.91104   3.185      0.4889788  0.5582698  203.629    0.1470787  0.1372155  0.1569419 
937.8      0.211      257        1          3          1.593      2.248      5.207      -9999      2.369      2.585      3.516      1.803      3.328      1.044      2.4474     0.207211   0.207211   0.2565536  19.28452   39.95393   3.049      0.4779779  0.5489689  202.299    0.1495229  0.1439276  0.1551183 
938        0.211      271        1          3          1.577      2.324      5.169      -9999      2.306      2.522      3.546      1.475      3.18       1.013      2.3495     0.2170348  0.2170348  0.2660272  29.32039   40.71632   2.891      0.4859414  0.5551942  201.538    0.1484617  0.142821   0.1541024 
938.2000000000001 0.212      283        1          3          1.544      2.4        4.889      -9999      2.255      2.395      3.493      1.714      3.367      1.003      2.3495     0.2205558  0.2205558  0.2690832  34.07119   42.33502   2.769      0.4827357  0.5515482  201.11     0.1470526  0.1405654  0.1535398 
938.4      0.21       296        1          3          1.477      2.324      4.623      -9999      2.255      2.217      3.212      1.729      3.211      0.995      2.3103     0.2238275  0.2238275  0.271528   39.17303   45.82212   2.647      0.4784142  0.5465498  200.694    0.1445468  0.1360949  0.1529988 
938.6      0.212      310        1          3          1.411      2.159      4.356      -9999      2.166      2.166      2.954      1.629      3.141      0.98       2.2516     0.2292632  0.2292632  0.276112   49.39348   49.53792   2.528      0.4780558  0.5451013  199.994    0.1419659  0.1318301  0.1521017 
938.8      0.212      323        1          3          1.61       2.032      3.937      -9999      2.001      2.077      2.757      1.405      2.916      0.935      2.1341     0.241062   0.241062   0.289864   81.69795   39.15953   2.426      0.4906273  0.557963   198.839    0.1478848  0.1451127  0.1506569 
939        0.212      336        1          3          1.676      1.867      3.658      -9999      1.899      1.887      2.605      1.455      2.862      0.902      2.0166     0.2506885  0.2506885  0.2999488  123.1733   36.2222    2.332      0.4984916  0.5652145  197.25     0.1492737  0.1498072  0.1487402 
939.2000000000001 0.212      348        1          3          1.61       1.791      3.467      -9999      1.836      1.709      2.552      1.475      2.939      0.921      1.8992     0.2460025  0.2460025  0.2941424  100.8604   39.15953   2.252      0.4817615  0.5489551  195.431    0.1458786  0.1451127  0.1466444 
939.4      0.211      356        1          3          1.577      1.727      3.238      -9999      1.772      1.594      2.384      1.465      2.893      0.937      1.8796     0.2418033  0.2418033  0.2892528  84.32203   40.71632   2.201      0.4682464  0.5359576  193.707    0.1437865  0.142821   0.1447521 
939.6      0.21       363        1          3          1.809      1.587      3.035      -9999      1.785      1.493      2.438      1.385      2.908      0.943      1.8013     0.2374038  0.2374038  0.2874192  69.89591   30.95545   2.158      0.4546481  0.5259649  192.413    0.1515619  0.1597337  0.1433901 
939.8      0.209      367        1          3          1.743      1.524      2.896      -9999      1.81       1.429      2.354      1.395      2.745      0.921      1.7425     0.2450595  0.2450595  0.2941424  96.8847    33.46566   2.135      0.4668427  0.5360067  191.782    0.1487359  0.1547282  0.1427437 
940        0.209      368        1          3          1.643      1.422      2.692      -9999      1.848      1.404      2.309      1.355      2.784      0.929      1.7425     0.243803   0.243803   0.2916976  91.82919   37.66224   2.129      0.4637425  0.5320949  191.866    0.1451352  0.1474413  0.1428291 
940.2000000000001 0.209      370        1          3          1.577      1.473      2.578      -9999      1.874      1.493      2.476      1.41       2.745      0.913      1.7425     0.2493444  0.2493444  0.2965872  116.3113   40.71632   2.118      0.4728576  0.5397584  192.518    0.1431599  0.142821   0.1434988 
940.4      0.21       375        1          3          1.693      1.664      2.642      -9999      1.912      1.417      2.741      1.485      2.97       0.906      1.7425     0.2499688  0.2499688  0.2987264  119.4504   35.502     2.089      0.4705906  0.5389785  193.433    0.1477502  0.1510408  0.1444595 
940.6      0.211      382        1          3          1.71       1.791      2.769      -9999      2.052      1.112      2.688      1.594      3.079      0.947      1.86       0.237091   0.237091   0.2861968  68.96967   34.79611   2.051      0.4408356  0.5122879  194.239    0.1488055  0.1522845  0.1453264 
940.8      0.21       385        1          3          1.61       1.753      2.705      -9999      2.077      1.061      2.536      1.355      2.986      0.929      1.8992     0.2437075  0.2437075  0.2916976  91.45592   39.15953   2.035      0.4520709  0.5213308  194.614    0.1454246  0.1451127  0.1457364 
941        0.21       386        1          3          1.726      1.664      2.642      -9999      2.102      1.112      2.324      1.405      2.799      0.908      1.8796     0.2487883  0.2487883  0.2981152  113.5848   34.14458   2.03       0.461208   0.5308344  194.386    0.1494755  0.1534645  0.1454866 
941.2000000000001 0.21       389        1          3          1.759      1.587      2.642      -9999      2.102      1.213      2.331      1.395      2.9        0.921      1.8209     0.2445508  0.2445508  0.2941424  94.80531   32.83904   2.014      0.4510513  0.5218512  193.591    0.1502775  0.155927   0.144628  
941.4      0.21       393        1          3          1.743      1.587      2.68       -9999      2.09       1.048      2.278      1.415      2.924      0.878      1.8209     0.2580848  0.2580848  0.3072832  168.8553   33.46566   1.994      0.4737511  0.5419852  192.465    0.149086   0.1547282  0.1434439 
