~Version
 VERS              .         2.0                           : CWLS LOG ASCII STANDARD - VERSION 2.0
 WRAP              .         NO                            : ONE LINE PER DEPTH STEP
 DLM               .         SPACE                         : DELIMITING CHARACTER(SPACE TAB OR COMMA)
~Well Information
#_______________________________________________________________________________
#
#PARAMETER_NAME    .UNIT     VALUE                         : DESCRIPTION
#_______________________________________________________________________________
STRT               .M        900                           : First reference value
STOP               .M        1217.2                        : Last reference value
STEP               .M        0.2                           : Step increment
NULL               .         -9999                         : Missing value
COMP               .                                       : Company
WELL               .         8435                          : Well name
FLD                .         Узень                         : Field
LOC                .                                       : Location
CNTY               .                                       : County
STAT               .                                       : State
CTRY               .                                       : Country
SRVC               .                                       : Service Company
DATE               .                                       : Date
UWI                .                                       : Unique Well ID
Block              .         6а                            : 
Category           .         Нефтяная                      : 
Condition          .         В работе                      : 
Date               .         22.09.1997                    : 
EREF               .m        85.9                          : 100.8
GRP                .                                       : Group name
Gorizont           .         13                            : 14
ISS                .         БКЗ, магнитная лента          : Well surveys
Interpretator      .         Бекбулатова А.А.              : 
Kupol              .         Основной                      : osnovnoi
Mud                .         0                             : 
Mud_density        .         0                             : 
Mud_resistivity    .         0                             : 
NGDU               .         НГДУ-2                        : 
ORIGINALWELLNAME   .         8435                          : 
Spud_date          .         1997                          : 1961
TIME               .         14_38                         : LOG TIME
Viscosity          .         0                             : 
X                  .m        45090.2                       : 46154
Y                  .m        85538.63                      : 85761.93
YEAR               .         2019                          : 
~Parameter Information Block
#_______________________________________________________________________________
#
#PARAMETER_NAME    .UNIT     VALUE                         : DESCRIPTION
#_______________________________________________________________________________
SET                .         LQC_KAZNIPI_Petrel            : 
TLFamily_CALI      .         Caliper                       : 
TLFamily_CILD      .         Conductivity                  : 
TLFamily_COLL      .         Net Reservoir Flag            : 
TLFamily_CSAT      .         Fluid Code                    : 
TLFamily_DEPT      .         Measured Depth                : 
TLFamily_GR        .         Russian Gamma Ray             : 
TLFamily_GZ1       .         Gradient 045                  : 
TLFamily_GZ2       .         Gradient 105                  : 
TLFamily_GZ3       .         Gradient 225                  : 
TLFamily_GZ4       .         Gradient 425                  : 
TLFamily_GZ5       .         Gradient 850                  : 
TLFamily_LLS       .         Lateral Log Resistivity       : 
TLFamily_MINV      .         Micro Gradient Resistivity    : 
TLFamily_MNOR      .         Micro Resistivity             : 
TLFamily_NGLD      .         Neutron Gamma                 : 
TLFamily_OGZ       .         Gradient Inverted 225         : 
TLFamily_PHIE      .         Effective Porosity            : 
TLFamily_PHIEN     .         Effective Porosity            : 
TLFamily_PHIT      .         Porosity                      : 
TLFamily_PRMB      .         Permeability                  : 
TLFamily_PRMB_DGR  .         Permeability                  : 
TLFamily_RT        .         Formation Resistivity         : 
TLFamily_SOIL_ARCHIE .         Oil Saturation                : 
TLFamily_SOIL_DW   .         Oil Saturation                : 
TLFamily_SP        .         Spontaneous Potential         : 
TLFamily_VSH_FIN   .         Shale Volume                  : 
TLFamily_VSH_GR    .         Shale Volume                  : 
TLFamily_VSH_SP    .         Shale Volume                  : 
~Curve Information
#_______________________________________________________________________________
#
#LOGNAME           .UNIT     LOG_ID                        : DESCRIPTION
#_______________________________________________________________________________
DEPT               .M                                      : Колонка глубины 
CALI               .м                                      : Каверномер 
CILD               .мСм/м                                  : Индукционный каротаж 
COLL               .unitless                               : Описание 
CSAT               .unitless                               : Описание 
GR                 .uR/h                                   : Гамма каротаж 
GZ1                .Ом·м                                   :  
GZ2                .Ом·м                                   :  
GZ3                .Ом·м                                   : 519.13 - 1435.53<_techsia_sc_> 575.93 - 1187.33 
GZ4                .Ом·м                                   :  
GZ5                .Ом·м                                   :  
LLS                .Ohmm                                   : Боковой каротаж 
MINV               .Ohmm                                   : Микро-градиент зонд 
MNOR               .Ohmm                                   : Микро-потенциал зонд 
NGLD               .у.е.                                   : Показания зонда НГК-60 аппаратуры ДРСТ-3-90 
OGZ                .Ом·м                                   : 514.65 - 1431.05<_techsia_sc_> 571.45 - 1182.85 
PHIE               .v/v                                    : Описание 
PHIEN              .v/v                                    :  
PHIT               .v/v                                    : Описание 
PRMB               .mD                                     :  
PRMB_DGR           .mD                                     :  
RT                 .ohmm                                   : УЭС пласта 
SOIL_ARCHIE        .v/v                                    :  
SOIL_DW            .v/v                                    :  
SP                 .мВ                                     : Потенциал самополяризации 
VSH_FIN            .v/v                                    : Описание 
VSH_GR             .v/v                                    : Shale volume 
VSH_SP             .v/v                                    : Shale Volume 
~Ascii
# ...
1139.2     0.208      129        1          2          5.926      2.946      9.017      -9999      6.433      4.896      5.057      2.361      4.043      0.855      6.1674     0.2677949  0.2677949  0.314312   255.4871   30.03166   6.074      0.6978551  0.7449983  93.367     0.140961   0.161722   0.1201999 
1139.4     0.208      133        1          2          5.76       2.819      8.509      -9999      6.535      4.922      5.193999   2.58       4.106      0.865      6.0303     0.2680471  0.2680471  0.311256   258.2498   42.34578   5.891      0.6937375  0.7397141  96.722     0.1309362  0.1405508  0.1213216 
1139.6     0.208      137        1          2          5.627      2.794      8.001      -9999      6.611      4.922      5.193999   2.596      4.067      0.853      5.8933     0.2739422  0.2739422  0.3149232  332.0724   55.76673   5.719      0.6952779  0.7400196  100.597    0.1241848  0.1256062  0.1227634 
1139.8     0.208      143        1          2          5.478      2.896      7.747      -9999      6.725      4.884      5.232      2.67       4.09       0.886      5.736701   0.266041   0.266041   0.3048384  237.0738   75.9142    5.479      0.6810583  0.725983   104.473    0.1175678  0.1107428  0.1243927 
1140       0.208      151        1          2          5.395      2.908      7.556      -9999      6.878      4.705999   5.088      2.854      4.168      0.892      5.4821     0.2651813  0.2651813  0.3030048  228.5384   90.14438   5.189      0.6718907  0.7170638  107.858    0.1146167  0.1032399  0.1259934 
1140.2     0.208      158        1          2          5.328      2.921      7.493      -9999      6.941      4.592      4.875      2.496      4.137      0.882      5.208      0.2689614  0.2689614  0.3060608  268.5194   103.5548   4.959      0.6689419  0.7139699  110.347    0.1124224  0.09755576 0.1272891 
1140.4     0.208      164        1          2          5.561      2.794      7.493      -9999      6.878      4.261      4.731      2.6        4.129      0.921      4.894801   0.2534189  0.2534189  0.2941424  138.3856   63.93045   4.778      0.6451892  0.6942248  111.663    0.1234045  0.118791   0.1280181 
1140.6     0.208      168        1          2          5.76       2.756      7.493      -9999      6.751      4.084001   4.496      2.87       4.137      0.933      4.6402     0.2461593  0.2461593  0.2904752  101.5371   42.34578   4.664001   0.6319454  0.6843944  111.685    0.1342907  0.1405508  0.1280305 
1140.8     0.208      174        1          2          6.191      2.756      7.366      -9999      6.611      4.147      4.564      3.019      4.238      0.911      4.4249     0.2428032  0.2428032  0.2971984  87.99573   17.35199   4.503      0.6213272  0.6811636  110.449    0.164834   0.2023236  0.1273445 
1141       0.207      181        1          2          5.71       2.616      6.858      -9999      6.535      4.122      4.586999   2.825      4.191      0.913      4.4053     0.2534496  0.2534496  0.2965872  138.5668   46.9634    4.329      0.6284108  0.6802993  109.251    0.13072    0.1347346  0.1267055 
1141.2     0.206      187        1          2          5.527      2.565      6.35       -9999      6.535      4.02       4.549      2.561      4.012      0.902      4.4249     0.2600909  0.2600909  0.2999488  183.9381   68.59195   4.19       0.6310816  0.6806715  108.145    0.1207816  0.1154257  0.1261375 
1141.4     0.207      192        1          2          5.428      2.565      6.223      -9999      6.395      3.88       4.45       2.401      4.028      0.886      4.4053     0.2667518  0.2667518  0.3048384  244.3703   84.19229   4.081      0.6346264  0.6828603  105.082    0.1154139  0.1061601  0.1246678 
1141.6     0.207      193        1          2          5.527      2.591      5.562      -9999      6.217      3.982      4.427      2.361      4.082      0.886      4.2878     0.265469   0.265469   0.3048384  231.3603   68.59195   4.06       0.6321999  0.6813868  101.626    0.1193011  0.1154257  0.1231764 
1141.8     0.207      194        1          2          5.561      2.578      5.385      -9999      6.116      3.626      4.26       2.237      3.779      0.839      4.1312     0.2795008  0.2795008  0.3192016  420.9114   63.93045   4.039      0.6474779  0.6956438  98.114     0.1203055  0.118791   0.12182   
1142       0.207      196        1          2          5.361      2.527      5.651      -9999      6.027      3.322      4.199      2.471      4.043      0.855      3.9745     0.2778516  0.2778516  0.314312   392.3222   96.71726   3.998      0.6439556  0.6905884  94.773     0.1104862  0.1003152  0.1206571 
1142.2     0.207      201        1          2          5.262      2.438      5.778      -9999      5.95       3.436      4.359      2.107      3.989      0.874      3.9354     0.2735372  0.2735372  0.3085056  326.3856   118.7143   3.898      0.6347537  0.6811557  91.659     0.1059648  0.09226253 0.1196671 
1142.4     0.207      210        1          2          5.096      2.54       5.791      -9999      5.912      3.017      4.397      2.192      3.903      0.874      3.7788     0.2756761  0.2756761  0.3085056  357.5599   167.3917   3.731      0.6296917  0.6751819  88.655     0.0994832  0.08018432 0.1187821 
1142.6     0.206      216        1          2          5.428      2.578      5.702      -9999      5.684      2.687      4.351      2.048      3.841      0.89       3.6809     0.2666434  0.2666434  0.303616   243.2433   84.19229   3.627      0.6136988  0.6627625  85.522     0.1120382  0.1061601  0.1179163 
1142.8     0.207      218        1          2          5.428      2.515      5.575      -9999      5.506      3.461      4.215      2.297      3.973      0.886      3.583      0.2680183  0.2680183  0.3048384  257.9336   84.19229   3.594      0.6137723  0.6627384  81.999     0.111576   0.1061601  0.1169919 
1143       0.207      218        1          2          5.693      2.515      5.308001   -9999      5.252      3.093      4.169      2.282      4.074      0.886      3.348      0.263792   0.263792   0.3048384  215.3903   48.64545   3.594      0.6083885  0.6604446  77.908     0.124383   0.1328124  0.1159537 
1143.2     0.207      221        1          2          5.693      2.603      5.296      -9999      5.112      2.534      4.344      2.551      3.997      0.906      3.1914     0.2578758  0.2578758  0.2987264  167.3569   48.64545   3.545      0.5979936  0.6507496  73.229     0.1237897  0.1328124  0.1147669 
1143.4     0.207      232        1          2          5.561      2.629      5.613      -9999      5.1        2.979      4.67       2.406      3.95       0.913      3.1914     0.2582742  0.2582742  0.2965872  170.225    63.93045   3.377      0.5892822  0.640925   68.119     0.1160999  0.118791   0.1134089 
1143.6     0.207      245        1          2          5.328      2.781      5.791      -9999      5.227001   3.576      4.556      2.396      3.997      0.913      3.3089     0.2620308  0.2620308  0.2965872  199.8038   103.5548   3.198      0.5839162  0.6332797  62.885     0.1047164  0.09755576 0.1118771 
1143.8     0.207      256        1          2          5.561      2.908      5.778      -9999      5.176      3.614      3.448      2.436      4.012      0.886      3.4263     0.2669096  0.2669096  0.3048384  246.0202   63.93045   3.061      0.5820484  0.6339059  60.409     0.1149359  0.118791   0.1110808 
1144       0.208      266        1          2          5.66       2.616      5.244999   -9999      4.63       3.233      3.151      2.182      3.398      0.886      3.3284     0.2653401  0.2653401  0.3048384  230.0916   52.08453   2.946      0.5722787  0.6258891  57.926     0.1196918  0.129159   0.1102246 
1144.2     0.208      276        1          2          5.527      2.375      4.978      -9999      4.058      3.03       3.356      2.043      3.639      0.906      3.1522     0.261762   0.261762   0.2987264  197.5267   68.59195   2.839      0.5596114  0.612213   53.675     0.1120133  0.1154257  0.1086008 
