~Version
 VERS              .         2.0                           : CWLS LOG ASCII STANDARD - VERSION 2.0
 WRAP              .         NO                            : ONE LINE PER DEPTH STEP
 DLM               .         SPACE                         : DELIMITING CHARACTER(SPACE TAB OR COMMA)
~Well Information
#_______________________________________________________________________________
#
#PARAMETER_NAME    .UNIT     VALUE                         : DESCRIPTION
#_______________________________________________________________________________
STRT               .M        900                           : First reference value
STOP               .M        1217.2                        : Last reference value
STEP               .M        0.2                           : Step increment
NULL               .         -9999                         : Missing value
COMP               .                                       : Company
WELL               .         8435                          : Well name
FLD                .         Узень                         : Field
LOC                .                                       : Location
CNTY               .                                       : County
STAT               .                                       : State
CTRY               .                                       : Country
SRVC               .                                       : Service Company
DATE               .                                       : Date
UWI                .                                       : Unique Well ID
Block              .         6а                            : 
Category           .         Нефтяная                      : 
Condition          .         В работе                      : 
Date               .         22.09.1997                    : 
EREF               .m        85.9                          : 100.8
GRP                .                                       : Group name
Gorizont           .         13                            : 14
ISS                .         БКЗ, магнитная лента          : Well surveys
Interpretator      .         Бекбулатова А.А.              : 
Kupol              .         Основной                      : osnovnoi
Mud                .         0                             : 
Mud_density        .         0                             : 
Mud_resistivity    .         0                             : 
NGDU               .         НГДУ-2                        : 
ORIGINALWELLNAME   .         8435                          : 
Spud_date          .         1997                          : 1961
TIME               .         14_38                         : LOG TIME
Viscosity          .         0                             : 
X                  .m        45090.2                       : 46154
Y                  .m        85538.63                      : 85761.93
YEAR               .         2019                          : 
~Parameter Information Block
#_______________________________________________________________________________
#
#PARAMETER_NAME    .UNIT     VALUE                         : DESCRIPTION
#_______________________________________________________________________________
SET                .         LQC_KAZNIPI_Petrel            : 
TLFamily_CALI      .         Caliper                       : 
TLFamily_CILD      .         Conductivity                  : 
TLFamily_COLL      .         Net Reservoir Flag            : 
TLFamily_CSAT      .         Fluid Code                    : 
TLFamily_DEPT      .         Measured Depth                : 
TLFamily_GR        .         Russian Gamma Ray             : 
TLFamily_GZ1       .         Gradient 045                  : 
TLFamily_GZ2       .         Gradient 105                  : 
TLFamily_GZ3       .         Gradient 225                  : 
TLFamily_GZ4       .         Gradient 425                  : 
TLFamily_GZ5       .         Gradient 850                  : 
TLFamily_LLS       .         Lateral Log Resistivity       : 
TLFamily_MINV      .         Micro Gradient Resistivity    : 
TLFamily_MNOR      .         Micro Resistivity             : 
TLFamily_NGLD      .         Neutron Gamma                 : 
TLFamily_OGZ       .         Gradient Inverted 225         : 
TLFamily_PHIE      .         Effective Porosity            : 
TLFamily_PHIEN     .         Effective Porosity            : 
TLFamily_PHIT      .         Porosity                      : 
TLFamily_PRMB      .         Permeability                  : 
TLFamily_PRMB_DGR  .         Permeability                  : 
TLFamily_RT        .         Formation Resistivity         : 
TLFamily_SOIL_ARCHIE .         Oil Saturation                : 
TLFamily_SOIL_DW   .         Oil Saturation                : 
TLFamily_SP        .         Spontaneous Potential         : 
TLFamily_VSH_FIN   .         Shale Volume                  : 
TLFamily_VSH_GR    .         Shale Volume                  : 
TLFamily_VSH_SP    .         Shale Volume                  : 
~Curve Information
#_______________________________________________________________________________
#
#LOGNAME           .UNIT     LOG_ID                        : DESCRIPTION
#_______________________________________________________________________________
DEPT               .M                                      : Колонка глубины 
CALI               .м                                      : Каверномер 
CILD               .мСм/м                                  : Индукционный каротаж 
COLL               .unitless                               : Описание 
CSAT               .unitless                               : Описание 
GR                 .uR/h                                   : Гамма каротаж 
GZ1                .Ом·м                                   :  
GZ2                .Ом·м                                   :  
GZ3                .Ом·м                                   : 519.13 - 1435.53<_techsia_sc_> 575.93 - 1187.33 
GZ4                .Ом·м                                   :  
GZ5                .Ом·м                                   :  
LLS                .Ohmm                                   : Боковой каротаж 
MINV               .Ohmm                                   : Микро-градиент зонд 
MNOR               .Ohmm                                   : Микро-потенциал зонд 
NGLD               .у.е.                                   : Показания зонда НГК-60 аппаратуры ДРСТ-3-90 
OGZ                .Ом·м                                   : 514.65 - 1431.05<_techsia_sc_> 571.45 - 1182.85 
PHIE               .v/v                                    : Описание 
PHIEN              .v/v                                    :  
PHIT               .v/v                                    : Описание 
PRMB               .mD                                     :  
PRMB_DGR           .mD                                     :  
RT                 .ohmm                                   : УЭС пласта 
SOIL_ARCHIE        .v/v                                    :  
SOIL_DW            .v/v                                    :  
SP                 .мВ                                     : Потенциал самополяризации 
VSH_FIN            .v/v                                    : Описание 
VSH_GR             .v/v                                    : Shale volume 
VSH_SP             .v/v                                    : Shale Volume 
~Ascii
# ...
1066.4     0.259      394        -9999      -9999      6.49       1.714      2.235      1.7468     1.48       1.353      2.066      1.948      3.064      0.796      2.1733     0.157338   0.157338   0.3323424  2.298475   1.377696   1.989      0.1892337  0.4657754  263.135    0.5303164  0.5692371  0.4913956 
1066.6     0.256      395        -9999      -9999      6.191      1.829      2.337      1.7512     1.48       1.328      2.164      1.913      3.375      0.792      2.1929     0.1725058  0.1725058  0.3335648  4.38918    2.065829   1.984      0.2508019  0.4848158  263.47     0.4880577  0.4824481  0.4936672 
1066.8     0.25       401        -9999      -9999      6.191      1.867      2.349      1.7822     1.531      1.328      2.369      2.192      3.056      0.79       2.1733     0.1729025  0.1729025  0.334176   4.464086   2.065829   1.954      0.2469343  0.4819192  263.661    0.4887074  0.4824481  0.4949667 
1067       0.251      408        -9999      -9999      6.341      1.651      2.349      1.8176     1.569      1.34       2.271      2.526      3.375      0.798      2.1537     0.1635776  0.1635776  0.3317312  2.999242   1.685891   1.92       0.2031425  0.4636535  263.654    0.5095565  0.524194   0.4949189 
1067.2     0.266      410        -9999      -9999      6.44       1.473      2.324      1.7424     1.607      1.353      1.936      2.242      2.714      0.835      2.1733     0.14765    0.14765    0.320424   1.520526   1.474263   1.911      0.1268533  0.4289011  263.432    0.5235577  0.5537062  0.4934091 
1067.4     0.268      410        -9999      -9999      6.473      1.46       2.299      1.7291     1.62       1.353      1.769      1.803      2.519      0.771      2.1341     0.1659443  0.1659443  0.3399824  3.317788   1.409797   1.911      0.2113129  0.4733872  263.057    0.5273882  0.5639083  0.490868  
1067.6     0.268      404        -9999      -9999      6.656      1.359      2.273      1.7512     1.582      1.315      1.595      1.524      2.457      0.761      2.1341     0.1594982  0.1594982  0.3430384  2.520302   1.100205   1.939      0.1891766  0.4722095  262.687    0.5561823  0.6239921  0.4883724 
1067.8     0.265      397        -9999      -9999      6.556      1.257      2.273      1.7911     1.518      1.29       1.64       1.709      2.177      0.748      2.1733     0.1691657  0.1691657  0.3470112  3.80642    1.259843   1.974      0.2361254  0.4921139  262.549    0.5389258  0.590407   0.4874446 
1068       0.259      393        -9999      -9999      6.424      1.13       2.261      1.8795     1.48       1.302      1.876      1.026      2.006      0.773      2.1145     0.1680233  0.1680233  0.3393712  3.625411   1.506572   1.994      0.2352304  0.4863452  262.876    0.519236   0.5488263  0.4896458 
1068.2     0.251      393        -9999      -9999      6.623      1.257      2.349      1.8972     1.455      1.353      2.126      1.25       2.201      0.767      2.2124     0.1582492  0.1582492  0.3412048  2.389554   1.150513   1.994      0.194251   0.4762477  263.83     0.5544109  0.612703   0.4961189 
1068.4     0.248      396        -9999      -9999      6.59       1.372      2.4        1.9591     1.467      1.353      2.567      1.948      3.095      0.824      2.3103     0.1408322  0.1408322  0.3237856  1.136874   1.203123   1.979      0.1049583  0.4324998  265.436    0.5544042  0.6016181  0.5071903 
1068.6     0.256      394        -9999      -9999      6.805      1.486      2.375      1.9105     1.544      1.353      2.202      2.222      2.768      0.792      2.4082     0.1355985  0.1355985  0.3335648  0.9094328  0.899078   1.989      0.0771294  0.4366685  267.562    0.599898   0.6776107  0.5221853 
1068.8     0.255      384        -9999      -9999      6.888      1.499      2.337      1.8353     1.607      1.353      2.126      1.32       2.379      0.808      2.3103     0.1226099  0.1226099  0.3286752  0.5226251  0.8034473  2.04       0.004440384 0.4177121  269.941    0.6244404  0.7094523  0.5394284 
1069       0.255      370        -9999      -9999      6.855      1.346      2.311      1.791      1.607      1.353      1.959      1.943      2.706      0.818      2.2516     0.1188406  0.1188406  0.3256192  0.4450149  0.8401862  2.118      0          0.4186706  272.243    0.6266018  0.6966171  0.5565864 
1069.2     0.255      356        -9999      -9999      6.424      1.295      2.134      1.9768     1.556      1.366      2.02       1.783      2.83       0.82       2.1929     0.1401992  0.1401992  0.325008   1.106594   1.506572   2.201      0.145171   0.4622558  274.159    0.5600265  0.5488263  0.5712268 
1069.4     0.244      351        -9999      -9999      6.158      1.295      2.362      2.0564     1.531      1.404      2.384      2.312      2.955      0.804      2.1929     0.1557751  0.1557751  0.3298976  2.150259   2.160293   2.232      0.2252159  0.4914555  275.487    0.5276439  0.4737197  0.5815681 
1069.6     0.238      355        -9999      -9999      6.025      1.422      2.565      2.2156     1.633      1.429      2.939      2.441      3.507      0.859      2.2516     0.143606   0.143606   0.3130896  1.279646   2.586866   2.207      0.1639292  0.4551813  276.184    0.5135866  0.4401135  0.5870596 
1069.8     0.248      359        -9999      -9999      6.374      1.664      2.794      2.136      1.734      1.48       3.098      3.408      3.6        0.847      2.3691     0.1315685  0.1315685  0.3167568  0.7658187  1.612172   2.183      0.09304526 0.4381942  276.366    0.5611767  0.5338524  0.588501  
1070       0.256      353        -9999      -9999      6.623      1.791      2.845      2.1139     1.836      1.556      2.422      2.725      3.39       0.863      2.3691     0.1138045  0.1138045  0.3118672  0.3589994  1.150513   2.22       0          0.4071127  276.262    0.60019    0.612703   0.587677  
1070.2     0.25       348        -9999      -9999      6.59       1.676      2.603      2.1935     1.899      1.556      2.066      2.162      3.18       0.855      2.232      0.1182519  0.1182519  0.314312   0.4339806  1.203123   2.252      0.01914025 0.4222251  276.129    0.5941215  0.6016181  0.5866247 
1070.4     0.243      352        -9999      -9999      6.224      1.613      2.692      2.2996     1.912      1.556      2.605      2.147      2.924      0.847      2.1537     0.1388592  0.1388592  0.3167568  1.045121   1.975496   2.226      0.142547   0.454629   276.155    0.5390838  0.4913373  0.5868303 
1070.6     0.249      354        -9999      -9999      5.892      1.575      2.845      2.2908     1.912      1.556      2.726      3.946      3.421      0.837      2.2124     0.1552182  0.1552182  0.3198128  2.099788   3.097671   2.213      0.2196711  0.4786483  276.385    0.4987715  0.4088914  0.5886517 
1070.8     0.254      354        -9999      -9999      5.992      1.549      2.857      2.2554     1.912      1.569      2.293      2.142      2.605      0.81       2.2516     0.1592187  0.1592187  0.328064   2.49043    2.705156   2.213      0.2367752  0.4917558  276.7      0.5116525  0.4321511  0.5911539 
1071       0.248      357        -9999      -9999      5.892      1.537      2.845      2.2598     1.912      1.544      2.612      2.6        3.141      0.759      2.2124     0.1784424  0.1784424  0.3436496  5.65385    3.097671   2.195      0.3062528  0.5253223  276.852    0.5006279  0.4088914  0.5923643 
1071.2     0.25       367        -9999      -9999      5.859      1.651      2.819      2.2731     1.912      1.518      2.559      2.65       3.173      0.787      2.1341     0.1714857  0.1714857  0.3350928  4.20232    3.239319   2.135      0.2724027  0.5036205  276.563    0.4957791  0.4014938  0.5900643 
1071.4     0.252      384        -9999      -9999      5.926      1.638      2.87       2.251      1.912      1.493      2.521      2.351      3.243      0.73       2.095      0.1876068  0.1876068  0.352512   8.357772   2.958209   2.04       0.3126432  0.5245702  275.64     0.4997128  0.4166557  0.5827699 
