~Version
 VERS              .         2.0                           : CWLS LOG ASCII STANDARD - VERSION 2.0
 WRAP              .         NO                            : ONE LINE PER DEPTH STEP
 DLM               .         SPACE                         : DELIMITING CHARACTER(SPACE TAB OR COMMA)
~Well Information
#_______________________________________________________________________________
#
#PARAMETER_NAME    .UNIT     VALUE                         : DESCRIPTION
#_______________________________________________________________________________
STRT               .M        900                           : First reference value
STOP               .M        1217.2                        : Last reference value
STEP               .M        0.2                           : Step increment
NULL               .         -9999                         : Missing value
COMP               .                                       : Company
WELL               .         8435                          : Well name
FLD                .         Узень                         : Field
LOC                .                                       : Location
CNTY               .                                       : County
STAT               .                                       : State
CTRY               .                                       : Country
SRVC               .                                       : Service Company
DATE               .                                       : Date
UWI                .                                       : Unique Well ID
Block              .         6а                            : 
Category           .         Нефтяная                      : 
Condition          .         В работе                      : 
Date               .         22.09.1997                    : 
EREF               .m        85.9                          : 100.8
GRP                .                                       : Group name
Gorizont           .         13                            : 14
ISS                .         БКЗ, магнитная лента          : Well surveys
Interpretator      .         Бекбулатова А.А.              : 
Kupol              .         Основной                      : osnovnoi
Mud                .         0                             : 
Mud_density        .         0                             : 
Mud_resistivity    .         0                             : 
NGDU               .         НГДУ-2                        : 
ORIGINALWELLNAME   .         8435                          : 
Spud_date          .         1997                          : 1961
TIME               .         14_38                         : LOG TIME
Viscosity          .         0                             : 
X                  .m        45090.2                       : 46154
Y                  .m        85538.63                      : 85761.93
YEAR               .         2019                          : 
~Parameter Information Block
#_______________________________________________________________________________
#
#PARAMETER_NAME    .UNIT     VALUE                         : DESCRIPTION
#_______________________________________________________________________________
SET                .         LQC_KAZNIPI_Petrel            : 
TLFamily_CALI      .         Caliper                       : 
TLFamily_CILD      .         Conductivity                  : 
TLFamily_COLL      .         Net Reservoir Flag            : 
TLFamily_CSAT      .         Fluid Code                    : 
TLFamily_DEPT      .         Measured Depth                : 
TLFamily_GR        .         Russian Gamma Ray             : 
TLFamily_GZ1       .         Gradient 045                  : 
TLFamily_GZ2       .         Gradient 105                  : 
TLFamily_GZ3       .         Gradient 225                  : 
TLFamily_GZ4       .         Gradient 425                  : 
TLFamily_GZ5       .         Gradient 850                  : 
TLFamily_LLS       .         Lateral Log Resistivity       : 
TLFamily_MINV      .         Micro Gradient Resistivity    : 
TLFamily_MNOR      .         Micro Resistivity             : 
TLFamily_NGLD      .         Neutron Gamma                 : 
TLFamily_OGZ       .         Gradient Inverted 225         : 
TLFamily_PHIE      .         Effective Porosity            : 
TLFamily_PHIEN     .         Effective Porosity            : 
TLFamily_PHIT      .         Porosity                      : 
TLFamily_PRMB      .         Permeability                  : 
TLFamily_PRMB_DGR  .         Permeability                  : 
TLFamily_RT        .         Formation Resistivity         : 
TLFamily_SOIL_ARCHIE .         Oil Saturation                : 
TLFamily_SOIL_DW   .         Oil Saturation                : 
TLFamily_SP        .         Spontaneous Potential         : 
TLFamily_VSH_FIN   .         Shale Volume                  : 
TLFamily_VSH_GR    .         Shale Volume                  : 
TLFamily_VSH_SP    .         Shale Volume                  : 
~Curve Information
#_______________________________________________________________________________
#
#LOGNAME           .UNIT     LOG_ID                        : DESCRIPTION
#_______________________________________________________________________________
DEPT               .M                                      : Колонка глубины 
CALI               .м                                      : Каверномер 
CILD               .мСм/м                                  : Индукционный каротаж 
COLL               .unitless                               : Описание 
CSAT               .unitless                               : Описание 
GR                 .uR/h                                   : Гамма каротаж 
GZ1                .Ом·м                                   :  
GZ2                .Ом·м                                   :  
GZ3                .Ом·м                                   : 519.13 - 1435.53<_techsia_sc_> 575.93 - 1187.33 
GZ4                .Ом·м                                   :  
GZ5                .Ом·м                                   :  
LLS                .Ohmm                                   : Боковой каротаж 
MINV               .Ohmm                                   : Микро-градиент зонд 
MNOR               .Ohmm                                   : Микро-потенциал зонд 
NGLD               .у.е.                                   : Показания зонда НГК-60 аппаратуры ДРСТ-3-90 
OGZ                .Ом·м                                   : 514.65 - 1431.05<_techsia_sc_> 571.45 - 1182.85 
PHIE               .v/v                                    : Описание 
PHIEN              .v/v                                    :  
PHIT               .v/v                                    : Описание 
PRMB               .mD                                     :  
PRMB_DGR           .mD                                     :  
RT                 .ohmm                                   : УЭС пласта 
SOIL_ARCHIE        .v/v                                    :  
SOIL_DW            .v/v                                    :  
SP                 .мВ                                     : Потенциал самополяризации 
VSH_FIN            .v/v                                    : Описание 
VSH_GR             .v/v                                    : Shale volume 
VSH_SP             .v/v                                    : Shale Volume 
~Ascii
# ...
1154.8     0.206      250        1          2          5.726      2.083      4.559      -9999      3.322      2.572      3.546      1.813      3.522      0.855      3.348      0.2693671  0.2693671  0.314312   273.2057   45.43346   3.134      0.5899318  0.6458802  123.089    0.1361967  0.1365691  0.1358244 
1155       0.206      243        1          2          5.992      1.994      4.293      -9999      3.347      2.737      3.318      1.056      2.706      0.859      3.4655     0.2622875  0.2622875  0.3130896  202.0035   26.19669   3.224      0.5858476  0.6460945  124.377    0.1539458  0.1710003  0.1368912 
1155.2     0.206      238        1          2          6.092      1.981      4.166      -9999      3.423      2.953      3.789      1.315      2.963      0.89       3.5438     0.2501405  0.2501405  0.303616   120.328    21.29848   3.292      0.5725921  0.6362793  125.678    0.162047   0.1860823  0.1380116 
1155.4     0.206      241        1          2          6.025      2.07       4.089      -9999      3.347      3.03       4.526      1.475      3.468      0.906      3.7592     0.246935   0.246935   0.2987264  104.9526   24.46698   3.251      0.5652144  0.6285269  125.722    0.1569437  0.1758371  0.1380503 
1155.6     0.205      248        1          2          5.793      2.235      4.469999   -9999      3.499      3.08       4.45       2.062      3.732      0.917      4.072401   0.2488799  0.2488799  0.2953648  114.0296   39.54977   3.159      0.5623186  0.621949   124.741    0.1408633  0.1445264  0.1372003 
1155.8     0.206      256        1          2          5.76       2.413      4.712      -9999      3.626      3.068      4.116      2.192      3.826      0.89       4.1899     0.2580045  0.2580045  0.303616   168.2777   42.34578   3.061      0.5695119  0.6277207  123.161    0.1382169  0.1405508  0.1358829 
1156       0.206      260        1          2          5.693      2.616      4.813001   -9999      3.601      3.017      3.554      2.082      3.81       0.894      4.0137     0.2582813  0.2582813  0.3023936  170.2763   48.64545   3.014      0.5667794  0.6241292  121.462    0.1336737  0.1328124  0.134535  
1156.2     0.206      261        1          2          5.61       2.578      4.647999   -9999      3.334      2.915      3.167      1.649      3.344      0.888      3.7396     0.2617778  0.2617778  0.3042272  197.6601   57.76402   3.002      0.5710213  0.6268254  120.033    0.1286344  0.1238143  0.1334546 
1156.4     0.207      261        1          2          5.66       2.311      4.293      -9999      3.055      2.61       3.212      1.764      3.437      0.882      3.4459     0.2628446  0.2628446  0.3060608  206.8605   52.08453   3.002      0.572538   0.6287543  119.076    0.1309582  0.129159   0.1327574 
1156.6     0.206      261        1          2          5.693      2.134      4.064      -9999      2.903      2.445      3.258      1.589      3.367      0.906      3.3089     0.2549647  0.2549647  0.2987264  147.8167   48.64545   3.002      0.5610545  0.6186381  118.588    0.1326111  0.1328124  0.1324098 
1156.8     0.206      260        1          2          5.693      1.968      4          -9999      2.852      2.356      3.425      1.579      3.274      0.927      3.3089     0.2485685  0.2485685  0.2923088  112.5254   48.64545   3.014      0.5520726  0.6104317  118.404    0.1325462  0.1328124  0.1322801 
1157       0.206      258        1          2          5.693      1.943      4          -9999      3.017      2.395      3.577      1.913      3.515      0.917      3.4459     0.2516376  0.2516376  0.2953648  128.2617   48.64545   3.037      0.5584126  0.6162302  118.291    0.1325066  0.1328124  0.1322009 
1157.2     0.205      255        1          2          5.76       1.956      3.899      -9999      3.055      2.395      3.531      2.013      3.53       0.894      3.6417     0.2574187  0.2574187  0.3023936  164.1258   42.34578   3.073      0.5694501  0.6272253  118.038    0.1362876  0.1405508  0.1320244 
1157.4     0.206      251        1          2          5.809      2.045      3.924      -9999      3.055      2.598      3.501      1.858      3.515      0.894      3.7592     0.2565374  0.2565374  0.3023936  158.0714   38.26134   3.122      0.5713561  0.6296231  117.159    0.1389582  0.1464942  0.1314222 
1157.6     0.206      247        1          2          5.76       2.057      3.746      -9999      3.144      2.649      3.516      1.749      3.289      0.886      3.7788     0.260093   0.260093   0.3048384  183.9552   42.34578   3.172      0.5796103  0.6363843  115.969    0.1355921  0.1405508  0.1306333 
1157.8     0.206      243        1          2          5.992      2.045      3.746      -9999      3.131      2.572      3.599      1.709      3.421      0.859      3.8571     0.2633891  0.2633891  0.3130896  211.7205   26.19669   3.224      0.5873566  0.6467229  115.319    0.1506076  0.1710003  0.1302149 
1158       0.205      240        1          2          5.992      1.994      3.899      -9999      3.245      2.585      3.668      1.873      3.421      0.878      3.8962     0.2576057  0.2576057  0.3072832  165.4403   26.19669   3.265      0.581787   0.641786   115.099    0.1505377  0.1710003  0.1300752 
1158.2     0.205      234        1          2          5.809      2.007      3.937      -9999      3.258      2.623      3.691      1.878      3.484      0.874      3.9745     0.2628299  0.2628299  0.3085056  206.7312   38.26134   3.348      0.5938491  0.6500562  115.496    0.1384111  0.1464942  0.130328  
1158.4     0.205      231        1          2          5.892      2.07       4          -9999      3.284      2.877      3.759      1.749      3.219      0.863      4.1116     0.2643211  0.2643211  0.3118672  220.3064   32.22141   3.392      0.5983142  0.6553233  116.554    0.144079   0.1571406  0.1310174 
1158.6     0.205      230        1          2          6.075      2.108      4.089      -9999      3.296      2.801      3.797      1.694      3.382      0.871      4.2487     0.25736    0.25736    0.3094224  163.7151   22.06131   3.407      0.5897181  0.6505884  118.15     0.157765   0.1834276  0.1321023 
1158.8     0.206      227        1          2          6.058      2.121      4.051      -9999      3.296      2.89       3.789      1.883      3.546      0.847      4.4249     0.2649044  0.2649044  0.3167568  225.8548   22.85146   3.452      0.6023698  0.6616952  120.022    0.1571286  0.1808108  0.1334464 
1159       0.206      221        1          2          5.66       2.108      4.305      -9999      3.322      2.89       3.812      1.828      3.515      0.859      4.4836     0.269531   0.269531   0.3130896  275.1219   52.08453   3.545      0.6131769  0.6663805  121.845    0.1319959  0.129159   0.1348328 
1159.2     0.206      217        1          2          5.793      2.07       4.293      -9999      3.461      2.941      3.88       1.719      3.344      0.874      4.5815     0.2622142  0.2622142  0.3085056  201.3731   39.54977   3.611      0.6072077  0.6627049  123.338    0.1402769  0.1445264  0.1360274 
1159.4     0.206      212        1          2          5.793      2.108      4.356      -9999      3.55       3.004      3.873      1.744      3.554      0.865      4.7381     0.2648252  0.2648252  0.311256   225.0933   39.54977   3.696      0.6148113  0.6696969  124.355    0.1406995  0.1445264  0.1368727 
1159.6     0.207      205        1          2          6.025      2.146      4.42       -9999      3.538      3.004      3.934      1.744      3.546      0.913      4.894801   0.2449092  0.2449092  0.2965872  96.26542   24.46698   3.822      0.5941045  0.6547731  124.931    0.1566001  0.1758371  0.137363  
1159.8     0.207      200        1          2          5.892      2.146      4.496      -9999      3.588      3.017      3.987      1.774      3.608      0.871      4.9927     0.2607805  0.2607805  0.3094224  189.4283   32.22141   3.918      0.620154   0.6759882  125.274    0.1473998  0.1571406  0.137659  
