~Version
 VERS              .         2.0                           : CWLS LOG ASCII STANDARD - VERSION 2.0
 WRAP              .         NO                            : ONE LINE PER DEPTH STEP
 DLM               .         SPACE                         : DELIMITING CHARACTER(SPACE TAB OR COMMA)
~Well Information
#_______________________________________________________________________________
#
#PARAMETER_NAME    .UNIT     VALUE                         : DESCRIPTION
#_______________________________________________________________________________
STRT               .M        900                           : First reference value
STOP               .M        1217.2                        : Last reference value
STEP               .M        0.2                           : Step increment
NULL               .         -9999                         : Missing value
COMP               .                                       : Company
WELL               .         8435                          : Well name
FLD                .         Узень                         : Field
LOC                .                                       : Location
CNTY               .                                       : County
STAT               .                                       : State
CTRY               .                                       : Country
SRVC               .                                       : Service Company
DATE               .                                       : Date
UWI                .                                       : Unique Well ID
Block              .         6а                            : 
Category           .         Нефтяная                      : 
Condition          .         В работе                      : 
Date               .         22.09.1997                    : 
EREF               .m        85.9                          : 100.8
GRP                .                                       : Group name
Gorizont           .         13                            : 14
ISS                .         БКЗ, магнитная лента          : Well surveys
Interpretator      .         Бекбулатова А.А.              : 
Kupol              .         Основной                      : osnovnoi
Mud                .         0                             : 
Mud_density        .         0                             : 
Mud_resistivity    .         0                             : 
NGDU               .         НГДУ-2                        : 
ORIGINALWELLNAME   .         8435                          : 
Spud_date          .         1997                          : 1961
TIME               .         14_38                         : LOG TIME
Viscosity          .         0                             : 
X                  .m        45090.2                       : 46154
Y                  .m        85538.63                      : 85761.93
YEAR               .         2019                          : 
~Parameter Information Block
#_______________________________________________________________________________
#
#PARAMETER_NAME    .UNIT     VALUE                         : DESCRIPTION
#_______________________________________________________________________________
SET                .         LQC_KAZNIPI_Petrel            : 
TLFamily_CALI      .         Caliper                       : 
TLFamily_CILD      .         Conductivity                  : 
TLFamily_COLL      .         Net Reservoir Flag            : 
TLFamily_CSAT      .         Fluid Code                    : 
TLFamily_DEPT      .         Measured Depth                : 
TLFamily_GR        .         Russian Gamma Ray             : 
TLFamily_GZ1       .         Gradient 045                  : 
TLFamily_GZ2       .         Gradient 105                  : 
TLFamily_GZ3       .         Gradient 225                  : 
TLFamily_GZ4       .         Gradient 425                  : 
TLFamily_GZ5       .         Gradient 850                  : 
TLFamily_LLS       .         Lateral Log Resistivity       : 
TLFamily_MINV      .         Micro Gradient Resistivity    : 
TLFamily_MNOR      .         Micro Resistivity             : 
TLFamily_NGLD      .         Neutron Gamma                 : 
TLFamily_OGZ       .         Gradient Inverted 225         : 
TLFamily_PHIE      .         Effective Porosity            : 
TLFamily_PHIEN     .         Effective Porosity            : 
TLFamily_PHIT      .         Porosity                      : 
TLFamily_PRMB      .         Permeability                  : 
TLFamily_PRMB_DGR  .         Permeability                  : 
TLFamily_RT        .         Formation Resistivity         : 
TLFamily_SOIL_ARCHIE .         Oil Saturation                : 
TLFamily_SOIL_DW   .         Oil Saturation                : 
TLFamily_SP        .         Spontaneous Potential         : 
TLFamily_VSH_FIN   .         Shale Volume                  : 
TLFamily_VSH_GR    .         Shale Volume                  : 
TLFamily_VSH_SP    .         Shale Volume                  : 
~Curve Information
#_______________________________________________________________________________
#
#LOGNAME           .UNIT     LOG_ID                        : DESCRIPTION
#_______________________________________________________________________________
DEPT               .M                                      : Колонка глубины 
CALI               .м                                      : Каверномер 
CILD               .мСм/м                                  : Индукционный каротаж 
COLL               .unitless                               : Описание 
CSAT               .unitless                               : Описание 
GR                 .uR/h                                   : Гамма каротаж 
GZ1                .Ом·м                                   :  
GZ2                .Ом·м                                   :  
GZ3                .Ом·м                                   : 519.13 - 1435.53<_techsia_sc_> 575.93 - 1187.33 
GZ4                .Ом·м                                   :  
GZ5                .Ом·м                                   :  
LLS                .Ohmm                                   : Боковой каротаж 
MINV               .Ohmm                                   : Микро-градиент зонд 
MNOR               .Ohmm                                   : Микро-потенциал зонд 
NGLD               .у.е.                                   : Показания зонда НГК-60 аппаратуры ДРСТ-3-90 
OGZ                .Ом·м                                   : 514.65 - 1431.05<_techsia_sc_> 571.45 - 1182.85 
PHIE               .v/v                                    : Описание 
PHIEN              .v/v                                    :  
PHIT               .v/v                                    : Описание 
PRMB               .mD                                     :  
PRMB_DGR           .mD                                     :  
RT                 .ohmm                                   : УЭС пласта 
SOIL_ARCHIE        .v/v                                    :  
SOIL_DW            .v/v                                    :  
SP                 .мВ                                     : Потенциал самополяризации 
VSH_FIN            .v/v                                    : Описание 
VSH_GR             .v/v                                    : Shale volume 
VSH_SP             .v/v                                    : Shale Volume 
~Ascii
# ...
972.8      0.228      291        -9999      -9999      4.1        2.108      3.899      -9999      3.144      2.979      3.03       2.67       3.25       0.839      3.4459     0.1261207  0.1261207  0.3192016  0.6070437  2.06681    2.693      0.1473076  0.4888255  318.637    0.5850936  0.4823546  0.6878325 
973        0.245      278        -9999      -9999      3.768      1.841      3.378      -9999      3.004      2.966      2.635      2.282      2.706      0.871      3.3676     0.126354   0.126354   0.3094224  0.6131135  3.059418   2.818      0.1666129  0.4906425  319.814    0.5547527  0.4109714  0.698534  
973.2000000000001 0.25       275        -9999      -9999      4          1.613      3.124      -9999      2.814      2.674      3.311      2.84       3.554      0.865      3.0152     0.1191774  0.1191774  0.311256   0.4514528  2.325986   2.849      0.127561   0.4845243  320.461    0.5820564  0.4596383  0.7044745 
973.4      0.255      278        -9999      -9999      4.1        1.714      3.327      -9999      2.674      2.445      3.372      2.999      3.561      0.865      2.8585     0.1154155  0.1154155  0.311256   0.3845327  2.06681    2.818      0.09822775 0.4757223  320.47     0.593456   0.4823546  0.7045575 
973.6      0.239      282        -9999      -9999      4.15       1.968      3.658      -9999      2.547      2.382      3.508      2.341      3.235      0.874      2.839      0.1115377  0.1115377  0.3085056  0.325917   1.948261   2.778      0.06472901 0.4624556  319.932    0.5968724  0.4941304  0.6996144 
973.8      0.246      288        -9999      -9999      4.1        2.019      3.734      -9999      2.407      2.395      3.205      3.99       3.981      0.89       2.8781     0.1098402  0.1098402  0.303616   0.3031555  2.06681    2.721      0.04288658 0.4482321  319.102    0.5871993  0.4823546  0.6920441 
974        0.248      295        -9999      -9999      4.1        1.892      3.975      -9999      2.445      2.382      3.159      2.371      3.017      0.886      2.8781     0.1122441  0.1122441  0.3048384  0.3358856  2.06681    2.656      0.05004717 0.4472222  318.31     0.5836191  0.4823546  0.6848835 
974.2000000000001 0.243      302        -9999      -9999      4.332      1.93       3.848      -9999      2.585      2.255      3.25       4.105      4.09       0.826      2.8781     0.1218458  0.1218458  0.3231744  0.5058689  1.571336   2.594      0.1057295  0.4768203  317.844    0.6100867  0.5394745  0.6806989 
974.4      0.261      308        -9999      -9999      4.199      1.841      3.823      -9999      2.636      2.191      2.681      2.312      3.126      0.798      2.9173     0.1359135  0.1359135  0.3317312  0.9217358  1.838683   2.544      0.1794463  0.5005707  317.858    0.5933869  0.5059494  0.6808243 
974.6      0.269      319        -9999      -9999      4.266      1.74       3.531      -9999      2.509      2.179      2.825      2.112      2.799      0.802      2.839      0.1312613  0.1312613  0.3305088  0.75585    1.698758   2.456      0.140085   0.4840041  318.322    0.6037803  0.5225692  0.6849915 
974.8      0.28       331        -9999      -9999      4.266      1.765      3.404      -9999      2.382      2.153      2.764      2.097      3.281      0.787      2.839      0.1347609  0.1347609  0.3350928  0.8775214  1.698758   2.367      0.1448838  0.4839388  319.049    0.6070662  0.5225692  0.6915632 
975        0.286      331        -9999      -9999      4.033      1.626      3.365      -9999      2.28       2.077      2.415      2.023      2.97       0.814      2.839      0.1345972  0.1345972  0.3268416  0.8714126  2.237051   2.367      0.1439776  0.4754714  319.767    0.5825589  0.4670138  0.6981041 
975.2000000000001 0.29       318        -9999      -9999      4          1.41       2.934      -9999      2.179      2.001      1.898      2.351      1.874      0.81       2.839      0.1363589  0.1363589  0.328064   0.93941    2.325986   2.464      0.1694203  0.4895533  320.215    0.5809246  0.4596383  0.702211  
975.4      0.26       312        -9999      -9999      4.183      1.257      2.781      -9999      2.115      1.963      2.271      0.359      1.493      0.781      2.6823     0.1382036  0.1382036  0.3369264  1.016304   1.873768   2.511      0.186331   0.5052627  320.227    0.6021903  0.5020595  0.7023212 
975.6      0.268      316.0001   -9999      -9999      4.266      1.333      2.934      -9999      2.255      2.052      2.84       2.615      3.344      0.789      2.7606     0.1330358  0.1330358  0.3344816  0.8152748  1.698758   2.48       0.1539533  0.4928781  319.79     0.6104418  0.5225692  0.6983145 
975.8      0.269      315        -9999      -9999      4.266      1.397      3.01       -9999      2.268      2.077      2.832      2.511      3.258      0.826      2.9369     0.1228531  0.1228531  0.3231744  0.5280744  1.698758   2.487      0.09439322 0.4672559  319.042    0.6070343  0.5225692  0.6914995 
976        0.261      308        -9999      -9999      4.15       1.46       3.099      -9999      2.268      2.026      2.84       2.232      2.916      0.82       3.1522     0.130588   0.130588   0.325008   0.7344548  1.948261   2.544      0.1503772  0.4866014  318.231    0.5891514  0.4941304  0.6841726 
976.2000000000001 0.262      298        -9999      -9999      3.818      1.511      2.87       -9999      2.255      1.975      2.84       2.62       3.437      0.872      3.1131     0.1276458  0.1276458  0.3091168  0.6478392  2.883935   2.629      0.1466092  0.4742812  317.634    0.5499123  0.4210045  0.6788201 
976.4      0.242      293        -9999      -9999      3.502      1.511      2.908      -9999      2.242      1.975      2.946      2.112      2.815      0.857      3.0348     0.1422988  0.1422988  0.3137008  1.210256   4.189041   2.674      0.2298336  0.5039367  317.466    0.5193999  0.3614798  0.6773201 
976.6      0.245      292        -9999      -9999      3.486      1.549      2.997      -9999      2.344      2.001      3.265      2.331      2.924      0.835      3.0739     0.1489881  0.1489881  0.320424   1.60983    4.268974   2.683      0.2612051  0.5196556  317.8      0.5195026  0.3587005  0.6803048 
976.8      0.261      282        -9999      -9999      3.436      1.537      2.997      -9999      2.458      2.039      3.022      3.153      3.818      0.874      3.0739     0.1373916  0.1373916  0.3085056  0.9817094  4.528735   2.778      0.220021   0.5016931  318.534    0.5185274  0.3501522  0.6869025 
977        0.266      272        -9999      -9999      3.502      1.537      3.086      -9999      2.509      2.052      2.931      2.431      3.491      0.89       2.9956     0.1293118  0.1293118  0.303616   0.6955476  4.189041   2.881      0.1916706  0.4944861  319.417    0.5281945  0.3614798  0.6949092 
977.2000000000001 0.235      272        -9999      -9999      3.718      1.651      3.302      -9999      2.496      2.039      3.41       0.319      1.983      0.865      2.9173     0.1293348  0.1293348  0.311256   0.69623    3.245579   2.881      0.1917958  0.5023928  320.124    0.5512763  0.4011774  0.7013751 
977.4      0.252      273        -9999      -9999      3.569      1.727      3.556      -9999      2.598      1.963      3.455      3.567      4.106      0.869      2.9956     0.1323287  0.1323287  0.3100336  0.791054   3.870251   2.87       0.2063212  0.5043953  320.371    0.5384998  0.3733539  0.7036457 
977.6      0.252      274        -9999      -9999      3.469      1.689      3.467      -9999      2.61       1.912      3.113      1.913      2.893      0.892      2.9564     0.1287271  0.1287271  0.3030048  0.6784165  4.355579   2.86       0.1856828  0.4911373  320.024    0.5281142  0.3557709  0.7004575 
977.8      0.24       281        -9999      -9999      3.718      1.816      3.67       -9999      2.56       1.925      3.759      2.81       3.756      0.896      3.0543     0.1213244  0.1213244  0.3017824  0.4947429  3.245579   2.788      0.1322542  0.4719466  319.153    0.5468425  0.4011774  0.6925076 
