~Version
 VERS              .         2.0                           : CWLS LOG ASCII STANDARD - VERSION 2.0
 WRAP              .         NO                            : ONE LINE PER DEPTH STEP
 DLM               .         SPACE                         : DELIMITING CHARACTER(SPACE TAB OR COMMA)
~Well Information
#_______________________________________________________________________________
#
#PARAMETER_NAME    .UNIT     VALUE                         : DESCRIPTION
#_______________________________________________________________________________
STRT               .M        900                           : First reference value
STOP               .M        1217.2                        : Last reference value
STEP               .M        0.2                           : Step increment
NULL               .         -9999                         : Missing value
COMP               .                                       : Company
WELL               .         8435                          : Well name
FLD                .         Узень                         : Field
LOC                .                                       : Location
CNTY               .                                       : County
STAT               .                                       : State
CTRY               .                                       : Country
SRVC               .                                       : Service Company
DATE               .                                       : Date
UWI                .                                       : Unique Well ID
Block              .         6а                            : 
Category           .         Нефтяная                      : 
Condition          .         В работе                      : 
Date               .         22.09.1997                    : 
EREF               .m        85.9                          : 100.8
GRP                .                                       : Group name
Gorizont           .         13                            : 14
ISS                .         БКЗ, магнитная лента          : Well surveys
Interpretator      .         Бекбулатова А.А.              : 
Kupol              .         Основной                      : osnovnoi
Mud                .         0                             : 
Mud_density        .         0                             : 
Mud_resistivity    .         0                             : 
NGDU               .         НГДУ-2                        : 
ORIGINALWELLNAME   .         8435                          : 
Spud_date          .         1997                          : 1961
TIME               .         14_38                         : LOG TIME
Viscosity          .         0                             : 
X                  .m        45090.2                       : 46154
Y                  .m        85538.63                      : 85761.93
YEAR               .         2019                          : 
~Parameter Information Block
#_______________________________________________________________________________
#
#PARAMETER_NAME    .UNIT     VALUE                         : DESCRIPTION
#_______________________________________________________________________________
SET                .         LQC_KAZNIPI_Petrel            : 
TLFamily_CALI      .         Caliper                       : 
TLFamily_CILD      .         Conductivity                  : 
TLFamily_COLL      .         Net Reservoir Flag            : 
TLFamily_CSAT      .         Fluid Code                    : 
TLFamily_DEPT      .         Measured Depth                : 
TLFamily_GR        .         Russian Gamma Ray             : 
TLFamily_GZ1       .         Gradient 045                  : 
TLFamily_GZ2       .         Gradient 105                  : 
TLFamily_GZ3       .         Gradient 225                  : 
TLFamily_GZ4       .         Gradient 425                  : 
TLFamily_GZ5       .         Gradient 850                  : 
TLFamily_LLS       .         Lateral Log Resistivity       : 
TLFamily_MINV      .         Micro Gradient Resistivity    : 
TLFamily_MNOR      .         Micro Resistivity             : 
TLFamily_NGLD      .         Neutron Gamma                 : 
TLFamily_OGZ       .         Gradient Inverted 225         : 
TLFamily_PHIE      .         Effective Porosity            : 
TLFamily_PHIEN     .         Effective Porosity            : 
TLFamily_PHIT      .         Porosity                      : 
TLFamily_PRMB      .         Permeability                  : 
TLFamily_PRMB_DGR  .         Permeability                  : 
TLFamily_RT        .         Formation Resistivity         : 
TLFamily_SOIL_ARCHIE .         Oil Saturation                : 
TLFamily_SOIL_DW   .         Oil Saturation                : 
TLFamily_SP        .         Spontaneous Potential         : 
TLFamily_VSH_FIN   .         Shale Volume                  : 
TLFamily_VSH_GR    .         Shale Volume                  : 
TLFamily_VSH_SP    .         Shale Volume                  : 
~Curve Information
#_______________________________________________________________________________
#
#LOGNAME           .UNIT     LOG_ID                        : DESCRIPTION
#_______________________________________________________________________________
DEPT               .M                                      : Колонка глубины 
CALI               .м                                      : Каверномер 
CILD               .мСм/м                                  : Индукционный каротаж 
COLL               .unitless                               : Описание 
CSAT               .unitless                               : Описание 
GR                 .uR/h                                   : Гамма каротаж 
GZ1                .Ом·м                                   :  
GZ2                .Ом·м                                   :  
GZ3                .Ом·м                                   : 519.13 - 1435.53<_techsia_sc_> 575.93 - 1187.33 
GZ4                .Ом·м                                   :  
GZ5                .Ом·м                                   :  
LLS                .Ohmm                                   : Боковой каротаж 
MINV               .Ohmm                                   : Микро-градиент зонд 
MNOR               .Ohmm                                   : Микро-потенциал зонд 
NGLD               .у.е.                                   : Показания зонда НГК-60 аппаратуры ДРСТ-3-90 
OGZ                .Ом·м                                   : 514.65 - 1431.05<_techsia_sc_> 571.45 - 1182.85 
PHIE               .v/v                                    : Описание 
PHIEN              .v/v                                    :  
PHIT               .v/v                                    : Описание 
PRMB               .mD                                     :  
PRMB_DGR           .mD                                     :  
RT                 .ohmm                                   : УЭС пласта 
SOIL_ARCHIE        .v/v                                    :  
SOIL_DW            .v/v                                    :  
SP                 .мВ                                     : Потенциал самополяризации 
VSH_FIN            .v/v                                    : Описание 
VSH_GR             .v/v                                    : Shale volume 
VSH_SP             .v/v                                    : Shale Volume 
~Ascii
# ...
993.6      0.233      317        -9999      -9999      4.565      2.146      3.835      -9999      2.979      2.102      3.66       4.484      3.95       0.874      2.4865     0.1131749  0.1131749  0.3085056  0.3494873  1.193231   2.472      0.02453913 0.4330861  305.859    0.5919113  0.6036497  0.5801728 
993.8      0.251      327        -9999      -9999      4.631      2.311      4.089      -9999      2.979      2.102      2.779      2.974      3.437      0.8        2.3691     0.1300849  0.1300849  0.33112    0.7188642  1.103727   2.396      0.1231986  0.4764949  307.759    0.6091971  0.6231781  0.5952162 
994        0.27       327        -9999      -9999      4.664      2.045      3.937      -9999      2.839      2.09       2.05       2.386      2.784      0.804      2.1733     0.1240357  0.1240357  0.3298976  0.555392   1.061526   2.396      0.08607005 0.4661968  310.132    0.623824   0.6331779  0.6144701 
994.2000000000001 0.265      330        -9999      -9999      4.631      1.562      3.594      -9999      2.572      2.052      2.119      1.186      1.835      0.824      1.9187     0.1163869  0.1163869  0.3237856  0.4007982  1.103727   2.374      0.02978468 0.4448225  312.45     0.6284809  0.6231781  0.6337838 
994.4      0.26       339        -9999      -9999      4.797      1.448      3.378      -9999      2.483      1.988      2.422      2.202      2.924      0.839      1.7817     0.1007251  0.1007251  0.3192016  0.2055094  0.9071785  2.311      0          0.4029429  314.231    0.6620499  0.6751333  0.6489666 
994.6      0.262      352        -9999      -9999      4.797      1.41       3.302      -9999      2.483      1.963      2.574      2.322      3.017      0.794      1.7425     0.1131592  0.1131592  0.3329536  0.3492538  0.9071785  2.226      0          0.4314202  315.154    0.6660436  0.6751333  0.6569539 
994.8      0.264      368        -9999      -9999      4.814      1.435      3.238      -9999      2.483      2.014      2.65       2.072      2.986      0.808      1.8992     0.1079994  0.1079994  0.3286752  0.2802646  0.8891411  2.129      0          0.404153   315.129    0.6687146  0.6806928  0.6567365 
995        0.262      381        -9999      -9999      4.93       1.524      3.15       -9999      2.547      2.064      2.552      2.471      3.188      0.8        1.9383     0.1051556  0.1051556  0.33112    0.2482528  0.7752736  2.056      0          0.3911031  314.306    0.6847407  0.7198688  0.6496127 
995.2000000000001 0.263      385        -9999      -9999      4.465      1.537      2.997      -9999      2.572      2.064      2.24       2.162      2.869      0.779      1.9971     0.1372723  0.1372723  0.3375376  0.9767271  1.342861   2.035      0.0966818  0.4497129  313.008    0.6068647  0.5752211  0.6385083 
995.4      0.265      389        -9999      -9999      4.266      1.473      2.756      -9999      2.483      2.064      2.103      1.744      2.271      0.767      2.0166     0.1515475  0.1515475  0.3412048  1.795502   1.698758   2.014      0.1672141  0.4703172  311.627    0.574719   0.5225692  0.6268689 
995.6      0.265      404        -9999      -9999      4.199      1.422      2.578      -9999      2.318      2.052      2.309      1.51       2.426      0.771      1.9775     0.1545882  0.1545882  0.3399824  2.044124   1.838683   1.939      0.1667921  0.4629687  310.518    0.5618005  0.5059494  0.6176515 
995.8      0.267      430        -9999      -9999      4.332      1.346      2.578      -9999      2.255      2.014      2.271      1.754      2.053      0.738      2.0362     0.1599712  0.1599712  0.3500672  2.571658   1.571336   1.822      0.1672969  0.462964   309.907    0.5760484  0.5394745  0.6126223 
996        0.267      460        -9999      -9999      4.133      1.308      2.565      -9999      2.217      1.95       2.073      1.485      2.185      0.695      2.0754     0.181326   0.181326   0.363208   6.393752   1.987785   1.703      0.2293455  0.4823212  309.858    0.5511575  0.4900947  0.6122204 
996.2000000000001 0.275      481        -9999      -9999      4.282      1.308      2.515      -9999      2.064      1.861      1.542      1.021      2.068      0.675      2.0558     0.180834   0.180834   0.36932    6.260977   1.666949   1.629      0.2112465  0.4755665  310.284    0.5711697  0.5266182  0.6157212 
996.4      0.281      492        -9999      -9999      4.598      1.206      2.311      0.0001000  1.925      1.785      1.101      0.742      1.625      0.64       1.9971     0.1762416  0.1762416  0.380016   5.147308   1.147607   1.593      0.1848725  0.47386    311.002    0.6174982  0.6133362  0.6216601 
996.6      0.278      494.9999   -9999      -9999      4.747      1.079      2.134      -9999      1.848      1.709      0.896      0.697      1.509      0.66       1.8796     0.1614825  0.1614825  0.373904   2.742873   0.9623789  1.583      0.1177528  0.4490798  311.805    0.6437015  0.6590441  0.6283589 
996.8      0.275      488        -9999      -9999      4.764      0.94       2.007      -9999      1.798      1.62       0.835      0.658      1.516      0.695      1.8796     0.1488761  0.1488761  0.363208   1.602158   0.943244   1.606      0.05942057 0.4259893  312.536    0.6494905  0.6644709  0.63451   
997        0.273      470        -9999      -9999      4.515      0.851      1.943      -9999      1.747      1.544      0.919      0.797      1.516      0.732      1.9187     0.1491361  0.1491361  0.3519008  1.620018   1.265837   1.667      0.07713482 0.4255719  313.138    0.6144386  0.589264   0.6396132 
997.2000000000001 0.276      439.0001   -9999      -9999      4.731      0.762      1.727      -9999      1.696      1.493      1.245      1.056      1.353      0.748      2.095      0.1328327  0.1328327  0.3470112  0.8082416  0.9807433  1.785      0.01147078 0.4158145  313.661    0.6490259  0.6539769  0.6440748 
997.4      0.278      398        -9999      -9999      4.382      0.698      1.587      -9999      1.683      1.48       1.504      0.902      1.804      0.773      2.2516     0.1410982  0.1410982  0.3393712  1.149845   1.481207   1.969      0.1043014  0.4480665  314.236    0.6008272  0.5526448  0.6490096 
997.6      0.249      366        -9999      -9999      4.033      0.813      1.511      -9999      1.76       1.607      2.187      1.226      2.162      0.843      2.3691     0.1327325  0.1327325  0.3179792  0.8047946  2.237051   2.141      0.09173352 0.4359191  315.009    0.5613538  0.4670138  0.6556938 
997.8      0.242      346        -9999      -9999      4.067      0.889      1.6        0.0026     1.912      1.81       3.136      1.709      2.916      0.896      2.6432     0.1137395  0.1137395  0.3017824  0.358005   2.148977   2.265      0          0.4003461  316.065    0.569827   0.4747367  0.6649173 
998        0.244      328        -9999      -9999      3.718      1.067      1.829      -9999      2.179      1.975      3.645      2.989      3.592      0.886      2.8585     0.1270232  0.1270232  0.3048384  0.6308631  3.245579   2.389      0.1035899  0.4426194  317.373    0.5388341  0.4011774  0.6764907 
998.2000000000001 0.245      313        -9999      -9999      3.917      1.372      2.019      -9999      2.255      2.052      3.683      2.67       3.833      0.888      2.976      0.1176712  0.1176712  0.3042272  0.4233638  2.565617   2.503      0.06258168 0.4393866  318.771    0.5653213  0.4415984  0.6890441 
998.4      0.248      305        -9999      -9999      4.183      1.626      2.311      -9999      2.255      2.077      3.455      2.685      3.367      0.851      2.8977     0.1171584  0.1171584  0.3155344  0.4142062  1.873768   2.569      0.07043234 0.4586048  319.998    0.6011392  0.5020595  0.7002191 
998.6      0.248      311        -9999      -9999      4.266      1.765      2.616      -9999      2.255      2.102      3.599      2.242      3.266      0.855      2.6823     0.1113686  0.1113686  0.314312   0.3235746  1.698758   2.519      0.01947865 0.4419781  320.777    0.61498    0.5225692  0.707391  
