~Version
 VERS              .         2.0                           : CWLS LOG ASCII STANDARD - VERSION 2.0
 WRAP              .         NO                            : ONE LINE PER DEPTH STEP
 DLM               .         SPACE                         : DELIMITING CHARACTER(SPACE TAB OR COMMA)
~Well Information
#_______________________________________________________________________________
#
#PARAMETER_NAME    .UNIT     VALUE                         : DESCRIPTION
#_______________________________________________________________________________
STRT               .M        900                           : First reference value
STOP               .M        1217.2                        : Last reference value
STEP               .M        0.2                           : Step increment
NULL               .         -9999                         : Missing value
COMP               .                                       : Company
WELL               .         8435                          : Well name
FLD                .         Узень                         : Field
LOC                .                                       : Location
CNTY               .                                       : County
STAT               .                                       : State
CTRY               .                                       : Country
SRVC               .                                       : Service Company
DATE               .                                       : Date
UWI                .                                       : Unique Well ID
Block              .         6а                            : 
Category           .         Нефтяная                      : 
Condition          .         В работе                      : 
Date               .         22.09.1997                    : 
EREF               .m        85.9                          : 100.8
GRP                .                                       : Group name
Gorizont           .         13                            : 14
ISS                .         БКЗ, магнитная лента          : Well surveys
Interpretator      .         Бекбулатова А.А.              : 
Kupol              .         Основной                      : osnovnoi
Mud                .         0                             : 
Mud_density        .         0                             : 
Mud_resistivity    .         0                             : 
NGDU               .         НГДУ-2                        : 
ORIGINALWELLNAME   .         8435                          : 
Spud_date          .         1997                          : 1961
TIME               .         14_38                         : LOG TIME
Viscosity          .         0                             : 
X                  .m        45090.2                       : 46154
Y                  .m        85538.63                      : 85761.93
YEAR               .         2019                          : 
~Parameter Information Block
#_______________________________________________________________________________
#
#PARAMETER_NAME    .UNIT     VALUE                         : DESCRIPTION
#_______________________________________________________________________________
SET                .         LQC_KAZNIPI_Petrel            : 
TLFamily_CALI      .         Caliper                       : 
TLFamily_CILD      .         Conductivity                  : 
TLFamily_COLL      .         Net Reservoir Flag            : 
TLFamily_CSAT      .         Fluid Code                    : 
TLFamily_DEPT      .         Measured Depth                : 
TLFamily_GR        .         Russian Gamma Ray             : 
TLFamily_GZ1       .         Gradient 045                  : 
TLFamily_GZ2       .         Gradient 105                  : 
TLFamily_GZ3       .         Gradient 225                  : 
TLFamily_GZ4       .         Gradient 425                  : 
TLFamily_GZ5       .         Gradient 850                  : 
TLFamily_LLS       .         Lateral Log Resistivity       : 
TLFamily_MINV      .         Micro Gradient Resistivity    : 
TLFamily_MNOR      .         Micro Resistivity             : 
TLFamily_NGLD      .         Neutron Gamma                 : 
TLFamily_OGZ       .         Gradient Inverted 225         : 
TLFamily_PHIE      .         Effective Porosity            : 
TLFamily_PHIEN     .         Effective Porosity            : 
TLFamily_PHIT      .         Porosity                      : 
TLFamily_PRMB      .         Permeability                  : 
TLFamily_PRMB_DGR  .         Permeability                  : 
TLFamily_RT        .         Formation Resistivity         : 
TLFamily_SOIL_ARCHIE .         Oil Saturation                : 
TLFamily_SOIL_DW   .         Oil Saturation                : 
TLFamily_SP        .         Spontaneous Potential         : 
TLFamily_VSH_FIN   .         Shale Volume                  : 
TLFamily_VSH_GR    .         Shale Volume                  : 
TLFamily_VSH_SP    .         Shale Volume                  : 
~Curve Information
#_______________________________________________________________________________
#
#LOGNAME           .UNIT     LOG_ID                        : DESCRIPTION
#_______________________________________________________________________________
DEPT               .M                                      : Колонка глубины 
CALI               .м                                      : Каверномер 
CILD               .мСм/м                                  : Индукционный каротаж 
COLL               .unitless                               : Описание 
CSAT               .unitless                               : Описание 
GR                 .uR/h                                   : Гамма каротаж 
GZ1                .Ом·м                                   :  
GZ2                .Ом·м                                   :  
GZ3                .Ом·м                                   : 519.13 - 1435.53<_techsia_sc_> 575.93 - 1187.33 
GZ4                .Ом·м                                   :  
GZ5                .Ом·м                                   :  
LLS                .Ohmm                                   : Боковой каротаж 
MINV               .Ohmm                                   : Микро-градиент зонд 
MNOR               .Ohmm                                   : Микро-потенциал зонд 
NGLD               .у.е.                                   : Показания зонда НГК-60 аппаратуры ДРСТ-3-90 
OGZ                .Ом·м                                   : 514.65 - 1431.05<_techsia_sc_> 571.45 - 1182.85 
PHIE               .v/v                                    : Описание 
PHIEN              .v/v                                    :  
PHIT               .v/v                                    : Описание 
PRMB               .mD                                     :  
PRMB_DGR           .mD                                     :  
RT                 .ohmm                                   : УЭС пласта 
SOIL_ARCHIE        .v/v                                    :  
SOIL_DW            .v/v                                    :  
SP                 .мВ                                     : Потенциал самополяризации 
VSH_FIN            .v/v                                    : Описание 
VSH_GR             .v/v                                    : Shale volume 
VSH_SP             .v/v                                    : Shale Volume 
~Ascii
# ...
1082       0.255      403        -9999      -9999      6.756      1.232      2.4        -9999      1.556      1.34       1.678      1.998      2.255      0.826      2.2124     0.1167516  0.1167516  0.3231744  0.4070803  0.9607943  1.944      0          0.3864132  276.751    0.6255238  0.6594878  0.5915598 
1082.2     0.261      399        -9999      -9999      6.772      1.118      2.172      -9999      1.531      1.34       1.876      2.172      2.325      0.816      2.3886     0.1153079  0.1153079  0.3262304  0.382772   0.9401897  1.964      0          0.3905958  279.399    0.6391591  0.6653515  0.6129667 
1082.4     0.269      393        -9999      -9999      6.457      1.257      2.095      -9999      1.645      1.366      2.202      2.302      2.83       0.808      2.604      0.1318259  0.1318259  0.3286752  0.7742708  1.440694   1.994      0.05528258 0.4262009  281.936    0.5965131  0.5589385  0.6340876 
1082.6     0.271      378        -9999      -9999      6.324      1.257      2.083      -9999      1.76       1.404      1.99       2.551      2.737      0.8        2.9564     0.1375273  0.1375273  0.33112    0.9874089  1.725174   2.073      0.1059368  0.4484788  284.264    0.5866446  0.5192869  0.6540023 
1082.8     0.249      362        -9999      -9999      6.075      1.283      2.083      -9999      1.81       1.442      2.066      0.867      1.804      0.847      3.1522     0.1311637  0.1311637  0.3167568  0.7527101  2.417423   2.164      0.08686963 0.4350949  286.357    0.5624034  0.4524582  0.6723486 
1083       0.244      351        -9999      -9999      6.042      1.295      2.134      -9999      1.823      1.48       2.536      2.152      2.442      0.847      3.2305     0.129782   0.129782   0.3167568  0.7096351  2.527963   2.232      0.09169222 0.4416052  288.206    0.5665904  0.4442724  0.6889083 
1083.2     0.242      344        -9999      -9999      5.776      1.359      2.273      -9999      1.823      1.518      2.87       2.491      3.017      0.859      3.4459     0.1337908  0.1337908  0.3130896  0.8419524  3.62488    2.278      0.1238695  0.4493823  289.771    0.5433298  0.383474   0.7031856 
1083.4     0.246      339        -9999      -9999      5.61       1.473      2.426      -9999      1.823      1.518      2.696      3.223      3.344      0.859      3.7004     0.1375419  0.1375419  0.3130896  0.9880266  4.539137   2.311      0.1504707  0.4589092  290.95     0.5319626  0.3498244  0.7141008 
1083.6     0.245      324.9999   -9999      -9999      5.229      1.511      2.527      0.0006     1.823      1.518      2.681      3.148      3.484      0.849      3.6221     0.1505826  0.1505826  0.3161456  1.723114   7.606164   2.411      0.2303697  0.4910925  291.589    0.5017059  0.283338   0.7200739 
1083.8     0.253      305        -9999      -9999      5.245      1.511      2.553      -9999      1.861      1.506      2.24       2.092      3.025      0.849      3.5047     0.1502536  0.1502536  0.3161456  1.699102   7.443052   2.569      0.2515317  0.5065805  291.533    0.502703   0.2858572  0.7195489 
1084       0.231      289        -9999      -9999      5.013      1.46       2.616      -9999      1.925      1.506      2.878      1.385      3.056      0.835      3.4459     0.161504   0.161504   0.320424   2.745393   10.19218   2.711      0.314674   0.5366217  290.695    0.4815757  0.251423   0.7117283 
1084.2     0.237      274        -9999      -9999      4.631      1.46       2.794      -9999      1.937      1.544      3.303      4.03       3.841      0.874      3.6613     0.159883   0.159883   0.3085056  2.561997   17.10205   2.86       0.3257687  0.5364328  289.12     0.4503716  0.2035258  0.6972174 
1084.4     0.238      262        -9999      -9999      4.498      1.537      2.908      -9999      1.937      1.62       3.151      2.899      3.126      0.917      3.9354     0.1522544  0.1522544  0.2953648  1.850458   20.47904   2.991      0.3110719  0.5255468  287.02     0.4336678  0.1890875  0.6782482 
1084.6     0.227      258        -9999      -9999      4.033      1.664      3.061      -9999      2.001      1.734      4.571      2.879      3.973      0.952      3.9354     0.1519466  0.1519466  0.2846688  1.826325   38.45302   3.037      0.3147818  0.5180352  284.745    0.4021884  0.1461956  0.6581812 
1084.8     0.229      255        -9999      -9999      4.565      1.981      3.607      -9999      2.09       1.81       4.177      4.533      4.106      0.974      4.1312     0.1398647  0.1398647  0.2779456  1.090915   18.70186   3.073      0.2675688  0.4979375  282.707    0.4184271  0.1962281  0.6406261 
1085       0.228      249        -9999      -9999      4.963      2.222      3.912      -9999      2.191      1.899      3.767      3.288      3.6        0.952      4.092      0.1406131  0.1406131  0.2846688  1.1263     10.90659   3.147      0.2790608  0.5121264  281.272    0.4365323  0.2445632  0.6285015 
1085.2     0.227      247        -9999      -9999      4.963      2.286      4.267      -9999      2.293      1.95       3.66       3.074      3.499      0.921      3.8571     0.1509453  0.1509453  0.2941424  1.749975   10.90659   3.172      0.3247477  0.5365636  280.649    0.4339305  0.2445632  0.6232978 
1085.4     0.229      248        -9999      -9999      4.814      2.299      4.597      -9999      2.382      1.963      3.964      4.309      3.935      0.921      3.8571     0.1539006  0.1539006  0.2941424  1.985045   13.34643   3.159      0.3347742  0.539087   280.822    0.4249752  0.2252112  0.6247391 
1085.6     0.235      243        -9999      -9999      4.88       2.222      4.826      -9999      2.496      1.887      3.243      4.015      3.717      0.859      3.955      0.1704558  0.1704558  0.3130896  4.021728   12.20474   3.224      0.3972006  0.5779608  281.553    0.4322236  0.2335868  0.6308604 
1085.8     0.236      234        -9999      -9999      4.697      2.045      4.635      -9999      2.585      1.772      3.06       3.203      3.126      0.865      3.7396     0.1710771  0.1710771  0.311256   4.129719   15.6391    3.348      0.4096559  0.5849614  282.454    0.4247846  0.2110949  0.6384744 
1086       0.226      232        -9999      -9999      4.299      1.88       4.343      -9999      2.598      1.721      3.706      2.82       3.235      0.91       3.5438     0.1632849  0.1632849  0.297504   2.962037   26.81684   3.377      0.3876769  0.5674022  283.111    0.4067245  0.1693744  0.6440746 
1086.2     0.225      238        -9999      -9999      4.266      1.816      4.42       -9999      2.585      1.836      4.032      3.129      3.725      0.898      3.4655     0.1673094  0.1673094  0.3011712  3.51669    28.0431    3.292      0.3933108  0.5692405  283.216    0.4056418  0.1663101  0.6449736 
1086.4     0.226      245        -9999      -9999      4.565      2.045      4.724      -9999      2.522      2.115      4.48       3.686      4.16       0.906      3.3872     0.1607073  0.1607073  0.2987264  2.653669   18.70186   3.198      0.3630598  0.5537962  282.663    0.4182397  0.1962281  0.6402514 
1086.6     0.231      246        -9999      -9999      4.631      2.324      4.889      -9999      2.433      2.572      3.744      3.951      4.074      0.896      3.3284     0.1640754  0.1640754  0.3017824  3.0636     17.10205   3.185      0.3732658  0.5592393  281.577    0.417294   0.2035258  0.6310622 
1086.8     0.23       245        -9999      -9999      4.764      2.324      4.801      -9999      2.407      2.255      3.318      2.979      3.196      0.874      3.0348     0.170054   0.170054   0.3085056  3.953395   14.28192   3.198      0.3936607  0.5720372  280.256    0.4195504  0.2190666  0.6200342 
1087       0.233      247        -9999      -9999      4.531      1.943      4.762      0.0192     2.483      2.001      3.835      3.104      3.297      0.917      2.6823     0.1629173  0.1629173  0.2953648  2.915956   19.58354   3.172      0.3681758  0.5512844  279.054    0.4013562  0.1925714  0.6101409 
