~Version
 VERS              .         2.0                           : CWLS LOG ASCII STANDARD - VERSION 2.0
 WRAP              .         NO                            : ONE LINE PER DEPTH STEP
 DLM               .         SPACE                         : DELIMITING CHARACTER(SPACE TAB OR COMMA)
~Well Information
#_______________________________________________________________________________
#
#PARAMETER_NAME    .UNIT     VALUE                         : DESCRIPTION
#_______________________________________________________________________________
STRT               .M        900                           : First reference value
STOP               .M        1217.2                        : Last reference value
STEP               .M        0.2                           : Step increment
NULL               .         -9999                         : Missing value
COMP               .                                       : Company
WELL               .         8435                          : Well name
FLD                .         Узень                         : Field
LOC                .                                       : Location
CNTY               .                                       : County
STAT               .                                       : State
CTRY               .                                       : Country
SRVC               .                                       : Service Company
DATE               .                                       : Date
UWI                .                                       : Unique Well ID
Block              .         6а                            : 
Category           .         Нефтяная                      : 
Condition          .         В работе                      : 
Date               .         22.09.1997                    : 
EREF               .m        85.9                          : 100.8
GRP                .                                       : Group name
Gorizont           .         13                            : 14
ISS                .         БКЗ, магнитная лента          : Well surveys
Interpretator      .         Бекбулатова А.А.              : 
Kupol              .         Основной                      : osnovnoi
Mud                .         0                             : 
Mud_density        .         0                             : 
Mud_resistivity    .         0                             : 
NGDU               .         НГДУ-2                        : 
ORIGINALWELLNAME   .         8435                          : 
Spud_date          .         1997                          : 1961
TIME               .         14_38                         : LOG TIME
Viscosity          .         0                             : 
X                  .m        45090.2                       : 46154
Y                  .m        85538.63                      : 85761.93
YEAR               .         2019                          : 
~Parameter Information Block
#_______________________________________________________________________________
#
#PARAMETER_NAME    .UNIT     VALUE                         : DESCRIPTION
#_______________________________________________________________________________
SET                .         LQC_KAZNIPI_Petrel            : 
TLFamily_CALI      .         Caliper                       : 
TLFamily_CILD      .         Conductivity                  : 
TLFamily_COLL      .         Net Reservoir Flag            : 
TLFamily_CSAT      .         Fluid Code                    : 
TLFamily_DEPT      .         Measured Depth                : 
TLFamily_GR        .         Russian Gamma Ray             : 
TLFamily_GZ1       .         Gradient 045                  : 
TLFamily_GZ2       .         Gradient 105                  : 
TLFamily_GZ3       .         Gradient 225                  : 
TLFamily_GZ4       .         Gradient 425                  : 
TLFamily_GZ5       .         Gradient 850                  : 
TLFamily_LLS       .         Lateral Log Resistivity       : 
TLFamily_MINV      .         Micro Gradient Resistivity    : 
TLFamily_MNOR      .         Micro Resistivity             : 
TLFamily_NGLD      .         Neutron Gamma                 : 
TLFamily_OGZ       .         Gradient Inverted 225         : 
TLFamily_PHIE      .         Effective Porosity            : 
TLFamily_PHIEN     .         Effective Porosity            : 
TLFamily_PHIT      .         Porosity                      : 
TLFamily_PRMB      .         Permeability                  : 
TLFamily_PRMB_DGR  .         Permeability                  : 
TLFamily_RT        .         Formation Resistivity         : 
TLFamily_SOIL_ARCHIE .         Oil Saturation                : 
TLFamily_SOIL_DW   .         Oil Saturation                : 
TLFamily_SP        .         Spontaneous Potential         : 
TLFamily_VSH_FIN   .         Shale Volume                  : 
TLFamily_VSH_GR    .         Shale Volume                  : 
TLFamily_VSH_SP    .         Shale Volume                  : 
~Curve Information
#_______________________________________________________________________________
#
#LOGNAME           .UNIT     LOG_ID                        : DESCRIPTION
#_______________________________________________________________________________
DEPT               .M                                      : Колонка глубины 
CALI               .м                                      : Каверномер 
CILD               .мСм/м                                  : Индукционный каротаж 
COLL               .unitless                               : Описание 
CSAT               .unitless                               : Описание 
GR                 .uR/h                                   : Гамма каротаж 
GZ1                .Ом·м                                   :  
GZ2                .Ом·м                                   :  
GZ3                .Ом·м                                   : 519.13 - 1435.53<_techsia_sc_> 575.93 - 1187.33 
GZ4                .Ом·м                                   :  
GZ5                .Ом·м                                   :  
LLS                .Ohmm                                   : Боковой каротаж 
MINV               .Ohmm                                   : Микро-градиент зонд 
MNOR               .Ohmm                                   : Микро-потенциал зонд 
NGLD               .у.е.                                   : Показания зонда НГК-60 аппаратуры ДРСТ-3-90 
OGZ                .Ом·м                                   : 514.65 - 1431.05<_techsia_sc_> 571.45 - 1182.85 
PHIE               .v/v                                    : Описание 
PHIEN              .v/v                                    :  
PHIT               .v/v                                    : Описание 
PRMB               .mD                                     :  
PRMB_DGR           .mD                                     :  
RT                 .ohmm                                   : УЭС пласта 
SOIL_ARCHIE        .v/v                                    :  
SOIL_DW            .v/v                                    :  
SP                 .мВ                                     : Потенциал самополяризации 
VSH_FIN            .v/v                                    : Описание 
VSH_GR             .v/v                                    : Shale volume 
VSH_SP             .v/v                                    : Shale Volume 
~Ascii
# ...
920.8      0.247      182        -9999      -9999      5.478      1.626      4.432      -9999      3.601      3.512      4.29       3.114      3.717      0.843      8.4581     0.1228108  0.1228108  0.3179792  0.5271232  2.146735   4.305      0.299762   0.5908006  294.101    0.5914194  0.4749391  0.7078996 
921        0.223      184        -9999      -9999      5.063      1.829      4.851      -9999      3.804      3.677      5.042      3.158      3.67       0.906      9.8874     0.1152247  0.1152247  0.2987264  0.3814168  3.230626   4.258      0.2559532  0.5618253  294.349    0.5560656  0.4019347  0.7101966 
921.2000000000001 0.226      188        -9999      -9999      5.229      2.261      5.372      -9999      4.02       3.931      5.817      6.128      4.448      0.921      11.6691    0.1074981  0.1074981  0.2941424  0.2743361  2.743364   4.168      0.2016212  0.5414724  293.406    0.5655889  0.4296833  0.7014946 
921.4      0.229      187        -9999      -9999      5.66       2.527      5.588      -9999      4.211      3.779      4.974      4.583      3.919      0.847      13.3333    0.119886   0.119886   0.3167568  0.4653045  1.794451   4.19       0.2757624  0.5805858  291.275    0.5965782  0.5110053  0.6821512 
921.6      0.243      172        -9999      -9999      5.478      2.426      5.448      -9999      4.274      3.69       4.306      3.437      3.88       0.824      14.3906    0.1373286  0.1373286  0.3237856  0.9790763  2.146735   4.555      0.3813014  0.6224312  288.21     0.5650213  0.4749391  0.6551034 
921.8      0.265      140        -9999      -9999      5.096      1.88       4.801      -9999      3.563      3.728      3.47       1.45       2.994      0.89       14.5277    0.1034162  0.1034162  0.303616   0.2305033  0.6372146  5.597      0.2809272  0.6070807  284.621    0.606666   0.7798855  0.4334466 
922        0.234      116        6          6          4.631      1.194      4.064      -9999      3.423      4.439      3.698      0.792      2.473      1.05       14.1557    0.08396304 0.08396304 0.25472    0.1005442  1.103727   6.755      0.2106498  0.5688351  280.926    0.5174454  0.6231781  0.4117126 
922.2000000000001 0.23       101        6          6          4.15       0.978      4.127      -9999      3.817      4.947      5.057      5.469999   4.214      1.23       14.9388    0.05350059 0.05350059 0.199712   0.02742324 1.948261   7.758      0          0.4502911  277.408    0.4430649  0.4941304  0.3919994 
922.4      0.221      87         6          6          3.486      0.838      4.762      -9999      4.63       5.962999   6.5        5.619      4.494      1.421      20.0294    0.02037359 0.02037359 0.1413424  0.006676155 4.268974   9.006      0          0.1409322  274.125    0.3665721  0.3587005  0.3744438 
922.6      0.217      79         6          6          2.838      1.079      5.41       -9999      5.747      7.259      8.551      1.355      4.121      1.593      26.7254    0.01       0          0.08877918 0.004289259 9.178907   9.918      0          0          270.915    0.3102254  0.2624064  0.3580444 
922.8      0.217      73         6          6          3.038      1.537      5.651      -9999      6.852001   8.44       11.186     5.699      4.782      1.628      29.9168    0.01       0          0.07808319 0.004289259 7.247323   10.733     0          0          267.478    0.3151445  0.2889847  0.3413043 
923        0.218      66         6          6          3.336      2.083      5.613      -9999      7.754001   9.189      10.586     5.445      4.759      1.62       29.9364    0.01       0          0.080528   0.004289259 5.096636   11.872     0          0          263.511    0.3283347  0.3336619  0.3230076 
923.2000000000001 0.217      61         6          6          3.486      2.667      8.826      -9999      7.741001   9.468      10.214     7.253      4.821      1.577      24.9437    0.01       0          0.0936688  0.004289259 4.268974   12.845     0          0          258.828    0.3307391  0.3587005  0.3027776 
923.4      0.217      58         6          6          3.436      3.035      13.335     -9999      7.716      9.519      9.939999   6.337      4.665      1.493      17.4841    0.01515249 0.01515249 0.1193392  0.005343414 4.528735   13.509     0          0.1439201  253.444    0.3157173  0.3501522  0.2812823 
923.6      0.212      61         6          6          3.237      3.416      17.335     -9999      7.919001   9.202      9.325      3.622      4.347      1.46       11.6495    0.03404568 0.03404568 0.129424   0.01196097 5.728979   12.845     0          0.3369391  247.588    0.2890252  0.3181016  0.2599487 
923.8      0.211      67         6          6          2.905      3.759      20.828     -9999      7.778999   8.77       8.528      2.043      3.966      1.405      9.319601   0.06185337 0.06185337 0.146232   0.03915909 8.480386   11.694     0.2037975  0.4777119  241.642    0.2556928  0.2710261  0.2403596 
924        0.21       73         6          6          2.49       4.28       23.685     -9999      7.754001   8.363      7.115      1.774      3.748      1.308      7.4988     0.1023498  0.1023498  0.1758752  0.220254   13.84645   10.733     0.465433   0.5989152  236.055    0.2228044  0.2218542  0.2237547 
924.2000000000001 0.21       78         6          6          2.191      4.318      22.923     -9999      7.525      7.855      6.72       1.524      3.592      1.308      6.0108     0.1094157  0.1094157  0.1758752  0.2977166  19.71267   10.045     0.4797024  0.5963313  231.224    0.2013923  0.1920553  0.2107293 
924.4      0.212      83         6          6          2.108      4.039      20.955     -9999      7.767      7.805      6.91       1.729      3.725      1.333      4.875199   0.10458    0.10458    0.1682352  0.242233   21.74353   9.44       0.4428021  0.5645482  227.408    0.1928946  0.1845176  0.2012717 
924.6      0.212      89         6          6          2.141      3.924      19.431     -9999      7.817      7.690001   7.009      2.302      3.406      1.343      4.2095     0.1020847  0.1020847  0.1651792  0.2177778  20.91215   8.804      0.4120248  0.5396754  224.667    0.1911955  0.1874784  0.1949126 
924.8      0.212      104        6          6          1.859      3.975      19.558     -9999      8.122      7.716      7.905      1.774      3.437      1.325      4.0137     0.1121806  0.1121806  0.17068    0.3349771  29.1799    7.534      0.4173137  0.5302664  222.858    0.1772708  0.1636333  0.1909084 
925        0.211      131        6          6          1.759      4.394      21.145     0.008600002 8.554      7.792      8.057      1.774      3.748      1.343      3.7396     0.1083662  0.1083662  0.1651792  0.2846839  32.83904   5.981      0.3307868  0.4548338  221.686    0.1721606  0.155927   0.1883941 
925.2000000000001 0.211      152        6          6          1.876      5.41       23.368     -9999      9.189      7.817      6.295      1.44       3.367      1.276      3.5047     0.1276606  0.1276606  0.1856544  0.6482486  28.5997    5.155001   0.3778808  0.4874776  220.782    0.1757389  0.1649807  0.186497  
925.4      0.21       160        6          6          1.759      5.753      22.923     -9999      9.759999   7.563      3.136      1.828      3.592      1.161      3.3089     0.164629   0.164629   0.2207984  3.136794   32.83904   4.897      0.4893289  0.572393   219.808    0.1702104  0.155927   0.1844938 
925.6      0.212      173        6          6          1.909      3.975      15.938     0.1037     9.481      6.751      4.192      1.34       3.149      1.152      2.976      0.1658645  0.1658645  0.2235488  3.306512   27.50619   4.529      0.4736989  0.559934   218.553    0.1748011  0.1676281  0.1819741 
925.8      0.212      199        6          6          1.942      3.162      12.446     0.004000001 8.084      5.938      6.341      2.122      3.616      1.167      3.2697     0.161338   0.161338   0.2189648  2.726025   26.45447   3.937      0.4242305  0.5167316  216.992    0.1746265  0.1703179  0.1789351 
