~Version
 VERS              .         2.0                           : CWLS LOG ASCII STANDARD - VERSION 2.0
 WRAP              .         NO                            : ONE LINE PER DEPTH STEP
 DLM               .         SPACE                         : DELIMITING CHARACTER(SPACE TAB OR COMMA)
~Well Information
#_______________________________________________________________________________
#
#PARAMETER_NAME    .UNIT     VALUE                         : DESCRIPTION
#_______________________________________________________________________________
STRT               .M        900                           : First reference value
STOP               .M        1217.2                        : Last reference value
STEP               .M        0.2                           : Step increment
NULL               .         -9999                         : Missing value
COMP               .                                       : Company
WELL               .         8435                          : Well name
FLD                .         Узень                         : Field
LOC                .                                       : Location
CNTY               .                                       : County
STAT               .                                       : State
CTRY               .                                       : Country
SRVC               .                                       : Service Company
DATE               .                                       : Date
UWI                .                                       : Unique Well ID
Block              .         6а                            : 
Category           .         Нефтяная                      : 
Condition          .         В работе                      : 
Date               .         22.09.1997                    : 
EREF               .m        85.9                          : 100.8
GRP                .                                       : Group name
Gorizont           .         13                            : 14
ISS                .         БКЗ, магнитная лента          : Well surveys
Interpretator      .         Бекбулатова А.А.              : 
Kupol              .         Основной                      : osnovnoi
Mud                .         0                             : 
Mud_density        .         0                             : 
Mud_resistivity    .         0                             : 
NGDU               .         НГДУ-2                        : 
ORIGINALWELLNAME   .         8435                          : 
Spud_date          .         1997                          : 1961
TIME               .         14_38                         : LOG TIME
Viscosity          .         0                             : 
X                  .m        45090.2                       : 46154
Y                  .m        85538.63                      : 85761.93
YEAR               .         2019                          : 
~Parameter Information Block
#_______________________________________________________________________________
#
#PARAMETER_NAME    .UNIT     VALUE                         : DESCRIPTION
#_______________________________________________________________________________
SET                .         LQC_KAZNIPI_Petrel            : 
TLFamily_CALI      .         Caliper                       : 
TLFamily_CILD      .         Conductivity                  : 
TLFamily_COLL      .         Net Reservoir Flag            : 
TLFamily_CSAT      .         Fluid Code                    : 
TLFamily_DEPT      .         Measured Depth                : 
TLFamily_GR        .         Russian Gamma Ray             : 
TLFamily_GZ1       .         Gradient 045                  : 
TLFamily_GZ2       .         Gradient 105                  : 
TLFamily_GZ3       .         Gradient 225                  : 
TLFamily_GZ4       .         Gradient 425                  : 
TLFamily_GZ5       .         Gradient 850                  : 
TLFamily_LLS       .         Lateral Log Resistivity       : 
TLFamily_MINV      .         Micro Gradient Resistivity    : 
TLFamily_MNOR      .         Micro Resistivity             : 
TLFamily_NGLD      .         Neutron Gamma                 : 
TLFamily_OGZ       .         Gradient Inverted 225         : 
TLFamily_PHIE      .         Effective Porosity            : 
TLFamily_PHIEN     .         Effective Porosity            : 
TLFamily_PHIT      .         Porosity                      : 
TLFamily_PRMB      .         Permeability                  : 
TLFamily_PRMB_DGR  .         Permeability                  : 
TLFamily_RT        .         Formation Resistivity         : 
TLFamily_SOIL_ARCHIE .         Oil Saturation                : 
TLFamily_SOIL_DW   .         Oil Saturation                : 
TLFamily_SP        .         Spontaneous Potential         : 
TLFamily_VSH_FIN   .         Shale Volume                  : 
TLFamily_VSH_GR    .         Shale Volume                  : 
TLFamily_VSH_SP    .         Shale Volume                  : 
~Curve Information
#_______________________________________________________________________________
#
#LOGNAME           .UNIT     LOG_ID                        : DESCRIPTION
#_______________________________________________________________________________
DEPT               .M                                      : Колонка глубины 
CALI               .м                                      : Каверномер 
CILD               .мСм/м                                  : Индукционный каротаж 
COLL               .unitless                               : Описание 
CSAT               .unitless                               : Описание 
GR                 .uR/h                                   : Гамма каротаж 
GZ1                .Ом·м                                   :  
GZ2                .Ом·м                                   :  
GZ3                .Ом·м                                   : 519.13 - 1435.53<_techsia_sc_> 575.93 - 1187.33 
GZ4                .Ом·м                                   :  
GZ5                .Ом·м                                   :  
LLS                .Ohmm                                   : Боковой каротаж 
MINV               .Ohmm                                   : Микро-градиент зонд 
MNOR               .Ohmm                                   : Микро-потенциал зонд 
NGLD               .у.е.                                   : Показания зонда НГК-60 аппаратуры ДРСТ-3-90 
OGZ                .Ом·м                                   : 514.65 - 1431.05<_techsia_sc_> 571.45 - 1182.85 
PHIE               .v/v                                    : Описание 
PHIEN              .v/v                                    :  
PHIT               .v/v                                    : Описание 
PRMB               .mD                                     :  
PRMB_DGR           .mD                                     :  
RT                 .ohmm                                   : УЭС пласта 
SOIL_ARCHIE        .v/v                                    :  
SOIL_DW            .v/v                                    :  
SP                 .мВ                                     : Потенциал самополяризации 
VSH_FIN            .v/v                                    : Описание 
VSH_GR             .v/v                                    : Shale volume 
VSH_SP             .v/v                                    : Shale Volume 
~Ascii
# ...
1175.6     0.258      455        -9999      -9999      7.22       1.219      1.892      0.0007     2.369      1.277      1.906      2.023      2.247      0.785      2.1145     0.1509741  0.1509741  0.335704   1.75212    2.557935   1.722      0.1132408  0.4279114  229.648    0.5597877  0.4421394  0.6774359 
1175.8     0.255      451        -9999      -9999      7.652      1.308      1.918      -9999      2.242      1.239      1.898      2.252      2.208      0.83       2.2124     0.103746   0.103746   0.321952   0.2337681  1.071098   1.737      0          0.3299681  231.222    0.6612304  0.6308613  0.6915994 
1176       0.256      448        -9999      -9999      7.386      1.333      1.956      -9999      2.128      1.201      1.944      1.699      2.317      0.839      2.3299     0.119614   0.119614   0.3192016  0.4599392  1.830695   1.749      0          0.3614044  232.445    0.6048108  0.5068498  0.7027718 
1176.2     -9999      446        -9999      -9999      7.337      1.333      2.032      -9999      1.963      1.175      1.86       1.823      2.411      0.808      2.467      0.1310433  0.1310433  0.3286752  0.7488558  2.020683   1.757      0.006294681 0.3950101  233.33     0.5988845  0.4868207  0.7109482 
1176.4     -9999      442        -9999      -9999      7.503      1.295      2.095      -9999      1.874      1.163      1.807      1.943      2.037      0.82       2.604      0.1147766  0.1147766  0.325008   0.3741965  1.446189   1.773      0          0.3637336  233.879    0.6370648  0.5580703  0.7160593 
1176.6     -9999      440        -9999      -9999      7.519      1.257      2.095      -9999      1.747      1.125      1.921      1.893      2.395      0.826      2.839      0.1115022  0.1115022  0.3231744  0.3254241  1.400305   1.781      0          0.3562931  234.022    0.6414309  0.5654661  0.7173955 
1176.8     -9999      440        -9999      -9999      7.453      1.257      2.095      -9999      1.658      1.086      1.86       1.833      2.084      0.81       3.1522     0.1219871  0.1219871  0.328064   0.5089263  1.599491   1.781      0          0.3825452  233.591    0.6244755  0.5355766  0.7133744 
1177       -9999      437.9999   -9999      -9999      7.337      1.321      2.032      -9999      1.569      1.036      1.86       1.729      2.177      0.767      3.4655     0.1450843  0.1450843  0.3412048  1.362922   2.020683   1.789      0.09826623 0.4360381  232.338    0.5943046  0.4868207  0.7017884 
1177.2     -9999      434        -9999      -9999      -9999      1.41       2.045      -9999      1.544      0.985      1.952      1.993      2.605      0.761      3.7788     0.1184549  0.1184549  0.3430384  0.4377545  -9999      1.805      0          0.3977902  229.997    0.680556   -9999      0.6805556 
1177.4     -9999      430        -9999      -9999      -9999      1.346      2.095      -9999      1.328      0.934      1.853      2.008      2.348      0.8        3.955      0.1170064  0.1170064  0.33112    0.4115295  -9999      1.822      0          0.3840663  226.384    0.648829   -9999      0.648829  
1177.6     -9999      418        -9999      -9999      -9999      1.27       1.994      -9999      1.353      0.909      1.747      2.127      2.162      0.794      4.092      0.1323638  0.1323638  0.3329536  0.7922384  -9999      1.874      0.04428816 0.4211116  221.492    0.607848   -9999      0.6078477 
1177.8     -9999      394        -9999      -9999      -9999      1.245      1.88       -9999      1.302      0.896      1.701      2.157      2.294      0.787      4.1703     0.1499255  0.1499255  0.3350928  1.675492   -9999      1.989      0.1661936  0.4656842  215.559    0.561113   -9999      0.5611129 
1178       -9999      358        -9999      -9999      -9999      1.156      1.778      -9999      0.909      0.871      1.633      2.426      2.131      0.787      4.3857     0.1656527  0.1656527  0.3350928  3.27678    -9999      2.189      0.2691866  0.5097171  209.05     0.513455   -9999      0.5134555 
1178.2     -9999      312        -9999      -9999      -9999      1.029      1.689      -9999      1.023      0.921      1.929      1.604      2.037      0.8        4.7186     0.1761678  0.1761678  0.33112    5.131138   -9999      2.511      0.3505301  0.5498099  202.559    0.469552   -9999      0.4695516 
1178.4     -9999      259        -9999      -9999      -9999      0.851      1.6        -9999      1.188      1.036      2.369      1.983      3.219      0.874      5.2472     0.1841936  0.1841936  0.3085056  7.225545   -9999      3.025      0.4275277  0.5794879  196.65     0.376703   -9999      0.3767027 
1178.6     -9999      213        1          2          -9999      0.711      1.702      0.0007     1.607      1.277      3.106      1.415      3.001      0.855      6.2849     0.1967485  0.1967485  0.314312   12.34292   -9999      3.679      0.5069129  0.6328176  191.702    0.356253   -9999      0.3562528 
1178.8     -9999      184        1          2          -9999      0.787      2.121      -9999      2.064      1.975      6.174      1.933      3.546      0.833      8.6539     0.2079706  0.2079706  0.3210352  19.91949   -9999      4.258      0.5613127  0.6704757  187.823    0.34262    -9999      0.3426196 
1179       -9999      166        1          2          -9999      1.092      3.292      -9999      2.699      2.839      9.682      1.774      3.608      0.814      11.5712    0.2160266  0.2160266  0.3268416  28.08632   -9999      4.72       0.5956228  0.6950933  184.873    0.335803   -9999      0.335803  
1179.2     -9999      154        1          2          -9999      1.854      4.821      -9999      3.144      3.512      10.039     2.446      4.043      0.785      13.3725    0.2293879  0.2293879  0.335704   49.65676   -9999      5.088      0.6295016  0.717962   182.587    0.32217    -9999      0.3221698 
1179.4     -9999      149        1          2          -9999      2.946      6.35       -9999      3.461      4.071      9.097      2.371      3.888      0.796      11.5321    0.2260263  0.2260263  0.3323424  43.02427   -9999      5.259      0.6304836  0.719236   180.742    0.32217    -9999      0.3221698 
1179.6     -9999      147        1          2          -9999      4.851      8.636      -9999      3.296      4.096      7.198999   2.346      3.872      0.779      8.7714     0.2357207  0.2357207  0.3375376  65.05457   -9999      5.33       0.64599    0.7283913  179.286    0.308536   -9999      0.3085365 
1179.8     -9999      148        1          2          -9999      5.207      11.176     -9999      3.055      3.982      5.225      2.172      3.958      0.826      7.0289     0.2213575  0.2213575  0.3231744  35.25628   -9999      5.294      0.6248743  0.7130683  178.384    0.308536   -9999      0.3085365 
1180       -9999      156        1          2          -9999      4.267      14.033     -9999      2.814      3.512      4.86       1.544      3.67       0.833      4.9143     0.2192183  0.2192183  0.3210352  32.182     -9999      5.023      0.6122436  0.7030913  178.354    0.308536   -9999      0.3085365 
1180.2     -9999      168        1          2          -9999      4.013      13.779     -9999      2.687      2.953      5.217      2.341      3.95       -9999      3.7396     -9999      -9999      -9999      -9999      -9999      4.664001   -9999      -9999      179.531    0.308536   -9999      0.3085365 
1180.4     -9999      177        1          2          -9999      3.835      13.335     -9999      2.649      2.674      4.655      2.082      3.756      -9999      3.348      -9999      -9999      -9999      -9999      -9999      4.427      -9999      -9999      182.113    0.30295    -9999      0.3029499 
1180.6     -9999      178        1          2          -9999      3.34       11.557     -9999      2.636      2.471      4.025      1.714      3.592      -9999      3.2893     -9999      -9999      -9999      -9999      -9999      4.402      -9999      -9999      186.055    0.309085   -9999      0.3090849 
