~Version
 VERS              .         2.0                           : CWLS LOG ASCII STANDARD - VERSION 2.0
 WRAP              .         NO                            : ONE LINE PER DEPTH STEP
 DLM               .         SPACE                         : DELIMITING CHARACTER(SPACE TAB OR COMMA)
~Well Information
#_______________________________________________________________________________
#
#PARAMETER_NAME    .UNIT     VALUE                         : DESCRIPTION
#_______________________________________________________________________________
STRT               .M        900                           : First reference value
STOP               .M        1217.2                        : Last reference value
STEP               .M        0.2                           : Step increment
NULL               .         -9999                         : Missing value
COMP               .                                       : Company
WELL               .         8435                          : Well name
FLD                .         Узень                         : Field
LOC                .                                       : Location
CNTY               .                                       : County
STAT               .                                       : State
CTRY               .                                       : Country
SRVC               .                                       : Service Company
DATE               .                                       : Date
UWI                .                                       : Unique Well ID
Block              .         6а                            : 
Category           .         Нефтяная                      : 
Condition          .         В работе                      : 
Date               .         22.09.1997                    : 
EREF               .m        85.9                          : 100.8
GRP                .                                       : Group name
Gorizont           .         13                            : 14
ISS                .         БКЗ, магнитная лента          : Well surveys
Interpretator      .         Бекбулатова А.А.              : 
Kupol              .         Основной                      : osnovnoi
Mud                .         0                             : 
Mud_density        .         0                             : 
Mud_resistivity    .         0                             : 
NGDU               .         НГДУ-2                        : 
ORIGINALWELLNAME   .         8435                          : 
Spud_date          .         1997                          : 1961
TIME               .         14_38                         : LOG TIME
Viscosity          .         0                             : 
X                  .m        45090.2                       : 46154
Y                  .m        85538.63                      : 85761.93
YEAR               .         2019                          : 
~Parameter Information Block
#_______________________________________________________________________________
#
#PARAMETER_NAME    .UNIT     VALUE                         : DESCRIPTION
#_______________________________________________________________________________
SET                .         LQC_KAZNIPI_Petrel            : 
TLFamily_CALI      .         Caliper                       : 
TLFamily_CILD      .         Conductivity                  : 
TLFamily_COLL      .         Net Reservoir Flag            : 
TLFamily_CSAT      .         Fluid Code                    : 
TLFamily_DEPT      .         Measured Depth                : 
TLFamily_GR        .         Russian Gamma Ray             : 
TLFamily_GZ1       .         Gradient 045                  : 
TLFamily_GZ2       .         Gradient 105                  : 
TLFamily_GZ3       .         Gradient 225                  : 
TLFamily_GZ4       .         Gradient 425                  : 
TLFamily_GZ5       .         Gradient 850                  : 
TLFamily_LLS       .         Lateral Log Resistivity       : 
TLFamily_MINV      .         Micro Gradient Resistivity    : 
TLFamily_MNOR      .         Micro Resistivity             : 
TLFamily_NGLD      .         Neutron Gamma                 : 
TLFamily_OGZ       .         Gradient Inverted 225         : 
TLFamily_PHIE      .         Effective Porosity            : 
TLFamily_PHIEN     .         Effective Porosity            : 
TLFamily_PHIT      .         Porosity                      : 
TLFamily_PRMB      .         Permeability                  : 
TLFamily_PRMB_DGR  .         Permeability                  : 
TLFamily_RT        .         Formation Resistivity         : 
TLFamily_SOIL_ARCHIE .         Oil Saturation                : 
TLFamily_SOIL_DW   .         Oil Saturation                : 
TLFamily_SP        .         Spontaneous Potential         : 
TLFamily_VSH_FIN   .         Shale Volume                  : 
TLFamily_VSH_GR    .         Shale Volume                  : 
TLFamily_VSH_SP    .         Shale Volume                  : 
~Curve Information
#_______________________________________________________________________________
#
#LOGNAME           .UNIT     LOG_ID                        : DESCRIPTION
#_______________________________________________________________________________
DEPT               .M                                      : Колонка глубины 
CALI               .м                                      : Каверномер 
CILD               .мСм/м                                  : Индукционный каротаж 
COLL               .unitless                               : Описание 
CSAT               .unitless                               : Описание 
GR                 .uR/h                                   : Гамма каротаж 
GZ1                .Ом·м                                   :  
GZ2                .Ом·м                                   :  
GZ3                .Ом·м                                   : 519.13 - 1435.53<_techsia_sc_> 575.93 - 1187.33 
GZ4                .Ом·м                                   :  
GZ5                .Ом·м                                   :  
LLS                .Ohmm                                   : Боковой каротаж 
MINV               .Ohmm                                   : Микро-градиент зонд 
MNOR               .Ohmm                                   : Микро-потенциал зонд 
NGLD               .у.е.                                   : Показания зонда НГК-60 аппаратуры ДРСТ-3-90 
OGZ                .Ом·м                                   : 514.65 - 1431.05<_techsia_sc_> 571.45 - 1182.85 
PHIE               .v/v                                    : Описание 
PHIEN              .v/v                                    :  
PHIT               .v/v                                    : Описание 
PRMB               .mD                                     :  
PRMB_DGR           .mD                                     :  
RT                 .ohmm                                   : УЭС пласта 
SOIL_ARCHIE        .v/v                                    :  
SOIL_DW            .v/v                                    :  
SP                 .мВ                                     : Потенциал самополяризации 
VSH_FIN            .v/v                                    : Описание 
VSH_GR             .v/v                                    : Shale volume 
VSH_SP             .v/v                                    : Shale Volume 
~Ascii
900.0      0.202      302        -9999      -9999      5.76       -9999      -9999      -9999      -9999      -9999      4.913      0.608      1.913      0.925      2.8194     0.1580114  0.1580114  0.29292    2.365444   1.626142   2.594      0.2868882  0.4952785  227.846    0.4088139  0.5319749  0.285653  
900.2000000000001 0.21       315        -9999      -9999      5.677      -9999      -9999      -9999      -9999      -9999      4.328      0.583      1.648      0.925      3.6613     0.160893   0.160893   0.29292    2.674768   1.764657   2.487      0.2840104  0.4881716  227.846    0.4000819  0.5145109  0.285653  
900.4      0.214      317        -9999      -9999      5.66       -9999      -9999      -9999      -9999      -9999      2.817      0.608      1.711      0.878      4.2878     0.1754868  0.1754868  0.3072832  4.984251   1.794451   2.472      0.3342699  0.5180739  228.385    0.3993829  0.5110053  0.2877605 
900.6      0.217      319        -9999      -9999      5.146      -9999      -9999      -9999      -9999      -9999      2.559      1.056      2.628      0.839      3.7592     0.2025477  0.2025477  0.3192016  15.80638   2.977042   2.456      0.410646   0.5537673  229.309    0.3534968  0.4155774  0.2914162 
900.8      0.217      323        -9999      -9999      4.996      -9999      -9999      -9999      -9999      -9999      2.529      1.216      2.582      0.824      2.9369     0.2104542  0.2104542  0.3237856  22.14521   3.450998   2.426      0.4266804  0.5616618  230.352    0.3434286  0.3912492  0.295608  
901        0.218      327        -9999      -9999      5.096      -9999      -9999      -9999      -9999      -9999      2.468      1.385      2.737      0.865      2.3299     0.194704   0.194704   0.311256   11.31221   3.127314   2.396      0.3828996  0.534002   231.201    0.353188   0.4073044  0.2990716 
901.2000000000001 0.217      332.0001   -9999      -9999      5.029      -9999      -9999      -9999      -9999      -9999      2.483      1.37       2.496      0.869      2.2516     0.194999   0.194999   0.3100336  11.45547   3.340639   2.36       0.3793191  0.5296447  231.597    0.3485896  0.3964761  0.3007031 
901.4      0.216      336        -9999      -9999      5.063      -9999      -9999      -9999      -9999      -9999      2.605      1.43       2.519      0.869      2.3103     0.1942264  0.1942264  0.3100336  11.08413   3.230626   2.332      0.373671   0.5260711  231.409    0.350931   0.4019347  0.2999273 
901.6      0.218      337.9999   -9999      -9999      5.063      -9999      -9999      -9999      -9999      -9999      2.643      1.245      2.644      0.874      2.5061     0.1931871  0.1931871  0.3085056  10.60358   3.230626   2.318      0.3689569  0.5222059  230.686    0.3494499  0.4019347  0.2969651 
901.8      0.221      337        -9999      -9999      5.096      -9999      -9999      0.0044     -9999      -9999      2.552      1.385      2.76       0.876      2.7606     0.1923787  0.1923787  0.3078944  10.24419   3.127314   2.325      0.3675433  0.5215526  229.653    0.3500477  0.4073044  0.292791  
902        0.22       331        -9999      -9999      5.096      -9999      -9999      -9999      -9999      -9999      2.514      1.385      2.364      0.874      2.7019     0.193653   0.193653   0.3085056  10.81638   3.127314   2.367      0.3764307  0.5276363  228.642    0.3480381  0.4073044  0.2887719 
902.2000000000001 0.218      320        -9999      -9999      5.013      -9999      -9999      -9999      -9999      -9999      2.498      1.375      2.644      0.913      2.5257     0.184359   0.184359   0.2965872  7.276692   3.393698   2.449      0.359458   0.5150419  227.996    0.3400854  0.3939332  0.2862377 
902.4      0.216      316.0001   -9999      -9999      4.98       -9999      -9999      -9999      -9999      -9999      2.582      1.365      2.628      0.943      2.3495     0.1760717  0.1760717  0.2874192  5.110151   3.505808   2.48       0.3372022  0.4997844  227.959    0.3374165  0.3887397  0.2860933 
902.6      0.216      319        -9999      -9999      5.079      -9999      -9999      -9999      -9999      -9999      3.068      1.43       2.659      0.894      2.2712     0.1880223  0.1880223  0.3023936  8.507222   3.180116   2.456      0.3711841  0.5250872  228.606    0.3465796  0.4045292  0.2886299 
902.8      0.217      317        -9999      -9999      4.896      -9999      -9999      -9999      -9999      -9999      3.486      1.963      3.872      0.894      2.2907     0.1919644  0.1919644  0.3023936  10.06479   3.808181   2.472      0.3843246  0.5305724  229.815    0.3346339  0.3758268  0.2934411 
903        0.218      303        -9999      -9999      4.963      -9999      -9999      -9999      -9999      -9999      2.422      1.709      2.924      0.913      2.6432     0.1834642  0.1834642  0.2965872  7.004212   3.565001   2.586      0.3729607  0.5271379  231.306    0.3427971  0.3860911  0.2995032 
903.2000000000001 0.218      277        -9999      -9999      4.598      -9999      -9999      -9999      -9999      -9999      2.339      1.385      2.636      0.992      2.604      0.1670505  0.1670505  0.2724448  3.478078   5.10718    2.829      0.347708   0.5060932  232.717    0.3193766  0.3333805  0.3053726 
903.4      0.218      246        -9999      -9999      4.531      -9999      -9999      -9999      -9999      -9999      2.468      1.505      2.675      1.105      2.4865     0.1332843  0.1332843  0.237912   0.8239594  5.455558   3.185      0.2488969  0.447455   233.712    0.3170537  0.3245175  0.30959   
903.6      0.218      231        -9999      -9999      4.349      -9999      -9999      -9999      -9999      -9999      3.584      1.275      2.504      1.19       2.9369     0.110833   0.110833   0.211936   0.3162673  6.526587   3.392      0.143675   0.3825476  234.072    0.3063726  0.3016134  0.3111319 
903.8      0.219      231        -9999      -9999      4.332      -9999      -9999      -9999      -9999      -9999      7.609      1.818      3.779      1.138      4.5228     0.1272804  0.1272804  0.2278272  0.6378213  6.636784   3.392      0.2408962  0.4402673  233.765    0.3046874  0.2995584  0.3098164 
904        0.219      231        -9999      -9999      4.465      -9999      -9999      -9999      -9999      -9999      6.736      2.77       4.494      1.081      6.8527     0.1425537  0.1425537  0.2452464  1.223485   5.821962   3.392      0.3122424  0.4881155  232.952    0.31119    0.3160173  0.3063628 
904.2000000000001 0.22       241        -9999      -9999      4.565      -9999      -9999      -9999      -9999      -9999      5.126      2.496      3.577      1.034      8.0861     0.1554758  0.1554758  0.2596096  2.122985   5.275898   3.251      0.3494707  0.5119016  231.941    0.3155569  0.3289853  0.3021286 
904.4      0.219      258        -9999      -9999      4.847      -9999      -9999      -9999      -9999      -9999      6.386001   3.243      4.471      0.943      7.4596     0.1773468  0.1773468  0.2874192  5.395743   3.996469   3.037      0.4010924  0.5492852  231.089    0.3335527  0.3684933  0.2986121 
904.6      0.216      266        -9999      -9999      5.013      -9999      -9999      -9999      -9999      -9999      3.334      2.755      3.585      0.906      6.402299   0.1847228  0.1847228  0.2987264  7.390481   3.393698   2.946      0.4136643  0.5600814  230.694    0.3454654  0.3939332  0.2969976 
904.8      0.218      266        -9999      -9999      5.195      -9999      -9999      -9999      -9999      -9999      2.605      1.4        2.745      0.908      5.3451     0.1790343  0.1790343  0.2981152  5.798384   2.836782   2.946      0.3974714  0.5539819  230.904    0.3608513  0.423848   0.2978547 
905        0.217      261        -9999      -9999      5.262      -9999      -9999      -9999      -9999      -9999      2.62       1.365      2.714      0.941      3.7396     0.1665183  0.1665183  0.2880304  3.400016   2.655634   3.002      0.3638602  0.5357065  231.672    0.3682185  0.4354237  0.3010132 
