~Version
 VERS              .         2.0                           : CWLS LOG ASCII STANDARD - VERSION 2.0
 WRAP              .         NO                            : ONE LINE PER DEPTH STEP
 DLM               .         SPACE                         : DELIMITING CHARACTER(SPACE TAB OR COMMA)
~Well Information
#_______________________________________________________________________________
#
#PARAMETER_NAME    .UNIT     VALUE                         : DESCRIPTION
#_______________________________________________________________________________
STRT               .M        900                           : First reference value
STOP               .M        1217.2                        : Last reference value
STEP               .M        0.2                           : Step increment
NULL               .         -9999                         : Missing value
COMP               .                                       : Company
WELL               .         8435                          : Well name
FLD                .         Узень                         : Field
LOC                .                                       : Location
CNTY               .                                       : County
STAT               .                                       : State
CTRY               .                                       : Country
SRVC               .                                       : Service Company
DATE               .                                       : Date
UWI                .                                       : Unique Well ID
Block              .         6а                            : 
Category           .         Нефтяная                      : 
Condition          .         В работе                      : 
Date               .         22.09.1997                    : 
EREF               .m        85.9                          : 100.8
GRP                .                                       : Group name
Gorizont           .         13                            : 14
ISS                .         БКЗ, магнитная лента          : Well surveys
Interpretator      .         Бекбулатова А.А.              : 
Kupol              .         Основной                      : osnovnoi
Mud                .         0                             : 
Mud_density        .         0                             : 
Mud_resistivity    .         0                             : 
NGDU               .         НГДУ-2                        : 
ORIGINALWELLNAME   .         8435                          : 
Spud_date          .         1997                          : 1961
TIME               .         14_38                         : LOG TIME
Viscosity          .         0                             : 
X                  .m        45090.2                       : 46154
Y                  .m        85538.63                      : 85761.93
YEAR               .         2019                          : 
~Parameter Information Block
#_______________________________________________________________________________
#
#PARAMETER_NAME    .UNIT     VALUE                         : DESCRIPTION
#_______________________________________________________________________________
SET                .         LQC_KAZNIPI_Petrel            : 
TLFamily_CALI      .         Caliper                       : 
TLFamily_CILD      .         Conductivity                  : 
TLFamily_COLL      .         Net Reservoir Flag            : 
TLFamily_CSAT      .         Fluid Code                    : 
TLFamily_DEPT      .         Measured Depth                : 
TLFamily_GR        .         Russian Gamma Ray             : 
TLFamily_GZ1       .         Gradient 045                  : 
TLFamily_GZ2       .         Gradient 105                  : 
TLFamily_GZ3       .         Gradient 225                  : 
TLFamily_GZ4       .         Gradient 425                  : 
TLFamily_GZ5       .         Gradient 850                  : 
TLFamily_LLS       .         Lateral Log Resistivity       : 
TLFamily_MINV      .         Micro Gradient Resistivity    : 
TLFamily_MNOR      .         Micro Resistivity             : 
TLFamily_NGLD      .         Neutron Gamma                 : 
TLFamily_OGZ       .         Gradient Inverted 225         : 
TLFamily_PHIE      .         Effective Porosity            : 
TLFamily_PHIEN     .         Effective Porosity            : 
TLFamily_PHIT      .         Porosity                      : 
TLFamily_PRMB      .         Permeability                  : 
TLFamily_PRMB_DGR  .         Permeability                  : 
TLFamily_RT        .         Formation Resistivity         : 
TLFamily_SOIL_ARCHIE .         Oil Saturation                : 
TLFamily_SOIL_DW   .         Oil Saturation                : 
TLFamily_SP        .         Spontaneous Potential         : 
TLFamily_VSH_FIN   .         Shale Volume                  : 
TLFamily_VSH_GR    .         Shale Volume                  : 
TLFamily_VSH_SP    .         Shale Volume                  : 
~Curve Information
#_______________________________________________________________________________
#
#LOGNAME           .UNIT     LOG_ID                        : DESCRIPTION
#_______________________________________________________________________________
DEPT               .M                                      : Колонка глубины 
CALI               .м                                      : Каверномер 
CILD               .мСм/м                                  : Индукционный каротаж 
COLL               .unitless                               : Описание 
CSAT               .unitless                               : Описание 
GR                 .uR/h                                   : Гамма каротаж 
GZ1                .Ом·м                                   :  
GZ2                .Ом·м                                   :  
GZ3                .Ом·м                                   : 519.13 - 1435.53<_techsia_sc_> 575.93 - 1187.33 
GZ4                .Ом·м                                   :  
GZ5                .Ом·м                                   :  
LLS                .Ohmm                                   : Боковой каротаж 
MINV               .Ohmm                                   : Микро-градиент зонд 
MNOR               .Ohmm                                   : Микро-потенциал зонд 
NGLD               .у.е.                                   : Показания зонда НГК-60 аппаратуры ДРСТ-3-90 
OGZ                .Ом·м                                   : 514.65 - 1431.05<_techsia_sc_> 571.45 - 1182.85 
PHIE               .v/v                                    : Описание 
PHIEN              .v/v                                    :  
PHIT               .v/v                                    : Описание 
PRMB               .mD                                     :  
PRMB_DGR           .mD                                     :  
RT                 .ohmm                                   : УЭС пласта 
SOIL_ARCHIE        .v/v                                    :  
SOIL_DW            .v/v                                    :  
SP                 .мВ                                     : Потенциал самополяризации 
VSH_FIN            .v/v                                    : Описание 
VSH_GR             .v/v                                    : Shale volume 
VSH_SP             .v/v                                    : Shale Volume 
~Ascii
# ...
1009.2     0.267      379        -9999      -9999      4.863      1.333      2.476      -9999      1.696      1.887      2.301      1.031      2.426      0.744      2.0166     0.1280555  0.1280555  0.3482336  0.6592589  0.8391322  2.067      0.04731262 0.4512249  312.882    0.6672065  0.6969742  0.6374388 
1009.4     0.27       385        -9999      -9999      5.063      1.372      2.527      -9999      1.772      1.925      2.286      1.793      2.69       0.736      1.9383     0.1193326  0.1193326  0.3506784  0.4544522  0.6625475  2.035      0          0.4356378  312.538    0.7010477  0.7675686  0.6345267 
1009.6     0.261      392        -9999      -9999      4.896      1.372      2.642      -9999      1.772      1.95       2.339      1.963      2.652      0.734      2.0166     0.1313161  0.1313161  0.3512896  0.7576188  0.8070475  1.999      0.0532026  0.4500422  311.405    0.6665863  0.7081582  0.6250144 
1009.8     0.27       395        -9999      -9999      4.664      1.321      2.629      -9999      1.76       1.531      2.271      1.873      2.597      0.732      2.0558     0.1469944  0.1469944  0.3519008  1.4786     1.061526   1.984      0.1387477  0.4706459  309.425    0.6209285  0.6331779  0.6086792 
1010       0.274      402        -9999      -9999      4.581      1.308      2.603      -9999      1.721      1.137      2.081      1.5        1.882      0.748      2.0166     0.149775   0.149775   0.3470112  1.664772   1.170888   1.949      0.145584   0.464894   306.732    0.5976854  0.6083269  0.5870439 
1010.2     0.273      409.0001   -9999      -9999      4.498      1.321      2.591      -9999      1.76       0.909      2.255      1.978      2.737      0.748      1.9383     0.157714   0.157714   0.3470112  2.33563    1.291516   1.916      0.1765953  0.4706093  303.612    0.5736278  0.5844514  0.5628042 
1010.4     0.283      412        -9999      -9999      4.498      1.359      2.54       -9999      1.81       1.29       2.035      1.131      2.574      0.779      1.9775     0.152186   0.152186   0.3375376  1.845065   1.291516   1.902      0.1476776  0.4521093  300.418    0.5616716  0.5844514  0.5388919 
1010.6     0.279      421        -9999      -9999      4.565      1.333      2.476      -9999      1.798      1.95       1.868      1.061      1.687      0.779      2.0166     0.1525123  0.1525123  0.3375376  1.870926   1.193231   1.861      0.140522   0.4465516  297.484    0.5606826  0.6036497  0.5177154 
1010.8     0.279      432        -9999      -9999      4.664      1.219      2.438      -9999      1.772      1.696      2.081      0.976      2.053      0.734      2.0166     0.1641968  0.1641968  0.3512896  3.079503   1.061526   1.814      0.1843095  0.468204   295.051    0.5669479  0.6331779  0.500718  
1011       0.291      440.9999   -9999      -9999      4.548      1.168      2.438      -9999      1.747      1.315      1.8        1.121      1.773      0.693      2.0754     0.1844501  0.1844501  0.3638192  7.305036   1.217438   1.777      0.2557315  0.4970563  293.236    0.5435426  0.5987195  0.4883656 
1011.2     0.296      446        -9999      -9999      4.565      1.219      2.4        -9999      1.721      1.137      1.678      0.693      1.804      0.695      2.0558     0.1843556  0.1843556  0.363208   7.275638   1.193231   1.757      0.2514336  0.4935791  292.029    0.541977   0.6036497  0.4803042 
1011.4     0.302      448        -9999      -9999      4.515      1.206      2.248      -9999      1.709      0.998      1.511      0.712      1.664      0.687      2.0754     0.1899363  0.1899363  0.3656528  9.230788   1.265837   1.749      0.2690627  0.5003023  291.329    0.5324743  0.589264   0.4756847 
1011.6     0.305      448.9999   -9999      -9999      4.233      1.105      2.184      -9999      1.683      0.845      1.435      0.817      1.586      0.671      2.0362     0.207545   0.207545   0.3705424  19.56115   1.766293   1.745      0.3226528  0.5206665  291.003    0.4939316  0.5143162  0.4735471 
1011.8     0.29       445        -9999      -9999      4.133      1.067      2.108      -9999      1.645      0.998      1.397      0.737      2.146      0.695      2.0362     0.204273   0.204273   0.363208   17.01331   1.987785   1.761      0.3161482  0.5140002  290.942    0.4816214  0.4900947  0.473148  
1012       0.286      429        -9999      -9999      4.332      1.118      2.019      -9999      1.62       0.947      1.329      0.807      1.656      0.699      2.1341     0.1947311  0.1947311  0.3619856  11.32533   1.571336   1.826      0.2990782  0.5126833  291.101    0.5068317  0.5394745  0.4741889 
1012.2     0.276      408        -9999      -9999      4.1        0.965      1.994      -9999      1.594      1.226      1.291      0.732      1.563      0.691      2.2124     0.2061564  0.2061564  0.3644304  18.43636   2.06681    1.92       0.3485616  0.5371838  291.511    0.4796182  0.4823546  0.4768818 
1012.4     0.26       396        -9999      -9999      4.033      0.902      1.981      -9999      1.34       1.404      1.633      0.548      1.477      0.746      2.2712     0.1910718  0.1910718  0.3476224  9.688815   2.237051   1.979      0.3138061  0.5166491  292.251    0.4743959  0.4670138  0.4817779 
1012.6     0.243      394        -9999      -9999      4.05       0.991      1.981      0.0001000  1.048      1.531      2.468      1.305      2.457      0.757      2.2712     0.1858086  0.1858086  0.3442608  7.740759   2.192572   1.989      0.298569   0.5096711  293.398    0.4801582  0.4708595  0.489457  
1012.8     0.259      395        -9999      -9999      4.515      1.168      2.095      0.0015     0.896      1.709      2.552      1.808      2.83       0.746      2.5257     0.1678616  0.1678616  0.3476224  3.600501   1.265837   1.984      0.232781   0.4924496  294.975    0.5447296  0.589264   0.5001953 
1013       0.261      394        -9999      -9999      4.731      1.333      2.121      0.003099999 1.01       1.836      2.559      1.943      2.955      0.73       2.7215     0.1598403  0.1598403  0.352512   2.557343   0.9807433  1.989      0.2002997  0.488074   296.92     0.5838535  0.6539769  0.5137301 
1013.2     0.278      386        -9999      -9999      4.598      1.422      2.222      -9999      1.379      1.607      2.233      2.476      2.589      0.74       2.7606     0.1609555  0.1609555  0.349456   2.681908   1.147607   2.03       0.2127018  0.4918409  299.073    0.5712137  0.6133362  0.5290912 
1013.4     0.287      374        -9999      -9999      4.863      1.46       2.172      -9999      1.518      1.455      1.883      1.275      2.107      0.765      2.6628     0.1369324  0.1369324  0.341816   0.9626721  0.8391322  2.095      0.1069897  0.4614898  301.211    0.6208594  0.6969742  0.5447446 
1013.6     0.279      362        -9999      -9999      4.814      1.283      2.248      -9999      1.531      1.569      2.134      1.445      1.975      0.748      2.4865     0.1424717  0.1424717  0.3470112  1.219214   0.8891411  2.164      0.1503257  0.4827336  303.104    0.6198166  0.6806928  0.5589404 
1013.8     0.275      354        -9999      -9999      4.465      1.245      2.451      -9999      1.531      1.645      1.944      0.608      1.555      0.792      2.5257     0.1445653  0.1445653  0.3335648  1.333083   1.342861   2.213      0.1698213  0.478379   304.58     0.5727259  0.5752211  0.5702307 
1014       0.259      352        -9999      -9999      4.598      1.245      2.578      -9999      1.518      1.772      2.582      1.236      2.022      0.812      2.4865     0.1308709  0.1308709  0.3274528  0.7433686  1.147607   2.226      0.09713825 0.454195   305.59     0.5957028  0.6133362  0.5780694 
1014.2     0.269      352        -9999      -9999      4.581      1.308      2.603      -9999      1.467      1.683      2.597      2.003      2.877      0.81       2.6432     0.1314902  0.1314902  0.328064   0.7632669  1.170888   2.226      0.1008434  0.4557771  306.223    0.595678   0.6083269  0.5830292 
