~Version
 VERS              .         2.0                           : CWLS LOG ASCII STANDARD - VERSION 2.0
 WRAP              .         NO                            : ONE LINE PER DEPTH STEP
 DLM               .         SPACE                         : DELIMITING CHARACTER(SPACE TAB OR COMMA)
~Well Information
#_______________________________________________________________________________
#
#PARAMETER_NAME    .UNIT     VALUE                         : DESCRIPTION
#_______________________________________________________________________________
STRT               .M        900                           : First reference value
STOP               .M        1217.2                        : Last reference value
STEP               .M        0.2                           : Step increment
NULL               .         -9999                         : Missing value
COMP               .                                       : Company
WELL               .         8435                          : Well name
FLD                .         Узень                         : Field
LOC                .                                       : Location
CNTY               .                                       : County
STAT               .                                       : State
CTRY               .                                       : Country
SRVC               .                                       : Service Company
DATE               .                                       : Date
UWI                .                                       : Unique Well ID
Block              .         6а                            : 
Category           .         Нефтяная                      : 
Condition          .         В работе                      : 
Date               .         22.09.1997                    : 
EREF               .m        85.9                          : 100.8
GRP                .                                       : Group name
Gorizont           .         13                            : 14
ISS                .         БКЗ, магнитная лента          : Well surveys
Interpretator      .         Бекбулатова А.А.              : 
Kupol              .         Основной                      : osnovnoi
Mud                .         0                             : 
Mud_density        .         0                             : 
Mud_resistivity    .         0                             : 
NGDU               .         НГДУ-2                        : 
ORIGINALWELLNAME   .         8435                          : 
Spud_date          .         1997                          : 1961
TIME               .         14_38                         : LOG TIME
Viscosity          .         0                             : 
X                  .m        45090.2                       : 46154
Y                  .m        85538.63                      : 85761.93
YEAR               .         2019                          : 
~Parameter Information Block
#_______________________________________________________________________________
#
#PARAMETER_NAME    .UNIT     VALUE                         : DESCRIPTION
#_______________________________________________________________________________
SET                .         LQC_KAZNIPI_Petrel            : 
TLFamily_CALI      .         Caliper                       : 
TLFamily_CILD      .         Conductivity                  : 
TLFamily_COLL      .         Net Reservoir Flag            : 
TLFamily_CSAT      .         Fluid Code                    : 
TLFamily_DEPT      .         Measured Depth                : 
TLFamily_GR        .         Russian Gamma Ray             : 
TLFamily_GZ1       .         Gradient 045                  : 
TLFamily_GZ2       .         Gradient 105                  : 
TLFamily_GZ3       .         Gradient 225                  : 
TLFamily_GZ4       .         Gradient 425                  : 
TLFamily_GZ5       .         Gradient 850                  : 
TLFamily_LLS       .         Lateral Log Resistivity       : 
TLFamily_MINV      .         Micro Gradient Resistivity    : 
TLFamily_MNOR      .         Micro Resistivity             : 
TLFamily_NGLD      .         Neutron Gamma                 : 
TLFamily_OGZ       .         Gradient Inverted 225         : 
TLFamily_PHIE      .         Effective Porosity            : 
TLFamily_PHIEN     .         Effective Porosity            : 
TLFamily_PHIT      .         Porosity                      : 
TLFamily_PRMB      .         Permeability                  : 
TLFamily_PRMB_DGR  .         Permeability                  : 
TLFamily_RT        .         Formation Resistivity         : 
TLFamily_SOIL_ARCHIE .         Oil Saturation                : 
TLFamily_SOIL_DW   .         Oil Saturation                : 
TLFamily_SP        .         Spontaneous Potential         : 
TLFamily_VSH_FIN   .         Shale Volume                  : 
TLFamily_VSH_GR    .         Shale Volume                  : 
TLFamily_VSH_SP    .         Shale Volume                  : 
~Curve Information
#_______________________________________________________________________________
#
#LOGNAME           .UNIT     LOG_ID                        : DESCRIPTION
#_______________________________________________________________________________
DEPT               .M                                      : Колонка глубины 
CALI               .м                                      : Каверномер 
CILD               .мСм/м                                  : Индукционный каротаж 
COLL               .unitless                               : Описание 
CSAT               .unitless                               : Описание 
GR                 .uR/h                                   : Гамма каротаж 
GZ1                .Ом·м                                   :  
GZ2                .Ом·м                                   :  
GZ3                .Ом·м                                   : 519.13 - 1435.53<_techsia_sc_> 575.93 - 1187.33 
GZ4                .Ом·м                                   :  
GZ5                .Ом·м                                   :  
LLS                .Ohmm                                   : Боковой каротаж 
MINV               .Ohmm                                   : Микро-градиент зонд 
MNOR               .Ohmm                                   : Микро-потенциал зонд 
NGLD               .у.е.                                   : Показания зонда НГК-60 аппаратуры ДРСТ-3-90 
OGZ                .Ом·м                                   : 514.65 - 1431.05<_techsia_sc_> 571.45 - 1182.85 
PHIE               .v/v                                    : Описание 
PHIEN              .v/v                                    :  
PHIT               .v/v                                    : Описание 
PRMB               .mD                                     :  
PRMB_DGR           .mD                                     :  
RT                 .ohmm                                   : УЭС пласта 
SOIL_ARCHIE        .v/v                                    :  
SOIL_DW            .v/v                                    :  
SP                 .мВ                                     : Потенциал самополяризации 
VSH_FIN            .v/v                                    : Описание 
VSH_GR             .v/v                                    : Shale volume 
VSH_SP             .v/v                                    : Shale Volume 
~Ascii
# ...
1030       0.228      337        -9999      -9999      3.668      2.324      3.912      3.9094     2.737      2.242      4.45       2.541      3.491      0.898      2.8781     0.1749142  0.1749142  0.3011712  4.863988   3.443068   2.325      0.3128858  0.4963576  273.959    0.3825971  0.3916169  0.3735774 
1030.2     0.231      394        -9999      -9999      4.199      2.845      4.674      3.7234     3.03       2.331      5.217      2.845      4.106      0.816      3.0739     0.1843592  0.1843592  0.3262304  7.276766   1.838683   1.989      0.2937688  0.4918331  270.075    0.4299126  0.5059494  0.3538758 
1030.4     0.256      415        -9999      -9999      4.764      2.718      5.244999   2.901      3.207      2.153      2.688      1.529      2.55       0.714      3.3089     0.1914228  0.1914228  0.3574016  9.834978   0.943244   1.888      0.2996002  0.5137717  267.511    0.502966   0.6644709  0.341461  
1030.6     0.287      415        -9999      -9999      4.98       1.791      3.137      2.2687     2.242      1.912      1.002      0.618      1.687      0.691      2.9564     0.1873938  0.1873938  0.3644304  8.282208   0.7308052  1.888      0.2865028  0.5155389  266.246    0.5364745  0.7374431  0.3355059 
1030.8     0.286      415        -9999      -9999      4.963      1.41       2.921      2.1493     1.899      1.62       0.942      0.568      1.384      0.668      2.3299     0.1955708  0.1955708  0.3714592  11.73828   0.7456306  1.888      0.3125563  0.5290378  266.045    0.532995   0.7314202  0.33457   
1031       0.278      425        -9999      -9999      4.498      1.079      2.73       2.1272     1.785      1.48       1.116      0.877      1.812      0.691      2.0362     0.2123968  0.2123968  0.3644304  24.05814   1.291516   1.844      0.3531187  0.5332895  266.558    0.4607079  0.5844514  0.3369644 
1031.2     0.268      435        -9999      -9999      4.598      0.991      2.515      1.9724     1.734      1.429      1.564      0.638      1.275      0.73       2.4082     0.1950339  0.1950339  0.352512   11.47254   1.147607   1.801      0.2954831  0.5016392  267.43     0.4772063  0.6133362  0.3410764 
1031.4     0.274      422.0001   -9999      -9999      4.498      0.978      2.21       1.9591     1.696      1.404      1.716      1.774      2.582      0.773      2.8585     0.1859155  0.1859155  0.3393712  7.776152   1.291516   1.857      0.2759609  0.4882233  268.373    0.4650172  0.5844514  0.345583  
1031.6     0.273      386        -9999      -9999      4.083      0.965      1.981      1.8706     1.671      1.391      1.504      0.902      1.695      0.785      3.1914     0.1991078  0.1991078  0.335704   13.64951   2.108737   2.03       0.3458482  0.5204731  269.17     0.413928   0.4784151  0.3494408 
1031.8     0.267      350        -9999      -9999      3.801      1.029      1.791      2.0697     1.658      1.366      1.671      1.046      2.053      0.804      3.4655     0.2029723  0.2029723  0.3298976  16.09527   2.942439   2.239      0.3856211  0.5421364  269.628    0.384622   0.4175661  0.3516779 
1032       0.228      336        -9999      -9999      3.635      1.079      1.943      2.3305     1.747      1.417      2.681      0.827      1.952      0.88       3.6613     0.1851345  0.1851345  0.306672   7.521396   3.579947   2.332      0.346965   0.5136936  269.522    0.3682954  0.385432   0.3511588 
1032.2     0.228      332.0001   -9999      -9999      3.519      1.372      2.375      2.419      1.848      1.48       3.736      1.639      3.017      0.904      4.464      0.1820229  0.1820229  0.2993376  6.586629   4.10575    2.36       0.3409543  0.5061798  268.572    0.3554992  0.3644564  0.3465421 
1032.4     0.243      303        -9999      -9999      3.237      1.537      2.388      2.2244     1.899      1.569      3.311      1.953      3.53       0.925      4.9927     0.1848828  0.1848828  0.29292    7.441078   5.728979   2.586      0.3771533  0.5250888  266.495    0.3273855  0.3181016  0.3366693 
1032.6     0.263      262        -9999      -9999      2.606      1.397      2.172      2.0298     1.848      1.645      2.255      2.571      2.519      0.962      4.9143     0.189905   0.189905   0.2816128  9.218471   12.07321   2.991      0.4316817  0.5528641  263.102    0.2779025  0.2346226  0.3211824 
1032.8     0.226      235        -9999      -9999      2.075      1.27       2.172      2.1537     1.798      1.721      2.87       0.578      1.991      1.05       4.2487     0.1750848  0.1750848  0.25472    4.899527   22.60794   3.334      0.420304   0.5354262  258.408    0.2413187  0.1816035  0.3010339 
1033       0.225      224        -9999      -9999      2.075      1.473      2.972      2.3748     1.874      1.772      5.247      3.298      4.331      1.169      4.327      0.1424407  0.1424407  0.2183536  1.217602   22.60794   3.498      0.3216339  0.4594911  252.705    0.2300391  0.1816035  0.2784747 
1033.2     0.225      213        -9999      -9999      2.075      1.778      3.518      2.4633     2.052      1.899      5.338      4.503      4.401      1.216      4.9535     0.131724   0.131724   0.2039904  0.7709133  22.60794   3.679      0.2908009  0.4335103  246.548    0.2189892  0.1816035  0.256375  
1033.4     0.225      200        -9999      -9999      2.025      2.146      3.899      2.7286     2.407      1.975      4.663      5.574      3.896      1.163      4.9535     0.1517799  0.1517799  0.2201872  1.813382   23.9836    3.918      0.3913964  0.5048134  240.659    0.207295   0.1772756  0.2373144 
1033.6     0.225      192        -9999      -9999      2.158      2.464      4.152999   3.0071     2.522      2.064      5.399      3.866      4.269      1.177      4.2291     0.1479278  0.1479278  0.2159088  1.538652   20.49636   4.081      0.3894081  0.5039522  235.781    0.2060029  0.1890222  0.2229836 
1033.8     0.225      186        -9999      -9999      2.274      2.68       4.496      3.3876     2.585      2.166      5.384      5.679      4.557      1.155      3.9941     0.1543256  0.1543256  0.222632   2.021357   17.8715    4.213      0.4202398  0.528792   232.509    0.206989   0.1999011  0.214077  
1034       0.225      194        -9999      -9999      2.473      2.807      5.004      3.9578     2.712      2.255      4.708      4.015      4.168      1.126      3.8179     0.1604442  0.1604442  0.2314944  2.624064   14.12734   4.039      0.4283408  0.5371438  231.16     0.2153035  0.2200423  0.2105647 
1034.2     0.224      219        -9999      -9999      3.038      2.972      6.083      4.4445     2.979      2.28       5.946      4.538      4.471      1.091      3.8179     0.1595337  0.1595337  0.2421904  2.52412    7.247323   3.578      0.3918808  0.5200687  231.702    0.2504748  0.2889847  0.2119648 
1034.4     0.226      247        -9999      -9999      3.436      3.251      6.629      4.5063     3.207      2.28       4.625      3.338      4.074      1.015      3.955      0.1717595  0.1717595  0.265416   4.251687   4.528735   3.172      0.396601   0.5315187  233.777    0.2838075  0.3501522  0.2174628 
1034.6     0.23       259        -9999      -9999      4          3.2        6.655      3.9846     3.144      2.204      3.767      2.77       4.106      0.898      3.6221     0.1880673  0.1880673  0.3011712  8.523544   2.325986   3.025      0.4298801  0.5710821  236.789    0.3427392  0.4596383  0.2258401 
1034.8     0.248      262        -9999      -9999      3.901      2.654      6.527999   3.8519     2.826      2.09       2.233      1.714      1.858      0.831      3.1131     0.2104909  0.2104909  0.3216464  22.17991   2.614573   2.991      0.4804077  0.6036992  240.054    0.3368349  0.4382031  0.2354668 
1035       0.229      289        -9999      -9999      3.901      2.007      6.363      4.391201   2.522      1.975      3.159      0.414      1.695      0.812      2.3691     0.2147996  0.2147996  0.3274528  26.65436   2.614573   2.711      0.4653993  0.5915118  242.965    0.3413733  0.4382031  0.2445434 
