~Version
 VERS              .         2.0                           : CWLS LOG ASCII STANDARD - VERSION 2.0
 WRAP              .         NO                            : ONE LINE PER DEPTH STEP
 DLM               .         SPACE                         : DELIMITING CHARACTER(SPACE TAB OR COMMA)
~Well Information
#_______________________________________________________________________________
#
#PARAMETER_NAME    .UNIT     VALUE                         : DESCRIPTION
#_______________________________________________________________________________
STRT               .M        900                           : First reference value
STOP               .M        1217.2                        : Last reference value
STEP               .M        0.2                           : Step increment
NULL               .         -9999                         : Missing value
COMP               .                                       : Company
WELL               .         8435                          : Well name
FLD                .         Узень                         : Field
LOC                .                                       : Location
CNTY               .                                       : County
STAT               .                                       : State
CTRY               .                                       : Country
SRVC               .                                       : Service Company
DATE               .                                       : Date
UWI                .                                       : Unique Well ID
Block              .         6а                            : 
Category           .         Нефтяная                      : 
Condition          .         В работе                      : 
Date               .         22.09.1997                    : 
EREF               .m        85.9                          : 100.8
GRP                .                                       : Group name
Gorizont           .         13                            : 14
ISS                .         БКЗ, магнитная лента          : Well surveys
Interpretator      .         Бекбулатова А.А.              : 
Kupol              .         Основной                      : osnovnoi
Mud                .         0                             : 
Mud_density        .         0                             : 
Mud_resistivity    .         0                             : 
NGDU               .         НГДУ-2                        : 
ORIGINALWELLNAME   .         8435                          : 
Spud_date          .         1997                          : 1961
TIME               .         14_38                         : LOG TIME
Viscosity          .         0                             : 
X                  .m        45090.2                       : 46154
Y                  .m        85538.63                      : 85761.93
YEAR               .         2019                          : 
~Parameter Information Block
#_______________________________________________________________________________
#
#PARAMETER_NAME    .UNIT     VALUE                         : DESCRIPTION
#_______________________________________________________________________________
SET                .         LQC_KAZNIPI_Petrel            : 
TLFamily_CALI      .         Caliper                       : 
TLFamily_CILD      .         Conductivity                  : 
TLFamily_COLL      .         Net Reservoir Flag            : 
TLFamily_CSAT      .         Fluid Code                    : 
TLFamily_DEPT      .         Measured Depth                : 
TLFamily_GR        .         Russian Gamma Ray             : 
TLFamily_GZ1       .         Gradient 045                  : 
TLFamily_GZ2       .         Gradient 105                  : 
TLFamily_GZ3       .         Gradient 225                  : 
TLFamily_GZ4       .         Gradient 425                  : 
TLFamily_GZ5       .         Gradient 850                  : 
TLFamily_LLS       .         Lateral Log Resistivity       : 
TLFamily_MINV      .         Micro Gradient Resistivity    : 
TLFamily_MNOR      .         Micro Resistivity             : 
TLFamily_NGLD      .         Neutron Gamma                 : 
TLFamily_OGZ       .         Gradient Inverted 225         : 
TLFamily_PHIE      .         Effective Porosity            : 
TLFamily_PHIEN     .         Effective Porosity            : 
TLFamily_PHIT      .         Porosity                      : 
TLFamily_PRMB      .         Permeability                  : 
TLFamily_PRMB_DGR  .         Permeability                  : 
TLFamily_RT        .         Formation Resistivity         : 
TLFamily_SOIL_ARCHIE .         Oil Saturation                : 
TLFamily_SOIL_DW   .         Oil Saturation                : 
TLFamily_SP        .         Spontaneous Potential         : 
TLFamily_VSH_FIN   .         Shale Volume                  : 
TLFamily_VSH_GR    .         Shale Volume                  : 
TLFamily_VSH_SP    .         Shale Volume                  : 
~Curve Information
#_______________________________________________________________________________
#
#LOGNAME           .UNIT     LOG_ID                        : DESCRIPTION
#_______________________________________________________________________________
DEPT               .M                                      : Колонка глубины 
CALI               .м                                      : Каверномер 
CILD               .мСм/м                                  : Индукционный каротаж 
COLL               .unitless                               : Описание 
CSAT               .unitless                               : Описание 
GR                 .uR/h                                   : Гамма каротаж 
GZ1                .Ом·м                                   :  
GZ2                .Ом·м                                   :  
GZ3                .Ом·м                                   : 519.13 - 1435.53<_techsia_sc_> 575.93 - 1187.33 
GZ4                .Ом·м                                   :  
GZ5                .Ом·м                                   :  
LLS                .Ohmm                                   : Боковой каротаж 
MINV               .Ohmm                                   : Микро-градиент зонд 
MNOR               .Ohmm                                   : Микро-потенциал зонд 
NGLD               .у.е.                                   : Показания зонда НГК-60 аппаратуры ДРСТ-3-90 
OGZ                .Ом·м                                   : 514.65 - 1431.05<_techsia_sc_> 571.45 - 1182.85 
PHIE               .v/v                                    : Описание 
PHIEN              .v/v                                    :  
PHIT               .v/v                                    : Описание 
PRMB               .mD                                     :  
PRMB_DGR           .mD                                     :  
RT                 .ohmm                                   : УЭС пласта 
SOIL_ARCHIE        .v/v                                    :  
SOIL_DW            .v/v                                    :  
SP                 .мВ                                     : Потенциал самополяризации 
VSH_FIN            .v/v                                    : Описание 
VSH_GR             .v/v                                    : Shale volume 
VSH_SP             .v/v                                    : Shale Volume 
~Ascii
# ...
1118.4     0.24       274        -9999      -9999      6.158      1.956      4.369      -9999      1.086      0.883      4.298      2.86       3.452      0.952      2.8585     0.1179526  0.1179526  0.2846688  0.4284753  13.9689    2.86       0.1212664  0.4533561  317.795    0.5052007  0.221058   0.7893434 
1118.6     0.241      300        -9999      -9999      6.158      2.248      4.978      -9999      0.896      0.794      4.541      3.223      3.561      0.898      2.976      0.1337468  0.1337468  0.3011712  0.8403743  13.9689    2.612      0.1781173  0.4730317  318.219    0.5073467  0.221058   0.7936355 
1118.8     0.244      324.9999   -9999      -9999      6.457      2.578      5.397      -9999      0.985      0.794      4.427      3.985      4.012      0.878      2.9956     0.1310087  0.1310087  0.3072832  0.7477515  7.353385   2.411      0.1311341  0.4542088  316.971    0.5341651  0.2872755  0.7810547 
1119       0.259      340        -9999      -9999      6.556      2.565      5.055      -9999      1.048      0.832      2.62       1.375      2.589      0.855      3.0543     0.1386735  0.1386735  0.314312   1.036877   5.945882   2.304      0.1553096  0.461059   313.94     0.5322379  0.3133111  0.7511649 
1119.2     0.256      356        -9999      -9999      6.772      2.057      4.064      -9999      1.048      0.667      2.46       1.828      2.729      0.865      2.7606     0.1319775  0.1319775  0.311256   0.7792958  3.740241   2.201      0.09897268 0.4349136  309.379    0.543268   0.3785996  0.7079365 
1119.4     0.26       375        -9999      -9999      6.988      1.778      3.569      -9999      1.023      0.553      2.438      2.107      2.613      0.871      2.2516     0.125303   0.125303   0.3094224  0.5862386  2.352786   2.089      0.03392355 0.4065996  303.861    0.5579374  0.4574933  0.6583816 
1119.6     0.261      393        -9999      -9999      7.021      1.524      3.353      -9999      1.023      0.439      2.21       2.057      2.644      0.886      1.9971     0.1264424  0.1264424  0.3048384  0.6154284  2.191924   1.994      0.02034508 0.3888778  298.163    0.540594   0.4709163  0.6102718 
1119.8     0.258      404        -9999      -9999      7.054      1.346      3.137      -9999      1.023      0.464      2.103      1.325      2.356      0.865      2.0754     0.1372366  0.1372366  0.311256   0.9752415  2.042061   1.939      0.07575446 0.4066086  293.084    0.5273316  0.4847332  0.56993   
1120       0.256      410        -9999      -9999      6.689      1.206      2.857      -9999      1.023      0.35       2.005      1.136      2.558      0.902      2.1145     0.154054   0.154054   0.2999488  1.998072   4.469483   1.911      0.1585519  0.4146762  288.041    0.4421056  0.3520403  0.5321709 
1120.2     0.245      421        -9999      -9999      6.689      1.181      2.565      -9999      1.023      0.274      2.058      1.29       1.835      0.921      2.2124     0.1510728  0.1510728  0.2941424  1.759512   4.469483   2.058      0.1733614  0.4248352  285.65     0.4335443  0.3520403  0.5150483 
1120.4     0.228      437.9999   -9999      -9999      7.005      1.245      2.426      -9999      1.036      0.312      2.278      1.365      2.379      0.894      2.3299     0.1416619  0.1416619  0.3023936  1.177822   2.268495   2.278      0.1664229  0.4491817  284.899    0.4870659  0.4643598  0.5097719 
1120.6     0.228      435        -9999      -9999      6.922      1.283      2.426      -9999      1.023      0.401      2.157      1.843      2.667      0.837      2.5649     0.1659931  0.1659931  0.3198128  3.324701   2.71079    2.157      0.2550704  0.4853832  283.556    0.4661203  0.4317841  0.5004566 
1120.8     0.227      409.0001   -9999      -9999      7.021      1.168      2.134      0.0006     1.036      0.439      1.412      1.086      1.944      0.792      2.839      0.1765948  0.1765948  0.3335648  5.225437   2.191924   1.412      0.1389096  0.3948475  280.589    0.4756666  0.4709163  0.4804169 
1121       0.226      372        -9999      -9999      7.254      0.965      1.727      -9999      1.036      0.401      1.526      1.076      1.687      0.8        2.7606     0.1621503  0.1621503  0.33112    2.822114   1.329424   1.526      0.1056593  0.3956757  275.295    0.5120295  0.577588   0.4464709 
1121.2     0.23       340        -9999      -9999      7.088      0.876      1.829      -9999      1.112      0.363      2.119      1.176      2.216      0.826      2.7998     0.1746577  0.1746577  0.3231744  4.811079   1.898366   2.119      0.281393   0.4942148  267.526    0.4500506  0.4993928  0.4007084 
1121.4     0.228      313        -9999      -9999      6.988      0.825      1.689      -9999      1.302      0.337      2.916      1.395      2.597      0.847      3.3284     0.1374968  0.1374968  0.3167568  0.986124   3.333198   2.916      0.2380738  0.5217524  257.732    0.5432122  0.3968373  0.6895871 
1121.6     0.211      292        1          2          6.523      1.016      1.943      -9999      1.861      0.363      3.63       0.747      2.333      0.859      4.1312     0.2246935  0.2246935  0.3130896  40.6468    8.727454   3.63       0.5517663  0.6441531  246.797    0.267867   0.2678665  0.5963136 
1121.8     0.211      272        1          2          6.722      1.333      2.299      -9999      2.191      0.439      4.336      1.599      3.281      0.933      4.9535     0.1858873  0.1858873  0.2904752  7.766792   5.780829   4.336      0.5135922  0.6322108  235.75     0.316933   0.3169335  0.5132303 
1122       0.214      252        1          2          6.689      1.651      2.515      -9999      2.649      0.35       4.146      1.963      3.546      0.917      5.638801   0.1936539  0.1936539  0.2953648  10.81676   6.189511   4.146      0.5206531  0.6337244  225.451    0.308215   0.3082155  0.4452207 
1122.2     0.212      236        1          2          6.988      1.829      2.692      -9999      3.017      0.909      4.298      1.355      2.908      0.937      5.971601   0.1582966  0.1582966  0.2892528  2.394391   3.333198   4.298      0.438218   0.6051557  216.362    0.396837   0.3968373  0.3922895 
1122.4     0.209      224        1          2          6.922      1.981      3.188      -9999      3.182      1.112      4.48       1.654      3.421      0.937      6.0108     0.1693426  0.1693426  0.2892528  3.835245   3.821149   4.48       0.4804809  0.6234275  208.477    0.3633644  0.3753055  0.3514232 
1122.6     0.209      216        1          2          6.789      2.146      3.772      -9999      3.296      0.604      4.207      1.495      3.258      0.954      6.1674     0.17616    0.17616    0.2840576  5.129416   5.032204   4.207      0.4830055  0.613308   201.403    0.3269625  0.3353998  0.3185253 
1122.8     0.21       211        1          2          6.822      2.261      4.14       -9999      3.334      0.464      4.26       1.674      3.499      0.96       6.4415     0.177491   0.177491   0.282224   5.429029   4.699937   4.26       0.4893925  0.6154006  194.549    0.3173727  0.3448868  0.2898587 
1123       0.21       206        1          2          6.922      2.311      4.458      -9999      3.334      0.769      4.268      1.654      3.39       0.968      6.5198     0.1744661  0.1744661  0.2797792  4.771922   3.821149   4.268      0.4821467  0.6110747  187.35     0.3191306  0.3753055  0.2629558 
1123.2     0.21       204        1          2          6.689      2.311      4.635      -9999      3.322      0.909      4.101      1.883      3.414      0.925      6.559      0.2029632  0.2029632  0.29292    16.08903   6.189511   4.101      0.5374974  0.6369413  179.45     0.2725962  0.3082155  0.2369769 
1123.4     0.21       202        1          2          6.59       2.273      4.737      -9999      3.233      1.01       4.207      1.878      3.577      0.896      6.4415     0.219953   0.219953   0.3017824  33.20636   7.597237   4.207      0.5739051  0.6592578  170.794    0.2479679  0.2834739  0.2124618 
