~Version
 VERS              .         2.0                           : CWLS LOG ASCII STANDARD - VERSION 2.0
 WRAP              .         NO                            : ONE LINE PER DEPTH STEP
 DLM               .         SPACE                         : DELIMITING CHARACTER(SPACE TAB OR COMMA)
~Well Information
#_______________________________________________________________________________
#
#PARAMETER_NAME    .UNIT     VALUE                         : DESCRIPTION
#_______________________________________________________________________________
STRT               .M        850                           : First reference value
STOP               .M        1203.8                        : Last reference value
STEP               .M        0.2                           : Step increment
NULL               .         -9999                         : Missing value
COMP               .                                       : Company
WELL               .         8446                          : Well name
FLD                .         Узень                         : Field
LOC                .                                       : Location
CNTY               .                                       : County
STAT               .                                       : State
CTRY               .                                       : Country
SRVC               .                                       : Service Company
DATE               .                                       : Date
UWI                .                                       : Unique Well ID
Block              .         6а                            : 
Category           .         Нефтяная                      : 
Condition          .         Ликвидированная               : 
Date               .         11.08.1997                    : 
EREF               .m        85.6                          : 100.8
GRP                .                                       : Group name
Gor                .         13                            : 
Gorizont           .         13                            : 14
ISS                .         БКЗ, магнитная лента          : Well surveys
Interpretator      .         Кайсанов Е.К                  : 
Kupol              .         Основной                      : osnovnoi
METD               .         CALI.BKZ                      : Method
Mud                .                                       : 
Mud_density        .                                       : 
Mud_resistivity    .                                       : 
NGDU               .         НГДУ-2                        : 
ORIGINALWELLNAME   .         8446                          : 
Spud_date          .         1997                          : 1961
TIME               .         14_38                         : LOG TIME
Viscosity          .                                       : 
X                  .m        44714.1                       : 46154
Y                  .m        85692.13                      : 85761.93
YEAR               .         2019                          : 
Сдали_за_3_кв_2019 .         3                             : 
~Parameter Information Block
#_______________________________________________________________________________
#
#PARAMETER_NAME    .UNIT     VALUE                         : DESCRIPTION
#_______________________________________________________________________________
SET                .         LQC_KAZNIPI_Petrel            : 
TLFamily_CALI      .         Caliper                       : 
TLFamily_CILD      .         Conductivity                  : 
TLFamily_DEPT      .         Measured Depth                : 
TLFamily_GR        .         Russian Gamma Ray             : 
TLFamily_GZ1       .         Gradient 045                  : 
TLFamily_GZ2       .         Gradient 105                  : 
TLFamily_GZ3       .         Gradient 225                  : 
TLFamily_GZ4       .         Gradient 425                  : 
TLFamily_GZ5       .         Gradient 850                  : 
TLFamily_LLS       .         Lateral Log Resistivity       : 
TLFamily_MINV      .         Micro Gradient Resistivity    : 
TLFamily_MNOR      .         Micro Resistivity             : 
TLFamily_NGLD      .         Neutron Far                   : 
TLFamily_OGZ3      .         Gradient Inverted 225         : 
TLFamily_PHIE      .         Effective Porosity            : 
TLFamily_PHIEN     .         Effective Porosity            : 
TLFamily_PHIT      .         Porosity                      : 
TLFamily_PRMB      .         Permeability                  : 
TLFamily_PRMB_DGR  .         Permeability                  : 
TLFamily_RT        .         Formation Resistivity         : 
TLFamily_SOIL_ARCHIE .         Oil Saturation                : 
TLFamily_SOIL_DW   .         Oil Saturation                : 
TLFamily_SP        .         Spontaneous Potential         : 
TLFamily_VSH_FIN   .         Shale Volume                  : 
TLFamily_VSH_GR    .         Shale Volume                  : 
TLFamily_VSH_SP    .         Shale Volume                  : 
~Curve Information
#_______________________________________________________________________________
#
#LOGNAME           .UNIT     LOG_ID                        : DESCRIPTION
#_______________________________________________________________________________
DEPT               .M                                      : Колонка глубины 
CALI               .м                                      : Каверномер 
CILD               .мСм/м                                  : Индукционный каротаж 
GR                 .uR/h                                   : Гамма каротаж 
GZ1                .Ohmm                                   : А0.4М0.1N 
GZ2                .Ohmm                                   : A1.0M0.1N 
GZ3                .Ohmm                                   : 119.11 - 1405.51- 185.61 - 1174.21 
GZ4                .Ohmm                                   : A4M0.5N 
GZ5                .Ohmm                                   : A8M1N 
LLS                .Ohmm                                   : Боковой каротаж 
MINV               .Ohmm                                   : Микро-градиент зонд 
MNOR               .Ohmm                                   : Микро-потенциал зонд 
NGLD               .у.е.                                   : Показания зонда НГК-60 аппаратуры ДРСТ-3-90 
OGZ3               .Ohmm                                   : 114.63 - 1401.03- 181.13 - 1169.73 
PHIE               .v/v                                    : Описание 
PHIEN              .v/v                                    :  
PHIT               .v/v                                    : Описание 
PRMB               .mD                                     :  
PRMB_DGR           .mD                                     :  
RT                 .ohmm                                   : УЭС пласта 
SOIL_ARCHIE        .v/v                                    :  
SOIL_DW            .v/v                                    :  
SP                 .мВ                                     : Потенциал самополяризации 
VSH_FIN            .v/v                                    : Описание 
VSH_GR             .v/v                                    : Shale volume 
VSH_SP             .v/v                                    : Shale Volume 
~Ascii
# ...
1006.8     0.265      395.8      5.756      1.981      2.921      2.8974     1.709      2.115      2.611      0.552      0.992      0.856      2.0295     0.1929775  0.1929775  0.4244616  10.5092    0.716364   2.527      0.3934367  0.6231892  249.3657   0.7014669  0.7434775  0.6594563 
1007       0.266      400        5.718      2.019      2.794      2.8443     1.76       2.026      2.598      0.506      0.951      0.878      2.0744     0.1837238  0.1837238  0.4117258  7.082218   0.7645643  2.5        0.3637138  0.6066979  249.3398   0.690915   0.7239692  0.6578608 
1007.2     0.261      403.3      5.68       2.007      2.692      2.7647     1.785      2.026      2.564      0.489      0.919      0.896      2.0499     0.1806209  0.1806209  0.4013056  6.204335   0.8160077  2.48       0.3517652  0.5961639  246.9937   0.6687415  0.7049726  0.6325103 
1007.4     0.264      405.4      5.731      1.968      2.654      2.6463     1.81       1.988      2.541      0.592      1.058      0.907      2.0336     0.1761822  0.1761822  0.3949377  5.134279   0.7477205  2.467      0.3359283  0.587202   243.3253   0.6628955  0.7305847  0.5952062 
1007.6     0.264      408.6      5.693      1.968      2.654      2.5972     1.823      1.963      2.599      0.673      1.017      0.885      2.1029     0.1976257  0.1976257  0.4076735  12.81341   0.7980306  2.447      0.3968441  0.6108789  239.8556   0.6365086  0.7114147  0.5616025 
1007.8     0.264      417.2      5.655      1.968      2.705      2.5197     1.899      1.95       2.583      0.529      1.058      0.878      2.1151     0.2078199  0.2078199  0.4117258  19.79185   0.8517253  2.397      0.4170758  0.6166951  237.916    0.6178967  0.6927478  0.5430455 
1008       0.272      423.6      5.655      1.968      2.692      2.4012     2.001      1.912      2.46       0.822      0.984      0.878      2.0988     0.2076624  0.2076624  0.4117258  19.65936   0.8517253  2.361      0.4125338  0.6136711  238.1509   0.6183739  0.6927478  0.5440001 
1008.2     0.267      420.4      5.769      1.943      2.629      2.2971     1.912      1.887      2.292      0.564      0.968      0.893      2.0988     0.1862763  0.1862763  0.4030423  7.896731   0.700582   2.379      0.3565064  0.5935293  240.4408   0.6568666  0.7502714  0.5634618 
1008.4     0.268      416.1      5.769      1.905      2.603      2.195      1.874      1.887      2.261      0.546      0.984      0.896      2.111      0.1790817  0.1790817  0.4013056  5.810125   0.700582   2.403      0.3371772  0.5884284  244.1      0.6734057  0.7502714  0.59654   
1008.6     0.267      411.8      5.807      1.88       2.553      2.1664     1.874      1.887      2.312      0.581      1.017      0.893      2.1722     0.1710973  0.1710973  0.4030423  4.133279   0.656415   2.428      0.3136588  0.5846834  248.1537   0.7028637  0.7704886  0.6352388 
1008.8     0.263      406.5      5.832      1.854      2.54       2.1093     1.912      1.874      2.346      0.558      1.001      0.907      2.2333     0.1552184  0.1552184  0.3949377  2.09981    0.6288882  2.46       0.2574722  0.5668972  251.5228   0.726422   0.7840853  0.6687587 
1009       0.264      401.1      5.731      1.93       2.565      2.1031     1.912      1.874      2.486      0.909      1.296      0.904      2.2944     0.1631731  0.1631731  0.3966744  2.947951   0.7477205  2.493      0.2935317  0.5787038  253.133    0.7075797  0.7305847  0.6845745 
1009.2     0.264      395.8      5.769      1.968      2.578      2.1031     1.975      1.874      2.662      0.661      1.271      0.9        2.3596     0.1640731  0.1640731  0.39899    3.063304   0.700582   2.527      0.3013631  0.5839274  252.2216   0.7118694  0.7502714  0.6734675 
1009.4     0.259      391.5      5.896      1.994      2.578      2.1031     1.975      1.874      2.76       0.604      1.206      0.907      2.4289     0.1577889  0.1577889  0.3949377  2.343103   0.5635643  2.554      0.2807866  0.5774648  248.8622   0.7186327  0.8        0.6372653 
1009.6     0.257      390.4      5.972      2.032      2.616      2.1031     1.975      1.874      2.801      0.627      1.165      0.933      2.4412     0.1504343  0.1504343  0.3798863  1.712243   0.4947467  2.561      0.2512195  0.5599095  244.243    0.6953092  0.8        0.5906183 
1009.8     0.264      391.5      5.934      2.045      2.705      2.1031     1.963      1.861      2.788      0.828      1.32       0.915      2.4371     0.1671472  0.1671472  0.3903065  3.492451   0.5280356  2.554      0.3159873  0.5831947  240.2456   0.6762401  0.8        0.5524803 
1010       0.265      388.3      5.858      2.019      2.845      2.1399     1.95       1.848      2.624      0.742      1.083      0.922      2.4819     0.1661839  0.1661839  0.3862542  3.351866   0.6014835  2.575      0.3151718  0.5812653  238.431    0.6668798  0.7984807  0.5352788 
1010.2     0.261      384        5.934      1.981      2.769      2.144      1.912      1.823      2.595      0.868      1.099      0.929      2.4778     0.1609654  0.1609654  0.3822019  2.683038   0.5280356  2.604      0.2995654  0.575855   239.1904   0.6704137  0.8        0.5408275 
1010.4     0.255      381.9      5.921      1.892      2.781      2.0888     1.861      1.785      2.712      1.357      1.165      0.929      2.5349     0.1573672  0.1573672  0.3822019  2.301335   0.5399306  2.618      0.2874323  0.5734634  241.7486   0.6813173  0.8        0.5626346 
1010.6     0.262      380.8      5.921      1.867      2.807      2.1011     1.823      1.747      2.797      1.599      1.304      0.944      2.5675     0.1440039  0.1440039  0.3735184  1.301546   0.5399306  2.626      0.2312755  0.5536867  244.9184   0.6954985  0.8        0.5909969 
1010.8     0.256      380.8      6.023      1.956      2.832      2.0847     1.798      1.721      2.76       1.535      1.337      0.948      2.5512     0.1372565  0.1372565  0.3712028  0.9760699  0.453344   2.626      0.1984648  0.5441452  247.8141   0.7089282  0.8        0.6178564 
1011       0.249      375.4      6.061      2.007      2.807      2.1011     1.798      1.696      2.588      0.776      1.107      0.937      2.4901     0.1403875  0.1403875  0.3775707  1.115515   0.4247639  2.664      0.219338   0.5559182  249.8997   0.7187369  0.8        0.6374739 
1011.2     0.249      366.9      5.972      1.905      2.781      2.0847     1.772      1.683      2.613      1.432      1.173      0.915      2.5145     0.1520323  0.1520323  0.3903065  1.833014   0.4947467  2.726      0.2795018  0.5823416  250.6756   0.7220429  0.8        0.6440858 
1011.4     0.252      363.7      5.807      1.93       2.819      2.1011     1.734      1.734      2.834      1.553      1.55       0.893      2.5634     0.1713976  0.1713976  0.4030423  4.186555   0.656415   2.75       0.3536063  0.6100076  249.7533   0.7019537  0.7704886  0.6334188 
1011.6     0.255      356.2      5.54       2.121      2.883      2.1399     1.696      1.798      2.883      2.024      1.361      0.871      2.6409     0.2099589  0.2099589  0.4157781  21.68233   1.037253   2.807      0.4635127  0.6493055  247.3394   0.6236946  0.6391869  0.6082023 
1011.8     0.261      343.4      5.35       2.121      2.896      2.2174     1.721      1.848      2.964      1.323      1.345      0.885      2.6898     0.2199541  0.2199541  0.4076735  33.20794   1.436435   2.912      0.4936115  0.6577477  244.3112   0.5688466  0.5596146  0.5780786 
1012       0.265      334.8      5.286      2.057      2.896      2.244      1.76       1.887      3.249      2.214      1.821      0.874      2.6898     0.2345891  0.2345891  0.4140414  61.98935   1.602935   2.987      0.5269186  0.6736053  241.6443   0.5437949  0.5351064  0.5524834 
1012.2     0.262      331.6      5.197      2.197      3.023      2.2644     1.81       1.937      3.42       2.272      1.952      0.885      2.6816     0.2363188  0.2363188  0.4076735  66.73533   1.867028   3.016      0.5320624  0.6730759  239.8793   0.5192567  0.5027987  0.5357147 
