~Version
 VERS              .         2.0                           : CWLS LOG ASCII STANDARD - VERSION 2.0
 WRAP              .         NO                            : ONE LINE PER DEPTH STEP
 DLM               .         SPACE                         : DELIMITING CHARACTER(SPACE TAB OR COMMA)
~Well Information
#_______________________________________________________________________________
#
#PARAMETER_NAME    .UNIT     VALUE                         : DESCRIPTION
#_______________________________________________________________________________
STRT               .M        850                           : First reference value
STOP               .M        1203.8                        : Last reference value
STEP               .M        0.2                           : Step increment
NULL               .         -9999                         : Missing value
COMP               .                                       : Company
WELL               .         8446                          : Well name
FLD                .         Узень                         : Field
LOC                .                                       : Location
CNTY               .                                       : County
STAT               .                                       : State
CTRY               .                                       : Country
SRVC               .                                       : Service Company
DATE               .                                       : Date
UWI                .                                       : Unique Well ID
Block              .         6а                            : 
Category           .         Нефтяная                      : 
Condition          .         Ликвидированная               : 
Date               .         11.08.1997                    : 
EREF               .m        85.6                          : 100.8
GRP                .                                       : Group name
Gor                .         13                            : 
Gorizont           .         13                            : 14
ISS                .         БКЗ, магнитная лента          : Well surveys
Interpretator      .         Кайсанов Е.К                  : 
Kupol              .         Основной                      : osnovnoi
METD               .         CALI.BKZ                      : Method
Mud                .                                       : 
Mud_density        .                                       : 
Mud_resistivity    .                                       : 
NGDU               .         НГДУ-2                        : 
ORIGINALWELLNAME   .         8446                          : 
Spud_date          .         1997                          : 1961
TIME               .         14_38                         : LOG TIME
Viscosity          .                                       : 
X                  .m        44714.1                       : 46154
Y                  .m        85692.13                      : 85761.93
YEAR               .         2019                          : 
Сдали_за_3_кв_2019 .         3                             : 
~Parameter Information Block
#_______________________________________________________________________________
#
#PARAMETER_NAME    .UNIT     VALUE                         : DESCRIPTION
#_______________________________________________________________________________
SET                .         LQC_KAZNIPI_Petrel            : 
TLFamily_CALI      .         Caliper                       : 
TLFamily_CILD      .         Conductivity                  : 
TLFamily_DEPT      .         Measured Depth                : 
TLFamily_GR        .         Russian Gamma Ray             : 
TLFamily_GZ1       .         Gradient 045                  : 
TLFamily_GZ2       .         Gradient 105                  : 
TLFamily_GZ3       .         Gradient 225                  : 
TLFamily_GZ4       .         Gradient 425                  : 
TLFamily_GZ5       .         Gradient 850                  : 
TLFamily_LLS       .         Lateral Log Resistivity       : 
TLFamily_MINV      .         Micro Gradient Resistivity    : 
TLFamily_MNOR      .         Micro Resistivity             : 
TLFamily_NGLD      .         Neutron Far                   : 
TLFamily_OGZ3      .         Gradient Inverted 225         : 
TLFamily_PHIE      .         Effective Porosity            : 
TLFamily_PHIEN     .         Effective Porosity            : 
TLFamily_PHIT      .         Porosity                      : 
TLFamily_PRMB      .         Permeability                  : 
TLFamily_PRMB_DGR  .         Permeability                  : 
TLFamily_RT        .         Formation Resistivity         : 
TLFamily_SOIL_ARCHIE .         Oil Saturation                : 
TLFamily_SOIL_DW   .         Oil Saturation                : 
TLFamily_SP        .         Spontaneous Potential         : 
TLFamily_VSH_FIN   .         Shale Volume                  : 
TLFamily_VSH_GR    .         Shale Volume                  : 
TLFamily_VSH_SP    .         Shale Volume                  : 
~Curve Information
#_______________________________________________________________________________
#
#LOGNAME           .UNIT     LOG_ID                        : DESCRIPTION
#_______________________________________________________________________________
DEPT               .M                                      : Колонка глубины 
CALI               .м                                      : Каверномер 
CILD               .мСм/м                                  : Индукционный каротаж 
GR                 .uR/h                                   : Гамма каротаж 
GZ1                .Ohmm                                   : А0.4М0.1N 
GZ2                .Ohmm                                   : A1.0M0.1N 
GZ3                .Ohmm                                   : 119.11 - 1405.51- 185.61 - 1174.21 
GZ4                .Ohmm                                   : A4M0.5N 
GZ5                .Ohmm                                   : A8M1N 
LLS                .Ohmm                                   : Боковой каротаж 
MINV               .Ohmm                                   : Микро-градиент зонд 
MNOR               .Ohmm                                   : Микро-потенциал зонд 
NGLD               .у.е.                                   : Показания зонда НГК-60 аппаратуры ДРСТ-3-90 
OGZ3               .Ohmm                                   : 114.63 - 1401.03- 181.13 - 1169.73 
PHIE               .v/v                                    : Описание 
PHIEN              .v/v                                    :  
PHIT               .v/v                                    : Описание 
PRMB               .mD                                     :  
PRMB_DGR           .mD                                     :  
RT                 .ohmm                                   : УЭС пласта 
SOIL_ARCHIE        .v/v                                    :  
SOIL_DW            .v/v                                    :  
SP                 .мВ                                     : Потенциал самополяризации 
VSH_FIN            .v/v                                    : Описание 
VSH_GR             .v/v                                    : Shale volume 
VSH_SP             .v/v                                    : Shale Volume 
~Ascii
# ...
1029.2     0.274      371.2      4.842      2.248      2.616      2.0582     1.696      1.975      3.209      2.041      1.706      1.083      3.1543     0.1340878  0.1340878  0.2930513  0.852685   3.430426   2.694      0.1917474  0.4726758  249.0384   0.4817078  0.3922055  0.5712101 
1029.4     0.264      358.3      4.88       2.261      2.591      2.0439     1.607      1.912      2.724      0.776      1.247      1.068      3.0198     0.1424312  0.1424312  0.3017348  1.217107   3.214162   2.791      0.2457672  0.502718   248.1122   0.4827384  0.402774   0.5627027 
1029.6     0.252      340.2      4.969      2.134      2.654      1.95       1.594      1.848      2.642      1.869      1.78       1.054      2.8772     0.1435825  0.1435825  0.3098394  1.278364   2.759514   2.939      0.2689789  0.5247702  249.8721   0.5038087  0.4286546  0.5789629 
1029.8     0.253      334.8      5.032      2.134      2.832      1.8846     1.544      1.823      3.004      1.995      1.657      1.068      2.9302     0.1265825  0.1265825  0.3017348  0.6191183  2.477118   2.987      0.1903569  0.497649   253.4797   0.5307645  0.4479737  0.6135554 
1030       0.263      340.1      5.083      2.235      3.01       2.0071     1.544      1.823      3.192      2.594      2.059      1.076      3.1054     0.1125746  0.1125746  0.2971036  0.340654   2.269822   2.94       0.09658708 0.466396   257.4961   0.5591787  0.4642489  0.6541086 
1030.2     0.265      335.9      5.058      2.261      3.137      2.1501     1.556      1.81       2.948      1.892      1.476      1.079      3.191      0.1064493  0.1064493  0.2953669  0.2623355  2.369176   2.977      0.05702596 0.4570266  260.7666   0.5724776  0.4561983  0.688757  
1030.4     0.252      318.8      4.994      2.261      3.035      2.0909     1.556      1.81       2.722      1.742      1.591      1.087      2.9954     0.10184    0.10184    0.2907357  0.2155172  2.64379    3.137      0.04374395 0.4572297  262.5792   0.5724112  0.4362192  0.7086033 
1030.6     0.241      298.4      4.905      2.248      2.908      2.0459     1.506      1.823      2.941      2.128      2.239      1.092      2.6409     0.103568   0.103568   0.2878412  0.232      3.079373   3.351      0.08638952 0.4745403  262.4276   0.5584037  0.4098819  0.7069256 
1030.8     0.233      282.4      4.816      2.172      2.997      2.097      1.467      1.874      3.292      2.433      2.198      1.098      2.5227     0.1084533  0.1084533  0.2843678  0.285743   3.586723   3.541      0.144761   0.4931917  260.0477   0.5330743  0.3851346  0.6810139 
1031       0.23       271.7      4.588      2.235      3.162      2.2317     1.544      1.975      3.645      2.237      1.854      1.116      2.5104     0.114816   0.114816   0.2739476  0.3748257  5.301264   3.681      0.2008644  0.5014002  255.7383   0.4822168  0.3283416  0.636092  
1031.2     0.23       264.2      4.296      2.515      3.365      2.4483     1.633      2.026      4.026      4.048      1.919      1.112      2.5104     0.1356644  0.1356644  0.2762632  0.9119922  8.743605   3.785      0.3179279  0.540576   250.4564   0.4260571  0.2676643  0.5844498 
1031.4     0.23       259.9      4.194      2.807      3.518      2.6544     1.721      2.09       4.014      2.766      2.264      1.149      2.4248     0.1244239  0.1244239  0.2548439  0.5646656  10.4136    3.848      0.2702391  0.5049614  245.2676   0.3952119  0.2492263  0.5411975 
1031.6     0.23       255.7      4.321      2.921      3.581      2.7483     1.81       2.217      3.991      3.445      2.969      1.171      2.3108     0.1139866  0.1139866  0.2421081  0.3617982  8.376932   3.911      0.2183525  0.4759351  240.4823   0.388247   0.2723879  0.5041061 
1031.8     0.233      246        4.435      2.959      3.746      2.7565     1.861      2.344      3.967      2.513      2.264      1.185      2.1722     0.1082902  0.1082902  0.2340035  0.2837632  6.8904     4.065      0.1973404  0.4646805  235.3852   0.3809494  0.2950061  0.4668926 
1032       0.228      241.7      4.588      2.997      4.051      2.7933     2.179      2.509      4.158      3.312      2.419      1.182      2.1599     0.1118078  0.1118078  0.2357402  0.3296929  5.301264   4.137      0.2257842  0.4781441  228.9597   0.3755527  0.3283416  0.4227638 
1032.2     0.227      267.4      4.753      3.099      4.597      3.0548     2.471      2.674      4.978      3.376      3.51       1.145      2.2864     0.1346586  0.1346586  0.2571595  0.8736984  3.995615   3.74       0.3096291  0.5156296  221.1519   0.371215   0.3685255  0.3739044 
1032.4     0.24       328.4      4.969      3.556      5.562      3.6345     2.776      2.737      5.746      5.998      5.757      1.145      2.4942     0.1318061  0.1318061  0.2571595  0.7736171  2.759514   3.045      0.2253973  0.4587191  213.4031   0.3798589  0.4286546  0.3310633 
1032.6     0.261      387.2      5.032      4.115      5.715      4.3205     2.928      2.61       4.123      2.772      1.747      1.131      2.531      0.1413483  0.1413483  0.2652641  1.162175   2.477118   2.583      0.2126353  0.4387903  207.6078   0.3755023  0.4479737  0.303031  
1032.8     0.266      418.2      5.35       3.073      5.689      4.1694     2.522      2.433      2.318      0.644      0.976      1.076      2.1232     0.156982   0.156982   0.2971036  2.263838   1.436435   2.391      0.2548609  0.4774861  204.3981   0.424611   0.5596146  0.2896073 
1033       0.265      438.6      5.68       2.527      4.089      3.3732     2.153      2.179      1.83       0.799      0.755      0.995      1.6792     0.180729   0.180729   0.3439945  6.232999   0.8160077  2.28       0.3260276  0.5368351  202.8632   0.494744   0.7049726  0.2845154 
1033.2     0.262      460        6.112      1.892      3.645      2.8277     1.861      1.76       1.767      1.006      0.878      0.929      1.4957     0.2035671  0.2035671  0.3822019  16.50879   0.3892178  2.174      0.378654   0.5753608  202.0079   0.5413175  0.8        0.2826349 
1033.4     0.261      479.2      6.328      1.6        3.391      2.685      1.696      1.633      1.801      0.891      0.878      0.893      1.6261     0.2242142  0.2242142  0.4030423  39.82437   0.2688078  2.087      0.4177417  0.5959565  201.814    0.5419033  0.8        0.2838066 
1033.6     0.259      492        6.328      1.537      2.845      2.5278     1.671      1.544      1.809      0.92       1.05       0.882      1.7157     0.2294319  0.2294319  0.4094102  49.7501    0.2688078  2.033      0.4222276  0.5981545  202.8525   0.5453886  0.8        0.2907772 
1033.8     0.257      495.2      6.264      1.524      2.476      2.4196     1.544      1.518      1.72       1.041      0.992      0.9        1.8503     0.216501   0.216501   0.39899    28.66039   0.2999657  2.019      0.3903118  0.5809608  205.5103   0.552997   0.8        0.305994  
1034       0.261      486.7      6.213      1.46       2.21       2.2991     1.594      1.531      1.735      0.828      1.05       0.9        2.0336     0.212496   0.212496   0.39899    24.1601    0.3273607  2.055      0.3854337  0.5816064  209.6739   0.5651335  0.8        0.3302671 
1034.2     0.255      470.6      6.264      1.372      1.918      2.103      1.518      1.569      1.92       0.684      1.107      0.9        2.2048     0.2073933  0.2073933  0.39899    19.43502   0.2999657  2.125      0.3820745  0.5846484  214.5995   0.5805961  0.8        0.3611923 
1034.4     0.247      450.3      6.201      1.435      1.791      1.9908     1.544      1.607      2.16       0.989      0.894      0.904      2.3352     0.2002339  0.2002339  0.3966744  14.32106   0.3341618  2.221      0.37595    0.586697   218.8316   0.5952743  0.8        0.3905487 
1034.6     0.245      432.1      5.934      1.448      1.841      1.9439     1.544      1.633      2.605      0.69       0.984      0.959      2.5144     0.1657998  0.1657998  0.3648349  3.297413   0.5280356  2.314      0.2784987  0.541801   220.7486   0.6031365  0.8        0.4062731 
