~Version
 VERS              .         2.0                           : CWLS LOG ASCII STANDARD - VERSION 2.0
 WRAP              .         NO                            : ONE LINE PER DEPTH STEP
 DLM               .         SPACE                         : DELIMITING CHARACTER(SPACE TAB OR COMMA)
~Well Information
#_______________________________________________________________________________
#
#PARAMETER_NAME    .UNIT     VALUE                         : DESCRIPTION
#_______________________________________________________________________________
STRT               .M        850                           : First reference value
STOP               .M        1203.8                        : Last reference value
STEP               .M        0.2                           : Step increment
NULL               .         -9999                         : Missing value
COMP               .                                       : Company
WELL               .         8446                          : Well name
FLD                .         Узень                         : Field
LOC                .                                       : Location
CNTY               .                                       : County
STAT               .                                       : State
CTRY               .                                       : Country
SRVC               .                                       : Service Company
DATE               .                                       : Date
UWI                .                                       : Unique Well ID
Block              .         6а                            : 
Category           .         Нефтяная                      : 
Condition          .         Ликвидированная               : 
Date               .         11.08.1997                    : 
EREF               .m        85.6                          : 100.8
GRP                .                                       : Group name
Gor                .         13                            : 
Gorizont           .         13                            : 14
ISS                .         БКЗ, магнитная лента          : Well surveys
Interpretator      .         Кайсанов Е.К                  : 
Kupol              .         Основной                      : osnovnoi
METD               .         CALI.BKZ                      : Method
Mud                .                                       : 
Mud_density        .                                       : 
Mud_resistivity    .                                       : 
NGDU               .         НГДУ-2                        : 
ORIGINALWELLNAME   .         8446                          : 
Spud_date          .         1997                          : 1961
TIME               .         14_38                         : LOG TIME
Viscosity          .                                       : 
X                  .m        44714.1                       : 46154
Y                  .m        85692.13                      : 85761.93
YEAR               .         2019                          : 
Сдали_за_3_кв_2019 .         3                             : 
~Parameter Information Block
#_______________________________________________________________________________
#
#PARAMETER_NAME    .UNIT     VALUE                         : DESCRIPTION
#_______________________________________________________________________________
SET                .         LQC_KAZNIPI_Petrel            : 
TLFamily_CALI      .         Caliper                       : 
TLFamily_CILD      .         Conductivity                  : 
TLFamily_DEPT      .         Measured Depth                : 
TLFamily_GR        .         Russian Gamma Ray             : 
TLFamily_GZ1       .         Gradient 045                  : 
TLFamily_GZ2       .         Gradient 105                  : 
TLFamily_GZ3       .         Gradient 225                  : 
TLFamily_GZ4       .         Gradient 425                  : 
TLFamily_GZ5       .         Gradient 850                  : 
TLFamily_LLS       .         Lateral Log Resistivity       : 
TLFamily_MINV      .         Micro Gradient Resistivity    : 
TLFamily_MNOR      .         Micro Resistivity             : 
TLFamily_NGLD      .         Neutron Far                   : 
TLFamily_OGZ3      .         Gradient Inverted 225         : 
TLFamily_PHIE      .         Effective Porosity            : 
TLFamily_PHIEN     .         Effective Porosity            : 
TLFamily_PHIT      .         Porosity                      : 
TLFamily_PRMB      .         Permeability                  : 
TLFamily_PRMB_DGR  .         Permeability                  : 
TLFamily_RT        .         Formation Resistivity         : 
TLFamily_SOIL_ARCHIE .         Oil Saturation                : 
TLFamily_SOIL_DW   .         Oil Saturation                : 
TLFamily_SP        .         Spontaneous Potential         : 
TLFamily_VSH_FIN   .         Shale Volume                  : 
TLFamily_VSH_GR    .         Shale Volume                  : 
TLFamily_VSH_SP    .         Shale Volume                  : 
~Curve Information
#_______________________________________________________________________________
#
#LOGNAME           .UNIT     LOG_ID                        : DESCRIPTION
#_______________________________________________________________________________
DEPT               .M                                      : Колонка глубины 
CALI               .м                                      : Каверномер 
CILD               .мСм/м                                  : Индукционный каротаж 
GR                 .uR/h                                   : Гамма каротаж 
GZ1                .Ohmm                                   : А0.4М0.1N 
GZ2                .Ohmm                                   : A1.0M0.1N 
GZ3                .Ohmm                                   : 119.11 - 1405.51- 185.61 - 1174.21 
GZ4                .Ohmm                                   : A4M0.5N 
GZ5                .Ohmm                                   : A8M1N 
LLS                .Ohmm                                   : Боковой каротаж 
MINV               .Ohmm                                   : Микро-градиент зонд 
MNOR               .Ohmm                                   : Микро-потенциал зонд 
NGLD               .у.е.                                   : Показания зонда НГК-60 аппаратуры ДРСТ-3-90 
OGZ3               .Ohmm                                   : 114.63 - 1401.03- 181.13 - 1169.73 
PHIE               .v/v                                    : Описание 
PHIEN              .v/v                                    :  
PHIT               .v/v                                    : Описание 
PRMB               .mD                                     :  
PRMB_DGR           .mD                                     :  
RT                 .ohmm                                   : УЭС пласта 
SOIL_ARCHIE        .v/v                                    :  
SOIL_DW            .v/v                                    :  
SP                 .мВ                                     : Потенциал самополяризации 
VSH_FIN            .v/v                                    : Описание 
VSH_GR             .v/v                                    : Shale volume 
VSH_SP             .v/v                                    : Shale Volume 
~Ascii
# ...
1146.8     -9999      395.8      7.903      3.658      5.004      4.4477     4.414      4.375999   2.519      1.294      2.059      1.021      3.3704     0.2877418  0.2877418  0.3489431  598.1821   25.77034   2.527      0.5716792  0.6389222  113.4245   0.1854586  0.1721499  0.1987672 
1147       -9999      389.4      7.864      3.124      4.597      4.5901     3.804      4.465      1.769      0.633      1.083      1.061      3.4561     0.254939   0.254939   0.3257871  147.6545   27.32562   2.568      0.5276411  0.6078019  132.0008   0.2146913  0.1680795  0.261303  
1147.2     -9999      377.6      7.407      2.222      3.226      3.5278     3.042      4.249      2.17       0.886      1.033      1.09       2.9301     0.2329137  0.2329137  0.308999   57.71442   54.29896   2.648      0.4962704  0.5863615  147.5222   0.2305616  0.1269816  0.3341415 
1147.4     -9999      392.6      7.001      2.197      2.718      2.3441     2.522      3.728      3.267      2.041      2.001      1.109      2.6898     0.2173577  0.2173577  0.2979999  29.72692   99.93842   2.547      0.4551602  0.5566551  157.2507   0.2443704  0.0989821  0.3897586 
1147.6     -9999      425.7      7.1        2.616      3.226      2.2807     2.534      3.309      3.183      3.203      3.732      1.109      3.2153     0.2122367  0.2122367  0.2979999  23.89448   86.1249    2.349      0.422197   0.5337726  161.4505   0.2598884  0.1051808  0.4145959 
1147.8     -9999      440.7      7.217      2.629      3.569      2.4891     2.331      2.826      2.234      1.616      1.443      1.112      3.6148     0.2078554  0.2078554  0.2962632  19.8219    72.24017   2.269      0.4019581  0.5198812  163.1234   0.2679023  0.1130089  0.4227956 
1148       -9999      428.9      7.674      2.324      3.01       2.2175     1.81       2.483      1.849      1.604      1.042      1.127      3.232      0.1894258  0.1894258  0.2875797  9.032005   36.35443   2.332      0.359869   0.4993438  166.7368   0.297436   0.1495845  0.4452875 
1148.2     -9999      405.4      7.839      1.943      2.184      1.5964     1.493      2.153      1.909      1.834      1.107      1.131      2.8732     0.1733478  0.1733478  0.2852641  4.549676   28.37161   2.467      0.3264814  0.493042   175.7773   0.3391401  0.165521   0.5127591 
1148.4     -9999      389.4      7.915      1.829      2.07       1.3109     1.264      1.848      2.416      1.679      1.345      1.167      2.9466     0.1298669  0.1298669  0.2644237  0.7122109  25.30983   2.568      0.1500233  0.4172926  190.1864   0.4077477  0.1734221  0.6420734 
1148.6     -9999      384        8.042      1.905      2.248      1.3047     1.163      1.633      2.987      1.639      1.525      1.149      3.2725     0.1119104  0.1119104  0.2748439  0.3311384  20.91287   2.604      0.03870207 0.4028327  205.9283   0.4937379  0.1874758  0.8       
1148.8     -9999      381.9      8.068      2.007      2.413      1.4171     1.061      1.455      3.069      1.328      1.575      1.145      3.3703     0.1137286  0.1137286  0.2771595  0.3578387  20.11162   2.618      0.05448334 0.4110729  217.1151   0.4952452  0.1904905  0.8       
1149       -9999      377.6      8.055      2.134      2.413      1.5396     1.023      1.417      2.795      1.029      1.394      1.134      3.1789     0.1203462  0.1203462  0.2835274  0.4745277  20.50832   2.648      0.1047298  0.4346459  218.7926   0.4944886  0.1889772  0.8       
1149.2     -9999      368        7.941      2.172      2.375      1.6254     0.985      1.404      2.469      1.455      1.566      1.13       2.8772     0.1247682  0.1247682  0.285843   0.5730181  24.34011   2.717      0.142839   0.4520958  208.7108   0.4881054  0.1762108  0.8       
1149.4     -9999      349.8      7.953      2.146      2.349      1.5784     0.959      1.404      2.313      1.466      1.46       1.131      2.6205     0.1577356  0.1577356  0.2852641  2.337781   23.90516   2.859      0.3176694  0.5110998  187.9554   0.38645    0.1775129  0.595387  
1149.6     -9999      323.1      8.03       1.93       2.4        1.4987     0.934      1.404      2.514      1.869      1.804      1.156      2.4982     0.1778117  0.1778117  0.2707916  5.503793   21.29338   3.095      0.4077376  0.5378869  160.6594   0.2817572  0.1861005  0.377414  
1149.8     -9999      295.2      8.106      1.791      2.515      1.6009     0.934      1.455      2.951      1.725      2.19       1.149      2.4901     0.203604   0.203604   0.2748439  16.53477   18.99545   3.388      0.4955181  0.5858892  132.4277   0.2158784  0.194984   0.2367729 
1150       -9999      269.6      8.068      1.854      2.68       1.9071     1.01       1.594      3.438      1.696      2.067      1.185      2.6367     0.1949378  0.1949378  0.2540035  11.42559   20.11162   3.709      0.4978312  0.578007   107.7792   0.1789871  0.1904905  0.1674838 
1150.2     -9999      248.2      8.233      2.197      2.857      2.234      1.379      1.823      3.874      1.622      2.05       1.185      2.8854     0.1964156  0.1964156  0.2540035  12.16892   15.69546   4.029      0.5201257  0.596389   88.47005   0.1745088  0.210785   0.1382325 
1150.4     -9999      232.1      8.398      2.591      3.111      2.5237     1.645      2.064      4.437      1.466      1.952      1.193      3.134      0.1900925  0.1900925  0.2493723  9.292485   12.24901   4.308      0.521525   0.6000409  73.78773   0.1796359  0.2332417  0.1260301 
1150.6     -9999      223.6      8.309      3.264      3.543      2.8463     1.912      2.217      4.606      1.616      2.264      1.204      3.2888     0.1867245  0.1867245  0.2430044  8.049122   14.00164   4.472      0.5224633  0.5984992  62.08885   0.1705452  0.2208467  0.1202436 
1150.8     -9999      218.2      8.36       3.34       3.912      3.1916     2.268      2.331      4.36       0.983      2.059      1.204      3.3051     0.1861297  0.1861297  0.2430044  7.847513   12.96877   4.583      0.5266126  0.6028619  52.30039   0.1723475  0.2278665  0.1168285 
1151       -9999      211.8      8.601      3.391      4.28       3.4283     2.61       2.445      4.467      1.806      2.28       1.185      3.2399     0.1915316  0.1915316  0.2540035  9.880724   9.028811   4.721      0.5446459  0.6231987  44.80283   0.1893088  0.264179   0.1144385 
1151.2     -9999      218.2      8.906      3.581      4.864      3.5978     2.864      2.471      4.728      1.823      2.444      1.185      3.2563     0.1827574  0.1827574  0.2540035  6.796243   5.709506   4.583      0.5190137  0.6100489  41.47534   0.2158973  0.3185442  0.1132504 
1151.4     -9999      249.2      9.173      3.962      5.537      3.853      3.157      2.458      4.973      1.673      2.247      1.193      3.244      0.1686134  0.1686134  0.2493723  3.717816   3.822644   4.013      0.4508784  0.5645453  44.76878   0.2447239  0.3752456  0.1142022 
1151.6     -9999      299.5      9.173      4.331      6.007      4.1368     3.169      2.331      4.419      1.88       2.534      1.171      2.8        0.1808025  0.1808025  0.2621081  6.252567   3.822644   3.339      0.4366996  0.5495147  55.95675   0.2463807  0.3752456  0.1175158 
1151.8     -9999      343.4      9.133      3.924      6.083      4.202199   2.814      2.179      3.056      1.535      1.952      1.163      2.1558     0.185791   0.185791   0.2667393  7.734976   4.059443   2.912      0.4134149  0.5278767  73.5166    0.2452978  0.3661483  0.1244472 
1152       -9999      368        9.084      3.442      5.816      3.7652     2.42       1.848      2.321      1.587      1.476      1.156      1.6507     0.1891279  0.1891279  0.2707916  8.917959   4.369608   2.717      0.4033448  0.5190812  92.99545   0.2474658  0.355304   0.1396275 
1152.2     -9999      385.1      9.033      2.743      4.166      2.9991     1.988      1.671      2.335      1.811      1.903      1.156      1.2919     0.1872043  0.1872043  0.2707916  8.215551   4.717618   2.597      0.3851119  0.5060246  108.9711   0.2532947  0.3443583  0.162231  
