~Version
 VERS              .         2.0                           : CWLS LOG ASCII STANDARD - VERSION 2.0
 WRAP              .         NO                            : ONE LINE PER DEPTH STEP
 DLM               .         SPACE                         : DELIMITING CHARACTER(SPACE TAB OR COMMA)
~Well Information
#_______________________________________________________________________________
#
#PARAMETER_NAME    .UNIT     VALUE                         : DESCRIPTION
#_______________________________________________________________________________
STRT               .M        850                           : First reference value
STOP               .M        1203.8                        : Last reference value
STEP               .M        0.2                           : Step increment
NULL               .         -9999                         : Missing value
COMP               .                                       : Company
WELL               .         8446                          : Well name
FLD                .         Узень                         : Field
LOC                .                                       : Location
CNTY               .                                       : County
STAT               .                                       : State
CTRY               .                                       : Country
SRVC               .                                       : Service Company
DATE               .                                       : Date
UWI                .                                       : Unique Well ID
Block              .         6а                            : 
Category           .         Нефтяная                      : 
Condition          .         Ликвидированная               : 
Date               .         11.08.1997                    : 
EREF               .m        85.6                          : 100.8
GRP                .                                       : Group name
Gor                .         13                            : 
Gorizont           .         13                            : 14
ISS                .         БКЗ, магнитная лента          : Well surveys
Interpretator      .         Кайсанов Е.К                  : 
Kupol              .         Основной                      : osnovnoi
METD               .         CALI.BKZ                      : Method
Mud                .                                       : 
Mud_density        .                                       : 
Mud_resistivity    .                                       : 
NGDU               .         НГДУ-2                        : 
ORIGINALWELLNAME   .         8446                          : 
Spud_date          .         1997                          : 1961
TIME               .         14_38                         : LOG TIME
Viscosity          .                                       : 
X                  .m        44714.1                       : 46154
Y                  .m        85692.13                      : 85761.93
YEAR               .         2019                          : 
Сдали_за_3_кв_2019 .         3                             : 
~Parameter Information Block
#_______________________________________________________________________________
#
#PARAMETER_NAME    .UNIT     VALUE                         : DESCRIPTION
#_______________________________________________________________________________
SET                .         LQC_KAZNIPI_Petrel            : 
TLFamily_CALI      .         Caliper                       : 
TLFamily_CILD      .         Conductivity                  : 
TLFamily_DEPT      .         Measured Depth                : 
TLFamily_GR        .         Russian Gamma Ray             : 
TLFamily_GZ1       .         Gradient 045                  : 
TLFamily_GZ2       .         Gradient 105                  : 
TLFamily_GZ3       .         Gradient 225                  : 
TLFamily_GZ4       .         Gradient 425                  : 
TLFamily_GZ5       .         Gradient 850                  : 
TLFamily_LLS       .         Lateral Log Resistivity       : 
TLFamily_MINV      .         Micro Gradient Resistivity    : 
TLFamily_MNOR      .         Micro Resistivity             : 
TLFamily_NGLD      .         Neutron Far                   : 
TLFamily_OGZ3      .         Gradient Inverted 225         : 
TLFamily_PHIE      .         Effective Porosity            : 
TLFamily_PHIEN     .         Effective Porosity            : 
TLFamily_PHIT      .         Porosity                      : 
TLFamily_PRMB      .         Permeability                  : 
TLFamily_PRMB_DGR  .         Permeability                  : 
TLFamily_RT        .         Formation Resistivity         : 
TLFamily_SOIL_ARCHIE .         Oil Saturation                : 
TLFamily_SOIL_DW   .         Oil Saturation                : 
TLFamily_SP        .         Spontaneous Potential         : 
TLFamily_VSH_FIN   .         Shale Volume                  : 
TLFamily_VSH_GR    .         Shale Volume                  : 
TLFamily_VSH_SP    .         Shale Volume                  : 
~Curve Information
#_______________________________________________________________________________
#
#LOGNAME           .UNIT     LOG_ID                        : DESCRIPTION
#_______________________________________________________________________________
DEPT               .M                                      : Колонка глубины 
CALI               .м                                      : Каверномер 
CILD               .мСм/м                                  : Индукционный каротаж 
GR                 .uR/h                                   : Гамма каротаж 
GZ1                .Ohmm                                   : А0.4М0.1N 
GZ2                .Ohmm                                   : A1.0M0.1N 
GZ3                .Ohmm                                   : 119.11 - 1405.51- 185.61 - 1174.21 
GZ4                .Ohmm                                   : A4M0.5N 
GZ5                .Ohmm                                   : A8M1N 
LLS                .Ohmm                                   : Боковой каротаж 
MINV               .Ohmm                                   : Микро-градиент зонд 
MNOR               .Ohmm                                   : Микро-потенциал зонд 
NGLD               .у.е.                                   : Показания зонда НГК-60 аппаратуры ДРСТ-3-90 
OGZ3               .Ohmm                                   : 114.63 - 1401.03- 181.13 - 1169.73 
PHIE               .v/v                                    : Описание 
PHIEN              .v/v                                    :  
PHIT               .v/v                                    : Описание 
PRMB               .mD                                     :  
PRMB_DGR           .mD                                     :  
RT                 .ohmm                                   : УЭС пласта 
SOIL_ARCHIE        .v/v                                    :  
SOIL_DW            .v/v                                    :  
SP                 .мВ                                     : Потенциал самополяризации 
VSH_FIN            .v/v                                    : Описание 
VSH_GR             .v/v                                    : Shale volume 
VSH_SP             .v/v                                    : Shale Volume 
~Ascii
# ...
990        -9999      412.9      5.35       -9999      -9999      2.5359     -9999      -9999      2.085      0.581      0.943      0.966      2.1681     0.1672473  0.1672473  0.3607826  3.507383   1.436435   2.422      0.2991052  0.5504776  252.2859   0.5864707  0.5596146  0.6133267 
990.2      -9999      391.5      5.401      -9999      -9999      2.2909     -9999      -9999      1.999      0.477      0.787      0.999      2.1396     0.1477682  0.1477682  0.3416789  1.528209   1.316227   2.554      0.2384891  0.525606   250.482    0.5876083  0.5799458  0.5952708 
990.4      -9999      376.5      5.477      -9999      -9999      2.1929     -9999      -9999      2.558      0.725      1.091      0.995      2.3026     0.1469109  0.1469109  0.3439945  1.473347   1.1555     2.656      0.2485572  0.5357794  249.228    0.5972229  0.6116219  0.582824  
990.6      -9999      372.2      5.642      -9999      -9999      2.2583     -9999      -9999      3.138      0.748      1.607      1.024      2.6857     0.1182398  0.1182398  0.3272064  0.4337563  0.8709121  2.687      0.09707113 0.4845762  248.9834   0.6332321  0.6864748  0.5799893 
990.8      -9999      370.1      5.832      -9999      -9999      2.4502     -9999      -9999      3.178      0.788      1.345      1.024      2.9465     0.1004752  0.1004752  0.3272064  0.2033304  0.6288882  2.702      0          0.4563666  250.1062   0.6870642  0.7840853  0.5900431 
991        -9999      361.5      5.769      -9999      -9999      2.5074     -9999      -9999      3.233      0.65       1.484      1.046      3.081      0.08939878 0.08939878 0.3144706  0.126777   0.700582   2.766      0          0.4264675  252.6209   0.6820358  0.7502714  0.6138001 
991.2      -9999      351.9      5.667      -9999      -9999      2.4012     -9999      -9999      3.158      0.604      1.214      1.054      3.0851     0.08780744 0.08780744 0.3098394  0.1184581  0.8343903  2.842      0          0.4251442  255.9869   0.6728241  0.698589   0.6470592 
991.4      -9999      349.8      5.54       -9999      -9999      2.2971     -9999      -9999      3.171      0.868      1.394      1.076      3.0484     0.07927717 0.07927717 0.2971036  0.08233105 1.037253   2.859      0          0.3905399  259.275    0.6600801  0.6391869  0.6809733 
991.6      -9999      350.8      5.324      -9999      -9999      2.2317     -9999      -9999      3.185      0.736      1.476      1.076      3.1095     0.09001723 0.09001723 0.2971036  0.1301654  1.501881   2.851      0          0.4145193  261.5909   0.6275345  0.5495256  0.7055435 
991.8      -9999      347.6      5.159      -9999      -9999      2.2256     -9999      -9999      2.928      0.581      1.124      1.094      3.1584     0.08822272 0.08822272 0.2866834  0.1205749  1.992652   2.877      0          0.3991277  262.3377   0.601396   0.4896055  0.7131865 
992        -9999      334.8      5.07       -9999      -9999      2.1889     -9999      -9999      2.64       0.604      1.058      1.112      3.1625     0.0845543  0.0845543  0.2762632  0.1031119  2.320954   2.987      0          0.3869334  261.3682   0.5809361  0.460045   0.7018271 
992.2      -9999      318.8      4.956      -9999      -9999      2.148      -9999      -9999      2.777      0.673      1.247      1.112      3.1992     0.09438135 0.09438135 0.2762632  0.1567941  2.821678   3.137      0          0.4237982  259.1836   0.5511571  0.424773   0.6775413 
992.4      -9999      308.1      4.689      -9999      -9999      2.0704     -9999      -9999      3.227      0.725      1.443      1.131      3.3173     0.09944409 0.09944409 0.2652641  0.1945826  4.45875    3.246      0.03923251 0.4290431  256.8668   0.5024848  0.3523861  0.6525835 
992.6      -9999      296.3      4.486      -9999      -9999      2.0807     -9999      -9999      3.399      0.834      1.419      1.149      3.4804     0.09906407 0.09906407 0.2548439  0.1914543  6.313776   3.375      0.05349238 0.4246936  255.5406   0.47206    0.3057239  0.6383961 
992.8      -9999      282.4      4.22       -9999      -9999      2.1378     -9999      -9999      3.375      1.357      1.616      1.167      3.5456     0.09693886 0.09693886 0.2444237  0.1748642  9.95981    3.541      0.05693455 0.4186275  255.7601   0.4469236  0.2538019  0.6400453 
993        -9999      267.4      4.245      -9999      -9999      2.2359     -9999      -9999      3.585      0.88       1.854      1.167      3.5578     0.09362312 0.09362312 0.2444237  0.1518047  9.54214    3.74       0.05253505 0.4271587  257.3357   0.4569714  0.2582808  0.6556619 
993.2      -9999      247.1      4.359      -9999      -9999      2.3747     -9999      -9999      3.672      2.697      1.821      1.167      3.623      0.08618454 0.08618454 0.2444237  0.1105363  7.848826   4.047      0.01870532 0.4329017  259.6347   0.4795125  0.2797278  0.6792973 
993.4      -9999      225.7      4.156      -9999      -9999      2.4993     -9999      -9999      3.918      1.305      1.722      1.163      3.7045     0.09047987 0.09047987 0.2467393  0.1327592  11.11427   4.431      0.09857739 0.470487   261.998    0.4735135  0.2426868  0.7043401 
993.6      -9999      215        4.004      -9999      -9999      2.6218     -9999      -9999      4.541      2.939      2.985      1.211      3.7738     0.06345111 0.06345111 0.2189521  0.04192051 14.42121   4.651      0          0.3687428  263.8395   0.4712152  0.2182002  0.7242302 
993.8      -9999      216.1      4.029      -9999      -9999      2.7626     -9999      -9999      4.788      3.629      3.625      1.24       3.7698     0.04494453 0.04494453 0.202164   0.01903881 13.81645   4.627      0          0.2550898  264.4769   0.4764226  0.2220507  0.7307945 
994        -9999      220.3      4.004      -9999      -9999      2.9607     -9999      -9999      4.445      3.157      2.928      1.24       3.6475     0.04806688 0.04806688 0.202164   0.0217507  14.42121   4.539      0          0.2630164  263.196    0.466961   0.2182002  0.7157218 
994.2      -9999      224.6      4.156      -9999      -9999      3.073      -9999      -9999      4.026      2.881      2.51       1.237      3.4356     0.05192544 0.05192544 0.2039007  0.02564148 11.11427   4.452      0          0.2777411  259.8353   0.4605311  0.2426868  0.6783754 
994.4      -9999      224.6      4.461      -9999      -9999      3.12       -9999      -9999      3.744      2.283      1.78       1.229      3.2074     0.0544922  0.0544922  0.2085319  0.02860789 6.590141   4.452      0          0.2995102  255.2878   0.466787   0.3004223  0.6331518 
994.6      -9999      221.4      4.702      -9999      -9999      3.0873     -9999      -9999      3.593      0.926      1.55       1.171      3.0525     0.0853069  0.0853069  0.2421081  0.1064753  4.360521   4.517      0.05967232 0.4579455  251.1824   0.4751551  0.3556062  0.5947041 
994.8      -9999      223.6      4.905      -9999      -9999      3.0832     -9999      -9999      3.888      2.697      2.542      1.152      2.9547     0.09048086 0.09048086 0.2531072  0.1327648  3.079373   4.472      0.1024736  0.4815372  248.9787   0.4928072  0.4098819  0.5757325 
995        -9999      233.2      4.956      -9999      -9999      3.1567     -9999      -9999      4.114      2.755      2.756      1.156      2.971      0.08489289 0.08489289 0.2507916  0.1046117  2.821678   4.288      0.03234055 0.4553685  249.3138   0.5027233  0.424773   0.5806736 
995.2      -9999      245        4.918      -9999      -9999      3.2935     -9999      -9999      3.984      2.887      2.747      1.131      3.028      0.09677789 0.09677789 0.2652641  0.1736678  3.011532   4.082      0.1165238  0.4859138  251.9262   0.5105642  0.4136274  0.607501  
995.4      -9999      251.4      5.058      -9999      -9999      3.4365     -9999      -9999      3.659      2.306      2.378      1.094      2.9995     0.1043013  0.1043013  0.2866834  0.2393708  2.369176   3.978      0.1622072  0.5176699  255.8876   0.552673   0.4561983  0.6491479 
