~Version
 VERS              .         2.0                           : CWLS LOG ASCII STANDARD - VERSION 2.0
 WRAP              .         NO                            : ONE LINE PER DEPTH STEP
 DLM               .         SPACE                         : DELIMITING CHARACTER(SPACE TAB OR COMMA)
~Well Information
#_______________________________________________________________________________
#
#PARAMETER_NAME    .UNIT     VALUE                         : DESCRIPTION
#_______________________________________________________________________________
STRT               .M        850                           : First reference value
STOP               .M        1203.8                        : Last reference value
STEP               .M        0.2                           : Step increment
NULL               .         -9999                         : Missing value
COMP               .                                       : Company
WELL               .         8446                          : Well name
FLD                .         Узень                         : Field
LOC                .                                       : Location
CNTY               .                                       : County
STAT               .                                       : State
CTRY               .                                       : Country
SRVC               .                                       : Service Company
DATE               .                                       : Date
UWI                .                                       : Unique Well ID
Block              .         6а                            : 
Category           .         Нефтяная                      : 
Condition          .         Ликвидированная               : 
Date               .         11.08.1997                    : 
EREF               .m        85.6                          : 100.8
GRP                .                                       : Group name
Gor                .         13                            : 
Gorizont           .         13                            : 14
ISS                .         БКЗ, магнитная лента          : Well surveys
Interpretator      .         Кайсанов Е.К                  : 
Kupol              .         Основной                      : osnovnoi
METD               .         CALI.BKZ                      : Method
Mud                .                                       : 
Mud_density        .                                       : 
Mud_resistivity    .                                       : 
NGDU               .         НГДУ-2                        : 
ORIGINALWELLNAME   .         8446                          : 
Spud_date          .         1997                          : 1961
TIME               .         14_38                         : LOG TIME
Viscosity          .                                       : 
X                  .m        44714.1                       : 46154
Y                  .m        85692.13                      : 85761.93
YEAR               .         2019                          : 
Сдали_за_3_кв_2019 .         3                             : 
~Parameter Information Block
#_______________________________________________________________________________
#
#PARAMETER_NAME    .UNIT     VALUE                         : DESCRIPTION
#_______________________________________________________________________________
SET                .         LQC_KAZNIPI_Petrel            : 
TLFamily_CALI      .         Caliper                       : 
TLFamily_CILD      .         Conductivity                  : 
TLFamily_DEPT      .         Measured Depth                : 
TLFamily_GR        .         Russian Gamma Ray             : 
TLFamily_GZ1       .         Gradient 045                  : 
TLFamily_GZ2       .         Gradient 105                  : 
TLFamily_GZ3       .         Gradient 225                  : 
TLFamily_GZ4       .         Gradient 425                  : 
TLFamily_GZ5       .         Gradient 850                  : 
TLFamily_LLS       .         Lateral Log Resistivity       : 
TLFamily_MINV      .         Micro Gradient Resistivity    : 
TLFamily_MNOR      .         Micro Resistivity             : 
TLFamily_NGLD      .         Neutron Far                   : 
TLFamily_OGZ3      .         Gradient Inverted 225         : 
TLFamily_PHIE      .         Effective Porosity            : 
TLFamily_PHIEN     .         Effective Porosity            : 
TLFamily_PHIT      .         Porosity                      : 
TLFamily_PRMB      .         Permeability                  : 
TLFamily_PRMB_DGR  .         Permeability                  : 
TLFamily_RT        .         Formation Resistivity         : 
TLFamily_SOIL_ARCHIE .         Oil Saturation                : 
TLFamily_SOIL_DW   .         Oil Saturation                : 
TLFamily_SP        .         Spontaneous Potential         : 
TLFamily_VSH_FIN   .         Shale Volume                  : 
TLFamily_VSH_GR    .         Shale Volume                  : 
TLFamily_VSH_SP    .         Shale Volume                  : 
~Curve Information
#_______________________________________________________________________________
#
#LOGNAME           .UNIT     LOG_ID                        : DESCRIPTION
#_______________________________________________________________________________
DEPT               .M                                      : Колонка глубины 
CALI               .м                                      : Каверномер 
CILD               .мСм/м                                  : Индукционный каротаж 
GR                 .uR/h                                   : Гамма каротаж 
GZ1                .Ohmm                                   : А0.4М0.1N 
GZ2                .Ohmm                                   : A1.0M0.1N 
GZ3                .Ohmm                                   : 119.11 - 1405.51- 185.61 - 1174.21 
GZ4                .Ohmm                                   : A4M0.5N 
GZ5                .Ohmm                                   : A8M1N 
LLS                .Ohmm                                   : Боковой каротаж 
MINV               .Ohmm                                   : Микро-градиент зонд 
MNOR               .Ohmm                                   : Микро-потенциал зонд 
NGLD               .у.е.                                   : Показания зонда НГК-60 аппаратуры ДРСТ-3-90 
OGZ3               .Ohmm                                   : 114.63 - 1401.03- 181.13 - 1169.73 
PHIE               .v/v                                    : Описание 
PHIEN              .v/v                                    :  
PHIT               .v/v                                    : Описание 
PRMB               .mD                                     :  
PRMB_DGR           .mD                                     :  
RT                 .ohmm                                   : УЭС пласта 
SOIL_ARCHIE        .v/v                                    :  
SOIL_DW            .v/v                                    :  
SP                 .мВ                                     : Потенциал самополяризации 
VSH_FIN            .v/v                                    : Описание 
VSH_GR             .v/v                                    : Shale volume 
VSH_SP             .v/v                                    : Shale Volume 
~Ascii
# ...
906        -9999      253.5      5.972      -9999      -9999      2.7851     -9999      -9999      3.616      1.179      1.534      1.178      2.7508     0.1711244  0.1711244  0.2580558  4.138058   10.03592   3.945      0.4535376  0.5722039  144.0963   0.2634286  0.2530142  0.273843  
906.2      -9999      244.9      5.744      -9999      -9999      3.2017     -9999      -9999      4.511      1.834      2.518      1.174      3.6596     0.1795148  0.1795148  0.2603714  5.918445   13.33527   4.083      0.4842404  0.5898191  141.9996   0.24502    0.2252882  0.2647518 
906.4      -9999      252.4      5.667      -9999      -9999      3.8531     -9999      -9999      5.328      1.754      2.132      1.182      4.5277     0.1765297  0.1765297  0.2557402  5.210942   14.67882   3.962      0.4692122  0.5762672  141.6885   0.2400318  0.2166283  0.2634352 
906.6      -9999      271.7      5.705      -9999      -9999      4.7108     -9999      -9999      4.8        2.047      2.715      1.204      5.1635     0.1620266  0.1620266  0.2430044  2.807269   13.99965   3.681      0.407975   0.530745   143.2011   0.2453872  0.2208596  0.2699148 
906.8      -9999      285.6      5.871      -9999      -9999      4.8719     -9999      -9999      3.606      1.179      1.607      1.193      4.8702     0.1631168  0.1631168  0.2493723  2.940875   11.38259   3.501      0.397411   0.5274469  145.9991   0.2613804  0.2403343  0.2824265 
907        -9999      293.1      5.959      -9999      -9999      4.2        -9999      -9999      3.072      1.219      1.64       1.167      3.9981     0.1738909  0.1738909  0.2644237  4.656278   10.1999    3.412      0.4231332  0.5495527  149.1466   0.2743418  0.2513454  0.2973383 
907.2      -9999      302.7      5.998      -9999      -9999      2.9849     -9999      -9999      2.989      0.914      1.443      1.12       3.0362     0.1982351  0.1982351  0.291632   13.15084   9.715837   3.304      0.4775194  0.5905236  151.6122   0.2830208  0.2563852  0.3096564 
907.4      -9999      313.4      5.998      -9999      -9999      2.2888     -9999      -9999      3.02       1.202      1.476      1.127      2.6612     0.1933693  0.1933693  0.2875797  10.68627   9.715837   3.191      0.4572966  0.5755845  152.5683   0.2854861  0.2563852  0.314587  
907.6      -9999      322        6.036      -9999      -9999      2.0051     -9999      -9999      3.048      1.323      1.591      1.12       2.384      0.197411   0.197411   0.291632   12.69661   9.266299   3.106      0.4601907  0.576953   151.6097   0.2855183  0.261393   0.3096435 
907.8      -9999      327.3      5.972      -9999      -9999      1.8704     -9999      -9999      3.039      1.351      1.599      1.142      2.0011     0.1882275  0.1882275  0.2788962  8.581986   10.03592   3.055      0.4329349  0.5534129  148.9732   0.2747537  0.2530142  0.2964932 
908        -9999      326.2      5.921      -9999      -9999      1.7846     -9999      -9999      3.023      1.369      1.648      1.131      1.7606     0.1982603  0.1982603  0.2852641  13.16499   10.69473   3.066      0.4589243  0.5693791  145.6363   0.2636477  0.24653    0.2807654 
908.2      -9999      319.8      5.934      -9999      -9999      1.758      -9999      -9999      3.02       1.294      1.706      1.131      1.7198     0.1999333  0.1999333  0.2852641  14.13866   10.5228    3.127      0.4678124  0.5750712  142.9878   0.258578   0.2481669  0.2689891 
908.4      -9999      312.3      5.934      -9999      -9999      1.8111     -9999      -9999      3.009      1.248      1.673      1.116      1.7891     0.2092067  0.2092067  0.2939476  20.99784   10.5228    3.202      0.4940764  0.595053   142.1553   0.2567904  0.2481669  0.2654138 
908.6      -9999      293.1      6.074      -9999      -9999      1.9827     -9999      -9999      2.976      1.012      1.599      1.127      2.0052     0.1988451  0.1988451  0.2875797  13.49746   8.83756    3.412      0.4867217  0.5942276  143.5155   0.2688927  0.2664987  0.2712867 
908.8      -9999      264.2      6.239      -9999      -9999      2.1848     -9999      -9999      3.017      0.972      1.591      1.134      2.4288     0.1885976  0.1885976  0.2835274  8.718524   7.194451   3.785      0.4880556  0.6029927  146.6598   0.2876662  0.2898501  0.2854823 
909        -9999      238.5      6.417      -9999      -9999      2.5544     -9999      -9999      3.568      1.006      1.772      1.16       3.2846     0.1657705  0.1657705  0.268476   3.293288   5.762678   4.193      0.4540431  0.5894616  150.7168   0.3112289  0.3173407  0.305117  
909.2      -9999      219.3      6.544      -9999      -9999      3.4019     -9999      -9999      4.242      1.271      1.821      1.196      4.6132     0.1379654  0.1379654  0.2476356  1.006032   4.91885    4.56       0.3841065  0.5553782  154.7439   0.332334   0.3385347  0.3261333 
909.4      -9999      219.3      6.747      -9999      -9999      4.7966     -9999      -9999      5.662      1.984      2.862      1.244      5.9296     0.1012102  0.1012102  0.2198484  0.2098049  3.819044   4.56       0.1933431  0.460968   157.8868   0.3595099  0.3753899  0.3436299 
909.6      -9999      238.5      7.064      -9999      -9999      5.915501   -9999      -9999      6.547      2.812      4.281      1.266      7.2135     0.076209   0.076209   0.2071126  0.07223266 2.572314   4.193      0          0.3523062  159.3694   0.3966775  0.4411286  0.3522265 
909.8      -9999      253.5      7.471      -9999      -9999      6.5931     -9999      -9999      4.814      1.386      1.886      1.218      7.1932     0.08782918 0.08782918 0.2348998  0.118568   1.548692   3.945      0.02309635 0.4145929  158.7581   0.4456685  0.5426816  0.3486553 
910        -9999      257.8      7.712      -9999      -9999      5.7191     -9999      -9999      3.415      1.351      1.804      1.149      5.7465     0.1182352  0.1182352  0.2748439  0.4336713  1.146786   3.879      0.2399481  0.5205148  156.4712   0.4745718  0.6135155  0.335628  
910.2      -9999      262.1      7.687      -9999      -9999      3.8138     -9999      -9999      3.249      1.311      1.681      1.098      3.937      0.1513466  0.1513466  0.3043678  1.780182   1.18309    3.815      0.382204   0.5866272  153.9082   0.4637005  0.6057571  0.3216439 
910.4      -9999      267.4      7.56       -9999      -9999      2.5112     -9999      -9999      3.246      1.294      1.689      1.083      2.8528     0.1672178  0.1672178  0.3130513  3.502979   1.386048   3.74       0.4282967  0.6051764  152.8403   0.4419198  0.5678338  0.3160057 
910.6      -9999      267.4      7.547      -9999      -9999      1.9111     -9999      -9999      3.294      1.225      1.706      1.098      2.7306     0.157775   0.157775   0.3043678  2.341718   1.408695   3.74       0.3986086  0.589148   154.4139   0.4442204  0.5640884  0.3243524 
910.8      -9999      263.1      7.496      -9999      -9999      1.656      -9999      -9999      3.427      1.254      1.673      1.142      3.0239     0.1309227  0.1309227  0.2788962  0.745015   1.501169   3.801      0.2978541  0.5380143  158.5032   0.4484045  0.549632   0.3471769 
911        -9999      264.2      7.547      -9999      -9999      1.7254     -9999      -9999      4.102      1.495      2.362      1.163      3.8063     0.1109419  0.1109419  0.2667393  0.3177401  1.408695   3.785      0.1873091  0.4935867  163.9383   0.4721132  0.5640884  0.380138  
911.2      -9999      267.4      7.725      -9999      -9999      2.1032     -9999      -9999      4.173      1.581      1.862      1.171      4.9475     0.09142734 0.09142734 0.2621081  0.1382338  1.12835    3.74       0.03274704 0.447804   169.4611   0.5172144  0.617589   0.4168398 
911.4      -9999      263.1      7.801      -9999      -9999      2.5667     -9999      -9999      3.729      1.432      1.763      1.131      5.3102     0.1045929  0.1045929  0.2852641  0.242366   1.02635    3.801      0.146199   0.5054723  174.4662   0.5474885  0.6419508  0.4530262 
