~Version
 VERS              .         2.0                           : CWLS LOG ASCII STANDARD - VERSION 2.0
 WRAP              .         NO                            : ONE LINE PER DEPTH STEP
 DLM               .         SPACE                         : DELIMITING CHARACTER(SPACE TAB OR COMMA)
~Well Information
#_______________________________________________________________________________
#
#PARAMETER_NAME    .UNIT     VALUE                         : DESCRIPTION
#_______________________________________________________________________________
STRT               .M        850                           : First reference value
STOP               .M        1203.8                        : Last reference value
STEP               .M        0.2                           : Step increment
NULL               .         -9999                         : Missing value
COMP               .                                       : Company
WELL               .         8446                          : Well name
FLD                .         Узень                         : Field
LOC                .                                       : Location
CNTY               .                                       : County
STAT               .                                       : State
CTRY               .                                       : Country
SRVC               .                                       : Service Company
DATE               .                                       : Date
UWI                .                                       : Unique Well ID
Block              .         6а                            : 
Category           .         Нефтяная                      : 
Condition          .         Ликвидированная               : 
Date               .         11.08.1997                    : 
EREF               .m        85.6                          : 100.8
GRP                .                                       : Group name
Gor                .         13                            : 
Gorizont           .         13                            : 14
ISS                .         БКЗ, магнитная лента          : Well surveys
Interpretator      .         Кайсанов Е.К                  : 
Kupol              .         Основной                      : osnovnoi
METD               .         CALI.BKZ                      : Method
Mud                .                                       : 
Mud_density        .                                       : 
Mud_resistivity    .                                       : 
NGDU               .         НГДУ-2                        : 
ORIGINALWELLNAME   .         8446                          : 
Spud_date          .         1997                          : 1961
TIME               .         14_38                         : LOG TIME
Viscosity          .                                       : 
X                  .m        44714.1                       : 46154
Y                  .m        85692.13                      : 85761.93
YEAR               .         2019                          : 
Сдали_за_3_кв_2019 .         3                             : 
~Parameter Information Block
#_______________________________________________________________________________
#
#PARAMETER_NAME    .UNIT     VALUE                         : DESCRIPTION
#_______________________________________________________________________________
SET                .         LQC_KAZNIPI_Petrel            : 
TLFamily_CALI      .         Caliper                       : 
TLFamily_CILD      .         Conductivity                  : 
TLFamily_DEPT      .         Measured Depth                : 
TLFamily_GR        .         Russian Gamma Ray             : 
TLFamily_GZ1       .         Gradient 045                  : 
TLFamily_GZ2       .         Gradient 105                  : 
TLFamily_GZ3       .         Gradient 225                  : 
TLFamily_GZ4       .         Gradient 425                  : 
TLFamily_GZ5       .         Gradient 850                  : 
TLFamily_LLS       .         Lateral Log Resistivity       : 
TLFamily_MINV      .         Micro Gradient Resistivity    : 
TLFamily_MNOR      .         Micro Resistivity             : 
TLFamily_NGLD      .         Neutron Far                   : 
TLFamily_OGZ3      .         Gradient Inverted 225         : 
TLFamily_PHIE      .         Effective Porosity            : 
TLFamily_PHIEN     .         Effective Porosity            : 
TLFamily_PHIT      .         Porosity                      : 
TLFamily_PRMB      .         Permeability                  : 
TLFamily_PRMB_DGR  .         Permeability                  : 
TLFamily_RT        .         Formation Resistivity         : 
TLFamily_SOIL_ARCHIE .         Oil Saturation                : 
TLFamily_SOIL_DW   .         Oil Saturation                : 
TLFamily_SP        .         Spontaneous Potential         : 
TLFamily_VSH_FIN   .         Shale Volume                  : 
TLFamily_VSH_GR    .         Shale Volume                  : 
TLFamily_VSH_SP    .         Shale Volume                  : 
~Curve Information
#_______________________________________________________________________________
#
#LOGNAME           .UNIT     LOG_ID                        : DESCRIPTION
#_______________________________________________________________________________
DEPT               .M                                      : Колонка глубины 
CALI               .м                                      : Каверномер 
CILD               .мСм/м                                  : Индукционный каротаж 
GR                 .uR/h                                   : Гамма каротаж 
GZ1                .Ohmm                                   : А0.4М0.1N 
GZ2                .Ohmm                                   : A1.0M0.1N 
GZ3                .Ohmm                                   : 119.11 - 1405.51- 185.61 - 1174.21 
GZ4                .Ohmm                                   : A4M0.5N 
GZ5                .Ohmm                                   : A8M1N 
LLS                .Ohmm                                   : Боковой каротаж 
MINV               .Ohmm                                   : Микро-градиент зонд 
MNOR               .Ohmm                                   : Микро-потенциал зонд 
NGLD               .у.е.                                   : Показания зонда НГК-60 аппаратуры ДРСТ-3-90 
OGZ3               .Ohmm                                   : 114.63 - 1401.03- 181.13 - 1169.73 
PHIE               .v/v                                    : Описание 
PHIEN              .v/v                                    :  
PHIT               .v/v                                    : Описание 
PRMB               .mD                                     :  
PRMB_DGR           .mD                                     :  
RT                 .ohmm                                   : УЭС пласта 
SOIL_ARCHIE        .v/v                                    :  
SOIL_DW            .v/v                                    :  
SP                 .мВ                                     : Потенциал самополяризации 
VSH_FIN            .v/v                                    : Описание 
VSH_GR             .v/v                                    : Shale volume 
VSH_SP             .v/v                                    : Shale Volume 
~Ascii
# ...
1130       0.243      394.7      9.388      1.968      2.362      1.999      2.166      0.528      2.617      1.863      1.977      1.127      2.0092     0.1660705  0.1660705  0.2875797  3.335696   2.767344   2.534      0.309584   0.4936289  190.0118   0.3682097  0.428159   0.3082606 
1130.2     0.241      392.6      9.439      1.93       2.388      1.9459     2.141      0.617      2.588      1.225      1.419      1.145      1.9684     0.1534947  0.1534947  0.2771595  1.950981   2.563197   2.547      0.2623443  0.4672023  189.0657   0.3747417  0.4417686  0.3077148 
1130.4     0.241      393.6      9.515      1.803      2.413      1.9581     2.102      0.655      2.542      1.817      1.657      1.12       1.9358     0.1617413  0.1617413  0.291632   2.773319   2.286582   2.541      0.2944306  0.4933309  191.4112   0.3936081  0.4628562  0.3243599 
1130.6     0.24       394.7      9.528      1.867      2.413      1.9418     2.09       0.705      2.43       1.708      1.607      1.076      1.9277     0.1818101  0.1818101  0.3171036  6.527132   2.242353   2.534      0.361942   0.5394661  195.7257   0.4099803  0.4665627  0.3533979 
1130.8     0.237      389.4      9.566      1.981      2.388      1.9398     2.077      0.807      2.411      1.587      1.665      1.068      1.8951     0.1790903  0.1790903  0.3217348  5.81226    2.117905   2.568      0.3575415  0.5438145  200.3195   0.4322561  0.4775685  0.3869438 
1131       0.235      382.9      9.465      1.905      2.362      1.903      2.077      0.832      2.476      1.656      1.468      1.098      1.9073     0.1612964  0.1612964  0.3043678  2.72119    2.464991   2.612      0.3018234  0.5125721  204.1402   0.4335496  0.4488724  0.4182267 
1131.2     0.231      377.6      9.338      1.981      2.426      1.9725     2.09       0.883      2.642      1.455      1.657      1.109      1.9888     0.1560073  0.1560073  0.2979999  2.17166    2.983258   2.648      0.2858543  0.5032011  207.0761   0.4302807  0.4152236  0.4453377 
1131.4     0.231      374.4      9.198      2.045      2.527      2.0541     2.102      0.921      2.889      1.633      1.665      1.105      2.1518     0.1596834  0.1596834  0.3003155  2.54028    3.681712   2.671      0.3030288  0.5121192  209.6519   0.4261579  0.3810457  0.4712701 
1131.6     0.235      377.6      9.007      2.146      2.654      2.2276     2.115      0.947      2.906      1.219      1.632      1.105      2.3026     0.1619638  0.1619638  0.3003155  2.799756   4.905573   2.648      0.3087839  0.5127096  212.3504   0.4192476  0.3389086  0.4995866 
1131.8     0.234      380.8      8.766      2.21       2.667      2.3196     2.191      0.998      2.735      1.685      1.772      1.098      2.38       0.1684582  0.1684582  0.3043678  3.693282   7.046242   2.626      0.3294313  0.5220672  215.2738   0.4118472  0.2923242  0.5313702 
1132       0.236      382.9      8.804      2.095      2.616      2.291      2.153      1.061      2.675      1.742      1.689      1.109      2.3637     0.1548347  0.1548347  0.2979999  2.065728   6.655183   2.612      0.2765139  0.4983226  218.5814   0.4338339  0.2992199  0.5684479 
1132.2     0.239      388.3      9.134      1.981      2.565      2.2317     2.026      1.125      2.685      1.61       1.706      1.094      2.3678     0.1444983  0.1444983  0.3066834  1.329282   4.053349   2.575      0.2264806  0.490276   222.7892   0.49147    0.3663729  0.6165672 
1132.4     0.241      396.8      9.515      2.032      2.578      2.1705     1.899      1.226      2.588      2.26       1.952      1.094      2.3719     0.1182521  0.1182521  0.3066834  0.4339841  2.286582   2.52       0.06955396 0.4451337  228.0388   0.571004   0.4628562  0.6791517 
1132.6     0.24       405.4      9.604      2.083      2.591      2.1092     1.81       1.366      2.341      1.627      1.632      1.109      2.2945     0.09401377 0.09401377 0.2979999  0.1543551  2.000364   2.467      0          0.3809679  233.3365   0.6181399  0.4888339  0.7474458 
1132.8     0.24       407.5      9.642      1.981      2.553      2.0296     1.721      1.594      2.141      1.639      1.673      1.116      2.1559     0.07938734 0.07938734 0.2939476  0.0827188  1.889346   2.454      0          0.3376711  237.1423   0.6501825  0.500365   0.8       
1133       0.236      402.2      9.871      1.791      2.4        1.9479     1.709      1.836      2.135      1.317      1.345      1.131      2.0459     0.05824932 0.05824932 0.2852641  0.0335797  1.339289   2.486      0          0.2616159  238.6891   0.6879235  0.575847   0.8       
1133.2     0.231      400        9.668      1.689      2.375      1.8846     1.747      2.102      2.293      1.466      1.509      1.156      2.0092     0.05490375 0.05490375 0.2707916  0.02911446 1.816958   2.5        0          0.2227526  238.2796   0.6542056  0.508411   0.8       
1133.4     0.23       396.8      9.503      1.6        2.337      1.8601     1.747      2.255      2.384      1.788      1.468      1.167      2.0744     0.05661261 0.05661261 0.2644237  0.03131562 2.328187   2.52       0          0.219634   236.0015   0.6297305  0.4594609  0.8       
1133.6     0.23       381.9      9.414      1.689      2.261      1.8581     1.671      2.433      2.402      0.753      1.279      1.145      2.1437     0.07909279 0.07909279 0.2771595  0.08168613 2.661316   2.618      0          0.3319517  230.1497   0.6002022  0.4350439  0.7653605 
1133.8     0.228      359.4      9.312      1.956      2.159      1.8765     1.645      2.623      2.419      1.673      1.525      1.149      2.164      0.1018227  0.1018227  0.2748439  0.2153585  3.102112   2.782      0          0.4022454  217.7543   0.5243065  0.4086523  0.6399606 
1134       0.225      327.3      9.185      1.981      2.159      1.8785     1.683      2.826      2.669      1.645      1.64       1.142      2.221      0.1385871  0.1385871  0.2788962  1.033062   3.754334   3.055      0.2596534  0.4957425  198.0951   0.4251793  0.3780186  0.47234   
1134.2     0.223      295.2      9.173      1.956      2.324      1.9521     1.874      3.118      3.601      1.11       1.632      1.12       2.4616     0.1749989  0.1749989  0.291632   4.881609   3.822644   3.388      0.4244123  0.5747085  175.8868   0.3534335  0.3752456  0.3316214 
1134.4     0.227      273.8      9.249      2.261      2.68       2.1439     2.141      3.512      4.798      1.622      2.157      1.116      2.8324     0.1865278  0.1865278  0.2939476  7.981881   3.410119   3.652      0.4743617  0.6026248  159.5192   0.3255145  0.3931575  0.2578714 
1134.6     0.221      271.7      9.452      2.934      3.365      2.587      2.534      3.855      5.534      1.725      2.518      1.109      3.1013     0.1842533  0.1842533  0.2979999  7.24395    2.513616   3.681      0.4706831  0.6054677  155.0638   0.3446869  0.4453062  0.2440675 
1134.8     0.222      286.7      9.744      3.721      4.089      3.0017     2.75       4.109      5.04       2.076      2.723      1.098      3.1747     0.1707237  0.1707237  0.3043678  4.067952   1.620876   3.488      0.4198523  0.587483   162.0942   0.4049819  0.5326799  0.277284  
1135       0.218      299.5      10.214     4.064      4.547      3.2812     2.687      3.83       3.683      1.53       2.001      1.094      2.9956     0.1320249  0.1320249  0.3066834  0.7808723  0.7999175  3.339      0.2592576  0.5369695  174.8681   0.5292681  0.7107289  0.3478074 
1135.2     0.218      305.9      10.696     3.746      4.61       3.1423     2.242      3.563      3.025      1.179      1.64       1.098      2.5959     0.101116   0.101116   0.3043678  0.2089645  0.3877122  3.269      0.05621576 0.4826964  186.8678   0.6159143  0.8        0.4318287 
1135.4     0.217      313.4      10.506     2.934      4.445      2.683      1.963      3.169      2.911      1.438      1.698      1.079      2.2618     0.1013502  0.1013502  0.3153669  0.2110617  0.5158183  3.191      0.04738036 0.4888991  194.395    0.6485355  0.8        0.497071  
