~Version
 VERS              .         2.0                           : CWLS LOG ASCII STANDARD - VERSION 2.0
 WRAP              .         NO                            : ONE LINE PER DEPTH STEP
 DLM               .         SPACE                         : DELIMITING CHARACTER(SPACE TAB OR COMMA)
~Well Information
#_______________________________________________________________________________
#
#PARAMETER_NAME    .UNIT     VALUE                         : DESCRIPTION
#_______________________________________________________________________________
STRT               .M        850                           : First reference value
STOP               .M        1203.8                        : Last reference value
STEP               .M        0.2                           : Step increment
NULL               .         -9999                         : Missing value
COMP               .                                       : Company
WELL               .         8446                          : Well name
FLD                .         Узень                         : Field
LOC                .                                       : Location
CNTY               .                                       : County
STAT               .                                       : State
CTRY               .                                       : Country
SRVC               .                                       : Service Company
DATE               .                                       : Date
UWI                .                                       : Unique Well ID
Block              .         6а                            : 
Category           .         Нефтяная                      : 
Condition          .         Ликвидированная               : 
Date               .         11.08.1997                    : 
EREF               .m        85.6                          : 100.8
GRP                .                                       : Group name
Gor                .         13                            : 
Gorizont           .         13                            : 14
ISS                .         БКЗ, магнитная лента          : Well surveys
Interpretator      .         Кайсанов Е.К                  : 
Kupol              .         Основной                      : osnovnoi
METD               .         CALI.BKZ                      : Method
Mud                .                                       : 
Mud_density        .                                       : 
Mud_resistivity    .                                       : 
NGDU               .         НГДУ-2                        : 
ORIGINALWELLNAME   .         8446                          : 
Spud_date          .         1997                          : 1961
TIME               .         14_38                         : LOG TIME
Viscosity          .                                       : 
X                  .m        44714.1                       : 46154
Y                  .m        85692.13                      : 85761.93
YEAR               .         2019                          : 
Сдали_за_3_кв_2019 .         3                             : 
~Parameter Information Block
#_______________________________________________________________________________
#
#PARAMETER_NAME    .UNIT     VALUE                         : DESCRIPTION
#_______________________________________________________________________________
SET                .         LQC_KAZNIPI_Petrel            : 
TLFamily_CALI      .         Caliper                       : 
TLFamily_CILD      .         Conductivity                  : 
TLFamily_DEPT      .         Measured Depth                : 
TLFamily_GR        .         Russian Gamma Ray             : 
TLFamily_GZ1       .         Gradient 045                  : 
TLFamily_GZ2       .         Gradient 105                  : 
TLFamily_GZ3       .         Gradient 225                  : 
TLFamily_GZ4       .         Gradient 425                  : 
TLFamily_GZ5       .         Gradient 850                  : 
TLFamily_LLS       .         Lateral Log Resistivity       : 
TLFamily_MINV      .         Micro Gradient Resistivity    : 
TLFamily_MNOR      .         Micro Resistivity             : 
TLFamily_NGLD      .         Neutron Far                   : 
TLFamily_OGZ3      .         Gradient Inverted 225         : 
TLFamily_PHIE      .         Effective Porosity            : 
TLFamily_PHIEN     .         Effective Porosity            : 
TLFamily_PHIT      .         Porosity                      : 
TLFamily_PRMB      .         Permeability                  : 
TLFamily_PRMB_DGR  .         Permeability                  : 
TLFamily_RT        .         Formation Resistivity         : 
TLFamily_SOIL_ARCHIE .         Oil Saturation                : 
TLFamily_SOIL_DW   .         Oil Saturation                : 
TLFamily_SP        .         Spontaneous Potential         : 
TLFamily_VSH_FIN   .         Shale Volume                  : 
TLFamily_VSH_GR    .         Shale Volume                  : 
TLFamily_VSH_SP    .         Shale Volume                  : 
~Curve Information
#_______________________________________________________________________________
#
#LOGNAME           .UNIT     LOG_ID                        : DESCRIPTION
#_______________________________________________________________________________
DEPT               .M                                      : Колонка глубины 
CALI               .м                                      : Каверномер 
CILD               .мСм/м                                  : Индукционный каротаж 
GR                 .uR/h                                   : Гамма каротаж 
GZ1                .Ohmm                                   : А0.4М0.1N 
GZ2                .Ohmm                                   : A1.0M0.1N 
GZ3                .Ohmm                                   : 119.11 - 1405.51- 185.61 - 1174.21 
GZ4                .Ohmm                                   : A4M0.5N 
GZ5                .Ohmm                                   : A8M1N 
LLS                .Ohmm                                   : Боковой каротаж 
MINV               .Ohmm                                   : Микро-градиент зонд 
MNOR               .Ohmm                                   : Микро-потенциал зонд 
NGLD               .у.е.                                   : Показания зонда НГК-60 аппаратуры ДРСТ-3-90 
OGZ3               .Ohmm                                   : 114.63 - 1401.03- 181.13 - 1169.73 
PHIE               .v/v                                    : Описание 
PHIEN              .v/v                                    :  
PHIT               .v/v                                    : Описание 
PRMB               .mD                                     :  
PRMB_DGR           .mD                                     :  
RT                 .ohmm                                   : УЭС пласта 
SOIL_ARCHIE        .v/v                                    :  
SOIL_DW            .v/v                                    :  
SP                 .мВ                                     : Потенциал самополяризации 
VSH_FIN            .v/v                                    : Описание 
VSH_GR             .v/v                                    : Shale volume 
VSH_SP             .v/v                                    : Shale Volume 
~Ascii
# ...
1090.8     0.245      203.2      5.934      3.531      4.889      2.9465     2.217      2.369      4.311      3.1        2.19       1.123      4.1569     0.1447508  0.1447508  0.2698953  1.343674   16.91985   4.921      0.4300742  0.601392   202.5974   0.3792258  0.2044179  0.5540336 
1091       0.252      207.5      5.756      3.734      5.41       3.2547     2.293      2.445      4.328      2.467      2.583      1.142      4.3036     0.1337116  0.1337116  0.2588962  0.8391154  20.69355   4.819      0.3832732  0.573878   204.4863   0.3793473  0.1882846  0.57041   
1091.2     0.247      205.4      5.731      3.607      5.639      3.5816     2.331      2.458      3.801      3.353      2.132      1.171      4.1854     0.1117914  0.1117914  0.2421081  0.3294629  21.28706   4.869      0.2826765  0.5268469  208.0948   0.394899   0.1861231  0.6036749 
1091.4     0.24       194.7      5.705      3.213      5.321      3.6876     2.369      2.458      3.53       2.852      2.214      1.182      3.9409     0.09924284 0.09924284 0.2357402  0.1929195  21.92238   5.136      0.2239826  0.5102825  212.1725   0.4136283  0.1839014  0.6433553 
1091.6     0.239      188.3      5.604      2.845      5.055      3.4936     2.433      2.458      3.866      0.794      2.272      1.152      3.8146     0.1123172  0.1123172  0.2531072  0.3369346  24.57546   5.311      0.3141458  0.5601401  215.5565   0.4266364  0.1755197  0.677753  
1091.8     0.244      190.4      5.426      2.832      5.055      3.4712     2.483      2.458      4.596      2.496      2.739      1.134      3.8105     0.1219288  0.1219288  0.2635274  0.5076632  30.05664   5.252      0.3581253  0.5817748  217.386    0.4290867  0.1616672  0.6965062 
1092       0.253      199        5.401      3.442      5.385      3.6733     2.534      2.458      4.805      1.627      2.501      1.131      3.672      0.1243426  0.1243426  0.2652641  0.5627111  30.9187    5.025      0.3557718  0.5773193  217.2729   0.4270346  0.1598112  0.6942582 
1092.2     0.252      203.2      5.54       3.645      5.55       3.898      2.585      2.496      4.205      2.076      2.46       1.112      3.358      0.1368059  0.1368059  0.2762632  0.9574937  26.42047   4.921      0.4013533  0.5983704  215.5574   0.4225978  0.1704074  0.6747882 
1092.4     0.252      201.1      5.693      3.353      5.385      3.9939     2.636      2.547      3.893      2.617      2.132      1.083      2.9465     0.1557172  0.1557172  0.2930513  2.144954   22.22197   4.973      0.4678264  0.6334881  213.2305   0.4161641  0.1828849  0.6494433 
1092.6     0.246      203.2      5.998      3.34       5.397      4.0204     2.725      2.61       3.946      2.933      1.952      1.043      2.6694     0.1773941  0.1773941  0.3162073  5.406641   15.73829   4.921      0.5225837  0.6657267  211.4869   0.420646   0.2105506  0.6307414 
1092.8     0.253      210.7      6.226      3.213      5.575      4.1879     2.814      2.687      3.978      1.978      1.443      1.028      2.6775     0.1828005  0.1828005  0.3248908  6.808737   12.16068   4.746      0.5269346  0.6690997  211.2291   0.4305767  0.233932   0.6272214 
1093       0.262      227.8      6.315      3.289      5.943      4.3165     2.839      2.763      4.202      1.679      2.526      1.024      2.7223     0.1811925  0.1811925  0.3272064  6.357456   10.99609   4.39       0.5055142  0.6562281  212.6373   0.4424662  0.2437484  0.641184  
1093.2     0.252      239.6      6.48       3.404      5.994      4.4574     2.864      2.788      3.751      2.243      2.296      1.032      2.7509     0.1694265  0.1694265  0.3225752  3.848993   9.124009   4.174      0.4631752  0.6349131  214.9756   0.4640872  0.26305    0.6651244 
1093.4     0.235      239.6      6.582      3.162      5.347      4.6187     2.928      2.814      3.176      1.599      1.739      1.017      2.6408     0.1726426  0.1726426  0.3312587  4.414873   8.129813   4.174      0.4718958  0.6434106  216.9223   0.4806549  0.2757388  0.6855709 
1093.6     0.241      246        6.442      3.023      5.004      4.3594     2.953      2.826      3.735      2.162      1.575      0.995      2.5593     0.1876156  0.1876156  0.3439945  8.360928   9.524727   4.065      0.5026608  0.6581514  217.2917   0.4738754  0.2584735  0.6892772 
1093.8     0.249      261        6.417      3.086      5.22       4.3287     2.928      2.826      3.936      8.005      2.419      0.988      2.7265     0.1952953  0.1952953  0.3480468  11.60116   9.797901   3.831      0.5061888  0.6558306  215.5415   0.4628833  0.2555062  0.6702604 
1094       0.244      276        6.709      3.124      5.244999   4.5125     2.915      2.826      3.522      2.312      1.607      0.981      2.8772     0.1998222  0.1998222  0.3520991  14.07179   7.041974   3.623      0.5030987  0.6517245  211.7134   0.4614452  0.2923966  0.6304939 
1094.2     0.252      297.4      6.912      3.086      4.991      4.5329     2.814      2.75       3.772      2.502      2.001      0.962      2.8731     0.2148978  0.2148978  0.3630982  26.76619   5.597252   3.362      0.5169462  0.6552034  206.2231   0.4490921  0.3211375  0.5770468 
1094.4     0.261      327.3      7.102      3.111      4.801      4.4778     2.661      2.547      3.485      5.193      3.543      0.959      2.7713     0.221133   0.221133   0.3648349  34.92029   4.514832   3.055      0.5071759  0.6434273  199.8915   0.4354603  0.3505921  0.5203285 
1094.6     0.261      351.9      7.356      2.934      4.254001   4.2328     2.445      2.28       2.73       1.495      1.493      0.959      2.6043     0.2219299  0.2219299  0.3648349  36.12747   3.387425   2.842      0.4917701  0.6308391  193.9779   0.4330456  0.3942309  0.4718603 
1094.8     0.259      368        7.649      2.68       3.759      3.673      2.242      2.052      2.448      1.409      1.739      0.966      2.1966     0.2137068  0.2137068  0.3607826  25.44051   2.431866   2.717      0.4635758  0.614122   189.7897   0.4456843  0.451359   0.4400096 
1095       0.261      378.7      7.89       2.413      3.454      2.9893     2.064      1.836      2.406      1.006      1.402      0.944      1.9277     0.219706   0.219706   0.3735184  32.85838   1.851628   2.641      0.4693377  0.6208975  188.1097   0.4660982  0.5045021  0.4276941 
1095.2     0.259      390.4      8.055      2.197      3.238      2.7176     1.874      1.645      2.423      2.076      1.632      0.929      1.8787     0.2207738  0.2207738  0.3822019  34.38935   1.536388   2.561      0.4638909  0.6210473  189.0016   0.4891761  0.544452   0.4339001 
1095.4     0.255      402.2      8.106      1.956      3.099      2.5299     1.836      1.607      2.359      2.156      1.673      0.926      1.7972     0.2167629  0.2167629  0.3839386  28.98227   1.450269   2.486      0.4476101  0.6136324  191.9867   0.5065931  0.5574288  0.4557575 
1095.6     0.255      408.6      7.915      1.753      2.946      2.438      1.836      1.594      2.234      1.909      1.361      0.966      1.7442     0.1959153  0.1959153  0.3607826  11.91199   1.800002   2.447      0.3922605  0.5791812  196.25     0.4995979  0.5103612  0.4888346 
1095.8     0.254      406.5      7.852      1.689      2.73       2.3747     1.836      1.556      2.204      1.754      1.271      0.959      1.8136     0.1962686  0.1962686  0.3648349  12.09286   1.932949   2.46       0.3947203  0.5834329  200.7254   0.5108069  0.495725   0.5258888 
1096       0.247      395.8      7.699      1.626      2.438      2.3502     1.861      1.582      2.309      1.903      1.788      0.964      1.9154     0.1939868  0.1939868  0.3619404  10.97146   2.29815    2.527      0.3961863  0.5851017  204.167    0.5089503  0.4619035  0.5559971 
1096.2     0.235      380.8      7.483      1.74       2.515      2.3481     2.026      1.683      2.399      1.938      1.427      0.995      2.0214     0.1812218  0.1812218  0.3439945  6.365396   2.93416    2.626      0.3707574  0.5688823  205.5594   0.4932506  0.4180468  0.5684544 
