~Version
 VERS              .         2.0                           : CWLS LOG ASCII STANDARD - VERSION 2.0
 WRAP              .         NO                            : ONE LINE PER DEPTH STEP
 DLM               .         SPACE                         : DELIMITING CHARACTER(SPACE TAB OR COMMA)
~Well Information
#_______________________________________________________________________________
#
#PARAMETER_NAME    .UNIT     VALUE                         : DESCRIPTION
#_______________________________________________________________________________
STRT               .M        850                           : First reference value
STOP               .M        1203.8                        : Last reference value
STEP               .M        0.2                           : Step increment
NULL               .         -9999                         : Missing value
COMP               .                                       : Company
WELL               .         8446                          : Well name
FLD                .         Узень                         : Field
LOC                .                                       : Location
CNTY               .                                       : County
STAT               .                                       : State
CTRY               .                                       : Country
SRVC               .                                       : Service Company
DATE               .                                       : Date
UWI                .                                       : Unique Well ID
Block              .         6а                            : 
Category           .         Нефтяная                      : 
Condition          .         Ликвидированная               : 
Date               .         11.08.1997                    : 
EREF               .m        85.6                          : 100.8
GRP                .                                       : Group name
Gor                .         13                            : 
Gorizont           .         13                            : 14
ISS                .         БКЗ, магнитная лента          : Well surveys
Interpretator      .         Кайсанов Е.К                  : 
Kupol              .         Основной                      : osnovnoi
METD               .         CALI.BKZ                      : Method
Mud                .                                       : 
Mud_density        .                                       : 
Mud_resistivity    .                                       : 
NGDU               .         НГДУ-2                        : 
ORIGINALWELLNAME   .         8446                          : 
Spud_date          .         1997                          : 1961
TIME               .         14_38                         : LOG TIME
Viscosity          .                                       : 
X                  .m        44714.1                       : 46154
Y                  .m        85692.13                      : 85761.93
YEAR               .         2019                          : 
Сдали_за_3_кв_2019 .         3                             : 
~Parameter Information Block
#_______________________________________________________________________________
#
#PARAMETER_NAME    .UNIT     VALUE                         : DESCRIPTION
#_______________________________________________________________________________
SET                .         LQC_KAZNIPI_Petrel            : 
TLFamily_CALI      .         Caliper                       : 
TLFamily_CILD      .         Conductivity                  : 
TLFamily_DEPT      .         Measured Depth                : 
TLFamily_GR        .         Russian Gamma Ray             : 
TLFamily_GZ1       .         Gradient 045                  : 
TLFamily_GZ2       .         Gradient 105                  : 
TLFamily_GZ3       .         Gradient 225                  : 
TLFamily_GZ4       .         Gradient 425                  : 
TLFamily_GZ5       .         Gradient 850                  : 
TLFamily_LLS       .         Lateral Log Resistivity       : 
TLFamily_MINV      .         Micro Gradient Resistivity    : 
TLFamily_MNOR      .         Micro Resistivity             : 
TLFamily_NGLD      .         Neutron Far                   : 
TLFamily_OGZ3      .         Gradient Inverted 225         : 
TLFamily_PHIE      .         Effective Porosity            : 
TLFamily_PHIEN     .         Effective Porosity            : 
TLFamily_PHIT      .         Porosity                      : 
TLFamily_PRMB      .         Permeability                  : 
TLFamily_PRMB_DGR  .         Permeability                  : 
TLFamily_RT        .         Formation Resistivity         : 
TLFamily_SOIL_ARCHIE .         Oil Saturation                : 
TLFamily_SOIL_DW   .         Oil Saturation                : 
TLFamily_SP        .         Spontaneous Potential         : 
TLFamily_VSH_FIN   .         Shale Volume                  : 
TLFamily_VSH_GR    .         Shale Volume                  : 
TLFamily_VSH_SP    .         Shale Volume                  : 
~Curve Information
#_______________________________________________________________________________
#
#LOGNAME           .UNIT     LOG_ID                        : DESCRIPTION
#_______________________________________________________________________________
DEPT               .M                                      : Колонка глубины 
CALI               .м                                      : Каверномер 
CILD               .мСм/м                                  : Индукционный каротаж 
GR                 .uR/h                                   : Гамма каротаж 
GZ1                .Ohmm                                   : А0.4М0.1N 
GZ2                .Ohmm                                   : A1.0M0.1N 
GZ3                .Ohmm                                   : 119.11 - 1405.51- 185.61 - 1174.21 
GZ4                .Ohmm                                   : A4M0.5N 
GZ5                .Ohmm                                   : A8M1N 
LLS                .Ohmm                                   : Боковой каротаж 
MINV               .Ohmm                                   : Микро-градиент зонд 
MNOR               .Ohmm                                   : Микро-потенциал зонд 
NGLD               .у.е.                                   : Показания зонда НГК-60 аппаратуры ДРСТ-3-90 
OGZ3               .Ohmm                                   : 114.63 - 1401.03- 181.13 - 1169.73 
PHIE               .v/v                                    : Описание 
PHIEN              .v/v                                    :  
PHIT               .v/v                                    : Описание 
PRMB               .mD                                     :  
PRMB_DGR           .mD                                     :  
RT                 .ohmm                                   : УЭС пласта 
SOIL_ARCHIE        .v/v                                    :  
SOIL_DW            .v/v                                    :  
SP                 .мВ                                     : Потенциал самополяризации 
VSH_FIN            .v/v                                    : Описание 
VSH_GR             .v/v                                    : Shale volume 
VSH_SP             .v/v                                    : Shale Volume 
~Ascii
# ...
1068.4     0.273      417.2      8.411      2.057      2.87       2.2277     1.709      1.734      2.807      1.386      1.616      1.032      2.1151     0.125001   0.125001   0.3225752  0.578734   1.027126   2.397      0.09239767 0.4600729  194.9806   0.5987099  0.6417529  0.5556669 
1068.6     0.268      426.8      8.55       2.057      2.769      2.246      1.671      1.734      2.376      1.696      1.329      1.021      1.9929     0.1257897  0.1257897  0.3289431  0.5985339  0.8776935  2.343      0.08765301 0.4618996  193.8973   0.6156163  0.6843041  0.5469284 
1068.8     0.266      432.1      8.703      1.994      2.68       2.1909     1.645      1.709      2.119      1.972      1.55       1.017      1.8787     0.1216694  0.1216694  0.3312587  0.5020773  0.7382185  2.314      0.05529653 0.454533   192.5309   0.6351191  0.73441    0.5358283 
1069       0.265      437.5      8.957      1.841      2.642      2.0929     1.658      1.683      2.009      1.581      1.378      1.01       1.8217     0.1169475  0.1169475  0.335311   0.410497   0.5538767  2.286      0.0165585  0.4478694  190.9882   0.6617075  0.8        0.523415  
1069.2     0.264      445        9.147      1.765      2.603      2.0827     1.594      1.658      1.974      1.834      1.345      0.988      1.8543     0.1322806  0.1322806  0.3480468  0.7894349  0.4467652  2.247      0.109457   0.4795408  189.0171   0.6538369  0.8        0.5076737 
1069.4     0.26       450.3      9.071      1.664      2.476      1.9724     1.544      1.62       1.909      1.104      1.411      0.988      1.8543     0.1352687  0.1352687  0.3480468  0.8967336  0.4868699  2.221      0.1218322  0.4806885  186.7008   0.644782   0.8        0.489564  
1069.6     0.26       450.3      8.868      1.638      2.362      1.9234     1.493      1.607      1.907      1.639      1.402      0.988      1.8543     0.1387079  0.1387079  0.3480468  1.038399   0.6125371  2.221      0.1408264  0.4853834  184.9096   0.6343604  0.7925653  0.4761555 
1069.8     0.254      445        8.703      1.727      2.273      1.8642     1.48       1.594      1.895      1.478      1.263      1.017      1.8747     0.1313598  0.1313598  0.3312587  0.7590308  0.7382185  2.247      0.1040221  0.4614656  184.9208   0.6057544  0.73441    0.4770988 
1070       0.248      437.5      8.385      1.841      2.184      1.8213     1.506      1.594      1.927      1.334      1.378      1.041      1.9684     0.1304293  0.1304293  0.3173651  0.7295001  1.057781   2.286      0.1057084  0.4499129  187.5164   0.5664721  0.6340925  0.4988516 
1070.2     0.247      430        8.182      1.753      2.172      1.8173     1.544      1.62       2.156      1.547      1.443      1.054      2.0377     0.1252516  0.1252516  0.3098394  0.5849528  1.330806   2.326      0.08110513 0.4380398  192.4022   0.559357   0.5773429  0.5413711 
1070.4     0.247      424.7      8.118      1.765      2.235      1.854      1.582      1.607      2.406      1.967      1.402      1.072      2.1396     0.1082198  0.1082198  0.2994192  0.2829117  1.430717   2.355      0          0.3983901  198.4646   0.5793921  0.5605268  0.5982574 
1070.6     0.248      420.4      8.118      2.007      2.273      1.95       1.62       1.556      2.58       1.777      1.689      1.072      2.2292     0.09817162 0.09817162 0.2994192  0.184304   1.430717   2.379      0          0.3807905  204.4311   0.6098411  0.5605268  0.6591553 
1070.8     0.247      412.9      8.157      2.019      2.273      1.9786     1.633      1.506      2.572      1.794      1.378      1.054      2.2537     0.09819805 0.09819805 0.3098394  0.1845118  1.368976   2.422      0          0.4000491  209.223    0.6413374  0.5707148  0.71196   
1071       0.248      405.4      8.233      2.019      2.362      1.9439     1.658      1.493      2.495      1.829      1.591      1.061      2.2211     0.0855811  0.0855811  0.3057871  0.1077278  1.256211   2.467      0          0.3722663  211.8992   0.6672909  0.5911036  0.7434782 
1071.2     0.248      399        8.538      2.045      2.388      1.8846     1.658      1.493      2.526      1.995      1.247      1.105      2.2293     0.04587496 0.04587496 0.2803155  0.0198095  0.8896878  2.506      0          0.2047526  211.7184   0.7104259  0.6805218  0.7403298 
1071.4     0.244      393.6      8.436      1.88       2.464      1.8785     1.658      1.506      2.599      2.105      1.476      1.087      2.2618     0.06736688 0.06736688 0.2907357  0.04954002 0.9984884  2.541      0          0.3096777  208.6307   0.6768752  0.6492058  0.7045445 
1071.6     0.244      389.4      8.309      2.057      2.553      1.8601     1.658      1.518      2.652      1.961      1.575      1.068      2.2618     0.09325127 0.09325127 0.3017348  0.1494163  1.152734   2.568      0          0.3965941  203.7381   0.6317683  0.6122209  0.6513159 
1071.8     0.255      389.4      8.538      2.299      2.591      1.8397     1.645      1.518      2.716      2.139      1.591      1.079      2.2578     0.08362098 0.08362098 0.2953669  0.0990881  0.8896878  2.568      0          0.3654113  198.9804   0.6416543  0.6805218  0.6027867 
1072       0.253      392.6      8.842      2.273      2.629      1.8377     1.62       1.48       2.791      2.45       3.248      1.098      2.2333     0.06037469 0.06037469 0.2843678  0.03676578 0.6308182  2.547      0          0.2764465  196.0836   0.6787669  0.7831048  0.574429  
1072.2     0.257      397.9      8.919      2.426      2.73       1.8744     1.594      1.455      2.663      2.599      1.804      1.112      2.1926     0.05020477 0.05020477 0.2762632  0.02382715 0.5782024  2.513      0          0.2164403  195.7038   0.6850256  0.8        0.5700512 
1072.4     0.261      403.3      8.906      2.451      2.832      1.8969     1.569      1.429      2.432      2.197      1.427      1.094      2.164      0.05801636 0.05801636 0.2866834  0.03324771 0.586767   2.48       0          0.2624847  197.4898   0.6929305  0.8        0.5858609 
1072.6     0.259      404.3      8.957      2.235      2.807      1.9357     1.556      1.417      2.264      1.811      1.304      1.076      2.1844     0.06351123 0.06351123 0.2971036  0.04202813 0.5538767  2.473      0          0.2985839  200.6756   0.7078557  0.8        0.6157115 
1072.8     0.255      402.2      8.868      1.994      2.718      1.9582     1.544      1.417      2.154      1.668      1.706      1.039      2.1966     0.08015206 0.08015206 0.3185229  0.08546115 0.6125371  2.486      0          0.3789524  204.3727   0.7223358  0.7925653  0.6521063 
1073       0.248      394.7      8.677      1.867      2.629      1.9418     1.544      1.429      2.258      1.823      1.361      1.035      2.1966     0.08820076 0.08820076 0.3208385  0.120462   0.7602509  2.534      0          0.4062424  207.5149   0.7049629  0.7256436  0.6842822 
1073.2     0.251      388.3      8.347      1.753      2.502      1.9398     1.544      1.442      2.476      1.823      1.64       1.057      2.2904     0.08982761 0.08982761 0.3081027  0.129117   1.104237   2.575      0          0.3983001  209.038    0.6614396  0.6230607  0.6998184 
1073.4     0.252      385.1      8.284      1.905      2.553      2.0133     1.544      1.429      2.707      1.731      1.837      1.054      2.4249     0.09582935 0.09582935 0.3098394  0.1667823  1.185795   2.597      0          0.4158182  208.3997   0.6485153  0.6051925  0.691838  
1073.6     0.254      382.9      8.144      2.019      2.565      2.0582     1.569      1.442      2.759      1.564      1.862      1.072      2.4982     0.09616674 0.09616674 0.2994192  0.1691997  1.389254   2.612      0          0.4048732  205.937    0.6159165  0.5672985  0.6645345 
1073.8     0.254      381.9      8.131      1.994      2.591      2.099      1.594      1.467      2.766      1.512      1.607      1.076      2.4534     0.1000298  0.1000298  0.2971036  0.1995045  1.409834   2.618      0          0.4105342  202.7177   0.5971934  0.5639024  0.6304844 
