~Version
 VERS              .         2.0                           : CWLS LOG ASCII STANDARD - VERSION 2.0
 WRAP              .         NO                            : ONE LINE PER DEPTH STEP
 DLM               .         SPACE                         : DELIMITING CHARACTER(SPACE TAB OR COMMA)
~Well Information
#_______________________________________________________________________________
#
#PARAMETER_NAME    .UNIT     VALUE                         : DESCRIPTION
#_______________________________________________________________________________
STRT               .M        850                           : First reference value
STOP               .M        1203.8                        : Last reference value
STEP               .M        0.2                           : Step increment
NULL               .         -9999                         : Missing value
COMP               .                                       : Company
WELL               .         8446                          : Well name
FLD                .         Узень                         : Field
LOC                .                                       : Location
CNTY               .                                       : County
STAT               .                                       : State
CTRY               .                                       : Country
SRVC               .                                       : Service Company
DATE               .                                       : Date
UWI                .                                       : Unique Well ID
Block              .         6а                            : 
Category           .         Нефтяная                      : 
Condition          .         Ликвидированная               : 
Date               .         11.08.1997                    : 
EREF               .m        85.6                          : 100.8
GRP                .                                       : Group name
Gor                .         13                            : 
Gorizont           .         13                            : 14
ISS                .         БКЗ, магнитная лента          : Well surveys
Interpretator      .         Кайсанов Е.К                  : 
Kupol              .         Основной                      : osnovnoi
METD               .         CALI.BKZ                      : Method
Mud                .                                       : 
Mud_density        .                                       : 
Mud_resistivity    .                                       : 
NGDU               .         НГДУ-2                        : 
ORIGINALWELLNAME   .         8446                          : 
Spud_date          .         1997                          : 1961
TIME               .         14_38                         : LOG TIME
Viscosity          .                                       : 
X                  .m        44714.1                       : 46154
Y                  .m        85692.13                      : 85761.93
YEAR               .         2019                          : 
Сдали_за_3_кв_2019 .         3                             : 
~Parameter Information Block
#_______________________________________________________________________________
#
#PARAMETER_NAME    .UNIT     VALUE                         : DESCRIPTION
#_______________________________________________________________________________
SET                .         LQC_KAZNIPI_Petrel            : 
TLFamily_CALI      .         Caliper                       : 
TLFamily_CILD      .         Conductivity                  : 
TLFamily_DEPT      .         Measured Depth                : 
TLFamily_GR        .         Russian Gamma Ray             : 
TLFamily_GZ1       .         Gradient 045                  : 
TLFamily_GZ2       .         Gradient 105                  : 
TLFamily_GZ3       .         Gradient 225                  : 
TLFamily_GZ4       .         Gradient 425                  : 
TLFamily_GZ5       .         Gradient 850                  : 
TLFamily_LLS       .         Lateral Log Resistivity       : 
TLFamily_MINV      .         Micro Gradient Resistivity    : 
TLFamily_MNOR      .         Micro Resistivity             : 
TLFamily_NGLD      .         Neutron Far                   : 
TLFamily_OGZ3      .         Gradient Inverted 225         : 
TLFamily_PHIE      .         Effective Porosity            : 
TLFamily_PHIEN     .         Effective Porosity            : 
TLFamily_PHIT      .         Porosity                      : 
TLFamily_PRMB      .         Permeability                  : 
TLFamily_PRMB_DGR  .         Permeability                  : 
TLFamily_RT        .         Formation Resistivity         : 
TLFamily_SOIL_ARCHIE .         Oil Saturation                : 
TLFamily_SOIL_DW   .         Oil Saturation                : 
TLFamily_SP        .         Spontaneous Potential         : 
TLFamily_VSH_FIN   .         Shale Volume                  : 
TLFamily_VSH_GR    .         Shale Volume                  : 
TLFamily_VSH_SP    .         Shale Volume                  : 
~Curve Information
#_______________________________________________________________________________
#
#LOGNAME           .UNIT     LOG_ID                        : DESCRIPTION
#_______________________________________________________________________________
DEPT               .M                                      : Колонка глубины 
CALI               .м                                      : Каверномер 
CILD               .мСм/м                                  : Индукционный каротаж 
GR                 .uR/h                                   : Гамма каротаж 
GZ1                .Ohmm                                   : А0.4М0.1N 
GZ2                .Ohmm                                   : A1.0M0.1N 
GZ3                .Ohmm                                   : 119.11 - 1405.51- 185.61 - 1174.21 
GZ4                .Ohmm                                   : A4M0.5N 
GZ5                .Ohmm                                   : A8M1N 
LLS                .Ohmm                                   : Боковой каротаж 
MINV               .Ohmm                                   : Микро-градиент зонд 
MNOR               .Ohmm                                   : Микро-потенциал зонд 
NGLD               .у.е.                                   : Показания зонда НГК-60 аппаратуры ДРСТ-3-90 
OGZ3               .Ohmm                                   : 114.63 - 1401.03- 181.13 - 1169.73 
PHIE               .v/v                                    : Описание 
PHIEN              .v/v                                    :  
PHIT               .v/v                                    : Описание 
PRMB               .mD                                     :  
PRMB_DGR           .mD                                     :  
RT                 .ohmm                                   : УЭС пласта 
SOIL_ARCHIE        .v/v                                    :  
SOIL_DW            .v/v                                    :  
SP                 .мВ                                     : Потенциал самополяризации 
VSH_FIN            .v/v                                    : Описание 
VSH_GR             .v/v                                    : Shale volume 
VSH_SP             .v/v                                    : Shale Volume 
~Ascii
# ...
1169.2     -9999      436.4      8.995      2.959      6.591      5.673      1.658      4.096      2.691      2.967      3.084      0.948      2.0581     0.2756677  0.2756677  0.3912028  357.4318   4.994826   2.291      0.5344514  0.638801   120.5154   0.3501063  0.3364224  0.3637902 
1169.4     -9999      458.9      8.88       2.616      6.501999   6.2052     1.671      3.741      2.188      0.633      0.919      0.926      2.0581     0.2828541  0.2828541  0.4039386  485.6266   5.936975   2.179      0.533936   0.6403798  128.7901   0.3669227  0.313503   0.4203424 
1169.6     -9999      463.2      8.817      2.045      5.893      4.9435     1.696      2.928      1.782      0.684      0.894      0.911      2.0581     0.2871328  0.2871328  0.4126221  582.8457   6.526441   2.159      0.5379958  0.6454097  133.6903   0.3802707  0.3016161  0.4589252 
1169.8     -9999      467.4      8.969      1.486      2.451      3.07       1.658      2.191      1.86       0.788      0.984      0.933      -9999      0.26742    0.26742    0.3998863  251.4343   5.193821   2.139      0.5063201  0.6263717  134.9693   0.4014131  0.3310983  0.471728  
1170       -9999      471.7      9.388      1.524      1.791      1.9235     1.442      1.721      2.009      1.386      1.427      0.977      -9999      0.2278333  0.2278333  0.3744147  46.47119   2.767344   2.12       0.4300173  0.583567   133.0936   0.444186   0.428159   0.4602131 
1170.2     -9999      471.7      9.642      1.587      1.918      1.5966     0.998      1.709      2.079      1.098      1.501      1.013      -9999      0.1981855  0.1981855  0.3535743  13.12305   1.889346   2.12       0.3564329  0.544383   130.1936   0.4708751  0.500365   0.4413851 
1170.4     -9999      470.6      9.401      1.499      2.134      1.462      0.807      1.709      2.085      1.461      1.329      1.017      -9999      0.2087184  0.2087184  0.3512587  20.56507   2.713811   2.125      0.3854929  0.552399   128.559    0.4319402  0.4315878  0.4322926 
1170.6     -9999      465.3      9.325      1.397      2.222      1.3762     0.718      1.683      2.127      1.311      1.583      1.024      -9999      0.2068829  0.2068829  0.3472064  19.01655   3.042106   2.149      0.3840021  0.5502083  129.0361   0.4252226  0.4119247  0.4385204 
1170.8     -9999      455.7      9.414      1.524      2.197      1.2945     0.629      1.658      2.121      0.857      1.074      1.021      -9999      0.2021385  0.2021385  0.3489431  15.53292   2.661316   2.194      0.3775117  0.5520621  131.0772   0.4448624  0.4350439  0.4546809 
1171       -9999      446        9.427      1.562      2.197      1.3231     0.629      1.658      2.236      1.052      0.894      1.028      -9999      0.19475    0.19475    0.3448908  11.33447   2.609834   2.242      0.3634901  0.5471182  133.2595   0.4549721  0.4385279  0.4714162 
1171.2     -9999      440.7      9.363      1.524      2.108      1.4008     0.617      1.658      2.46       1.133      1.329      1.035      -9999      1          1          0.3408385  9323613800000000.0000000 2.873274   2.269      0.8477581  0.6408519  -9999      -4999.289  0.4216417  -9999     
1171.4     -9999      440.7      9.477      1.46       2.032      1.5191     0.617      1.671      2.542      1.018      1.214      1.032      -9999      1          1          0.3425752  9323613800000000.0000000 2.420942   2.269      0.8477581  0.6426727  -9999      -4999.274  0.4521895  -9999     
1171.6     -9999      440.7      9.236      1.499      1.994      1.7519     0.604      1.645      2.515      0.782      1.386      1.054      -9999      1          1          0.3298394  9323613800000000.0000000 3.477383   2.269      0.8477581  0.6288754  -9999      -4999.305  0.3900342  -9999     
1171.8     -9999      441.8      8.982      1.638      1.994      1.9971     0.566      -9999      2.46       1.3        1.452      1.054      -9999      1          1          0.3298394  9323613800000000.0000000 5.093349   2.263      0.8475689  0.6283838  -9999      -4999.333  0.3337498  -9999     
1172       -9999      440.7      9.223      1.664      2.045      2.0214     0.566      -9999      2.339      1.466      1.575      1.05       -9999      1          1          0.332155   9323613800000000.0000000 3.545979   2.269      0.8477581  0.6314628  -9999      -4999.307  0.3869355  -9999     
1172.2     -9999      434.3      9.211      1.562      2.007      2.0214     0.591      -9999      2.236      1.639      1.534      1.043      -9999      1          1          0.3362073  9323613800000000.0000000 3.610491   2.303      0.848817   0.6386023  -9999      -4999.308  0.3840973  -9999     
1172.4     -9999      428.9      9.16       1.587      1.994      2.0214     0.604      -9999      2.236      1.507      1.64       1.032      -9999      1          1          0.3425752  9323613800000000.0000000 3.89805    2.332      0.8497022  0.6475323  -9999      -4999.314  0.3722643  -9999     
1172.6     -9999      431.1      9.477      1.575      2.007      2.0582     0.617      -9999      2.233      1.219      1.156      1.002      -9999      1          1          0.3599422  9323613800000000.0000000 2.420942   2.32       0.8493379  0.6636723  -9999      -4999.274  0.4521895  -9999     
1172.8     -9999      434.3      9.757      1.664      1.994      2.0623     0.642      -9999      2.295      1.685      1.386      1.017      -9999      1          1          0.3512587  9323613800000000.0000000 1.589523   2.303      0.848817   0.6540882  -9999      -4999.231  0.5369455  -9999     
1173       -9999      432.1      9.985      1.803      1.968      2.0623     0.642      -9999      2.393      2.024      1.386      1.039      -9999      1          1          0.3385229  9323613800000000.0000000 1.12845    2.314      0.8491547  0.6419285  -9999      -4999.191  0.6175666  -9999     
1173.2     -9999      426.8      9.884      1.765      -9999      2.0623     -9999      -9999      2.492      1.88       1.476      1.039      -9999      1          1          0.3385229  9323613800000000.0000000 1.313382   2.343      0.8500337  0.6441514  -9999      -4999.21   0.5804583  -9999     
1173.4     -9999      419.3      9.642      1.587      -9999      2.0623     -9999      -9999      2.526      1.645      1.238      1.043      -9999      1          1          0.3362073  9323613800000000.0000000 1.889346   2.385      0.8512788  0.6448694  -9999      -4999.25   0.500365   -9999     
1173.6     -9999      419.3      9.731      1.486      -9999      2.0439     -9999      -9999      2.565      1.409      1.099      1.076      -9999      1          1          0.3171036  9323613800000000.0000000 1.65285    2.385      0.8512788  0.6234748  -9999      -4999.236  0.5284479  -9999     
1173.8     -9999      423.6      9.871      1.626      -9999      2.0602     -9999      -9999      2.605      1.84       1.648      1.054      -9999      1          1          0.3298394  9323613800000000.0000000 1.339289   2.361      0.8505713  0.636178   -9999      -4999.212  0.575847   -9999     
1174       -9999      423.6      9.884      1.638      -9999      2.0623     -9999      -9999      2.6        1.478      1.657      1.039      -9999      1          1          0.3385229  9323613800000000.0000000 1.313382   2.361      0.8505713  0.6455104  -9999      -4999.21   0.5804583  -9999     
1174.2     -9999      423.6      9.922      1.664      -9999      2.0623     -9999      -9999      2.561      1.57       1.288      1.039      -9999      1          1          0.3385229  9323613800000000.0000000 1.240492   2.361      0.8505713  0.6455104  -9999      -4999.203  0.5941508  -9999     
1174.4     -9999      425.7      9.934      1.727      -9999      -9999      -9999      -9999      2.523      1.587      1.493      1.032      -9999      1          1          0.3425752  9323613800000000.0000000 1.218325   2.349      0.8502136  0.6488101  -9999      -4999.201  0.5985415  -9999     
1174.6     -9999      425.7      9.934      1.714      -9999      -9999      -9999      -9999      2.469      1.15       1.427      1.032      -9999      1          1          0.3425752  9323613800000000.0000000 1.218325   2.349      0.8502136  0.6488101  -9999      -4999.201  0.5985415  -9999     
