~Version
 VERS              .         2.0                           : CWLS LOG ASCII STANDARD - VERSION 2.0
 WRAP              .         NO                            : ONE LINE PER DEPTH STEP
 DLM               .         SPACE                         : DELIMITING CHARACTER(SPACE TAB OR COMMA)
~Well Information
#_______________________________________________________________________________
#
#PARAMETER_NAME    .UNIT     VALUE                         : DESCRIPTION
#_______________________________________________________________________________
STRT               .M        850                           : First reference value
STOP               .M        1203.8                        : Last reference value
STEP               .M        0.2                           : Step increment
NULL               .         -9999                         : Missing value
COMP               .                                       : Company
WELL               .         8446                          : Well name
FLD                .         Узень                         : Field
LOC                .                                       : Location
CNTY               .                                       : County
STAT               .                                       : State
CTRY               .                                       : Country
SRVC               .                                       : Service Company
DATE               .                                       : Date
UWI                .                                       : Unique Well ID
Block              .         6а                            : 
Category           .         Нефтяная                      : 
Condition          .         Ликвидированная               : 
Date               .         11.08.1997                    : 
EREF               .m        85.6                          : 100.8
GRP                .                                       : Group name
Gor                .         13                            : 
Gorizont           .         13                            : 14
ISS                .         БКЗ, магнитная лента          : Well surveys
Interpretator      .         Кайсанов Е.К                  : 
Kupol              .         Основной                      : osnovnoi
METD               .         CALI.BKZ                      : Method
Mud                .                                       : 
Mud_density        .                                       : 
Mud_resistivity    .                                       : 
NGDU               .         НГДУ-2                        : 
ORIGINALWELLNAME   .         8446                          : 
Spud_date          .         1997                          : 1961
TIME               .         14_38                         : LOG TIME
Viscosity          .                                       : 
X                  .m        44714.1                       : 46154
Y                  .m        85692.13                      : 85761.93
YEAR               .         2019                          : 
Сдали_за_3_кв_2019 .         3                             : 
~Parameter Information Block
#_______________________________________________________________________________
#
#PARAMETER_NAME    .UNIT     VALUE                         : DESCRIPTION
#_______________________________________________________________________________
SET                .         LQC_KAZNIPI_Petrel            : 
TLFamily_CALI      .         Caliper                       : 
TLFamily_CILD      .         Conductivity                  : 
TLFamily_DEPT      .         Measured Depth                : 
TLFamily_GR        .         Russian Gamma Ray             : 
TLFamily_GZ1       .         Gradient 045                  : 
TLFamily_GZ2       .         Gradient 105                  : 
TLFamily_GZ3       .         Gradient 225                  : 
TLFamily_GZ4       .         Gradient 425                  : 
TLFamily_GZ5       .         Gradient 850                  : 
TLFamily_LLS       .         Lateral Log Resistivity       : 
TLFamily_MINV      .         Micro Gradient Resistivity    : 
TLFamily_MNOR      .         Micro Resistivity             : 
TLFamily_NGLD      .         Neutron Far                   : 
TLFamily_OGZ3      .         Gradient Inverted 225         : 
TLFamily_PHIE      .         Effective Porosity            : 
TLFamily_PHIEN     .         Effective Porosity            : 
TLFamily_PHIT      .         Porosity                      : 
TLFamily_PRMB      .         Permeability                  : 
TLFamily_PRMB_DGR  .         Permeability                  : 
TLFamily_RT        .         Formation Resistivity         : 
TLFamily_SOIL_ARCHIE .         Oil Saturation                : 
TLFamily_SOIL_DW   .         Oil Saturation                : 
TLFamily_SP        .         Spontaneous Potential         : 
TLFamily_VSH_FIN   .         Shale Volume                  : 
TLFamily_VSH_GR    .         Shale Volume                  : 
TLFamily_VSH_SP    .         Shale Volume                  : 
~Curve Information
#_______________________________________________________________________________
#
#LOGNAME           .UNIT     LOG_ID                        : DESCRIPTION
#_______________________________________________________________________________
DEPT               .M                                      : Колонка глубины 
CALI               .м                                      : Каверномер 
CILD               .мСм/м                                  : Индукционный каротаж 
GR                 .uR/h                                   : Гамма каротаж 
GZ1                .Ohmm                                   : А0.4М0.1N 
GZ2                .Ohmm                                   : A1.0M0.1N 
GZ3                .Ohmm                                   : 119.11 - 1405.51- 185.61 - 1174.21 
GZ4                .Ohmm                                   : A4M0.5N 
GZ5                .Ohmm                                   : A8M1N 
LLS                .Ohmm                                   : Боковой каротаж 
MINV               .Ohmm                                   : Микро-градиент зонд 
MNOR               .Ohmm                                   : Микро-потенциал зонд 
NGLD               .у.е.                                   : Показания зонда НГК-60 аппаратуры ДРСТ-3-90 
OGZ3               .Ohmm                                   : 114.63 - 1401.03- 181.13 - 1169.73 
PHIE               .v/v                                    : Описание 
PHIEN              .v/v                                    :  
PHIT               .v/v                                    : Описание 
PRMB               .mD                                     :  
PRMB_DGR           .mD                                     :  
RT                 .ohmm                                   : УЭС пласта 
SOIL_ARCHIE        .v/v                                    :  
SOIL_DW            .v/v                                    :  
SP                 .мВ                                     : Потенциал самополяризации 
VSH_FIN            .v/v                                    : Описание 
VSH_GR             .v/v                                    : Shale volume 
VSH_SP             .v/v                                    : Shale Volume 
~Ascii
# ...
1107.6     0.232      149.7      7.153      4.762      7.556      4.6473     3.842      3.55       5.912      3.928      4.035      1.193      3.9166     0.09346166 0.09346166 0.2293723  0.150763   4.26176    6.68       0.2772196  0.5533567  194.7738   0.4118505  0.3589483  0.4647527 
1107.8     0.242      175.4      7.344      4.902      8.699      4.8557     3.639      3.207      4.663      2.824      2.198      1.131      3.5822     0.120187   0.120187   0.2652641  0.4713164  3.433717   5.701      0.3745758  0.5980521  197.655    0.4396276  0.392052   0.4872031 
1108       0.252      186.1      7.331      4.572      8.509      4.88       3.436      3.169      3.761      2.306      2.313      1.068      3.0771     0.1512026  0.1512026  0.3017348  1.769281   3.484581   5.373      0.4734795  0.6496815  201.951    0.4561583  0.3897051  0.5226115 
1108.2     0.254      192.5      7.255      4.102      7.239      4.4204     3.195      2.826      3.645      2.536      2.854      1.013      2.7182     0.1787561  0.1787561  0.3335743  5.730009   3.797376   5.195      0.5376601  0.6860054  206.4394   0.4691459  0.3762631  0.5620288 
1108.4     0.253      201.1      7.292      3.531      6.413      4.0939     2.953      2.636      3.795      2.076      2.69       1.002      2.596      0.1794242  0.1794242  0.3399422  5.895616   3.641735   4.973      0.5296176  0.6832165  209.4793   0.4864183  0.3827482  0.5900883 
1108.6     0.252      213.9      7.331      3.073      6.147      4.081699   2.788      2.547      4.162      3.565      3.281      1.01       2.6246     0.1732306  0.1732306  0.335311   4.526983   3.484581   4.675      0.5007338  0.6659989  209.7695   0.4911528  0.3897051  0.5926005 
1108.8     0.254      231        7.407      3.061      5.867      4.286      2.712      2.483      4.11       2.732      2.378      0.995      2.5879     0.1840284  0.1840284  0.3439945  7.174817   3.197547   4.329      0.5089437  0.6662287  206.9379   0.4847457  0.4036273  0.5658641 
1109       0.257      250.3      7.42       3.061      5.639      4.6023     2.649      2.395      3.982      2.778      2.165      0.973      2.482      0.2040645  0.2040645  0.3567303  16.86274   3.150873   3.995      0.5339803  0.6736682  201.6816   0.4626236  0.4060581  0.5191891 
1109.2     0.258      274.9      7.496      3.048      5.296      5.0028     2.56       2.331      3.821      3.215      2.182      0.951      2.3637     0.2227532  0.2227532  0.3694661  37.41859   2.891331   3.638      0.548834   0.6766536  195.4833   0.4445846  0.4205644  0.4686048 
1109.4     0.265      301.6      7.737      3.023      5.143      5.2639     2.547      2.28       3.368      2.203      2.091      0.948      2.2741     0.2230582  0.2230582  0.3712028  37.9086    2.201465   3.316      0.5293417  0.6624544  190.017    0.4489229  0.4700819  0.4277639 
1109.6     0.27       322        8.017      2.769      4.902      5.1414     2.509      2.229      2.859      1.489      1.525      0.951      2.2333     0.2146688  0.2146688  0.3694661  26.50608   1.603864   3.106      0.4981896  0.6448603  186.4935   0.4690827  0.5349798  0.4031856 
1109.8     0.282      334.8      7.953      2.502      4.508      4.7941     2.191      2.166      2.611      1.719      1.189      0.959      2.1885     0.2139216  0.2139216  0.3648349  25.67469   1.724274   2.987      0.4873509  0.6345863  185.3255   0.457313   0.5193976  0.3952285 
1110       0.293      346.6      7.699      2.21       4.026      4.39       2.115      2.039      2.63       1.535      1.493      0.973      2.1233     0.214277   0.214277   0.3567303  26.06685   2.29815    2.885      0.4796768  0.6233771  186.2876   0.4316766  0.4619035  0.4014496 
1110.2     0.268      357.3      7.61       2.146      3.569      3.9447     2.052      1.937      2.615      0.863      1.493      0.984      2.0418     0.2080029  0.2080029  0.3503624  19.94694   2.541544   2.799      0.4583966  0.6088611  188.9488   0.4313924  0.4433016  0.4194832 
1110.4     0.252      364.7      7.598      2.121      3.302      3.5324     2.077      1.899      2.556      1.662      1.525      0.973      1.9725     0.2103017  0.2103017  0.3567303  22.00166   2.576276   2.742      0.4583521  0.6107832  192.7395   0.4437231  0.4408514  0.4465947 
1110.6     0.247      370.1      7.42       2.045      3.213      3.2711     2.128      1.912      2.629      1.397      1.23       0.973      1.9765     0.2112148  0.2112148  0.3567303  22.87535   3.150873   2.702      0.456658   0.6085891  196.5962   0.4409562  0.4060581  0.4758543 
1110.8     0.252      374.4      7.496      1.905      3.238      3.2282     2.268      1.937      2.725      1.765      1.378      0.995      2.0785     0.1928622  0.1928622  0.3439945  10.45762   2.891331   2.671      0.4087001  0.5828243  199.0615   0.4579768  0.4205644  0.4953892 
1111       0.262      376.5      7.864      1.854      3.099      3.2813     2.395      1.963      2.731      1.8        1.78       0.981      2.1722     0.1878525  0.1878525  0.3520991  8.44581    1.906891   2.656      0.3933885  0.5832493  199.2795   0.4977171  0.4984801  0.4969541 
1111.2     0.257      375.4      8.055      1.829      2.921      3.1403     2.56       2.001      2.716      0.943      1.304      0.995      2.217      0.174134   0.174134   0.3439945  4.704817   1.536388   2.664      0.3528858  0.5653047  197.8289   0.5147287  0.544452   0.4850053 
1111.4     0.254      373.3      7.991      1.956      2.794      2.9403     2.61       2.052      2.737      0.868      1.148      0.995      2.1966     0.1788516  0.1788516  0.3439945  5.753388   1.651732   2.679      0.3694412  0.5709802  196.2445   0.500433   0.5285939  0.4722721 
1111.6     0.246      373.3      7.725      2.261      2.807      2.7729     2.56       2.052      2.841      0.627      1.296      1.002      2.1885     0.1854308  0.1854308  0.3399422  7.617035   2.23155    2.679      0.3889718  0.5739105  195.844    0.4682164  0.4674837  0.4689491 
1111.8     0.241      377.6      7.623      2.235      2.908      2.683      2.585      2.064      2.9        0.736      1.46       1.024      2.2374     0.1746423  0.1746423  0.3272064  4.807921   2.504446   2.648      0.3526991  0.5509383  197.1101   0.4623153  0.4459713  0.4786594 
1112       0.241      380.8      7.928      2.286      2.946      2.6748     2.687      2.064      2.83       0.684      1.427      1.024      2.3107     0.1599466  0.1599466  0.3272064  2.568961   1.773728   2.626      0.2984566  0.5334894  199.8143   0.5068477  0.5134348  0.5002607 
1112.2     0.246      380.8      7.979      2.362      2.946      2.6381     2.61       2.064      2.701      0.989      1.329      1.006      2.3515     0.1635317  0.1635317  0.3376266  2.993381   1.674304   2.626      0.3118708  0.546299   203.2991   0.5275602  0.5256723  0.5294481 
1112.4     0.248      378.7      7.75       2.184      2.896      2.5237     2.534      2.064      2.615      0.782      1.033      1.002      2.38       0.1693863  0.1693863  0.3399422  3.842408   2.16933    2.641      0.334414   0.555519   206.8534   0.516836   0.4729129  0.5607592 
1112.6     0.245      376.5      7.547      2.121      2.883      2.4196     2.458      2.039      2.618      0.702      1.493      1.002      2.3719     0.1714651  0.1714651  0.3399422  4.198626   2.729261   2.656      0.3431953  0.5588502  210.0745   0.5105368  0.4305885  0.5904852 
1112.8     0.241      378.7      7.509      2.172      2.883      2.3358     2.369      2.026      2.646      1.133      1.247      1.01       2.4167     0.1637697  0.1637697  0.335311   3.023918   2.849127   2.641      0.3145763  0.5459129  212.7907   0.5198222  0.4230972  0.6165472 
1113       0.24       376.5      7.496      2.197      2.845      2.2726     2.306      2.001      2.65       1.265      1.148      1.043      2.4819     0.1418901  0.1418901  0.3162073  1.189342   2.891331   2.656      0.2254507  0.5041938  214.7532   0.528234   0.4205644  0.6359035 
