~Version
 VERS              .         2.0                           : CWLS LOG ASCII STANDARD - VERSION 2.0
 WRAP              .         NO                            : ONE LINE PER DEPTH STEP
 DLM               .         SPACE                         : DELIMITING CHARACTER(SPACE TAB OR COMMA)
~Well Information
#_______________________________________________________________________________
#
#PARAMETER_NAME    .UNIT     VALUE                         : DESCRIPTION
#_______________________________________________________________________________
STRT               .M        850                           : First reference value
STOP               .M        1203.8                        : Last reference value
STEP               .M        0.2                           : Step increment
NULL               .         -9999                         : Missing value
COMP               .                                       : Company
WELL               .         8446                          : Well name
FLD                .         Узень                         : Field
LOC                .                                       : Location
CNTY               .                                       : County
STAT               .                                       : State
CTRY               .                                       : Country
SRVC               .                                       : Service Company
DATE               .                                       : Date
UWI                .                                       : Unique Well ID
Block              .         6а                            : 
Category           .         Нефтяная                      : 
Condition          .         Ликвидированная               : 
Date               .         11.08.1997                    : 
EREF               .m        85.6                          : 100.8
GRP                .                                       : Group name
Gor                .         13                            : 
Gorizont           .         13                            : 14
ISS                .         БКЗ, магнитная лента          : Well surveys
Interpretator      .         Кайсанов Е.К                  : 
Kupol              .         Основной                      : osnovnoi
METD               .         CALI.BKZ                      : Method
Mud                .                                       : 
Mud_density        .                                       : 
Mud_resistivity    .                                       : 
NGDU               .         НГДУ-2                        : 
ORIGINALWELLNAME   .         8446                          : 
Spud_date          .         1997                          : 1961
TIME               .         14_38                         : LOG TIME
Viscosity          .                                       : 
X                  .m        44714.1                       : 46154
Y                  .m        85692.13                      : 85761.93
YEAR               .         2019                          : 
Сдали_за_3_кв_2019 .         3                             : 
~Parameter Information Block
#_______________________________________________________________________________
#
#PARAMETER_NAME    .UNIT     VALUE                         : DESCRIPTION
#_______________________________________________________________________________
SET                .         LQC_KAZNIPI_Petrel            : 
TLFamily_CALI      .         Caliper                       : 
TLFamily_CILD      .         Conductivity                  : 
TLFamily_DEPT      .         Measured Depth                : 
TLFamily_GR        .         Russian Gamma Ray             : 
TLFamily_GZ1       .         Gradient 045                  : 
TLFamily_GZ2       .         Gradient 105                  : 
TLFamily_GZ3       .         Gradient 225                  : 
TLFamily_GZ4       .         Gradient 425                  : 
TLFamily_GZ5       .         Gradient 850                  : 
TLFamily_LLS       .         Lateral Log Resistivity       : 
TLFamily_MINV      .         Micro Gradient Resistivity    : 
TLFamily_MNOR      .         Micro Resistivity             : 
TLFamily_NGLD      .         Neutron Far                   : 
TLFamily_OGZ3      .         Gradient Inverted 225         : 
TLFamily_PHIE      .         Effective Porosity            : 
TLFamily_PHIEN     .         Effective Porosity            : 
TLFamily_PHIT      .         Porosity                      : 
TLFamily_PRMB      .         Permeability                  : 
TLFamily_PRMB_DGR  .         Permeability                  : 
TLFamily_RT        .         Formation Resistivity         : 
TLFamily_SOIL_ARCHIE .         Oil Saturation                : 
TLFamily_SOIL_DW   .         Oil Saturation                : 
TLFamily_SP        .         Spontaneous Potential         : 
TLFamily_VSH_FIN   .         Shale Volume                  : 
TLFamily_VSH_GR    .         Shale Volume                  : 
TLFamily_VSH_SP    .         Shale Volume                  : 
~Curve Information
#_______________________________________________________________________________
#
#LOGNAME           .UNIT     LOG_ID                        : DESCRIPTION
#_______________________________________________________________________________
DEPT               .M                                      : Колонка глубины 
CALI               .м                                      : Каверномер 
CILD               .мСм/м                                  : Индукционный каротаж 
GR                 .uR/h                                   : Гамма каротаж 
GZ1                .Ohmm                                   : А0.4М0.1N 
GZ2                .Ohmm                                   : A1.0M0.1N 
GZ3                .Ohmm                                   : 119.11 - 1405.51- 185.61 - 1174.21 
GZ4                .Ohmm                                   : A4M0.5N 
GZ5                .Ohmm                                   : A8M1N 
LLS                .Ohmm                                   : Боковой каротаж 
MINV               .Ohmm                                   : Микро-градиент зонд 
MNOR               .Ohmm                                   : Микро-потенциал зонд 
NGLD               .у.е.                                   : Показания зонда НГК-60 аппаратуры ДРСТ-3-90 
OGZ3               .Ohmm                                   : 114.63 - 1401.03- 181.13 - 1169.73 
PHIE               .v/v                                    : Описание 
PHIEN              .v/v                                    :  
PHIT               .v/v                                    : Описание 
PRMB               .mD                                     :  
PRMB_DGR           .mD                                     :  
RT                 .ohmm                                   : УЭС пласта 
SOIL_ARCHIE        .v/v                                    :  
SOIL_DW            .v/v                                    :  
SP                 .мВ                                     : Потенциал самополяризации 
VSH_FIN            .v/v                                    : Описание 
VSH_GR             .v/v                                    : Shale volume 
VSH_SP             .v/v                                    : Shale Volume 
~Ascii
# ...
967.6      -9999      263.1      4.575      -9999      -9999      3.7815     -9999      -9999      3.529      3.025      2.559      1.112      2.6938     0.1461396  0.1461396  0.2762632  1.425665   5.420685   3.801      0.361976   0.5545204  228.6626   0.394314   0.3253684  0.4632597 
967.8      -9999      263.1      4.575      -9999      -9999      3.5365     -9999      -9999      3.365      2.197      1.919      1.12       2.7224     0.1350393  0.1350393  0.271632   0.8880022  5.420685   3.801      0.3165334  0.5359185  233.6425   0.4139172  0.3253684  0.5024659 
968        -9999      261        4.626      -9999      -9999      3.4201     -9999      -9999      3.464      2.076      2.149      1.127      2.8079     0.1233982  0.1233982  0.2675797  0.5404959  4.967054   3.831      0.2634299  0.5171341  237.7167   0.4369136  0.3371893  0.536638  
968.2      -9999      266.3      4.639      -9999      -9999      3.3731     -9999      -9999      4.09       3.318      3.059      1.134      2.9832     0.1156332  0.1156332  0.2635274  0.3881203  4.857627   3.755      0.2131692  0.4954576  239.9575   0.4481642  0.3402705  0.5560579 
968.4      -9999      271.7      4.664      -9999      -9999      3.4977     -9999      -9999      3.921      2.881      2.346      1.116      3.0851     0.1251279  0.1251279  0.2739476  0.5818757  4.653917   3.681      0.2585379  0.5171021  239.9711   0.4509687  0.3462753  0.555662  
968.6      -9999      268.5      4.74       -9999      -9999      3.6039     -9999      -9999      3.498      2.041      1.903      1.138      3.0239     0.1117191  0.1117191  0.2612118  0.328448   4.085623   3.724      0.1860528  0.4839894  238.3657   0.4530082  0.3651884  0.540828  
968.8      -9999      268.5      4.753      -9999      -9999      3.6141     -9999      -9999      3.832      2.536      2.87       1.131      2.9791     0.117757   0.117757   0.2652641  0.4249163  3.995615   3.724      0.2225243  0.4988571  236.6574   0.4469911  0.3685255  0.5254568 
969        -9999      273.8      4.791      -9999      -9999      3.5957     -9999      -9999      3.855      2.087      1.977      1.09       2.9954     0.1400882  0.1400882  0.288999   1.101367   3.74372    3.652      0.3254986  0.5506732  236.549    0.4512447  0.3784559  0.5240334 
969.2      -9999      280.3      4.867      -9999      -9999      3.6304     -9999      -9999      3.696      2.663      2.739      1.076      2.9873     0.1412555  0.1412555  0.2971036  1.157585   3.286567   3.568      0.3230034  0.5545443  239.0552   0.472267   0.3991268  0.5454071 
969.4      -9999      276        4.905      -9999      -9999      3.5058     -9999      -9999      3.288      1.99       1.886      1.09       2.9628     0.1239995  0.1239995  0.288999   0.5545362  3.079373   3.623      0.2470742  0.5277068  243.9761   0.4999984  0.4098819  0.5901149 
969.6      -9999      259.9      4.956      -9999      -9999      3.3629     -9999      -9999      3.116      1.788      1.911      1.112      3.0362     0.0989908  0.0989908  0.2762632  0.1908569  2.821678   3.848      0.1094175  0.4883493  250.0393   0.5371891  0.424773   0.6496052 
969.8      -9999      251.4      4.855      -9999      -9999      3.22       -9999      -9999      3.734      2.461      2.37       1.131      3.2318     0.0830842  0.0830842  0.2652641  0.09684538 3.354852   3.978      0          0.4510114  255.5907   0.5520602  0.3957895  0.708331  
970        -9999      252.4      4.74       -9999      -9999      3.169      -9999      -9999      4.205      1.742      2.624      1.156      3.3663     0.06687007 0.06687007 0.2507916  0.04850137 4.085623   3.962      0          0.3865307  259.2799   0.5573379  0.3651884  0.7494875 
970.2      -9999      256.7      4.766      -9999      -9999      3.2384     -9999      -9999      4.174      2.375      2.706      1.163      3.3663     0.05977804 0.05977804 0.2467393  0.03584201 3.907587   3.896      0          0.3519842  260.3417   0.5665493  0.371893   0.7612055 
970.4      -9999      259.9      4.829      -9999      -9999      3.2833     -9999      -9999      4.052      1.823      2.477      1.156      3.2766     0.06441244 0.06441244 0.2507916  0.04367498 3.507703   3.848      0          0.3700655  258.6519   0.5647853  0.388654   0.7409167 
970.6      -9999      263.1      4.982      -9999      -9999      3.3425     -9999      -9999      3.886      2.059      2.37       1.138      3.1543     0.07473397 0.07473397 0.2612118  0.06782853 2.69872    3.801      0          0.4122204  254.8447   0.5650843  0.4325716  0.697597  
970.8      -9999      271.7      5.159      -9999      -9999      3.3486     -9999      -9999      3.723      1.771      1.722      1.142      3.0362     0.07108784 0.07108784 0.2588962  0.05806005 1.992652   3.681      0          0.389259   250.2885   0.5691163  0.4896055  0.648627  
971        -9999      284.5      5.172      -9999      -9999      3.22       -9999      -9999      3.666      1.811      1.706      1.149      2.9302     0.07249027 0.07249027 0.2548439  0.06163873 1.948751   3.515      0          0.3723114  246.609    0.5525867  0.4940796  0.6110938 
971.2      -9999      293.1      5.159      -9999      -9999      3.169      -9999      -9999      3.34       1.518      1.091      1.142      2.8161     0.07999006 0.07999006 0.2588962  0.0848727  1.992652   3.412      0          0.389842   244.9703   0.5421399  0.4896055  0.5946742 
971.4      -9999      292        5.172      -9999      -9999      3.073      -9999      -9999      3.082      1.047      1.46       1.127      2.7509     0.08696324 0.08696324 0.2675797  0.114269   1.948751   3.425      0          0.4207851  245.6408   0.5473226  0.4940796  0.6005657 
971.6      -9999      288.8      5.21       -9999      -9999      2.9525     -9999      -9999      3.207      1.121      1.304      1.094      2.7876     0.100016   0.100016   0.2866834  0.1993874  1.825897   3.463      0.07261329 0.4753669  248.0797   0.5656587  0.5073932  0.6239241 
971.8      -9999      293.1      5.35       -9999      -9999      2.9219     -9999      -9999      3.51       1.254      1.443      1.054      2.9506     0.1092434  0.1092434  0.3098394  0.2955357  1.436435   3.412      0.1352213  0.5127668  251.2994   0.6078668  0.5596146  0.6561189 
972        -9999      298.4      5.477      -9999      -9999      2.9934     -9999      -9999      3.508      1.225      1.854      1.068      3.0158     0.08754101 0.08754101 0.3017348  0.1171197  1.1555     3.351      0          0.4605481  254.2269   0.6490722  0.6116219  0.6865224 
972.2      -9999      297.4      5.502      -9999      -9999      3.1486     -9999      -9999      3.336      1.392      1.542      1.101      3.0036     0.06352697 0.06352697 0.2826311  0.04205636 1.107044   3.362      0          0.3769621  256.0219   0.663952   0.6224151  0.7054889 
972.4      -9999      290.9      5.502      -9999      -9999      3.1833     -9999      -9999      3.352      0.696      1.337      1.076      2.9628     0.0776517  0.0776517  0.2971036  0.07681675 1.107044   3.438      0          0.4405448  256.2701   0.6650058  0.6224151  0.7075965 
972.6      -9999      288.8      5.54       -9999      -9999      3.1853     -9999      -9999      3.626      1.098      1.936      1.079      3.028      0.07566293 0.07566293 0.2953669  0.07056982 1.037253   3.463      0          0.4357187  254.9372   0.6657696  0.6391869  0.6923524 
972.8      -9999      295.2      5.591      -9999      -9999      3.2037     -9999      -9999      3.695      1.317      1.55       1.076      3.1666     0.07835481 0.07835481 0.2971036  0.07915515 0.9504506  3.388      0          0.4380441  252.2778   0.6628752  0.6624091  0.6633413 
973        -9999      298.4      5.705      -9999      -9999      3.2609     -9999      -9999      3.334      1.162      1.591      1.068      3.1992     0.07976216 0.07976216 0.3017348  0.08405175 0.781788   3.351      0          0.4440365  248.8766   0.6726444  0.7174134  0.6278754 
