~Version
 VERS              .         2.0                           : CWLS LOG ASCII STANDARD - VERSION 2.0
 WRAP              .         NO                            : ONE LINE PER DEPTH STEP
 DLM               .         SPACE                         : DELIMITING CHARACTER(SPACE TAB OR COMMA)
~Well Information
#_______________________________________________________________________________
#
#PARAMETER_NAME    .UNIT     VALUE                         : DESCRIPTION
#_______________________________________________________________________________
STRT               .M        850                           : First reference value
STOP               .M        1203.8                        : Last reference value
STEP               .M        0.2                           : Step increment
NULL               .         -9999                         : Missing value
COMP               .                                       : Company
WELL               .         8446                          : Well name
FLD                .         Узень                         : Field
LOC                .                                       : Location
CNTY               .                                       : County
STAT               .                                       : State
CTRY               .                                       : Country
SRVC               .                                       : Service Company
DATE               .                                       : Date
UWI                .                                       : Unique Well ID
Block              .         6а                            : 
Category           .         Нефтяная                      : 
Condition          .         Ликвидированная               : 
Date               .         11.08.1997                    : 
EREF               .m        85.6                          : 100.8
GRP                .                                       : Group name
Gor                .         13                            : 
Gorizont           .         13                            : 14
ISS                .         БКЗ, магнитная лента          : Well surveys
Interpretator      .         Кайсанов Е.К                  : 
Kupol              .         Основной                      : osnovnoi
METD               .         CALI.BKZ                      : Method
Mud                .                                       : 
Mud_density        .                                       : 
Mud_resistivity    .                                       : 
NGDU               .         НГДУ-2                        : 
ORIGINALWELLNAME   .         8446                          : 
Spud_date          .         1997                          : 1961
TIME               .         14_38                         : LOG TIME
Viscosity          .                                       : 
X                  .m        44714.1                       : 46154
Y                  .m        85692.13                      : 85761.93
YEAR               .         2019                          : 
Сдали_за_3_кв_2019 .         3                             : 
~Parameter Information Block
#_______________________________________________________________________________
#
#PARAMETER_NAME    .UNIT     VALUE                         : DESCRIPTION
#_______________________________________________________________________________
SET                .         LQC_KAZNIPI_Petrel            : 
TLFamily_CALI      .         Caliper                       : 
TLFamily_CILD      .         Conductivity                  : 
TLFamily_DEPT      .         Measured Depth                : 
TLFamily_GR        .         Russian Gamma Ray             : 
TLFamily_GZ1       .         Gradient 045                  : 
TLFamily_GZ2       .         Gradient 105                  : 
TLFamily_GZ3       .         Gradient 225                  : 
TLFamily_GZ4       .         Gradient 425                  : 
TLFamily_GZ5       .         Gradient 850                  : 
TLFamily_LLS       .         Lateral Log Resistivity       : 
TLFamily_MINV      .         Micro Gradient Resistivity    : 
TLFamily_MNOR      .         Micro Resistivity             : 
TLFamily_NGLD      .         Neutron Far                   : 
TLFamily_OGZ3      .         Gradient Inverted 225         : 
TLFamily_PHIE      .         Effective Porosity            : 
TLFamily_PHIEN     .         Effective Porosity            : 
TLFamily_PHIT      .         Porosity                      : 
TLFamily_PRMB      .         Permeability                  : 
TLFamily_PRMB_DGR  .         Permeability                  : 
TLFamily_RT        .         Formation Resistivity         : 
TLFamily_SOIL_ARCHIE .         Oil Saturation                : 
TLFamily_SOIL_DW   .         Oil Saturation                : 
TLFamily_SP        .         Spontaneous Potential         : 
TLFamily_VSH_FIN   .         Shale Volume                  : 
TLFamily_VSH_GR    .         Shale Volume                  : 
TLFamily_VSH_SP    .         Shale Volume                  : 
~Curve Information
#_______________________________________________________________________________
#
#LOGNAME           .UNIT     LOG_ID                        : DESCRIPTION
#_______________________________________________________________________________
DEPT               .M                                      : Колонка глубины 
CALI               .м                                      : Каверномер 
CILD               .мСм/м                                  : Индукционный каротаж 
GR                 .uR/h                                   : Гамма каротаж 
GZ1                .Ohmm                                   : А0.4М0.1N 
GZ2                .Ohmm                                   : A1.0M0.1N 
GZ3                .Ohmm                                   : 119.11 - 1405.51- 185.61 - 1174.21 
GZ4                .Ohmm                                   : A4M0.5N 
GZ5                .Ohmm                                   : A8M1N 
LLS                .Ohmm                                   : Боковой каротаж 
MINV               .Ohmm                                   : Микро-градиент зонд 
MNOR               .Ohmm                                   : Микро-потенциал зонд 
NGLD               .у.е.                                   : Показания зонда НГК-60 аппаратуры ДРСТ-3-90 
OGZ3               .Ohmm                                   : 114.63 - 1401.03- 181.13 - 1169.73 
PHIE               .v/v                                    : Описание 
PHIEN              .v/v                                    :  
PHIT               .v/v                                    : Описание 
PRMB               .mD                                     :  
PRMB_DGR           .mD                                     :  
RT                 .ohmm                                   : УЭС пласта 
SOIL_ARCHIE        .v/v                                    :  
SOIL_DW            .v/v                                    :  
SP                 .мВ                                     : Потенциал самополяризации 
VSH_FIN            .v/v                                    : Описание 
VSH_GR             .v/v                                    : Shale volume 
VSH_SP             .v/v                                    : Shale Volume 
~Ascii
# ...
866.8      -9999      208.6      -9999      -9999      -9999      3.8714     -9999      -9999      -9999      0.955      1.427      0.944      4.0958     -9999      -9999      -9999      -9999      -9999      4.794      -9999      -9999      186.5669   -9999      -9999      0.8       
867        -9999      207.5      -9999      -9999      -9999      3.9143     -9999      -9999      -9999      1.075      1.632      0.944      4.0632     -9999      -9999      -9999      -9999      -9999      4.819      -9999      -9999      186.9534   -9999      -9999      0.8       
867.2      -9999      207.5      -9999      -9999      -9999      3.8836     -9999      -9999      -9999      0.88       1.386      0.915      3.9246     -9999      -9999      -9999      -9999      -9999      4.819      -9999      -9999      189.1691   -9999      -9999      0.8       
867.4      -9999      209.7      -9999      -9999      -9999      3.8979     -9999      -9999      -9999      1.15       1.345      0.889      3.8839     -9999      -9999      -9999      -9999      -9999      4.769      -9999      -9999      192.5352   -9999      -9999      0.8       
867.6      -9999      209.7      -9999      -9999      -9999      3.9367     -9999      -9999      -9999      0.909      1.739      0.852      3.8676     -9999      -9999      -9999      -9999      -9999      4.769      -9999      -9999      196.0365   -9999      -9999      0.8       
867.8      -9999      210.7      -9999      -9999      -9999      4.0694     -9999      -9999      -9999      1.075      1.657      0.842      3.9409     -9999      -9999      -9999      -9999      -9999      4.746      -9999      -9999      198.6078   -9999      -9999      0.8       
868        -9999      213.9      -9999      -9999      -9999      4.1021     -9999      -9999      -9999      1.098      1.599      0.852      3.9817     -9999      -9999      -9999      -9999      -9999      4.675      -9999      -9999      199.3755   -9999      -9999      0.8       
868.2      -9999      217.1      -9999      -9999      -9999      4.1777     -9999      -9999      -9999      1.374      1.525      0.827      4.0143     -9999      -9999      -9999      -9999      -9999      4.606      -9999      -9999      197.9394   -9999      -9999      0.8       
868.4      -9999      217.1      7.522      -9999      -9999      4.1307     -9999      -9999      -9999      1.012      1.296      0.834      4.0061     -9999      -9999      -9999      -9999      -9999      4.606      -9999      -9999      194.6734   -9999      0.1653224  0.8       
868.6      -9999      212.9      7.636      -9999      -9999      4.0878     -9999      -9999      -9999      1.714      1.558      0.849      3.9572     -9999      -9999      -9999      -9999      -9999      4.697      -9999      -9999      190.7177   -9999      0.1784127  0.8       
868.8      -9999      209.7      7.661      -9999      -9999      4.0653     -9999      -9999      -9999      0.834      1.525      0.856      3.8961     -9999      -9999      -9999      -9999      -9999      4.769      -9999      -9999      187.4643   -9999      0.1814191  0.8       
869        -9999      209.7      7.649      -9999      -9999      4.0265     -9999      -9999      -9999      1.162      1.673      0.885      3.9205     -9999      -9999      -9999      -9999      -9999      4.769      -9999      -9999      185.9109   -9999      0.1799698  0.8       
869.2      -9999      213.9      7.522      -9999      -9999      4.096      -9999      -9999      -9999      0.978      1.468      0.871      3.9531     -9999      -9999      -9999      -9999      -9999      4.675      -9999      -9999      186.4026   -9999      0.1653224  0.8       
869.4      -9999      220.3      7.458      -9999      -9999      4.1777     -9999      -9999      -9999      0.949      1.312      0.878      3.9572     0.2483377  0.2483377  0.4317258  111.4228   1.573995   4.539      0.630073   0.7475844  188.7168   0.5557216  0.5391021  0.5723411 
869.6      -9999      220.3      7.483      -9999      -9999      4.149      -9999      -9999      -9999      0.834      1.238      0.856      3.9327     0.2545395  0.2545395  0.4444616  145.1602   1.525696   4.539      0.6379355  0.7543888  192.1638   0.5755215  0.5460067  0.6050363 
869.8      -9999      219.3      7.623      -9999      -9999      4.0715     -9999      -9999      -9999      0.868      1.083      0.849      3.7453     0.2461755  0.2461755  0.4485139  101.6074   1.281353   4.56       0.6280513  0.7530676  195.6747   0.6131467  0.5863398  0.6399536 
870        -9999      220.3      7.75       -9999      -9999      3.9346     -9999      -9999      -9999      0.776      1.074      0.842      3.6556     0.2396224  0.2396224  0.4525662  76.83287   1.093725   4.539      0.6183819  0.7512394  198.1021   0.6452841  0.625499   0.6650693 
870.2      -9999      217.1      7.826      -9999      -9999      3.9755     -9999      -9999      -9999      0.926      1.05       0.812      3.6964     0.2519735  0.2519735  0.4699332  130.1124   0.9948556  4.606      0.6372293  0.7633472  198.6447   0.660484   0.6501728  0.670795  
870.4      -9999      215        7.75       -9999      -9999      4.0184     -9999      -9999      -9999      0.799      1.099      0.812      3.7331     0.2586459  0.2586459  0.4699332  172.945    1.093725   4.651      0.6470081  0.7668927  197.1411   0.6402645  0.625499   0.65503   
870.6      -9999      217.1      7.763      -9999      -9999      3.9857     -9999      -9999      -9999      0.73       1.279      0.827      3.7534     0.254355   0.254355   0.4612497  144.0222   1.076143   4.606      0.6401893  0.7615269  194.1167   0.6269537  0.6296521  0.6242552 
870.8      -9999      217.1      7.991      -9999      -9999      4.0551     -9999      -9999      -9999      0.822      1.329      0.842      3.7738     0.2385171  0.2385171  0.4525662  73.29482   0.8098888  4.606      0.6194676  0.7526105  190.6119   0.6486337  0.7071428  0.5901245 
871        -9999      216.1      8.017      -9999      -9999      4.1368     -9999      -9999      -9999      0.615      1.132      0.849      3.8105     0.2372368  0.2372368  0.4485139  69.39981   0.7840582  4.627      0.6184948  0.7512923  187.7998   0.6402338  0.7165644  0.5639033 
871.2      -9999      217.1      7.864      -9999      -9999      4.1082     -9999      -9999      -9999      0.523      1.23       0.874      3.8961     0.2334879  0.2334879  0.4340414  59.1453    0.948825   4.606      0.6123387  0.7441036  186.553    0.6077379  0.6628722  0.5526036 
871.4      -9999      220.3      7.687      -9999      -9999      4.1777     -9999      -9999      -9999      1.346      1.312      0.9        3.9246     0.2268465  0.2268465  0.41899    44.55585   1.18309    4.539      0.5997293  0.7336329  187.2338   0.5822532  0.6057571  0.5587494 
871.6      -9999      222.5      7.496      -9999      -9999      4.1674     -9999      -9999      -9999      0.575      1.083      0.904      3.9735     0.2299853  0.2299853  0.4166744  50.93825   1.501169   4.494      0.6026379  0.7328426  189.7328   0.5657246  0.549632   0.5818171 
871.8      -9999      222.5      7.407      -9999      -9999      4.1103     -9999      -9999      -9999      0.61       1.115      0.907      3.945      0.2263141  0.2263141  0.4149377  43.5556    1.67732    4.494      0.5970296  0.7304671  193.4753   0.5715867  0.5252861  0.6178874 
872        -9999      224.6      7.483      -9999      -9999      4.0122     -9999      -9999      -9999      0.564      0.984      0.885      3.8309     0.2290415  0.2290415  0.4276735  48.92855   1.525696   4.452      0.5994512  0.7353806  197.4097   0.6019152  0.5460067  0.6578236 
872.2      -9999      223.6      7.522      -9999      -9999      3.8918     -9999      -9999      -9999      0.73       1.214      0.889      3.8431     0.2199153  0.2199153  0.4253579  33.15301   1.453291   4.472      0.5858841  0.7308741  200.2668   0.6225533  0.556955   0.6881516 
