~Version
 VERS              .         2.0                           : CWLS LOG ASCII STANDARD - VERSION 2.0
 WRAP              .         NO                            : ONE LINE PER DEPTH STEP
 DLM               .         SPACE                         : DELIMITING CHARACTER(SPACE TAB OR COMMA)
~Well Information
#_______________________________________________________________________________
#
#PARAMETER_NAME    .UNIT     VALUE                         : DESCRIPTION
#_______________________________________________________________________________
STRT               .M        850                           : First reference value
STOP               .M        1203.8                        : Last reference value
STEP               .M        0.2                           : Step increment
NULL               .         -9999                         : Missing value
COMP               .                                       : Company
WELL               .         8446                          : Well name
FLD                .         Узень                         : Field
LOC                .                                       : Location
CNTY               .                                       : County
STAT               .                                       : State
CTRY               .                                       : Country
SRVC               .                                       : Service Company
DATE               .                                       : Date
UWI                .                                       : Unique Well ID
Block              .         6а                            : 
Category           .         Нефтяная                      : 
Condition          .         Ликвидированная               : 
Date               .         11.08.1997                    : 
EREF               .m        85.6                          : 100.8
GRP                .                                       : Group name
Gor                .         13                            : 
Gorizont           .         13                            : 14
ISS                .         БКЗ, магнитная лента          : Well surveys
Interpretator      .         Кайсанов Е.К                  : 
Kupol              .         Основной                      : osnovnoi
METD               .         CALI.BKZ                      : Method
Mud                .                                       : 
Mud_density        .                                       : 
Mud_resistivity    .                                       : 
NGDU               .         НГДУ-2                        : 
ORIGINALWELLNAME   .         8446                          : 
Spud_date          .         1997                          : 1961
TIME               .         14_38                         : LOG TIME
Viscosity          .                                       : 
X                  .m        44714.1                       : 46154
Y                  .m        85692.13                      : 85761.93
YEAR               .         2019                          : 
Сдали_за_3_кв_2019 .         3                             : 
~Parameter Information Block
#_______________________________________________________________________________
#
#PARAMETER_NAME    .UNIT     VALUE                         : DESCRIPTION
#_______________________________________________________________________________
SET                .         LQC_KAZNIPI_Petrel            : 
TLFamily_CALI      .         Caliper                       : 
TLFamily_CILD      .         Conductivity                  : 
TLFamily_DEPT      .         Measured Depth                : 
TLFamily_GR        .         Russian Gamma Ray             : 
TLFamily_GZ1       .         Gradient 045                  : 
TLFamily_GZ2       .         Gradient 105                  : 
TLFamily_GZ3       .         Gradient 225                  : 
TLFamily_GZ4       .         Gradient 425                  : 
TLFamily_GZ5       .         Gradient 850                  : 
TLFamily_LLS       .         Lateral Log Resistivity       : 
TLFamily_MINV      .         Micro Gradient Resistivity    : 
TLFamily_MNOR      .         Micro Resistivity             : 
TLFamily_NGLD      .         Neutron Far                   : 
TLFamily_OGZ3      .         Gradient Inverted 225         : 
TLFamily_PHIE      .         Effective Porosity            : 
TLFamily_PHIEN     .         Effective Porosity            : 
TLFamily_PHIT      .         Porosity                      : 
TLFamily_PRMB      .         Permeability                  : 
TLFamily_PRMB_DGR  .         Permeability                  : 
TLFamily_RT        .         Formation Resistivity         : 
TLFamily_SOIL_ARCHIE .         Oil Saturation                : 
TLFamily_SOIL_DW   .         Oil Saturation                : 
TLFamily_SP        .         Spontaneous Potential         : 
TLFamily_VSH_FIN   .         Shale Volume                  : 
TLFamily_VSH_GR    .         Shale Volume                  : 
TLFamily_VSH_SP    .         Shale Volume                  : 
~Curve Information
#_______________________________________________________________________________
#
#LOGNAME           .UNIT     LOG_ID                        : DESCRIPTION
#_______________________________________________________________________________
DEPT               .M                                      : Колонка глубины 
CALI               .м                                      : Каверномер 
CILD               .мСм/м                                  : Индукционный каротаж 
GR                 .uR/h                                   : Гамма каротаж 
GZ1                .Ohmm                                   : А0.4М0.1N 
GZ2                .Ohmm                                   : A1.0M0.1N 
GZ3                .Ohmm                                   : 119.11 - 1405.51- 185.61 - 1174.21 
GZ4                .Ohmm                                   : A4M0.5N 
GZ5                .Ohmm                                   : A8M1N 
LLS                .Ohmm                                   : Боковой каротаж 
MINV               .Ohmm                                   : Микро-градиент зонд 
MNOR               .Ohmm                                   : Микро-потенциал зонд 
NGLD               .у.е.                                   : Показания зонда НГК-60 аппаратуры ДРСТ-3-90 
OGZ3               .Ohmm                                   : 114.63 - 1401.03- 181.13 - 1169.73 
PHIE               .v/v                                    : Описание 
PHIEN              .v/v                                    :  
PHIT               .v/v                                    : Описание 
PRMB               .mD                                     :  
PRMB_DGR           .mD                                     :  
RT                 .ohmm                                   : УЭС пласта 
SOIL_ARCHIE        .v/v                                    :  
SOIL_DW            .v/v                                    :  
SP                 .мВ                                     : Потенциал самополяризации 
VSH_FIN            .v/v                                    : Описание 
VSH_GR             .v/v                                    : Shale volume 
VSH_SP             .v/v                                    : Shale Volume 
~Ascii
# ...
928.4      -9999      250.3      1.794      -9999      -9999      9.4062     -9999      -9999      3.669      1.53       1.993      1.295      1.9236     0.1592936  0.1592936  0.1903245  2.498396   1834.933   3.995      0.4217815  0.4767946  113.5938   0.09403323 0.03016263 0.1579038 
928.6      -9999      254.6      1.807      -9999      -9999      7.1011     -9999      -9999      3.782      1.558      2.493      1.317      1.7076     0.1459109  0.1459109  0.1775887  1.41183    1805.435   3.928      0.3708833  0.4300679  116.0594   0.09599317 0.0303629  0.1616234 
928.8      -9999      250.3      1.73       -9999      -9999      5.6683     -9999      -9999      3.789      1.961      2.108      1.313      1.732      0.1474095  0.1474095  0.1799043  1.505012   1987.336   3.995      0.3813866  0.4414958  119.6317   0.09846912 0.02919578 0.1677425 
929        -9999      247.1      1.769      -9999      -9999      5.1107     -9999      -9999      4.052      1.282      1.739      1.288      2.001      0.1606699  0.1606699  0.1943768  2.649446   1893.022   4.047      0.4295702  0.4883107  123.2308   0.102142   0.0297812  0.1745029 
929.2      -9999      256.7      1.857      -9999      -9999      5.266      -9999      -9999      4.571      2.622      3.133      1.295      2.49       0.1555668  0.1555668  0.1903245  2.13124    1696.331   3.896      0.402744   0.464856   125.8104   0.1053265  0.03114564 0.1795074 
929.4      -9999      270.6      1.857      -9999      -9999      5.5274     -9999      -9999      4.357      1.369      1.821      1.31       2.7916     0.1467104  0.1467104  0.181641   1.460798   1696.331   3.695      0.3556428  0.4213219  126.6051   0.1058505  0.03114564 0.1805553 
929.6      -9999      279.2      1.857      -9999      -9999      5.4803     -9999      -9999      3.823      1.047      1.575      1.266      2.9465     0.1727849  0.1727849  0.2071126  4.441752   1696.331   3.582      0.4330045  0.4915468  125.3472   0.1040231  0.03114564 0.1769006 
929.8      -9999      288.8      1.972      -9999      -9999      5.4906     -9999      -9999      3.877      1.587      2.116      1.237      2.9954     0.190394   0.190394   0.2239007  9.412751   1469.762   3.463      0.470633   0.5255197  122.4885   0.1015355  0.03302338 0.1700477 
930        -9999      299.5      1.934      -9999      -9999      5.4007     -9999      -9999      3.855      2.243      2.444      1.226      3.3581     0.1980457  0.1980457  0.2302686  13.04503   1541.065   3.339      0.4796636  0.5324162  119.1566   0.09764518 0.03239071 0.1628996 
930.2      -9999      309.1      1.946      -9999      -9999      5.2802     -9999      -9999      3.491      1.593      1.927      1.204      3.46       0.2115779  0.2115779  0.2430044  23.23244   1518.183   3.235      0.501423   0.5522014  116.6599   0.09523172 0.03258918 0.1578743 
930.4      -9999      328.4      1.946      -9999      -9999      4.4408     -9999      -9999      3.785      1.305      2.264      1.193      3.3377     0.2182507  0.2182507  0.2493723  30.88097   1518.183   3.045      0.5007447  0.5512216  115.8951   0.09430787 0.03258918 0.1560266 
930.6      -9999      346.6      2.048      -9999      -9999      4.0183     -9999      -9999      3.445      2.22       2.1        1.178      3.5333     0.2264141  0.2264141  0.2580558  43.7417    1336.9     2.885      0.5040553  0.554933   117.0895   0.09588414 0.03432604 0.1574422 
930.8      -9999      345.5      2.124      -9999      -9999      3.5406     -9999      -9999      2.936      1.478      1.755      1.193      3.3011     0.2168019  0.2168019  0.2493723  29.03058   1216.048   2.894      0.4857108  0.5383531  119.8795   0.09869815 0.03568009 0.1617162 
931        -9999      335.9      2.277      -9999      -9999      2.6277     -9999      -9999      2.946      1.282      1.73       1.193      2.7999     0.2153046  0.2153046  0.2493723  27.23467   1004.878   2.977      0.4894173  0.5434883  123.4802   0.1032354  0.03857014 0.1679007 
931.2      -9999      331.6      2.48       -9999      -9999      2.0356     -9999      -9999      3.29       1.466      2.083      1.193      2.4086     0.2135622  0.2135622  0.2493723  25.28418   780.1973   3.016      0.4889221  0.5448784  126.8882   0.1085154  0.04276915 0.1742617 
931.4      -9999      330.5      2.518      -9999      -9999      1.8336     -9999      -9999      3.482      1.443      2.091      1.185      2.3352     0.2173747  0.2173747  0.2540035  29.74846   744.0986   3.026      0.497519   0.5537814  129.0906   0.1109965  0.04360454 0.1783885 
931.6      -9999      327.3      2.48       -9999      -9999      1.9092     -9999      -9999      3.514      1.593      2.034      1.189      2.2944     0.2152473  0.2152473  0.2516879  27.1682    780.1973   3.055      0.4954598  0.5516895  129.2985   0.1104259  0.04276915 0.1780827 
931.8      -9999      320.9      2.404      -9999      -9999      2.0112     -9999      -9999      3.542      1.725      2.108      1.2        2.2618     0.2100147  0.2100147  0.24532    21.73397   857.7339   3.116      0.4892887  0.5447735  127.2463   0.1069858  0.04114608 0.1728255 
932        -9999      314.5      2.289      -9999      -9999      2.0582     -9999      -9999      3.564      1.512      2.108      1.185      2.2537     0.2204424  0.2204424  0.2540035  33.9067    989.9565   3.18       0.5150439  0.5673091  123.4895   0.1017005  0.03880648 0.1645945 
932.2      -9999      308.1      2.175      -9999      -9999      2.2093     -9999      -9999      3.52       1.507      2.034      1.193      2.217      0.2174942  0.2174942  0.2493723  29.90044   1141.138   3.246      0.5140307  0.564694   119.3157   0.09660051 0.03661854 0.1565825 
932.4      -9999      299.5      2.023      -9999      -9999      2.3727     -9999      -9999      3.508      1.57       2.108      1.207      2.2048     0.2107563  0.2107563  0.2412677  22.4324    1379.223   3.339      0.507104   0.5566784  116.1202   0.09245878 0.03389196 0.1510256 
932.6      -9999      288.8      1.959      -9999      -9999      2.4993     -9999      -9999      3.626      1.656      2.206      1.237      2.2374     0.1939781  0.1939781  0.2239007  10.96736   1493.776   3.463      0.479162   0.5292694  114.7463   0.09067471 0.03280557 0.1485438 
932.8      -9999      282.4      1.934      -9999      -9999      2.732      -9999      -9999      3.944      1.662      2.165      1.255      2.3352     0.1835713  0.1835713  0.2134805  7.036295   1541.065   3.541      0.4592199  0.510202   115.325    0.09063394 0.03239071 0.1488772 
933        -9999      286.7      1.934      -9999      -9999      3.0874     -9999      -9999      4.24       1.754      2.452      1.259      2.486      0.1808202  0.1808202  0.2111649  6.257286   1541.065   3.488      0.4481694  0.5001922  117.4771   0.09195386 0.03239071 0.151517  
933.2      -9999      297.4      1.997      -9999      -9999      3.3446     -9999      -9999      4.221      1.668      2.272      1.259      2.5675     0.179966   0.179966   0.2111649  6.033448   1424.661   3.362      0.4362391  0.4898867  120.4539   0.09454211 0.03344634 0.1556379 
933.4      -9999      310.2      1.921      -9999      -9999      3.4242     -9999      -9999      3.767      2.018      2.444      1.266      2.5308     0.1754482  0.1754482  0.2071126  4.976045   1566.245   3.224      0.4121675  0.4675254  123.2172   0.09595268 0.03217707 0.1597283 
933.6      -9999      318.8      1.819      -9999      -9999      3.3752     -9999      -9999      3.293      1.748      2.05       1.273      2.3556     0.1713261  0.1713261  0.2030603  4.173817   1778.626   3.137      0.3921149  0.4484805  124.711    0.09616421 0.03054895 0.1617795 
933.8      -9999      327.3      1.769      -9999      -9999      3.1118     -9999      -9999      3.224      1.599      1.845      1.27       2.2292     0.1734253  0.1734253  0.204797   4.564736   1893.022   3.055      0.3910058  0.4467278  124.2557   0.09506574 0.0297812  0.1603503 
