~Version
 VERS              .         2.0                           : CWLS LOG ASCII STANDARD - VERSION 2.0
 WRAP              .         NO                            : ONE LINE PER DEPTH STEP
 DLM               .         SPACE                         : DELIMITING CHARACTER(SPACE TAB OR COMMA)
~Well Information
#_______________________________________________________________________________
#
#PARAMETER_NAME    .UNIT     VALUE                         : DESCRIPTION
#_______________________________________________________________________________
STRT               .M        850                           : First reference value
STOP               .M        1203.8                        : Last reference value
STEP               .M        0.2                           : Step increment
NULL               .         -9999                         : Missing value
COMP               .                                       : Company
WELL               .         8446                          : Well name
FLD                .         Узень                         : Field
LOC                .                                       : Location
CNTY               .                                       : County
STAT               .                                       : State
CTRY               .                                       : Country
SRVC               .                                       : Service Company
DATE               .                                       : Date
UWI                .                                       : Unique Well ID
Block              .         6а                            : 
Category           .         Нефтяная                      : 
Condition          .         Ликвидированная               : 
Date               .         11.08.1997                    : 
EREF               .m        85.6                          : 100.8
GRP                .                                       : Group name
Gor                .         13                            : 
Gorizont           .         13                            : 14
ISS                .         БКЗ, магнитная лента          : Well surveys
Interpretator      .         Кайсанов Е.К                  : 
Kupol              .         Основной                      : osnovnoi
METD               .         CALI.BKZ                      : Method
Mud                .                                       : 
Mud_density        .                                       : 
Mud_resistivity    .                                       : 
NGDU               .         НГДУ-2                        : 
ORIGINALWELLNAME   .         8446                          : 
Spud_date          .         1997                          : 1961
TIME               .         14_38                         : LOG TIME
Viscosity          .                                       : 
X                  .m        44714.1                       : 46154
Y                  .m        85692.13                      : 85761.93
YEAR               .         2019                          : 
Сдали_за_3_кв_2019 .         3                             : 
~Parameter Information Block
#_______________________________________________________________________________
#
#PARAMETER_NAME    .UNIT     VALUE                         : DESCRIPTION
#_______________________________________________________________________________
SET                .         LQC_KAZNIPI_Petrel            : 
TLFamily_CALI      .         Caliper                       : 
TLFamily_CILD      .         Conductivity                  : 
TLFamily_DEPT      .         Measured Depth                : 
TLFamily_GR        .         Russian Gamma Ray             : 
TLFamily_GZ1       .         Gradient 045                  : 
TLFamily_GZ2       .         Gradient 105                  : 
TLFamily_GZ3       .         Gradient 225                  : 
TLFamily_GZ4       .         Gradient 425                  : 
TLFamily_GZ5       .         Gradient 850                  : 
TLFamily_LLS       .         Lateral Log Resistivity       : 
TLFamily_MINV      .         Micro Gradient Resistivity    : 
TLFamily_MNOR      .         Micro Resistivity             : 
TLFamily_NGLD      .         Neutron Far                   : 
TLFamily_OGZ3      .         Gradient Inverted 225         : 
TLFamily_PHIE      .         Effective Porosity            : 
TLFamily_PHIEN     .         Effective Porosity            : 
TLFamily_PHIT      .         Porosity                      : 
TLFamily_PRMB      .         Permeability                  : 
TLFamily_PRMB_DGR  .         Permeability                  : 
TLFamily_RT        .         Formation Resistivity         : 
TLFamily_SOIL_ARCHIE .         Oil Saturation                : 
TLFamily_SOIL_DW   .         Oil Saturation                : 
TLFamily_SP        .         Spontaneous Potential         : 
TLFamily_VSH_FIN   .         Shale Volume                  : 
TLFamily_VSH_GR    .         Shale Volume                  : 
TLFamily_VSH_SP    .         Shale Volume                  : 
~Curve Information
#_______________________________________________________________________________
#
#LOGNAME           .UNIT     LOG_ID                        : DESCRIPTION
#_______________________________________________________________________________
DEPT               .M                                      : Колонка глубины 
CALI               .м                                      : Каверномер 
CILD               .мСм/м                                  : Индукционный каротаж 
GR                 .uR/h                                   : Гамма каротаж 
GZ1                .Ohmm                                   : А0.4М0.1N 
GZ2                .Ohmm                                   : A1.0M0.1N 
GZ3                .Ohmm                                   : 119.11 - 1405.51- 185.61 - 1174.21 
GZ4                .Ohmm                                   : A4M0.5N 
GZ5                .Ohmm                                   : A8M1N 
LLS                .Ohmm                                   : Боковой каротаж 
MINV               .Ohmm                                   : Микро-градиент зонд 
MNOR               .Ohmm                                   : Микро-потенциал зонд 
NGLD               .у.е.                                   : Показания зонда НГК-60 аппаратуры ДРСТ-3-90 
OGZ3               .Ohmm                                   : 114.63 - 1401.03- 181.13 - 1169.73 
PHIE               .v/v                                    : Описание 
PHIEN              .v/v                                    :  
PHIT               .v/v                                    : Описание 
PRMB               .mD                                     :  
PRMB_DGR           .mD                                     :  
RT                 .ohmm                                   : УЭС пласта 
SOIL_ARCHIE        .v/v                                    :  
SOIL_DW            .v/v                                    :  
SP                 .мВ                                     : Потенциал самополяризации 
VSH_FIN            .v/v                                    : Описание 
VSH_GR             .v/v                                    : Shale volume 
VSH_SP             .v/v                                    : Shale Volume 
~Ascii
# ...
1046       0.242      254.6      3.686      3.607      5.41       4.0633     2.242      2.42       3.964      4.537      3.108      1.105      3.7615     0.147273   0.147273   0.2803155  1.496272   24.86925   3.928      0.3759538  0.5669662  222.1437   0.4031592  0.1746701  0.6316484 
1046.2     0.254      273.8      3.889      3.353      5.347      4.098      2.141      2.318      3.61       2.651      2.067      1.079      3.8961     0.163405   0.163405   0.2953669  2.977243   17.56252   3.652      0.4101415  0.582304   218.3225   0.3998847  0.2013297  0.5984396 
1046.4     0.254      279.2      3.978      3.048      5.029      4.048999   2.09       2.217      3.186      2.312      1.681      1.061      3.9409     0.1766708  0.1766708  0.3057871  5.242394   15.07827   3.582      0.4438817  0.5995349  215.007    0.3912616  0.2142663  0.5682569 
1046.6     0.235      264.2      3.851      2.667      4.483      3.7305     2.128      2.191      2.903      1.742      1.083      1.061      4.0835     0.1821259  0.1821259  0.3057871  6.615622   18.74421   3.785      0.4722474  0.615108   213.2675   0.3747311  0.1960469  0.5534152 
1046.8     0.227      240.7      3.75       2.375      3.861      3.3648     2.141      2.191      3.145      1.432      1.05       1.057      4.32       0.1863521  0.1863521  0.3081027  7.922292   22.28604   4.155      0.5048397  0.6376428  213.3584   0.3689412  0.18267    0.5552123 
1047       0.226      223.6      3.661      2.248      3.594      3.1077     2.268      2.242      4.051      3.077      2.428      1.09       4.9839     0.1670297  0.1670297  0.288999   3.474985   25.95782   4.472      0.4737799  0.6208255  214.6065   0.3696039  0.1716411  0.5675668 
1047.2     0.227      216.1      3.534      2.553      3.823      3.2855     2.458      2.318      4.819      7.332      3.256      1.12       5.6811     0.1501935  0.1501935  0.271632   1.694752   32.26889   4.627      0.4319175  0.5964024  215.7249   0.3679955  0.1570462  0.5789447 
1047.4     0.227      211.8      3.369      3.111      4.077      3.5467     2.623      2.458      5.212      4.457      4.199      1.127      5.4895     0.1495954  0.1495954  0.2675797  1.652064   42.81339   4.721      0.4352945  0.596148   215.2079   0.3575284  0.1399219  0.5751348 
1047.6     0.227      199        3.191      3.632      4.318      3.8305     2.725      2.585      4.716      3.784      3.002      1.145      4.5852     0.1469171  0.1469171  0.2571595  1.473732   58.08318   5.025      0.4428946  0.5961612  211.738    0.334068   0.123536   0.5446001 
1047.8     0.227      175.4      3.089      3.835      4.469999   3.9694     2.852      2.687      4.016      2.766      2.264      1.163      3.733      0.1472917  0.1472917  0.2467393  1.497472   69.17679   5.701      0.4760965  0.6116862  204.8959   0.3013563  0.1150263  0.4876863 
1048       0.224      159.4      3.102      3.518      4.508      3.8346     3.017      2.75       4.794      4.836      3.428      1.182      3.6108     0.1471944  0.1471944  0.2357402  1.49127    67.65276   6.274      0.4988324  0.6194941  195.8592   0.2683204  0.1160774  0.4205634 
1048.2     0.225      153        3.216      3.429      5.118001   3.7631     3.144      2.801      5.293      5.411      4.297      1.193      3.6882     0.1486024  0.1486024  0.2293723  1.583564   55.6474    6.536      0.5124217  0.6225237  187.063    0.2447573  0.1257161  0.3637985 
1048.4     0.225      147.6      3.305      3.569      5.601      3.8305     3.284      2.953      5.008      3.663      3.141      1.211      3.5782     0.1427041  0.1427041  0.2189521  1.231355   47.77598   6.775      0.5033564  0.6125405  180.7931   0.2310547  0.1337941  0.3283154 
1048.6     0.225      142.3      3.369      3.734      5.867      4.0041     3.499      3.144      5.47       5.894      4.683      1.222      3.46       0.1376546  0.1376546  0.2125842  0.9927858  42.81339   7.027      0.4962343  0.6071181  178.0322   0.2270593  0.1399219  0.3141968 
1048.8     0.225      132.6      3.394      4          6.413      4.1328     3.69       3.423      5.272      5.112      3.19       1.259      3.4437     0.1154136  0.1154136  0.1911649  0.3845014  41.01798   7.541      0.4318033  0.5661781  178.4049   0.2295495  0.1423912  0.3167078 
1049       0.224      127.3      3.47       4.242      6.921      4.4574     4.3        3.944      5.153      2.916      3.256      1.251      3.4925     0.1163287  0.1163287  0.1957961  0.3998048  36.00922   7.855      0.4463983  0.5823228  181.0399   0.2408102  0.1501684  0.331452  
1049.2     0.227      149.8      3.635      4.521      7.936999   5.0805     5.163      4.566      7.13       10.236     5.544      1.229      3.729      0.1218291  0.1218291  0.2085319  0.5055083  27.14051   6.676      0.42606    0.5717509  185.3773   0.2627358  0.1685467  0.356925  
1049.4     0.232      205.4      3.864      5.385      9.715      6.486899   6.052      4.807      7.793      10.15      5.585      1.185      3.8594     0.1365057  0.1365057  0.2340035  0.9453103  18.33125   4.869      0.3972091  0.5528602  191.0447   0.295448   0.1978384  0.3930577 
1049.6     0.246      251.4      4.27       5.905      10.795     8.0876     5.976      4.553      5.101      3.036      1.804      1.152      3.5622     0.1377459  0.1377459  0.2531072  0.9966604  9.141979   3.978      0.3424405  0.5299456  197.2006   0.3495796  0.2628388  0.4363205 
1049.8     0.264      264.2      4.664      5.461      9.461      7.8998     4.833      3.982      2.92       0.592      0.951      1.09       2.7386     0.1533175  0.1533175  0.288999   1.936291   4.653917   3.785      0.3868594  0.5737312  202.346    0.4111559  0.3462753  0.4760366 
1050       0.266      273.8      5.337      4.242      6.858      6.1522     3.626      3.411      2.661      0.73       1.23       1.024      2.0419     0.210004   0.210004   0.3272064  21.72409   33.23991   3.652      0.5259253  0.6446525  204.9084   0.3551587  0.1551564  0.5551609 
1050.2     0.265      295.2      6.048      2.972      5.969      4.4913     2.953      2.674      2.885      1.622      1.845      0.962      1.7484     0.2370564  0.2370564  0.3630982  68.86805   14.87293   3.388      0.5581186  0.6698331  204.0486   0.3819448  0.2154694  0.5484202 
1050.4     0.259      316.6      6.531      2.616      5.537      4.1266     2.649      2.509      2.966      2.433      1.739      0.929      1.8258     0.2526993  0.2526993  0.3822019  134.2027   8.612573   3.159      0.5680857  0.6768302  200.1557   0.3924322  0.2693197  0.5155447 
1050.6     0.253      329.4      6.785      2.413      4.978      4.0306     2.534      2.483      2.92       1.305      1.312      0.922      1.8828     0.2583395  0.2583395  0.3862542  170.6995   6.461912   3.036      0.5683402  0.675337   194.7398   0.3876204  0.3028424  0.4723983 
1050.8     0.253      340.1      6.988      2.349      4.267      3.8202     2.458      2.445      3.148      2.467      1.755      0.929      1.9195     0.2556001  0.2556001  0.3822019  151.8768   5.136198   2.94       0.5576946  0.6665654  189.6141   0.3836419  0.3326101  0.4346738 
1051       0.265      357.3      6.925      2.349      3.886      3.6876     2.496      2.395      3.407      2.996      2.542      0.922      1.9358     0.2654441  0.2654441  0.3862542  231.114    5.515551   2.799      0.56203    0.665604   185.8673   0.3660913  0.3230715  0.4091111 
1051.2     0.277      374.4      6.696      2.349      3.607      3.6937     2.407      2.369      3.17       2.162      1.493      0.962      1.9358     0.2501435  0.2501435  0.3630982  120.3436   7.146286   2.671      0.5285448  0.6362211  183.4924   0.3422869  0.2906462  0.3939275 
1051.4     0.29       385.1      6.633      2.324      3.48       3.6406     2.407      2.331      2.802      1.765      1.755      0.959      1.9113     0.2548147  0.2548147  0.3648349  146.8739   7.674106   2.597      0.529924   0.6348963  181.9298   0.3333946  0.282311   0.3844781 
