~Version
 VERS              .         2.0                           : CWLS LOG ASCII STANDARD - VERSION 2.0
 WRAP              .         NO                            : ONE LINE PER DEPTH STEP
 DLM               .         SPACE                         : DELIMITING CHARACTER(SPACE TAB OR COMMA)
~Well Information
#_______________________________________________________________________________
#
#PARAMETER_NAME    .UNIT     VALUE                         : DESCRIPTION
#_______________________________________________________________________________
STRT               .M        850                           : First reference value
STOP               .M        1203.8                        : Last reference value
STEP               .M        0.2                           : Step increment
NULL               .         -9999                         : Missing value
COMP               .                                       : Company
WELL               .         8446                          : Well name
FLD                .         Узень                         : Field
LOC                .                                       : Location
CNTY               .                                       : County
STAT               .                                       : State
CTRY               .                                       : Country
SRVC               .                                       : Service Company
DATE               .                                       : Date
UWI                .                                       : Unique Well ID
Block              .         6а                            : 
Category           .         Нефтяная                      : 
Condition          .         Ликвидированная               : 
Date               .         11.08.1997                    : 
EREF               .m        85.6                          : 100.8
GRP                .                                       : Group name
Gor                .         13                            : 
Gorizont           .         13                            : 14
ISS                .         БКЗ, магнитная лента          : Well surveys
Interpretator      .         Кайсанов Е.К                  : 
Kupol              .         Основной                      : osnovnoi
METD               .         CALI.BKZ                      : Method
Mud                .                                       : 
Mud_density        .                                       : 
Mud_resistivity    .                                       : 
NGDU               .         НГДУ-2                        : 
ORIGINALWELLNAME   .         8446                          : 
Spud_date          .         1997                          : 1961
TIME               .         14_38                         : LOG TIME
Viscosity          .                                       : 
X                  .m        44714.1                       : 46154
Y                  .m        85692.13                      : 85761.93
YEAR               .         2019                          : 
Сдали_за_3_кв_2019 .         3                             : 
~Parameter Information Block
#_______________________________________________________________________________
#
#PARAMETER_NAME    .UNIT     VALUE                         : DESCRIPTION
#_______________________________________________________________________________
SET                .         LQC_KAZNIPI_Petrel            : 
TLFamily_CALI      .         Caliper                       : 
TLFamily_CILD      .         Conductivity                  : 
TLFamily_DEPT      .         Measured Depth                : 
TLFamily_GR        .         Russian Gamma Ray             : 
TLFamily_GZ1       .         Gradient 045                  : 
TLFamily_GZ2       .         Gradient 105                  : 
TLFamily_GZ3       .         Gradient 225                  : 
TLFamily_GZ4       .         Gradient 425                  : 
TLFamily_GZ5       .         Gradient 850                  : 
TLFamily_LLS       .         Lateral Log Resistivity       : 
TLFamily_MINV      .         Micro Gradient Resistivity    : 
TLFamily_MNOR      .         Micro Resistivity             : 
TLFamily_NGLD      .         Neutron Far                   : 
TLFamily_OGZ3      .         Gradient Inverted 225         : 
TLFamily_PHIE      .         Effective Porosity            : 
TLFamily_PHIEN     .         Effective Porosity            : 
TLFamily_PHIT      .         Porosity                      : 
TLFamily_PRMB      .         Permeability                  : 
TLFamily_PRMB_DGR  .         Permeability                  : 
TLFamily_RT        .         Formation Resistivity         : 
TLFamily_SOIL_ARCHIE .         Oil Saturation                : 
TLFamily_SOIL_DW   .         Oil Saturation                : 
TLFamily_SP        .         Spontaneous Potential         : 
TLFamily_VSH_FIN   .         Shale Volume                  : 
TLFamily_VSH_GR    .         Shale Volume                  : 
TLFamily_VSH_SP    .         Shale Volume                  : 
~Curve Information
#_______________________________________________________________________________
#
#LOGNAME           .UNIT     LOG_ID                        : DESCRIPTION
#_______________________________________________________________________________
DEPT               .M                                      : Колонка глубины 
CALI               .м                                      : Каверномер 
CILD               .мСм/м                                  : Индукционный каротаж 
GR                 .uR/h                                   : Гамма каротаж 
GZ1                .Ohmm                                   : А0.4М0.1N 
GZ2                .Ohmm                                   : A1.0M0.1N 
GZ3                .Ohmm                                   : 119.11 - 1405.51- 185.61 - 1174.21 
GZ4                .Ohmm                                   : A4M0.5N 
GZ5                .Ohmm                                   : A8M1N 
LLS                .Ohmm                                   : Боковой каротаж 
MINV               .Ohmm                                   : Микро-градиент зонд 
MNOR               .Ohmm                                   : Микро-потенциал зонд 
NGLD               .у.е.                                   : Показания зонда НГК-60 аппаратуры ДРСТ-3-90 
OGZ3               .Ohmm                                   : 114.63 - 1401.03- 181.13 - 1169.73 
PHIE               .v/v                                    : Описание 
PHIEN              .v/v                                    :  
PHIT               .v/v                                    : Описание 
PRMB               .mD                                     :  
PRMB_DGR           .mD                                     :  
RT                 .ohmm                                   : УЭС пласта 
SOIL_ARCHIE        .v/v                                    :  
SOIL_DW            .v/v                                    :  
SP                 .мВ                                     : Потенциал самополяризации 
VSH_FIN            .v/v                                    : Описание 
VSH_GR             .v/v                                    : Shale volume 
VSH_SP             .v/v                                    : Shale Volume 
~Ascii
# ...
945.2      -9999      425.7      1.388      -9999      -9999      2.2011     -9999      -9999      2.359      1.363      1.739      1.123      1.5935     0.2649367  0.2649367  0.2898953  226.1668   3043.952   2.349      0.5236916  0.568533   114.0321   0.07563205 0.02453073 0.1267334 
945.4      -9999      427.9      1.311      -9999      -9999      2.1113     -9999      -9999      2.412      1.38       1.796      1.101      1.6994     0.2780825  0.2780825  0.3026311  396.206    3350.636   2.337      0.5422645  0.5865966  111.788    0.0743897  0.02358779 0.1251916 
945.6      -9999      430        1.045      -9999      -9999      2.0847     -9999      -9999      2.511      1.374      1.804      1.109      1.732      0.2739888  0.2739888  0.2979999  332.7328   4668.16    2.326      0.535286   0.5792872  111.6486   0.07276089 0.02060059 0.1249212 
945.8      -9999      433.2      1.045      -9999      -9999      2.0276     -9999      -9999      2.457      1.535      1.821      1.116      1.732      0.2697811  0.2697811  0.2939476  278.0723   4668.16    2.308      0.5272593  0.5714989  113.6324   0.07323189 0.02060059 0.1258632 
946        -9999      435.3      1.172      -9999      -9999      2.0031     -9999      -9999      2.372      1.277      1.64       1.123      1.728      0.2651691  0.2651691  0.2898953  228.419    3984.602   2.297      0.519029   0.5638407  117.1686   0.07492801 0.02197642 0.1278796 
946.2      -9999      436.4      1.235      -9999      -9999      1.9643     -9999      -9999      2.407      1.328      1.772      1.123      1.7157     0.2645951  0.2645951  0.2898953  222.8954   3683.625   2.291      0.5175287  0.5628635  121.3265   0.07666727 0.02269264 0.1306419 
946.4      -9999      437.5      1.261      -9999      -9999      1.905      -9999      -9999      2.299      1.317      1.689      1.12       1.728      0.2658261  0.2658261  0.291632   234.9105   3566.14    2.286      0.5189823  0.5647431  124.9979   0.07819964 0.02299498 0.1334043 
946.6      -9999      436.4      1.273      -9999      -9999      1.8622     -9999      -9999      2.217      1.242      1.657      1.112      1.7117     0.2701697  0.2701697  0.2962632  282.72     3513.188   2.291      0.5262108  0.572098   127.0969   0.07907118 0.02313588 0.1350065 
946.8      -9999      433.2      1.248      -9999      -9999      1.7846     -9999      -9999      2.256      1.42       1.788      1.094      1.7239     0.2807181  0.2807181  0.3066834  443.3412   3624.406   2.308      0.5433418  0.5888215  126.9206   0.07868279 0.02284331 0.1345223 
947        -9999      432.1      1.235      -9999      -9999      1.7764     -9999      -9999      2.388      1.202      1.657      1.094      1.7728     0.2811304  0.2811304  0.3066834  451.2063   3683.625   2.314      0.5444804  0.5896136  124.5946   0.07743333 0.02269264 0.132174  
947.2      -9999      432.1      1.248      -9999      -9999      1.758      -9999      -9999      2.387      1.271      1.64       1.105      1.7728     0.2752215  0.2752215  0.3003155  350.6937   3624.406   2.314      0.5359744  0.580865   121.1758   0.07604241 0.02284331 0.1292415 
947.4      -9999      431.1      1.261      -9999      -9999      1.7376     -9999      -9999      2.4        1.374      1.772      1.112      1.7687     0.2715198  0.2715198  0.2962632  299.4771   3566.14    2.32       0.5310397  0.5756899  118.1677   0.07497999 0.02299498 0.126965  
947.6      -9999      431.1      1.299      -9999      -9999      1.7356     -9999      -9999      2.387      1.317      1.755      1.12       1.7565     0.2669869  0.2669869  0.291632   246.8331   3401.139   2.32       0.5241126  0.5687517  116.8117   0.07468211 0.02344413 0.1259201 
947.8      -9999      431.1      1.362      -9999      -9999      1.754      -9999      -9999      2.361      1.386      1.747      1.101      1.7809     0.2778147  0.2778147  0.3026311  391.7059   3144.233   2.32       0.540308   0.5849129  117.6114   0.07520132 0.02420819 0.1261944 
948        -9999      427.9      1.286      -9999      -9999      1.7376     -9999      -9999      2.378      1.397      1.739      1.134      1.8217     0.2586215  0.2586215  0.2835274  172.7653   3456.709   2.337      0.5124071  0.5573478  120.2585   0.07547235 0.0232895  0.1276552 
948.2      -9999      426.8      1.21       -9999      -9999      1.6988     -9999      -9999      2.359      1.438      1.755      1.167      1.8625     0.2392812  0.2392812  0.2644237  75.72283   3800.239   2.343      0.4788835  0.5243523  123.8788   0.07618923 0.02240567 0.1299728 
948.4      -9999      427.9      1.172      -9999      -9999      1.7315     -9999      -9999      2.436      1.449      1.632      1.149      1.9114     0.2493549  0.2493549  0.2748439  116.3632   3984.602   2.337      0.4966626  0.5423065  127.3822   0.07723929 0.02197642 0.1325022 
948.6      -9999      425.7      1.184      -9999      -9999      1.6988     -9999      -9999      2.427      1.363      1.689      1.149      1.9806     0.2490423  0.2490423  0.2748439  114.8219   3925.436   2.349      0.4973219  0.5432314  129.7214   0.07818669 0.02211108 0.1342623 
948.8      -9999      425.7      1.261      -9999      -9999      1.7315     -9999      -9999      2.591      1.466      1.927      1.145      2.0336     0.2512088  0.2512088  0.2771595  125.9376   3566.14    2.349      0.5010999  0.5471005  130.0853   0.07863838 0.02299498 0.1342818 
949        -9999      430        1.349      -9999      -9999      1.7723     -9999      -9999      2.742      1.65       1.968      1.163      2.2007     0.2409339  0.2409339  0.2667393  81.25285   3195.606   2.326      0.4802251  0.5263889  128.2277   0.07819819 0.02404851 0.1323479 
949.2      -9999      432.1      1.413      -9999      -9999      1.8132     -9999      -9999      2.558      1.328      1.689      1.163      2.2781     0.2412954  0.2412954  0.2667393  82.51536   2950.545   2.314      0.4796419  0.5254676  124.7656   0.07710268 0.02484491 0.1293604 
949.4      -9999      432.1      1.451      -9999      -9999      1.7621     -9999      -9999      2.419      1.317      1.706      1.215      2.2455     0.2115683  0.2115683  0.2366365  23.22293   2814.026   2.314      0.4165114  0.462408   121.0099   0.07596405 0.02533019 0.1265979 
949.6      -9999      428.9      1.502      -9999      -9999      1.6273     -9999      -9999      2.371      1.323      1.698      1.237      2.1844     0.199013   0.199013   0.2239007  13.59446   2640.679   2.332      0.386812   0.4326065  118.3507   0.07541721 0.02599642 0.124838  
949.8      -9999      424.7      1.527      -9999      -9999      1.5763     -9999      -9999      2.344      1.305      1.476      1.251      2.2292     0.1909422  0.1909422  0.2157961  9.635429   2559.647   2.355      0.3672199  0.4130431  117.7007   0.07531473 0.02632938 0.1243001 
950        -9999      418.2      1.54       -9999      -9999      1.5355     -9999      -9999      2.443      1.374      1.689      1.273      2.38       0.1780624  0.1780624  0.2030603  5.562949   2518.498   2.391      0.332307   0.3785578  119.3248   0.07575133 0.0265042  0.1249985 
950.2      -9999      411.8      1.629      -9999      -9999      1.5314     -9999      -9999      2.615      1.397      1.714      1.266      2.5634     0.1816006  0.1816006  0.2071126  6.469065   2254.006   2.428      0.3483643  0.3953553  122.8391   0.07730909 0.02773262 0.1268856 
950.4      -9999      408.6      1.68       -9999      -9999      1.6049     -9999      -9999      2.726      1.489      1.804      1.277      2.7142     0.1746536  0.1746536  0.2007447  4.810229   2115.156   2.447      0.3283082  0.3765372  127.2372   0.07906416 0.02846204 0.1296663 
950.6      -9999      405.4      1.781      -9999      -9999      1.6314     -9999      -9999      2.791      1.627      1.87       1.295      2.653      0.1635171  0.1635171  0.1903245  2.991515   1864.914   2.467      0.2913483  0.3415546  131.155    0.08123464 0.02996368 0.1325056 
