~Version
 VERS              .         2.0                           : CWLS LOG ASCII STANDARD - VERSION 2.0
 WRAP              .         NO                            : ONE LINE PER DEPTH STEP
 DLM               .         SPACE                         : DELIMITING CHARACTER(SPACE TAB OR COMMA)
~Well Information
#_______________________________________________________________________________
#
#PARAMETER_NAME    .UNIT     VALUE                         : DESCRIPTION
#_______________________________________________________________________________
STRT               .M        850                           : First reference value
STOP               .M        1203.8                        : Last reference value
STEP               .M        0.2                           : Step increment
NULL               .         -9999                         : Missing value
COMP               .                                       : Company
WELL               .         8446                          : Well name
FLD                .         Узень                         : Field
LOC                .                                       : Location
CNTY               .                                       : County
STAT               .                                       : State
CTRY               .                                       : Country
SRVC               .                                       : Service Company
DATE               .                                       : Date
UWI                .                                       : Unique Well ID
Block              .         6а                            : 
Category           .         Нефтяная                      : 
Condition          .         Ликвидированная               : 
Date               .         11.08.1997                    : 
EREF               .m        85.6                          : 100.8
GRP                .                                       : Group name
Gor                .         13                            : 
Gorizont           .         13                            : 14
ISS                .         БКЗ, магнитная лента          : Well surveys
Interpretator      .         Кайсанов Е.К                  : 
Kupol              .         Основной                      : osnovnoi
METD               .         CALI.BKZ                      : Method
Mud                .                                       : 
Mud_density        .                                       : 
Mud_resistivity    .                                       : 
NGDU               .         НГДУ-2                        : 
ORIGINALWELLNAME   .         8446                          : 
Spud_date          .         1997                          : 1961
TIME               .         14_38                         : LOG TIME
Viscosity          .                                       : 
X                  .m        44714.1                       : 46154
Y                  .m        85692.13                      : 85761.93
YEAR               .         2019                          : 
Сдали_за_3_кв_2019 .         3                             : 
~Parameter Information Block
#_______________________________________________________________________________
#
#PARAMETER_NAME    .UNIT     VALUE                         : DESCRIPTION
#_______________________________________________________________________________
SET                .         LQC_KAZNIPI_Petrel            : 
TLFamily_CALI      .         Caliper                       : 
TLFamily_CILD      .         Conductivity                  : 
TLFamily_DEPT      .         Measured Depth                : 
TLFamily_GR        .         Russian Gamma Ray             : 
TLFamily_GZ1       .         Gradient 045                  : 
TLFamily_GZ2       .         Gradient 105                  : 
TLFamily_GZ3       .         Gradient 225                  : 
TLFamily_GZ4       .         Gradient 425                  : 
TLFamily_GZ5       .         Gradient 850                  : 
TLFamily_LLS       .         Lateral Log Resistivity       : 
TLFamily_MINV      .         Micro Gradient Resistivity    : 
TLFamily_MNOR      .         Micro Resistivity             : 
TLFamily_NGLD      .         Neutron Far                   : 
TLFamily_OGZ3      .         Gradient Inverted 225         : 
TLFamily_PHIE      .         Effective Porosity            : 
TLFamily_PHIEN     .         Effective Porosity            : 
TLFamily_PHIT      .         Porosity                      : 
TLFamily_PRMB      .         Permeability                  : 
TLFamily_PRMB_DGR  .         Permeability                  : 
TLFamily_RT        .         Formation Resistivity         : 
TLFamily_SOIL_ARCHIE .         Oil Saturation                : 
TLFamily_SOIL_DW   .         Oil Saturation                : 
TLFamily_SP        .         Spontaneous Potential         : 
TLFamily_VSH_FIN   .         Shale Volume                  : 
TLFamily_VSH_GR    .         Shale Volume                  : 
TLFamily_VSH_SP    .         Shale Volume                  : 
~Curve Information
#_______________________________________________________________________________
#
#LOGNAME           .UNIT     LOG_ID                        : DESCRIPTION
#_______________________________________________________________________________
DEPT               .M                                      : Колонка глубины 
CALI               .м                                      : Каверномер 
CILD               .мСм/м                                  : Индукционный каротаж 
GR                 .uR/h                                   : Гамма каротаж 
GZ1                .Ohmm                                   : А0.4М0.1N 
GZ2                .Ohmm                                   : A1.0M0.1N 
GZ3                .Ohmm                                   : 119.11 - 1405.51- 185.61 - 1174.21 
GZ4                .Ohmm                                   : A4M0.5N 
GZ5                .Ohmm                                   : A8M1N 
LLS                .Ohmm                                   : Боковой каротаж 
MINV               .Ohmm                                   : Микро-градиент зонд 
MNOR               .Ohmm                                   : Микро-потенциал зонд 
NGLD               .у.е.                                   : Показания зонда НГК-60 аппаратуры ДРСТ-3-90 
OGZ3               .Ohmm                                   : 114.63 - 1401.03- 181.13 - 1169.73 
PHIE               .v/v                                    : Описание 
PHIEN              .v/v                                    :  
PHIT               .v/v                                    : Описание 
PRMB               .mD                                     :  
PRMB_DGR           .mD                                     :  
RT                 .ohmm                                   : УЭС пласта 
SOIL_ARCHIE        .v/v                                    :  
SOIL_DW            .v/v                                    :  
SP                 .мВ                                     : Потенциал самополяризации 
VSH_FIN            .v/v                                    : Описание 
VSH_GR             .v/v                                    : Shale volume 
VSH_SP             .v/v                                    : Shale Volume 
~Ascii
# ...
889.2      -9999      191.5      7.903      -9999      -9999      4.829      -9999      -9999      4.399      1.518      2.018      1.076      4.0673     0.1264723  0.1264723  0.3171036  0.6162147  0.9037964  5.222      0.3765823  0.6317388  177.8563   0.5776706  0.6761639  0.4791774 
889.4      -9999      196.8      7.763      -9999      -9999      4.5798     -9999      -9999      4.238      1.708      2.165      1.09       3.5701     0.1220295  0.1220295  0.308999   0.5098467  1.076143   5.081      0.3485454  0.6154984  180.8609   0.5665743  0.6296521  0.5034965 
889.6      -9999      201.1      7.547      -9999      -9999      4.296      -9999      -9999      4.056      1.558      2.034      1.112      3.3173     0.1170901  0.1170901  0.2962632  0.4130008  1.408695   4.973      0.3178318  0.5947513  183.0386   0.5429488  0.5640884  0.5218091 
889.8      -9999      200        7.242      -9999      -9999      4.2675     -9999      -9999      3.992      1.403      1.87       1.099      3.2114     0.1372607  0.1372607  0.3037889  0.976248   2.060396   5          0.4075257  0.6248381  183.5617   0.5046308  0.4829671  0.5262945 
890        -9999      199        7.204      -9999      -9999      4.194      -9999      -9999      3.968      1.599      1.977      1.09       3.1829     0.1464302  0.1464302  0.308999   1.443447   2.160354   5.025      0.4412817  0.6386397  181.8273   0.4926327  0.4737143  0.511551  
890.2      -9999      195.7      7.052      -9999      -9999      4.149      -9999      -9999      4.136      1.777      2.321      1.098      3.2277     0.1526576  0.1526576  0.3043678  1.882556   2.611086   5.11       0.4654101  0.6440088  178.0878   0.4597276  0.4384421  0.4810133 
890.4      -9999      188.3      7.039      -9999      -9999      4.0898     -9999      -9999      4.239      1.731      2.19       1.109      3.3866     0.1523444  0.1523444  0.2979999  1.85757    2.653747   5.311      0.4740614  0.6459632  173.6878   0.4413805  0.4355501  0.4472108 
890.6      -9999      177.6      7.204      -9999      -9999      4.1021     -9999      -9999      4.229      1.369      2.018      1.083      3.6394     0.1650343  0.1650343  0.3130513  3.191493   2.160354   5.631      0.5227481  0.6765779  170.3924   0.4485365  0.4737143  0.4233586 
890.8      -9999      171.1      7.217      -9999      -9999      4.3798     -9999      -9999      4.853      1.311      2.009      1.105      4.1038     0.1529991  0.1529991  0.3003155  1.910173   2.125624   5.845      0.4990577  0.6646783  169.3353   0.4464133  0.4768596  0.415967  
891        -9999      177.6      7.293      -9999      -9999      5.2008     -9999      -9999      6.15       2.444      3.773      1.123      4.9189     0.1382237  0.1382237  0.2898953  1.017176   1.933473   5.631      0.4430658  0.6369902  170.4197   0.4596109  0.4956701  0.4235517 
891.2      -9999      186.1      7.445      -9999      -9999      6.2075     -9999      -9999      5.51       1.478      2.083      1.079      5.391799   0.1546886  0.1546886  0.3153669  2.052896   1.599713   5.373      0.4838291  0.6620623  172.4712   0.4869038  0.5355462  0.4382614 
891.4      -9999      189.3      7.56       -9999      -9999      6.3645     -9999      -9999      4.499      2.226      2.477      1.028      5.0332     0.1771187  0.1771187  0.3448908  5.343508   1.386048   5.283      0.5375988  0.693826   173.9238   0.5084003  0.5678338  0.4489667 
891.6      -9999      195.7      7.547      -9999      -9999      5.5251     -9999      -9999      4.445      2.064      2.51       0.999      4.2587     0.194768   0.194768   0.3616789  11.34316   1.408695   5.11       0.5676109  0.7085639  173.7257   0.5057905  0.5640884  0.4474926 
891.8      -9999      211.8      7.496      -9999      -9999      4.7147     -9999      -9999      4.276      1.409      2.001      0.97       3.729      0.2162207  0.2162207  0.378467   28.31981   1.501169   4.721      0.5902795  0.716904   171.8391   0.4916553  0.549632   0.4336787 
892        -9999      228.9      7.369      -9999      -9999      4.2674     -9999      -9999      3.915      1.38       1.903      0.962      3.5252     0.2299853  0.2299853  0.3830982  50.93812   1.758694   4.369      0.5973428  0.7149529  168.8674   0.4639786  0.5152225  0.4127347 
892.2      -9999      237.5      7.356      -9999      -9999      3.9142     -9999      -9999      3.637      1.357      1.829      0.988      3.3296     0.2194566  0.2194566  0.3680468  32.51068   1.787428   4.211      0.5732561  0.696961   165.2757   0.4502735  0.5118241  0.3887229 
892.4      -9999      242.8      7.153      -9999      -9999      3.5303     -9999      -9999      3.552      1.282      1.813      0.988      3.191      0.2318924  0.2318924  0.3680468  55.25448   2.302171   4.119      0.5890203  0.7003011  161.275    0.4125892  0.461574   0.3636044 
892.6      -9999      251.4      7.026      -9999      -9999      3.271      -9999      -9999      3.721      1.443      2.05       0.992      3.1666     0.2381239  0.2381239  0.3657312  72.07603   2.697106   3.978      0.5917854  0.6971574  157.3726   0.3866887  0.4326773  0.3407002 
892.8      -9999      258.9      6.975      -9999      -9999      3.1731     -9999      -9999      3.715      1.374      1.854      0.988      3.1992     0.2448769  0.2448769  0.3680468  96.13293   2.874157   3.862      0.5960364  0.6972563  154.5148   0.3732422  0.4215887  0.3248957 
893        -9999      258.9      7.128      -9999      -9999      3.1833     -9999      -9999      3.529      1.357      1.854      1.024      3.2033     0.2191908  0.2191908  0.3472064  32.14421   2.375051   3.862      0.5551052  0.6721715  153.6207   0.3879261  0.455737   0.3201152 
893.2      -9999      255.6      7.395      -9999      -9999      3.2404     -9999      -9999      3.626      1.466      1.911      1.035      3.2603     0.2003823  0.2003823  0.3408385  14.41198   1.702602   3.912      0.5218428  0.6585776  155.3009   0.425625   0.522087   0.329163  
893.4      -9999      253.5      7.712      -9999      -9999      3.5407     -9999      -9999      3.767      1.512      1.968      1.024      3.4681     0.1873899  0.1873899  0.3472064  8.280829   1.146786   3.945      0.495089   0.6547856  159.8514   0.4842923  0.6135155  0.3550692 
893.6      -9999      248.2      8.08       -9999      -9999      3.7938     -9999      -9999      3.602      1.53       1.813      1.017      3.6679     0.1632346  0.1632346  0.3512587  2.955694   0.7248344  4.029      0.4362059  0.6423538  166.9322   0.56977    0.7399175  0.3996225 
893.8      -9999      235.3      8.271      -9999      -9999      3.7448     -9999      -9999      3.587      1.42       1.821      1.002      3.8023     0.1523318  0.1523318  0.3599422  1.856576   0.5712512  4.25       0.4160375  0.6480998  175.1568   0.6291224  0.8        0.4582448 
894        -9999      219.3      8.258      -9999      -9999      3.6447     -9999      -9999      3.932      1.949      1.788      1.017      4.1039     0.1338985  0.1338985  0.3512587  0.8458316  0.5805846  4.56       0.3678458  0.6383787  182.5128   0.6586672  0.8        0.5173344 
894.2      -9999      207.5      8.372      -9999      -9999      3.7816     -9999      -9999      4.332      2.599      2.182      1.002      4.5399     0.135605   0.135605   0.3599422  0.9096848  0.5036672  4.819      0.3907796  0.6552694  187.3297   0.6798099  0.8        0.5596197 
894.4      -9999      201.1      8.322      -9999      -9999      4.0184     -9999      -9999      4.505      2.64       2.657      0.981      4.8701     0.1453622  0.1453622  0.3720991  1.379172   0.5360616  4.973      0.4349566  0.675984   188.9133   0.6870816  0.8        0.5741632 
894.6      -9999      193.6      8.385      -9999      -9999      4.0061     -9999      -9999      4.549      2.272      2.477      0.992      4.9516     0.1409554  0.1409554  0.3657312  1.142862   0.4955697  5.165      0.4298278  0.6749477  187.6218   0.6811389  0.8        0.5622778 
