~Version
 VERS              .         2.0                           : CWLS LOG ASCII STANDARD - VERSION 2.0
 WRAP              .         NO                            : ONE LINE PER DEPTH STEP
 DLM               .         SPACE                         : DELIMITING CHARACTER(SPACE TAB OR COMMA)
~Well Information
#_______________________________________________________________________________
#
#PARAMETER_NAME    .UNIT     VALUE                         : DESCRIPTION
#_______________________________________________________________________________
STRT               .M        912                           : First reference value
STOP               .M        1283.4                        : Last reference value
STEP               .M        0.1                           : Step increment
NULL               .         -9999                         : Missing value
COMP               .                                       : Company
WELL               .         6838                          : Well name
FLD                .         УЗЕНЬ                         : Field
LOC                .                                       : Location
CNTY               .                                       : County
STAT               .                                       : State
CTRY               .                                       : Country
SRVC               .         SCH                           : Service Company
DATE               .         21.04.2010г                   : Date
UWI                .                                       : Unique Well ID
Block              .         6а                            : 
Category           .         Нагнетательная                : 
Condition          .         В работе                      : 
EREF               .m        85.9                          : 100.8
GRP                .                                       : Group name
Gorizont           .         15                            : 14
ISS                .                                       : Well surveys
Interpretator      .         Кушнир И.Е.                   : 
Kupol              .         основной                      : osnovnoi
Mud                .         глинистый                     : 
Mud_density        .         1.32                          : 
Mud_resistivity    .         0.4                           : 
NGDU               .         НГДУ-2                        : 
ORIGINALWELLNAME   .         6838                          : 
Spud_date          .         2010                          : 1961
TIME               .                                       : LOG TIME
Viscosity          .         40                            : 
X                  .m        44779.34                      : 46154
Y                  .m        85362.73                      : 85761.93
YEAR               .         2018г                         : 
~Parameter Information Block
#_______________________________________________________________________________
#
#PARAMETER_NAME    .UNIT     VALUE                         : DESCRIPTION
#_______________________________________________________________________________
SET                .         LQC_KAZNIPI_Petrel            : 
PBBOTTOM           .M        1283.4                        : Глубина подошвы планшета
PBSCALE            .         1 _ 500                       : Вертикальный масштаб планшета
PBTOP              .M        912                           : Глубина кровли планшета
TLFamily_CALI      .         Caliper                       : 
TLFamily_COLL      .         Net Reservoir Flag            : 
TLFamily_CSAT      .         Fluid Code                    : 
TLFamily_DEPT      .         Measured Depth                : 
TLFamily_DT        .         Compressional Slowness        : 
TLFamily_GR        .         Russian Gamma Ray             : 
TLFamily_IK1       .         Resistivity 05                : 
TLFamily_IK2       .         Resistivity 07                : 
TLFamily_IK3       .         Resistivity 10                : 
TLFamily_IK4       .         Resistivity 14                : 
TLFamily_IK5       .         Resistivity 20                : 
TLFamily_LLS       .         Lateral Log Resistivity       : 
TLFamily_MBK       .         Micro Lateral Log Resistivity : 
TLFamily_MINV      .         Micro Gradient Resistivity    : 
TLFamily_MNOR      .         Micro Resistivity             : 
TLFamily_NNKTB     .         Neutron Far                   : 
TLFamily_NNKTM     .         Neutron Near                  : 
TLFamily_NPHI      .         Neutron Porosity              : 
TLFamily_PHIE      .         Effective Porosity            : 
TLFamily_PHIED     .         Effective Porosity            : 
TLFamily_PHIEN     .         Effective Porosity            : 
TLFamily_PHIES     .         Effective Porosity            : 
TLFamily_PHIT      .         Porosity                      : 
TLFamily_PRMB      .         Permeability                  : 
TLFamily_PRMB_DGR  .         Permeability                  : 
TLFamily_RHOB      .         Bulk Density                  : 
TLFamily_RT        .         Formation Resistivity         : 
TLFamily_SOIL_ARCHIE .         Oil Saturation                : 
TLFamily_SOIL_DW   .         Oil Saturation                : 
TLFamily_SP        .         Spontaneous Potential         : 
TLFamily_VSH_FIN   .         Shale Volume                  : 
TLFamily_VSH_GR    .         Shale Volume                  : 
TLFamily_VSH_SP    .         Shale Volume                  : 
~Curve Information
#_______________________________________________________________________________
#
#LOGNAME           .UNIT     LOG_ID                        : DESCRIPTION
#_______________________________________________________________________________
DEPT               .M                                      : Колонка глубины 
CALI               .м                                      : Каверномер 
COLL               .unitless                               : Описание 
CSAT               .unitless                               : Описание 
DT                 .мкс/м                                  : Интервальное время пробега продольной волны 
GR                 .uR/h                                   : Гамма каротаж 
IK1                .Ohmm                                   : И0.10И0.40 
IK2                .Ohmm                                   : И0.14И0.56 
IK3                .Ohmm                                   : И0.20И0.80 
IK4                .Ohmm                                   : И0.28И1.12 
IK5                .Ohmm                                   : И0.40И1.60 
LLS                .Ohmm                                   : Боковой каротаж 
MBK                .Ohmm                                   : Микробоковой каротаж 
MINV               .Ohmm                                   : Микро-градиент зонд 
MNOR               .Ohmm                                   : Микро-потенциал зонд 
NNKTB              .у.е.                                   :  
NNKTM              .у.е.                                   :  
NPHI               .v/v                                    : Total porosity 
PHIE               .v/v                                    : Описание 
PHIED              .v/v                                    :  
PHIEN              .v/v                                    :  
PHIES              .v/v                                    :  
PHIT               .v/v                                    : Описание 
PRMB               .mD                                     :  
PRMB_DGR           .mD                                     :  
RHOB               .G/C3                                   : Плотность по ГГК-П 
RT                 .ohmm                                   : Description 
SOIL_ARCHIE        .v/v                                    :  
SOIL_DW            .v/v                                    :  
SP                 .мВ                                     : Потенциал самополяризации 
VSH_FIN            .v/v                                    : Описание 
VSH_GR             .v/v                                    : Shale volume 
VSH_SP             .v/v                                    : Shale Volume 
~Ascii
# ...
1109.4     0.226      -9999      -9999      284.751    9.254      1.5314     1.7387     1.8403     1.9351     1.9199     2.18       1.8        4.674      3.382      4.358      3.748      -9999      0.07150101 0.08238297 -9999      0.06061905 -9999      0.05909221 0.8358498  2.311      1.9199     0          -9999      55.70362   0.5984333  0.6980906  0.498776  
1109.5     0.227      -9999      -9999      287.32     9.356      1.5202     1.7099     1.7774     1.8766     1.8924     1.896      1.796      4.548      3.312      4.42       3.656      -9999      0.073025   0.08566627 -9999      0.06038373 -9999      0.06306063 0.7415056  2.301      1.8924     0          -9999      55.32101   0.6106411  0.7330789  0.4882034 
1109.6     0.228      -9999      -9999      290.946    9.186      1.5134     1.6769     1.7084     1.8185     1.8678     1.876      1.778      4.65       3.326      4.52       3.64       -9999      0.08528762 0.09481909 -9999      0.07575615 -9999      0.1063877  0.9053231  2.298      1.8678     0          -9999      54.98841   0.5774379  0.6756979  0.4791778 
1109.7     0.228      -9999      -9999      295.512    9.066      1.5117     1.6438     1.6423     1.7545     1.8494     1.864      1.772      4.782      3.376      4.408      3.646      -9999      0.09369103 0.0989117  -9999      0.08847035 -9999      0.1522451  1.042308   2.299      1.8494     0          -9999      54.81781   0.5562633  0.6379193  0.4746074 
1109.8     0.227      -9999      -9999      300.896    9.144      1.5092     1.6342     1.6056     1.7181     1.8506     1.882      1.784      4.838      3.51       4.284      3.676      -9999      0.09347373 0.09446017 -9999      0.09248728 -9999      0.1508406  0.9510885  2.303      1.8506     0          -9999      54.60121   0.5655447  0.6622275  0.468862  
1109.9     0.227      -9999      -9999      307.193    9.138      1.5067     1.6238     1.5701     1.7833     1.9296     1.898      1.794      4.85       3.634      4.314      3.706      -9999      0.09750763 0.09317032 -9999      0.1018449  -9999      0.1791579  0.9578132  2.307      1.9296     0          -9999      54.29261   0.5605558  0.6603251  0.4607866 
1110       0.227      -9999      -9999      314.144    8.826      1.5409     1.6818     1.6646     1.8778     2.0372     1.94       1.762      4.744      3.646      4.378      3.74       -9999      0.1142224  0.1025476  -9999      0.1258972  -9999      0.365455   1.381595   2.31       2.0372     0          -9999      53.938     0.5101232  0.5685806  0.4516659 
1110.1     0.227      -9999      -9999      321.341    8.56       1.6356     1.7419     1.7666     2.1        2.2577     2.04       1.748      4.604      3.642      4.418      3.792      -9999      0.1281005  0.1096106  -9999      0.1465905  -9999      0.6605275  1.888094   2.313      2.2577     0.08623943 -9999      53.4654    0.4701359  0.5005004  0.4397714 
1110.2     0.227      -9999      -9999      328.206    8.51       1.9766     2.3471     2.3559     2.434      2.563      2.34       1.844      4.424      3.704      4.47       3.852      -9999      0.1339594  0.1103266  -9999      0.1575923  -9999      0.8480309  2.002261   2.316      2.563      0.1719275  -9999      53.0248    0.4587963  0.4886447  0.4289479 
1110.3     0.228      -9999      -9999      333.655    8.328      3.077      3.326000000000001 3.291700000000001 3.2588     3.176600000000001 2.698      2.198      4.302      3.97       4.57       3.914      -9999      0.1415866  0.1121805  -9999      0.1709926  -9999      1.174045   2.4793     2.322      3.1766     0.2865211  -9999      52.6782    0.4342121  0.4478127  0.4206115 
1110.4     0.228      -9999      -9999      336.557    7.618      4.7664     4.686900000000001 4.4224     4.359399999999999 3.933199999999999 3.29       3.546      4.424      5.068      4.69       3.984      -9999      0.1992987  0.202994   -9999      0.1956034  -9999      13.7611    5.706686   2.331      3.9332     0.5207963  -9999      52.2996    0.3651456  0.3186085  0.4116827 
1110.5     0.228      -9999      -9999      335.845    6.98       6.6286     7.0935     6.248400000000001 4.9228     4.4644     4.048      6.402      4.698      6.346      4.896      4.05       -9999      0.203397   0.1970059  -9999      0.2097881  -9999      16.38944   12.07045   2.341      4.4644     0.556388   -9999      51.81699   0.3176053  0.2346445  0.4005661 
1110.6     0.227      -9999      -9999      331.833    6.63       8.2432     7.408400000000001 5.9647     5.1927     4.808599999999999 5.44       14.682     5.414      7.57       5.154      4.1        -9999      0.202158   0.1910179  -9999      0.2132982  -9999      15.54588   18.20544   2.351      4.8086     0.5692968  -9999      51.26239   0.2932743  0.1983956  0.3881531 
1110.7     0.225      -9999      -9999      325.164    6.376      8.055400000000001 7.744799999999999 5.706      4.1357     4.1217     7.032      23.398     6.034      8.546      5.532      4.15       -9999      0.1988843  0.1856288  -9999      0.2121398  -9999      13.52002   24.53156   2.36       4.1217     0.5303577  -9999      50.56979   0.274417   0.1756479  0.373186  
1110.8     0.223      -9999      -9999      317.055    6.506      5.162399999999999 3.7958     3.3682     3.2935     3.4822     9.392      28.528     5.804      8.568      5.862      4.194      -9999      0.1924517  0.182036   -9999      0.2028674  -9999      10.27615   21.05879   2.366      3.4822     0.476925   -9999      50.11319   0.2752912  0.1869443  0.363638  
1110.9     0.222      -9999      -9999      308.591    6.742      2.338      2.2418     2.2153     2.4863     2.7199     11.21      29.632     5.378      7.966      5.852      4.204      -9999      0.1851764  0.1814371  -9999      0.1889158  -9999      7.534854   15.96204   2.367      2.7199     0.3925751  -9999      50.28059   0.2882249  0.2093404  0.3671094 
1111       0.221      -9999      -9999      301.054    7.4        1.5809     1.9585     1.9504     2.0105     2.2303     10.858     17.196     4.968      5.698      5.682      4.17       -9999      0.173269   0.1808383  -9999      0.1656997  -9999      4.5344     7.371402   2.368      2.2303     0.2935553  -9999      50.81198   0.3326707  0.2869885  0.3783529 
1111.1     0.22       -9999      -9999      295.805    8.04       1.4686     1.7253     1.7289     1.8931     2.0214     9.8        4.076      4.632      3.44       5.176      4.11       -9999      0.1160717  0.09448063 -9999      0.1376628  -9999      0.3954468  3.47689    2.364      2.0214     0          -9999      52.27538   0.4005872  0.3900568  0.4111177 
1111.2     0.22       -9999      -9999      293.485    8.64       1.4727     1.8512     1.9628     1.8558     1.9067     5.948      1.58       4.61       2.892      4.638      4.008      -9999      0.09530161 0.08135336 -9999      0.1092499  -9999      0.1630704  1.718814   2.356      1.9067     0          -9999      53.58878   0.4814593  0.5200707  0.442848  
1111.3     0.22       -9999      -9999      294.461    9.082      1.6616     1.9913     2.247      2.1391     2.0786     2.78       1.588      4.626      2.844      4.238      3.886      -9999      0.07971576 0.07177095 -9999      0.08766057 -9999      0.08388557 1.02291    2.345      2.0786     0          -9999      54.49418   0.5544391  0.6428317  0.4660465 
1111.4     0.22       -9999      -9999      298.058    8.894      1.8655     2.2928     2.5817     2.4391     2.25       2.38       1.63       4.498      3.188      3.926      3.726      -9999      0.09010483 0.0829942  -9999      0.09721545 -9999      0.1306526  1.275572   2.332      2.25       0          -9999      55.40158   0.538918   0.5874234  0.4904126 
1111.5     0.222      -9999      -9999      303.451    8.73       2.0719     2.6693     2.996      2.5642     2.338      2.08       1.876      4.768      3.722      3.82       3.628      -9999      0.1005514  0.0940838  -9999      0.1070191  -9999      0.2039927  1.546447   2.317      2.338      0          -9999      56.30497   0.5294058  0.5430031  0.5158084 
