~Version
 VERS              .         2.0                           : CWLS LOG ASCII STANDARD - VERSION 2.0
 WRAP              .         NO                            : ONE LINE PER DEPTH STEP
 DLM               .         SPACE                         : DELIMITING CHARACTER(SPACE TAB OR COMMA)
~Well Information
#_______________________________________________________________________________
#
#PARAMETER_NAME    .UNIT     VALUE                         : DESCRIPTION
#_______________________________________________________________________________
STRT               .M        912                           : First reference value
STOP               .M        1283.4                        : Last reference value
STEP               .M        0.1                           : Step increment
NULL               .         -9999                         : Missing value
COMP               .                                       : Company
WELL               .         6838                          : Well name
FLD                .         УЗЕНЬ                         : Field
LOC                .                                       : Location
CNTY               .                                       : County
STAT               .                                       : State
CTRY               .                                       : Country
SRVC               .         SCH                           : Service Company
DATE               .         21.04.2010г                   : Date
UWI                .                                       : Unique Well ID
Block              .         6а                            : 
Category           .         Нагнетательная                : 
Condition          .         В работе                      : 
EREF               .m        85.9                          : 100.8
GRP                .                                       : Group name
Gorizont           .         15                            : 14
ISS                .                                       : Well surveys
Interpretator      .         Кушнир И.Е.                   : 
Kupol              .         основной                      : osnovnoi
Mud                .         глинистый                     : 
Mud_density        .         1.32                          : 
Mud_resistivity    .         0.4                           : 
NGDU               .         НГДУ-2                        : 
ORIGINALWELLNAME   .         6838                          : 
Spud_date          .         2010                          : 1961
TIME               .                                       : LOG TIME
Viscosity          .         40                            : 
X                  .m        44779.34                      : 46154
Y                  .m        85362.73                      : 85761.93
YEAR               .         2018г                         : 
~Parameter Information Block
#_______________________________________________________________________________
#
#PARAMETER_NAME    .UNIT     VALUE                         : DESCRIPTION
#_______________________________________________________________________________
SET                .         LQC_KAZNIPI_Petrel            : 
PBBOTTOM           .M        1283.4                        : Глубина подошвы планшета
PBSCALE            .         1 _ 500                       : Вертикальный масштаб планшета
PBTOP              .M        912                           : Глубина кровли планшета
TLFamily_CALI      .         Caliper                       : 
TLFamily_COLL      .         Net Reservoir Flag            : 
TLFamily_CSAT      .         Fluid Code                    : 
TLFamily_DEPT      .         Measured Depth                : 
TLFamily_DT        .         Compressional Slowness        : 
TLFamily_GR        .         Russian Gamma Ray             : 
TLFamily_IK1       .         Resistivity 05                : 
TLFamily_IK2       .         Resistivity 07                : 
TLFamily_IK3       .         Resistivity 10                : 
TLFamily_IK4       .         Resistivity 14                : 
TLFamily_IK5       .         Resistivity 20                : 
TLFamily_LLS       .         Lateral Log Resistivity       : 
TLFamily_MBK       .         Micro Lateral Log Resistivity : 
TLFamily_MINV      .         Micro Gradient Resistivity    : 
TLFamily_MNOR      .         Micro Resistivity             : 
TLFamily_NNKTB     .         Neutron Far                   : 
TLFamily_NNKTM     .         Neutron Near                  : 
TLFamily_NPHI      .         Neutron Porosity              : 
TLFamily_PHIE      .         Effective Porosity            : 
TLFamily_PHIED     .         Effective Porosity            : 
TLFamily_PHIEN     .         Effective Porosity            : 
TLFamily_PHIES     .         Effective Porosity            : 
TLFamily_PHIT      .         Porosity                      : 
TLFamily_PRMB      .         Permeability                  : 
TLFamily_PRMB_DGR  .         Permeability                  : 
TLFamily_RHOB      .         Bulk Density                  : 
TLFamily_RT        .         Formation Resistivity         : 
TLFamily_SOIL_ARCHIE .         Oil Saturation                : 
TLFamily_SOIL_DW   .         Oil Saturation                : 
TLFamily_SP        .         Spontaneous Potential         : 
TLFamily_VSH_FIN   .         Shale Volume                  : 
TLFamily_VSH_GR    .         Shale Volume                  : 
TLFamily_VSH_SP    .         Shale Volume                  : 
~Curve Information
#_______________________________________________________________________________
#
#LOGNAME           .UNIT     LOG_ID                        : DESCRIPTION
#_______________________________________________________________________________
DEPT               .M                                      : Колонка глубины 
CALI               .м                                      : Каверномер 
COLL               .unitless                               : Описание 
CSAT               .unitless                               : Описание 
DT                 .мкс/м                                  : Интервальное время пробега продольной волны 
GR                 .uR/h                                   : Гамма каротаж 
IK1                .Ohmm                                   : И0.10И0.40 
IK2                .Ohmm                                   : И0.14И0.56 
IK3                .Ohmm                                   : И0.20И0.80 
IK4                .Ohmm                                   : И0.28И1.12 
IK5                .Ohmm                                   : И0.40И1.60 
LLS                .Ohmm                                   : Боковой каротаж 
MBK                .Ohmm                                   : Микробоковой каротаж 
MINV               .Ohmm                                   : Микро-градиент зонд 
MNOR               .Ohmm                                   : Микро-потенциал зонд 
NNKTB              .у.е.                                   :  
NNKTM              .у.е.                                   :  
NPHI               .v/v                                    : Total porosity 
PHIE               .v/v                                    : Описание 
PHIED              .v/v                                    :  
PHIEN              .v/v                                    :  
PHIES              .v/v                                    :  
PHIT               .v/v                                    : Описание 
PRMB               .mD                                     :  
PRMB_DGR           .mD                                     :  
RHOB               .G/C3                                   : Плотность по ГГК-П 
RT                 .ohmm                                   : Description 
SOIL_ARCHIE        .v/v                                    :  
SOIL_DW            .v/v                                    :  
SP                 .мВ                                     : Потенциал самополяризации 
VSH_FIN            .v/v                                    : Описание 
VSH_GR             .v/v                                    : Shale volume 
VSH_SP             .v/v                                    : Shale Volume 
~Ascii
# ...
960.4      0.224      -9999      -9999      336.76     5.412      2.3839     2.4409     2.4467     2.4827     2.4887     2.362      2.408      6.058      4.184      5.244      4.482      -9999      0.1359311  0.09460966 -9999      0.1772525  -9999      0.922425   15.80059   2.355      2.4887     0.1710332  -9999      60.18555   0.4243293  0.2102112  0.6384475 
960.5      0.224      -9999      -9999      336.888    5.426      2.1727     2.1576     2.2934     2.3733     2.4209     2.402      2.746      7.236      4.562      5.324      4.49       -9999      0.1391427  0.1017771  -9999      0.1765084  -9999      1.057837   15.45922   2.342      2.4209     0.1771262  -9999      60.29201   0.4271143  0.2120944  0.6421341 
960.6      0.224      -9999      -9999      339.231    5.254      2.0692     2.2849     2.314      2.2678     2.3461     2.362      2.436      6.238      4.124      5.444      4.478      -9999      0.1480547  0.1141508  -9999      0.1819586  -9999      1.546999   20.21745   2.325      2.3461     0.2088713  -9999      60.35546   0.4172113  0.1900827  0.64434   
960.7000000000001 0.224      -9999      -9999      343.056    5.142      2.0978     2.4237     2.3348     2.1562     2.2379     2.318      2.084      5.13       3.682      5.564      4.403      -9999      0.156941   0.1259174  -9999      0.1879646  -9999      2.259888   24.07754   2.308      2.2379     0.2311844  -9999      60.3199    0.410048   0.1769929  0.6431032 
960.8      0.224      -9999      -9999      347.164    5.302      2.0254     2.1041     2.0665     2.0605     2.1454     2.258      2.232      5.73       4.04       5.612      4.358      -9999      0.1608949  0.1328208  -9999      0.188969   -9999      2.674992   18.75875   2.293      2.1454     0.2326146  -9999      60.31336   0.4194303  0.1959849  0.6428757 
960.9      0.224      -9999      -9999      350.24     5.442      1.8268     1.8421     1.8403     1.9951     2.0868     2.192      2.384      6.39       4.37       5.356      4.354      -9999      0.1629456  0.1371802  -9999      0.188711   -9999      2.919482   15.0781    2.282      2.0868     0.2311049  -9999      60.36581   0.4294838  0.2142673  0.6447003 
961        0.224      -9999      -9999      351.073    5.502      1.7175     1.8376     1.8632     1.9623     2.0692     2.102      2.074      5.602      3.764      5.06       4.376      -9999      0.1631038  0.1383938  -9999      0.1878139  -9999      2.939254   13.73074   2.278      2.0692     0.2286952  -9999      60.43225   0.434817   0.2226157  0.6470182 
961.1      0.224      -9999      -9999      348.672    5.572      1.7084     1.8331     1.8865     2.0498     2.2034     2.038      1.72       4.61       3.088      4.868      4.408      -9999      0.1598774  0.1363002  -9999      0.1834547  -9999      2.561392   12.3102    2.279      2.2034     0.2379618  -9999      60.52771   0.4415639  0.2327676  0.6503602 
961.2000000000001 0.224      -9999      -9999      343.352    5.682      1.8179     2.1027     2.1298     2.1663     2.3429     2.076      1.688      4.244      3.064      4.8        4.454      -9999      0.1520094  0.1290826  -9999      0.1749362  -9999      1.831222   10.36894   2.287      2.3429     0.2263324  -9999      60.67015   0.4525191  0.249664   0.6553742 
961.3      0.224      -9999      -9999      335.841    5.746      2.1625     2.434      2.4227     2.3933     2.4641     2.134      1.798      4.228      3.294      5.124      4.536      -9999      0.1409949  0.1174329  -9999      0.1645568  -9999      1.144788   9.383636   2.303      2.4641     0.1932724  -9999      60.9036    0.4618571  0.2600534  0.6636608 
961.4      0.224      -9999      -9999      327.455    5.624      2.4432     2.5513     2.5483     2.6131     2.591      2.306      2.206      5.118      3.992      5.52       4.662      -9999      0.1316579  0.1059448  -9999      0.157371   -9999      0.768743   11.35095   2.324      2.591      0.1636093  -9999      61.17206   0.4569524  0.2406075  0.6732972 
961.5      0.224      -9999      -9999      319.535    5.51       2.5101     2.6791     2.6858     2.6673     2.7058     2.472      2.614      6.052      4.688      5.812      4.768      -9999      0.1210593  0.09268344 -9999      0.1494351  -9999      0.4891805  13.56042   2.347      2.7058     0.1183038  -9999      61.50851   0.4546453  0.2237532  0.6855375 
961.6      0.224      -9999      -9999      313.304    5.458      2.5282     2.6342     2.6253     2.705      2.7984     2.58       2.714      6.322      4.902      6.08       4.852      -9999      0.1110879  0.08035687 -9999      0.1418189  -9999      0.319724   14.70638   2.367      2.7984     0.06464839 -9999      61.79195   0.4562268  0.2164625  0.6959912 
961.7000000000001 0.224      -9999      -9999      309.516    5.388      2.4728     2.5904     2.5668     2.6693     2.7712     2.652      2.702      6.402      4.966      6.38       4.896      -9999      0.1040278  0.07004515 -9999      0.1380105  -9999      0.2365952  16.40343   2.385      2.7712     0.005047027 -9999      61.93241   0.4541205  0.2070217  0.7012194 
961.8      0.224      -9999      -9999      307.729    5.278      2.4398     2.6536     2.5854     2.6342     2.7423     2.61       2.552      6.354      4.834      6.61       4.876      -9999      0.09966934 0.06206153 -9999      0.1372772  -9999      0.1964609  19.47446   2.4        2.7423     0          -9999      62.06585   0.4496139  0.1930112  0.7062166 
961.9      0.224      -9999      -9999      307.095    5.208      2.4346     2.7192     2.6062     2.6055     2.7058     2.562      2.41       6.35       4.708      6.544      4.852      -9999      0.09657215 0.05595502 -9999      0.1371893  -9999      0.1721506  21.7217    2.411      2.7058     0          -9999      62.1743    0.4474462  0.1845933  0.7102991 
962        0.224      -9999      -9999      306.642    5.298      2.4023     2.6169     2.5501     2.5698     2.6621     2.522      2.472      6.67       4.81       6.424      4.814      -9999      0.09231694 0.05020305 -9999      0.1344308  -9999      0.1435793  18.87619   2.418      2.6621     0          -9999      62.25876   0.454489   0.1954861  0.7134919 
962.1      0.224      -9999      -9999      305.969    5.34       2.3267     2.5185     2.4976     2.5077     2.5929     2.478      2.546      6.864      4.852      6.346      4.782      -9999      0.09108375 0.0495216  -9999      0.1326459  -9999      0.1362229  17.67896   2.418      2.5929     0          -9999      62.2812    0.4575647  0.2007871  0.7143424 
962.2000000000001 0.224      -9999      -9999      305.111    5.192      2.2409     2.4        2.4227     2.4512     2.53       2.42       2.468      6.184      4.432      6.25       4.742      -9999      0.09513415 0.05576719 -9999      0.1345011  -9999      0.1619099  22.27074   2.411      2.53       0          -9999      62.26865   0.448294   0.1827213  0.7138667 
962.3      0.224      -9999      -9999      304.538    5.048      2.1383     2.2896     2.3526     2.4067     2.4834     2.368      2.362      5.4        3.964      6.044      4.706      -9999      0.10064    0.06447823 -9999      0.1368017  -9999      0.2047645  27.88061   2.4        2.4834     0          -9999      62.18511   0.4387061  0.1667052  0.710707  
962.4      0.224      -9999      -9999      304.749    4.886      2.1047     2.3133     2.3723     2.3733     2.4398     2.31       2.272      5.026      3.8        5.856      4.684      -9999      0.1066361  0.07319558 -9999      0.1400767  -9999      0.2644343  35.89758   2.389      2.4398     0          -9999      62.10855   0.4290904  0.1503589  0.7078218 
962.5      0.224      -9999      -9999      305.966    4.752      2.1697     2.339      2.3939     2.3733     2.4007     2.258      2.206      4.848      3.746      5.846      4.65       -9999      0.1113634  0.07894807 -9999      0.1437787  -9999      0.3235026  44.24432   2.382      2.4007     0          -9999      62.061     0.4220453  0.1380561  0.7060344 
