~Version
 VERS              .         2.0                           : CWLS LOG ASCII STANDARD - VERSION 2.0
 WRAP              .         NO                            : ONE LINE PER DEPTH STEP
 DLM               .         SPACE                         : DELIMITING CHARACTER(SPACE TAB OR COMMA)
~Well Information
#_______________________________________________________________________________
#
#PARAMETER_NAME    .UNIT     VALUE                         : DESCRIPTION
#_______________________________________________________________________________
STRT               .M        912                           : First reference value
STOP               .M        1283.4                        : Last reference value
STEP               .M        0.1                           : Step increment
NULL               .         -9999                         : Missing value
COMP               .                                       : Company
WELL               .         6838                          : Well name
FLD                .         УЗЕНЬ                         : Field
LOC                .                                       : Location
CNTY               .                                       : County
STAT               .                                       : State
CTRY               .                                       : Country
SRVC               .         SCH                           : Service Company
DATE               .         21.04.2010г                   : Date
UWI                .                                       : Unique Well ID
Block              .         6а                            : 
Category           .         Нагнетательная                : 
Condition          .         В работе                      : 
EREF               .m        85.9                          : 100.8
GRP                .                                       : Group name
Gorizont           .         15                            : 14
ISS                .                                       : Well surveys
Interpretator      .         Кушнир И.Е.                   : 
Kupol              .         основной                      : osnovnoi
Mud                .         глинистый                     : 
Mud_density        .         1.32                          : 
Mud_resistivity    .         0.4                           : 
NGDU               .         НГДУ-2                        : 
ORIGINALWELLNAME   .         6838                          : 
Spud_date          .         2010                          : 1961
TIME               .                                       : LOG TIME
Viscosity          .         40                            : 
X                  .m        44779.34                      : 46154
Y                  .m        85362.73                      : 85761.93
YEAR               .         2018г                         : 
~Parameter Information Block
#_______________________________________________________________________________
#
#PARAMETER_NAME    .UNIT     VALUE                         : DESCRIPTION
#_______________________________________________________________________________
SET                .         LQC_KAZNIPI_Petrel            : 
PBBOTTOM           .M        1283.4                        : Глубина подошвы планшета
PBSCALE            .         1 _ 500                       : Вертикальный масштаб планшета
PBTOP              .M        912                           : Глубина кровли планшета
TLFamily_CALI      .         Caliper                       : 
TLFamily_COLL      .         Net Reservoir Flag            : 
TLFamily_CSAT      .         Fluid Code                    : 
TLFamily_DEPT      .         Measured Depth                : 
TLFamily_DT        .         Compressional Slowness        : 
TLFamily_GR        .         Russian Gamma Ray             : 
TLFamily_IK1       .         Resistivity 05                : 
TLFamily_IK2       .         Resistivity 07                : 
TLFamily_IK3       .         Resistivity 10                : 
TLFamily_IK4       .         Resistivity 14                : 
TLFamily_IK5       .         Resistivity 20                : 
TLFamily_LLS       .         Lateral Log Resistivity       : 
TLFamily_MBK       .         Micro Lateral Log Resistivity : 
TLFamily_MINV      .         Micro Gradient Resistivity    : 
TLFamily_MNOR      .         Micro Resistivity             : 
TLFamily_NNKTB     .         Neutron Far                   : 
TLFamily_NNKTM     .         Neutron Near                  : 
TLFamily_NPHI      .         Neutron Porosity              : 
TLFamily_PHIE      .         Effective Porosity            : 
TLFamily_PHIED     .         Effective Porosity            : 
TLFamily_PHIEN     .         Effective Porosity            : 
TLFamily_PHIES     .         Effective Porosity            : 
TLFamily_PHIT      .         Porosity                      : 
TLFamily_PRMB      .         Permeability                  : 
TLFamily_PRMB_DGR  .         Permeability                  : 
TLFamily_RHOB      .         Bulk Density                  : 
TLFamily_RT        .         Formation Resistivity         : 
TLFamily_SOIL_ARCHIE .         Oil Saturation                : 
TLFamily_SOIL_DW   .         Oil Saturation                : 
TLFamily_SP        .         Spontaneous Potential         : 
TLFamily_VSH_FIN   .         Shale Volume                  : 
TLFamily_VSH_GR    .         Shale Volume                  : 
TLFamily_VSH_SP    .         Shale Volume                  : 
~Curve Information
#_______________________________________________________________________________
#
#LOGNAME           .UNIT     LOG_ID                        : DESCRIPTION
#_______________________________________________________________________________
DEPT               .M                                      : Колонка глубины 
CALI               .м                                      : Каверномер 
COLL               .unitless                               : Описание 
CSAT               .unitless                               : Описание 
DT                 .мкс/м                                  : Интервальное время пробега продольной волны 
GR                 .uR/h                                   : Гамма каротаж 
IK1                .Ohmm                                   : И0.10И0.40 
IK2                .Ohmm                                   : И0.14И0.56 
IK3                .Ohmm                                   : И0.20И0.80 
IK4                .Ohmm                                   : И0.28И1.12 
IK5                .Ohmm                                   : И0.40И1.60 
LLS                .Ohmm                                   : Боковой каротаж 
MBK                .Ohmm                                   : Микробоковой каротаж 
MINV               .Ohmm                                   : Микро-градиент зонд 
MNOR               .Ohmm                                   : Микро-потенциал зонд 
NNKTB              .у.е.                                   :  
NNKTM              .у.е.                                   :  
NPHI               .v/v                                    : Total porosity 
PHIE               .v/v                                    : Описание 
PHIED              .v/v                                    :  
PHIEN              .v/v                                    :  
PHIES              .v/v                                    :  
PHIT               .v/v                                    : Описание 
PRMB               .mD                                     :  
PRMB_DGR           .mD                                     :  
RHOB               .G/C3                                   : Плотность по ГГК-П 
RT                 .ohmm                                   : Description 
SOIL_ARCHIE        .v/v                                    :  
SOIL_DW            .v/v                                    :  
SP                 .мВ                                     : Потенциал самополяризации 
VSH_FIN            .v/v                                    : Описание 
VSH_GR             .v/v                                    : Shale volume 
VSH_SP             .v/v                                    : Shale Volume 
~Ascii
# ...
1207.5     0.218      -9999      -9999      255.442    9.202      1.8392     1.8966     1.8586     1.8308     1.9393     2.012      3.202      4          4.66       4.354      4.022      0.024      0.02401162 0.03945487 0          0.03257998 0.08853456 0.007796711 1.634243   2.404      1.9393     0          0          57.48652   0.5408387  0.5308965  0.550781  
1207.6     0.218      -9999      -9999      255.796    9.46       1.8035     1.8696     1.8201     1.7909     1.9031     2.024      3.862      3.868      4.422      4.534      4.026      0.018      0.02270906 0.0424923  0          0.02563488 0.08775364 0.007375388 1.231509   2.39       1.9031     0          0          56.92865   0.5649669  0.5959165  0.5340173 
1207.7     0.218      -9999      -9999      256.831    9.604      1.7784     1.8421     1.7828     1.7855     1.8621     2.024      4.306      3.686      4.09       4.688      3.996      0.02       0.02452147 0.04926037 0          0.02430404 0.09127709 0.007968107 1.051609   2.375      1.8621     0          0          56.2528    0.5749599  0.6356094  0.5143104 
1207.8     0.217      -9999      -9999      258.204    9.324      1.7603     1.8308     1.7947     1.7899     1.8575     1.946      3.834      3.832      4.006      4.562      3.932      0.023      0.03749723 0.07036246 0          0.04212923 0.1001007  0.01385791 1.429588   2.358      1.8575     0          0          55.40894   0.5256612  0.5607075  0.490615  
1207.9     0.217      -9999      -9999      259.83     9.082      1.7518     1.8196     1.8057     1.8319     1.9126     1.884      3.164      4.06       4.002      4.408      3.902      0.047      0.04940896 0.09032647 0          0.05790041 0.1156795  0.02303201 1.864101   2.34       1.9126     0          0          54.46508   0.4842024  0.503121   0.4652838 
1208       0.216      -9999      -9999      261.673    8.994      1.8145     1.8872     1.8783     1.8907     1.9791     1.854      2.536      4.364      4.066      4.406      3.927      0.057      0.05862828 0.1071608  0          0.06872403 0.125658   0.03412683 2.052964   2.321      1.9791     0          0          53.29123   0.4595713  0.4836803  0.4354622 
1208.1     0.216      -9999      -9999      264.217    8.944      1.9995     1.9585     1.9566     2.0144     2.0991     1.832      2.01       4.618      4.132      4.426      3.988      0.077      0.0683815  0.1241995  0          0.08094504 0.1394074  0.05173082 2.168679   2.302      2.0991     0          0          51.57337   0.4340184  0.4729709  0.395066  
1208.2     0.216      -9999      -9999      268.201    9.014      2.2965     2.2571     2.1843     2.1591     2.2318     1.84       1.884      4.59       4.138      4.406      4.026      0.09       0.07720757 0.1381137  0          0.09350895 0.1505226  0.07537537 2.008428   2.286      2.2318     0          0          48.9735    0.4144596  0.4880315  0.3408876 
1208.3     0.216      -9999      -9999      274.329    8.924      2.8325     2.6284     2.4554     2.352      2.3906     1.862      1.906      4.462      4.222      4.406      4.054      0.105      0.1174495  0.2377245  0          0.1146239  0.1919023  0.4193799  2.216771   2.273      2.3906     0.05392325 0.247106   45.86164   0.3775039  0.4687538  0.286254  
1208.4     0.217      1          2          282.275    8.192      3.3351     2.6381     2.4781     2.5312     2.5464     1.972      2.148      4.216      4.708      4.492      4.072      0.167      0.1560768  0.2401197  0.07284498 0.1552658  0.2172804  2.178109   4.947132   2.269      2.5464     0.2830189  0.3966535  42.04379   0.2853182  0.3377431  0.2328933 
1208.5     0.217      1          2          291.264    7.574      3.580499999999999 2.6477     2.5012     2.5642     2.6291     2.156      2.548      4.002      5.226      4.592      4.082      0.217      0.1889996  0.2377245  0.1426675  0.1866067  0.2373179  8.869294   9.742968   2.273      2.6291     0.4021415  0.4793767  38.41593   0.2252499  0.2560935  0.1944063 
1208.6     0.217      1          2          300.247    7.444      3.754      2.4237     2.399      2.5735     2.6898     2.634      3.418      4.026      5.438      4.646      4.088      0.223      0.1971863  0.2317365  0.1552298  0.2045927  0.241239   12.57556   11.23588   2.283      2.6898     0.4299575  0.4992013  35.24408   0.2053642  0.2416108  0.1691177 
1208.7     0.217      1          2          308.1      7.344      3.7935     2.2267     2.3029     2.5005     2.6543     3.052      4.3        4.086      5.544      4.68       4.078      0.227      0.2014706  0.2233533  0.1630883  0.2179702  0.2430151  15.09673   12.53818   2.297      2.6543     0.4370308  0.5025501  33.18821   0.1936717  0.23103    0.1563134 
1208.8     0.216      1          2          313.788    7.362      3.586599999999999 2.0972     2.1916     2.4152     2.6024     3.264      4.722      4.064      5.506      4.728      4.074      0.223      0.1995762  0.21497    0.1590727  0.224686   0.2411309  13.92497   12.2931    2.311      2.6024     0.4270952  0.4933302  32.86636   0.193719   0.2328998  0.1545383 
1208.9     0.214      1          2          316.126    7.41       3.0966     1.9773     2.0895     2.2818     2.4887     3.426      4.924      4.024      5.438      4.764      4.094      0.219      0.1954695  0.205988   0.1540293  0.2263911  0.2377023  11.68765   11.66273   2.326      2.4887     0.4042673  0.4729645  33.0965    0.1968808  0.23796    0.1558015 
1209       0.212      1          2          314.977    7.61       2.7464     1.8662     1.9308     2.1591     2.3707     3.358      4.664      3.944      5.378      4.784      4.114      0.205      0.184659   0.1982036  0.1352466  0.2205269  0.2300008  7.370396   9.36581    2.339      2.3707     0.3595711  0.4362265  34.23264   0.2113741  0.2602554  0.1624927 
1209.1     0.212      1          2          310.682    7.84       2.5083     1.763      1.7893     2.0485     2.2198     3.226      4.312      3.868      5.302      4.768      4.128      0.192      0.1718705  0.1904192  0.1158057  0.2093865  0.221399   4.271852   7.277833   2.352      2.2198     0.2968932  0.386081   35.83479   0.2308917  0.2884894  0.1732939 
1209.2     0.211      1          2          304.602    8.188      2.4023     1.7888     1.7666     1.9462     2.0909     2.804      4.076      3.812      5.158      4.6        4.102      0.165      0.150602   0.1826347  0.07769294 0.1914784  0.2073542  1.724539   4.968884   2.365      2.0909     0.1887029  0.3054984  38.14892   0.2645669  0.3371386  0.1919952 
1209.3     0.212      1          2          297.765    8.486      2.4606     1.814      1.7445     1.8512     2.0033     2.456      3.87       3.77       5.014      4.43       4.02       0.133      0.1272272  0.1766467  0.03363558 0.1713994  0.191817   0.6363775  3.583677   2.375      2.0033     0.04126133 0.2036743  40.66306   0.3011043  0.3852682  0.2169404 
1209.4     0.213      1          2          290.918    8.616      2.3171     1.6486     1.5982     1.764      1.9223     2.436      3.722      3.718      4.938      4.388      3.982      0.111      0.1089092  0.1712575  0.002137399 0.1533329  0.1796732  0.2913543  3.107516   2.384      1.9223     0          0.09974656 43.48721   0.3298867  0.4083621  0.2514113 
1209.5     0.212      -9999      -9999      284.451    8.742      1.9455     1.5054     1.4694     1.6818     1.8575     2.402      3.604      3.678      4.888      4.342      3.986      0.094      0.1002683  0.1670658  0          0.133739   0.1696292  0.201544   2.706468   2.391      1.8575     0          0.02009032 46.44335   0.3638662  0.4320655  0.2956669 
1209.6     0.212      -9999      -9999      278.738    8.852      1.7145     1.4862     1.4227     1.6201     1.8079     2.312      3.582      3.722      4.878      4.144      3.956      0.079      0.06264214 0.07474951 0          0.1131769  0.1311094  0.04049883 2.398902   2.396      1.8079     0          0          49.56149   0.4031578  0.4538814  0.3524342 
