~Version
 VERS              .         2.0                           : CWLS LOG ASCII STANDARD - VERSION 2.0
 WRAP              .         NO                            : ONE LINE PER DEPTH STEP
 DLM               .         SPACE                         : DELIMITING CHARACTER(SPACE TAB OR COMMA)
~Well Information
#_______________________________________________________________________________
#
#PARAMETER_NAME    .UNIT     VALUE                         : DESCRIPTION
#_______________________________________________________________________________
STRT               .M        912                           : First reference value
STOP               .M        1283.4                        : Last reference value
STEP               .M        0.1                           : Step increment
NULL               .         -9999                         : Missing value
COMP               .                                       : Company
WELL               .         6838                          : Well name
FLD                .         УЗЕНЬ                         : Field
LOC                .                                       : Location
CNTY               .                                       : County
STAT               .                                       : State
CTRY               .                                       : Country
SRVC               .         SCH                           : Service Company
DATE               .         21.04.2010г                   : Date
UWI                .                                       : Unique Well ID
Block              .         6а                            : 
Category           .         Нагнетательная                : 
Condition          .         В работе                      : 
EREF               .m        85.9                          : 100.8
GRP                .                                       : Group name
Gorizont           .         15                            : 14
ISS                .                                       : Well surveys
Interpretator      .         Кушнир И.Е.                   : 
Kupol              .         основной                      : osnovnoi
Mud                .         глинистый                     : 
Mud_density        .         1.32                          : 
Mud_resistivity    .         0.4                           : 
NGDU               .         НГДУ-2                        : 
ORIGINALWELLNAME   .         6838                          : 
Spud_date          .         2010                          : 1961
TIME               .                                       : LOG TIME
Viscosity          .         40                            : 
X                  .m        44779.34                      : 46154
Y                  .m        85362.73                      : 85761.93
YEAR               .         2018г                         : 
~Parameter Information Block
#_______________________________________________________________________________
#
#PARAMETER_NAME    .UNIT     VALUE                         : DESCRIPTION
#_______________________________________________________________________________
SET                .         LQC_KAZNIPI_Petrel            : 
PBBOTTOM           .M        1283.4                        : Глубина подошвы планшета
PBSCALE            .         1 _ 500                       : Вертикальный масштаб планшета
PBTOP              .M        912                           : Глубина кровли планшета
TLFamily_CALI      .         Caliper                       : 
TLFamily_COLL      .         Net Reservoir Flag            : 
TLFamily_CSAT      .         Fluid Code                    : 
TLFamily_DEPT      .         Measured Depth                : 
TLFamily_DT        .         Compressional Slowness        : 
TLFamily_GR        .         Russian Gamma Ray             : 
TLFamily_IK1       .         Resistivity 05                : 
TLFamily_IK2       .         Resistivity 07                : 
TLFamily_IK3       .         Resistivity 10                : 
TLFamily_IK4       .         Resistivity 14                : 
TLFamily_IK5       .         Resistivity 20                : 
TLFamily_LLS       .         Lateral Log Resistivity       : 
TLFamily_MBK       .         Micro Lateral Log Resistivity : 
TLFamily_MINV      .         Micro Gradient Resistivity    : 
TLFamily_MNOR      .         Micro Resistivity             : 
TLFamily_NNKTB     .         Neutron Far                   : 
TLFamily_NNKTM     .         Neutron Near                  : 
TLFamily_NPHI      .         Neutron Porosity              : 
TLFamily_PHIE      .         Effective Porosity            : 
TLFamily_PHIED     .         Effective Porosity            : 
TLFamily_PHIEN     .         Effective Porosity            : 
TLFamily_PHIES     .         Effective Porosity            : 
TLFamily_PHIT      .         Porosity                      : 
TLFamily_PRMB      .         Permeability                  : 
TLFamily_PRMB_DGR  .         Permeability                  : 
TLFamily_RHOB      .         Bulk Density                  : 
TLFamily_RT        .         Formation Resistivity         : 
TLFamily_SOIL_ARCHIE .         Oil Saturation                : 
TLFamily_SOIL_DW   .         Oil Saturation                : 
TLFamily_SP        .         Spontaneous Potential         : 
TLFamily_VSH_FIN   .         Shale Volume                  : 
TLFamily_VSH_GR    .         Shale Volume                  : 
TLFamily_VSH_SP    .         Shale Volume                  : 
~Curve Information
#_______________________________________________________________________________
#
#LOGNAME           .UNIT     LOG_ID                        : DESCRIPTION
#_______________________________________________________________________________
DEPT               .M                                      : Колонка глубины 
CALI               .м                                      : Каверномер 
COLL               .unitless                               : Описание 
CSAT               .unitless                               : Описание 
DT                 .мкс/м                                  : Интервальное время пробега продольной волны 
GR                 .uR/h                                   : Гамма каротаж 
IK1                .Ohmm                                   : И0.10И0.40 
IK2                .Ohmm                                   : И0.14И0.56 
IK3                .Ohmm                                   : И0.20И0.80 
IK4                .Ohmm                                   : И0.28И1.12 
IK5                .Ohmm                                   : И0.40И1.60 
LLS                .Ohmm                                   : Боковой каротаж 
MBK                .Ohmm                                   : Микробоковой каротаж 
MINV               .Ohmm                                   : Микро-градиент зонд 
MNOR               .Ohmm                                   : Микро-потенциал зонд 
NNKTB              .у.е.                                   :  
NNKTM              .у.е.                                   :  
NPHI               .v/v                                    : Total porosity 
PHIE               .v/v                                    : Описание 
PHIED              .v/v                                    :  
PHIEN              .v/v                                    :  
PHIES              .v/v                                    :  
PHIT               .v/v                                    : Описание 
PRMB               .mD                                     :  
PRMB_DGR           .mD                                     :  
RHOB               .G/C3                                   : Плотность по ГГК-П 
RT                 .ohmm                                   : Description 
SOIL_ARCHIE        .v/v                                    :  
SOIL_DW            .v/v                                    :  
SP                 .мВ                                     : Потенциал самополяризации 
VSH_FIN            .v/v                                    : Описание 
VSH_GR             .v/v                                    : Shale volume 
VSH_SP             .v/v                                    : Shale Volume 
~Ascii
# ...
1084.4     0.232      -9999      -9999      329.437    6.352      2.0746     2.5221     2.4346     2.4739     2.4676     2.236      1.596      2.914      3.242      5.52       4.226      -9999      0.1406098  0.1033652  -9999      0.1778543  -9999      1.126139   30.84705   2.35       2.4676     0.1918869  -9999      60.13454   0.3983249  0.1599627  0.6366872 
1084.5     0.237      -9999      -9999      327.69     6.428      2.1727     2.8382     2.7837     2.4863     2.4312     2.224      1.83       2.606      3.446      5.146      4.188      -9999      0.1364646  0.09578692 -9999      0.1771422  -9999      0.9436548  28.29967   2.364      2.4312     0.1647445  -9999      59.7542    0.3946912  0.1656927  0.6236898 
1084.6     0.242      -9999      -9999      326.281    6.568      2.0372     2.1591     2.2887     2.4118     2.351      2.244      2.72       2.816      4.262      4.742      4.084      -9999      0.1315025  0.08738989 -9999      0.1756151  -9999      0.7636652  24.14499   2.378      2.351      0.1236739  -9999      59.42785   0.3947537  0.1767908  0.6127166 
1084.7     0.243      -9999      -9999      325.165    6.724      1.6433     1.6948     1.9138     2.0485     2.1144     2.208      3.414      3.058      4.838      4.62       4.012      -9999      0.1276331  0.08187694 -9999      0.1733892  -9999      0.6474885  20.22984   2.386      2.1144     0.05467862 -9999      59.22551   0.3980151  0.1900351  0.6059951 
1084.8     0.242      -9999      -9999      324.412    6.946      1.4462     1.6314     1.7699     1.7931     1.9199     1.946      2.596      2.924      3.784      4.538      3.97       -9999      0.1252051  0.08020448 -9999      0.1702058  -9999      0.583796   15.72717   2.386      1.9199     0          -9999      59.05915   0.4055638  0.2106114  0.6005162 
1084.9     0.24       -9999      -9999      324.184    7.272      1.4134     1.5723     1.6404     1.6938     1.7795     1.718      1.612      2.73       2.572      4.318      3.92       -9999      0.1226733  0.0803156  -9999      0.165031   -9999      0.5240405  10.8664    2.38       1.7795     0          -9999      58.97081   0.4212779  0.2449321  0.5976236 
1085       0.238      -9999      -9999      324.802    7.984      1.3729     1.5405     1.5891     1.6172     1.6734     1.658      1.418      2.688      2.288      4.086      3.87       -9999      0.1137043  0.07611895 -9999      0.1512897  -9999      0.3574687  4.846228   2.37       1.6734     0          -9999      58.85646   0.4672472  0.340597   0.5938973 
1085.1     0.236      -9999      -9999      326.349    8.552      1.3195     1.5096     1.5401     1.6005     1.6539     1.608      1.408      2.682      2.25       3.97       3.814      -9999      0.104024   0.07021808 -9999      0.1378299  -9999      0.2365566  2.54476    2.362      1.6539     0          -9999      58.67211   0.5155022  0.4430727  0.5879316 
1085.2     0.235      -9999      -9999      329.139    8.512      1.3051     1.4945     1.5497     1.5904     1.6356     1.598      1.4        2.692      2.306      3.886      3.736      -9999      0.1006724  0.06691395 -9999      0.1344308  -9999      0.2050478  1.997565   2.36       1.6356     0          -9999      58.50377   0.5358211  0.4891135  0.5825287 
1085.3     0.235      -9999      -9999      333.4      8.486      1.3462     1.4805     1.5585     1.607      1.6262     1.59       1.398      2.672      2.406      3.868      3.672      -9999      0.1048415  0.06922883 -9999      0.1404541  -9999      0.2449496  2.059488   2.358      1.6262     0          -9999      58.37742   0.5307779  0.4830541  0.5785016 
1085.4     0.235      -9999      -9999      339.169    8.518      1.3649     1.5156     1.5719     1.6135     1.613      1.592      1.39       2.524      2.59       3.859      3.638      -9999      0.1076072  0.06980429 -9999      0.1454101  -9999      0.2756157  1.983542   2.356      1.613      0          -9999      58.31907   0.5335862  0.4905224  0.57665   
1085.5     0.236      -9999      -9999      345.863    8.572      1.3462     1.5519     1.5845     1.5805     1.5872     1.6        1.396      2.44       2.768      3.822      3.64       -9999      0.1089225  0.06819046 -9999      0.1496545  -9999      0.2915186  1.861679   2.356      1.5872     0          -9999      58.37272   0.5408702  0.5033881  0.5783524 
1085.6     0.237      -9999      -9999      352.764    8.684      1.3223     1.469      1.5084     1.5449     1.5612     1.6        1.43       2.766      2.854      3.676      3.688      -9999      0.1087707  0.06608725 -9999      0.1514542  -9999      0.2896383  1.632269   2.354      1.5612     0          -9999      58.43637   0.5557681  0.5311585  0.5803777 
1085.7     0.237      -9999      -9999      359.865    8.782      1.2909     1.3933     1.4367     1.497      1.5314     1.598      1.466      3.054      2.894      3.518      3.728      -9999      0.1093282  0.06530282 -9999      0.1533536  -9999      0.2966073  1.45485    2.35       1.5314     0          -9999      58.53503   0.57012    0.5567113  0.5835287 
1085.8     0.236      -9999      -9999      367.459    8.772      1.2664     1.4108     1.4328     1.4593     1.505      1.586      1.444      2.736      2.804      3.41       3.762      -9999      0.1150914  0.07016204 -9999      0.1600208  -9999      0.3792545  1.472032   2.342      1.505      0          -9999      58.59868   0.5698091  0.5540487  0.5855696 
1085.9     0.236      -9999      -9999      375.807    8.68       1.2509     1.4277     1.4289     1.4569     1.4883     1.572      1.418      2.348      2.654      3.368      3.76       -9999      0.1248288  0.07887086 -9999      0.1707868  -9999      0.5745003  1.639953   2.332      1.4883     0          -9999      58.57833   0.5575288  0.5301409  0.5849167 
1086       0.237      -9999      -9999      384.326    8.578      1.2658     1.4402     1.4414     1.4521     1.4735     1.582      1.408      2.31       2.416      3.572      3.712      -9999      0.1357125  0.08965117 -9999      0.1817739  -9999      0.9138674  1.848608   2.319      1.4735     0          -9999      58.52399   0.5440069  0.5048384  0.5831754 
1086.1     0.242      -9999      -9999      391.605    8.452      1.3285     1.4521     1.4533     1.4332     1.4694     1.592      1.398      2.33       2.24       3.78       3.686      -9999      0.1474597  0.1023512  -9999      0.1925681  -9999      1.508236   2.143371   2.304      1.4694     0.01115632 -9999      58.39964   0.5272257  0.4752434  0.5792081 
1086.2     0.247      -9999      -9999      396.121    8.262      1.3243     1.4031     1.4111     1.4207     1.4727     1.604      1.39       2.22       2.462      3.768      3.716      -9999      0.1596196  0.116305   -9999      0.2029343  -9999      2.533385   2.679076   2.289      1.4727     0.07806915 -9999      58.28929   0.5047854  0.433864   0.5757069 
1086.3     0.247      -9999      -9999      396.392    8.078      1.222      1.3558     1.3707     1.4308     1.5067     1.628      1.39       2.078      2.698      3.732      3.744      -9999      0.1688677  0.128443   -9999      0.2092925  -9999      3.758359   3.325166   2.276      1.5067     0.1315537  -9999      58.20494   0.4851357  0.3972285  0.5730429 
1086.4     0.246      -9999      -9999      392.441    7.92       1.2433     1.4347     1.4875     1.478      1.5603     1.668      1.39       1.97       2.622      3.798      3.764      -9999      0.1748307  0.1384436  -9999      0.2112179  -9999      4.846711   4.002978   2.265      1.5603     0.1711179  -9999      58.1466    0.4697274  0.3682485  0.5712063 
1086.5     0.247      -9999      -9999      384.712    7.758      1.4719     1.5207     1.6196     1.6948     1.6963     1.728      1.398      1.866      2.526      3.914      3.784      -9999      0.1779217  0.1462351  -9999      0.2096082  -9999      5.529664   4.841645   2.257      1.6963     0.2150677  -9999      58.16025   0.4561821  0.3407286  0.5716356 
1086.6     0.248      -9999      -9999      374.745    7.548      1.6695     1.8966     1.9102     1.9133     1.8313     1.87       1.438      1.748      2.618      4.14       3.804      -9999      0.1791821  0.1516063  -9999      0.2067579  -9999      5.835055   6.195548   2.254      1.8313     0.2474145  -9999      58.1719    0.4400475  0.3080928  0.5720023 
