~Version
 VERS              .         2.0                           : CWLS LOG ASCII STANDARD - VERSION 2.0
 WRAP              .         NO                            : ONE LINE PER DEPTH STEP
 DLM               .         SPACE                         : DELIMITING CHARACTER(SPACE TAB OR COMMA)
~Well Information
#_______________________________________________________________________________
#
#PARAMETER_NAME    .UNIT     VALUE                         : DESCRIPTION
#_______________________________________________________________________________
STRT               .M        912                           : First reference value
STOP               .M        1283.4                        : Last reference value
STEP               .M        0.1                           : Step increment
NULL               .         -9999                         : Missing value
COMP               .                                       : Company
WELL               .         6838                          : Well name
FLD                .         УЗЕНЬ                         : Field
LOC                .                                       : Location
CNTY               .                                       : County
STAT               .                                       : State
CTRY               .                                       : Country
SRVC               .         SCH                           : Service Company
DATE               .         21.04.2010г                   : Date
UWI                .                                       : Unique Well ID
Block              .         6а                            : 
Category           .         Нагнетательная                : 
Condition          .         В работе                      : 
EREF               .m        85.9                          : 100.8
GRP                .                                       : Group name
Gorizont           .         15                            : 14
ISS                .                                       : Well surveys
Interpretator      .         Кушнир И.Е.                   : 
Kupol              .         основной                      : osnovnoi
Mud                .         глинистый                     : 
Mud_density        .         1.32                          : 
Mud_resistivity    .         0.4                           : 
NGDU               .         НГДУ-2                        : 
ORIGINALWELLNAME   .         6838                          : 
Spud_date          .         2010                          : 1961
TIME               .                                       : LOG TIME
Viscosity          .         40                            : 
X                  .m        44779.34                      : 46154
Y                  .m        85362.73                      : 85761.93
YEAR               .         2018г                         : 
~Parameter Information Block
#_______________________________________________________________________________
#
#PARAMETER_NAME    .UNIT     VALUE                         : DESCRIPTION
#_______________________________________________________________________________
SET                .         LQC_KAZNIPI_Petrel            : 
PBBOTTOM           .M        1283.4                        : Глубина подошвы планшета
PBSCALE            .         1 _ 500                       : Вертикальный масштаб планшета
PBTOP              .M        912                           : Глубина кровли планшета
TLFamily_CALI      .         Caliper                       : 
TLFamily_COLL      .         Net Reservoir Flag            : 
TLFamily_CSAT      .         Fluid Code                    : 
TLFamily_DEPT      .         Measured Depth                : 
TLFamily_DT        .         Compressional Slowness        : 
TLFamily_GR        .         Russian Gamma Ray             : 
TLFamily_IK1       .         Resistivity 05                : 
TLFamily_IK2       .         Resistivity 07                : 
TLFamily_IK3       .         Resistivity 10                : 
TLFamily_IK4       .         Resistivity 14                : 
TLFamily_IK5       .         Resistivity 20                : 
TLFamily_LLS       .         Lateral Log Resistivity       : 
TLFamily_MBK       .         Micro Lateral Log Resistivity : 
TLFamily_MINV      .         Micro Gradient Resistivity    : 
TLFamily_MNOR      .         Micro Resistivity             : 
TLFamily_NNKTB     .         Neutron Far                   : 
TLFamily_NNKTM     .         Neutron Near                  : 
TLFamily_NPHI      .         Neutron Porosity              : 
TLFamily_PHIE      .         Effective Porosity            : 
TLFamily_PHIED     .         Effective Porosity            : 
TLFamily_PHIEN     .         Effective Porosity            : 
TLFamily_PHIES     .         Effective Porosity            : 
TLFamily_PHIT      .         Porosity                      : 
TLFamily_PRMB      .         Permeability                  : 
TLFamily_PRMB_DGR  .         Permeability                  : 
TLFamily_RHOB      .         Bulk Density                  : 
TLFamily_RT        .         Formation Resistivity         : 
TLFamily_SOIL_ARCHIE .         Oil Saturation                : 
TLFamily_SOIL_DW   .         Oil Saturation                : 
TLFamily_SP        .         Spontaneous Potential         : 
TLFamily_VSH_FIN   .         Shale Volume                  : 
TLFamily_VSH_GR    .         Shale Volume                  : 
TLFamily_VSH_SP    .         Shale Volume                  : 
~Curve Information
#_______________________________________________________________________________
#
#LOGNAME           .UNIT     LOG_ID                        : DESCRIPTION
#_______________________________________________________________________________
DEPT               .M                                      : Колонка глубины 
CALI               .м                                      : Каверномер 
COLL               .unitless                               : Описание 
CSAT               .unitless                               : Описание 
DT                 .мкс/м                                  : Интервальное время пробега продольной волны 
GR                 .uR/h                                   : Гамма каротаж 
IK1                .Ohmm                                   : И0.10И0.40 
IK2                .Ohmm                                   : И0.14И0.56 
IK3                .Ohmm                                   : И0.20И0.80 
IK4                .Ohmm                                   : И0.28И1.12 
IK5                .Ohmm                                   : И0.40И1.60 
LLS                .Ohmm                                   : Боковой каротаж 
MBK                .Ohmm                                   : Микробоковой каротаж 
MINV               .Ohmm                                   : Микро-градиент зонд 
MNOR               .Ohmm                                   : Микро-потенциал зонд 
NNKTB              .у.е.                                   :  
NNKTM              .у.е.                                   :  
NPHI               .v/v                                    : Total porosity 
PHIE               .v/v                                    : Описание 
PHIED              .v/v                                    :  
PHIEN              .v/v                                    :  
PHIES              .v/v                                    :  
PHIT               .v/v                                    : Описание 
PRMB               .mD                                     :  
PRMB_DGR           .mD                                     :  
RHOB               .G/C3                                   : Плотность по ГГК-П 
RT                 .ohmm                                   : Description 
SOIL_ARCHIE        .v/v                                    :  
SOIL_DW            .v/v                                    :  
SP                 .мВ                                     : Потенциал самополяризации 
VSH_FIN            .v/v                                    : Описание 
VSH_GR             .v/v                                    : Shale volume 
VSH_SP             .v/v                                    : Shale Volume 
~Ascii
912.0      0.229      -9999      -9999      379.778    8.94       2.0254     2.6634     2.7525     2.7725     2.9204     2.78       1.512      2.51       2.884      4.542      3.918      -9999      0.1742716  0.1851613  -9999      0.1633818  -9999      4.732493   1.638872   2.142      2.9204     0.3806232  -9999      60.58333   0.5912989  0.5302836  0.6523143 
912.1      0.229      -9999      -9999      379.778    9.188      2.0293     2.6188     2.7691     2.8167     2.9499     2.702      1.522      2.336      2.74       4.472      3.918      -9999      0.166108   0.1784009  -9999      0.153815   -9999      3.341034   1.23708    2.142      2.9499     0.3572327  -9999      60.48333   0.6218121  0.5948194  0.6488048 
912.2000000000001 0.229      -9999      -9999      376.961    9.228      2.0504     2.5998     2.8239     2.8796     3.0007     2.714      1.532      2.27       2.748      4.486      3.96       -9999      0.1636068  0.1769109  -9999      0.1503027  -9999      3.002986   1.182215   2.143      3.0007     0.3538805  -9999      60.39533   0.6258348  0.6059402  0.6457295 
912.3      0.229      -9999      -9999      373.131    9.23       2.0991     2.5791     2.8781     3.0258     3.1362     2.748      1.536      2.26       2.8        4.522      4.016      -9999      0.1606822  0.1740245  -9999      0.14734    -9999      2.650836   1.179536   2.148      3.1362     0.3571132  -9999      60.35133   0.625349   0.6065016  0.6441964 
912.4      0.229      -9999      -9999      370.243    9.078      2.2183     2.8382     3.099      3.2143     3.299799999999999 2.838      1.514      2.42       2.902      4.584      4.098      -9999      0.1617243  0.1716672  -9999      0.1517813  -9999      2.771302   1.401444   2.16       3.2998     0.3757964  -9999      60.28333   0.6035557  0.5652784  0.641833  
912.5      0.229      -9999      -9999      368.538    8.926      2.4676     3.1379     3.3488     3.5524     3.5563     2.962      1.504      2.586      3.04       4.668      4.186      -9999      0.1612232  0.1655287  -9999      0.1569177  -9999      2.712707   1.665101   2.178      3.5563     0.3957121  -9999      60.18333   0.5826138  0.5268567  0.6383708 
912.6      0.229      -9999      -9999      368.049    8.806      2.8175     3.5225     3.661      3.9217     3.8403     3.222      1.578      2.604      3.296      4.812      4.266      -9999      0.1586549  0.1558536  -9999      0.1614562  -9999      2.431262   1.90785    2.2        3.8403     0.408901   -9999      60.09333   0.5668228  0.4983777  0.635268  
912.7000000000001 0.229      -9999      -9999      368.529    8.62       3.3543     3.981700000000001 4.0186     4.255199999999999 4.1443     3.496      1.718      2.73       3.674      5.024      4.344      -9999      0.1574037  0.1462291  -9999      0.1685782  -9999      2.304919   2.355888   2.224      4.1443     0.4257129  -9999      60.04333   0.5453984  0.4572471  0.6335497 
912.8      0.229      -9999      -9999      369.831    8.17       3.8336     4.4255     4.32       4.536      4.4224     3.828      2.072      3.518      4.47       5.458      4.408      -9999      0.1627717  0.1421521  -9999      0.1833913  -9999      2.897913   3.924582   2.247      4.4224     0.4589867  -9999      59.99933   0.5016378  0.3712347  0.6320409 
912.9      0.229      -9999      -9999      371.572    7.746      4.0477     4.9523     4.651900000000001 4.471700000000001 4.4602     4.134      2.678      4.812      5.538      5.868      4.434      -9999      0.167052   0.138781   -9999      0.195323   -9999      3.478297   6.347847   2.265      4.4602     0.4731883  -9999      59.97933   0.4682044  0.3050528  0.631356  
913        0.228      -9999      -9999      373.277    7.424      3.7704     3.9745     3.9472     4.331      4.443299999999999 4.304      4.116      7.612      7.322      5.942      4.4        -9999      0.1710588  0.1387099  -9999      0.2034077  -9999      4.126497   9.145791   2.273      4.4433     0.4830319  -9999      59.96933   0.4469039  0.262794   0.6310139 
913.1      0.228      -9999      -9999      374.563    7.154      2.9659     3.2562     3.3905     3.9287     4.209400000000001 4.356      5.146      9.622      8.494      5.904      4.342      -9999      0.1761873  0.143223   -9999      0.2091516  -9999      5.135398   12.42237   2.271      4.2094     0.4832137  -9999      59.99733   0.4319397  0.2319071  0.6319724 
913.2000000000001 0.227      -9999      -9999      375.619    7.124      2.7038     3.4842     3.562399999999999 3.6569     4.015      3.938      3.626      6.746      6.316      5.662      4.25       -9999      0.1806007  0.1507326  -9999      0.2104689  -9999      6.199002   12.85228   2.259      4.015      0.482883   -9999      60.00533   0.430477   0.2287076  0.6322464 
913.3      0.227      -9999      -9999      377.118    7.178      2.9937     3.74       3.7475     3.7303     3.9123     3.582      1.844      3.366      3.83       5.376      4.148      -9999      0.1848336  0.1586488  -9999      0.2110184  -9999      7.425494   12.08881   2.245      3.9123     0.4870128  -9999      59.95934   0.4325854  0.2344989  0.6306719 
913.4      0.228      -9999      -9999      379.609    7.566      3.0457     3.7141     3.7215     3.74       3.8068     3.444      1.5        2.71       3.402      5.106      4.046      -9999      0.1843844  0.1623646  -9999      0.2064041  -9999      7.284572   7.785416   2.231      3.8068     0.4792873  -9999      59.84134   0.4536517  0.2806558  0.6266477 
913.5      0.233      -9999      -9999      382.91     7.896      2.728      3.6885     3.699100000000001 3.493      3.6736     3.328      1.51       2.772      3.464      4.88       3.99       -9999      0.1841603  0.1649628  -9999      0.2033578  -9999      7.215289   5.354842   2.22       3.6736     0.4699501  -9999      59.53533   0.4716542  0.3269961  0.6163124 
913.6      0.238      -9999      -9999      386.572    8.024      2.4746     3.2299     3.3269     3.2668     3.5234     3.266      1.562      3.1        3.534      4.84       3.986      -9999      0.1870843  0.169721   -9999      0.2044476  -9999      8.173592   4.631298   2.21       3.5234     0.4668296  -9999      59.26933   0.4772052  0.3469649  0.6074456 
913.7000000000001 0.239      -9999      -9999      390.233    8.174      2.2747     2.849      3.0078     3.0473     3.291700000000001 3.162      1.622      3.342      3.538      4.792      3.956      -9999      0.1891601  0.17415    -9999      0.2041702  -9999      8.930221   3.90682    2.199      3.2917     0.454801   -9999      59.10333   0.486945   0.3719229  0.6019671 
913.8      0.239      -9999      -9999      393.519    8.442      2.0773     2.5458     2.7691     2.8664     3.1015     2.924      1.68       2.912      3.262      4.54       3.888      -9999      0.1879202  0.1763199  -9999      0.1995205  -9999      8.470236   2.88287    2.187      3.1015     0.4361386  -9999      58.98533   0.5095832  0.421068   0.5980983 
913.9      0.236      -9999      -9999      395.923    8.69       1.8795     2.2896     2.5575     2.7746     3.0054     2.72       1.702      2.406      2.954      4.292      3.84       -9999      0.1854968  0.1777926  -9999      0.1932011  -9999      7.638525   2.176095   2.175      3.0054     0.4212428  -9999      58.99533   0.5353687  0.4723121  0.5984254 
914        0.232      -9999      -9999      397.02     8.888      1.7828     2.2896     2.5575     2.7354     2.9476     2.62       1.606      2.26       2.782      4.266      3.844      -9999      0.1821628  0.1775079  -9999      0.1868176  -9999      6.626045   1.738428   2.167      2.9476     0.4066452  -9999      59.00933   0.558275   0.5176665  0.5988836 
914.1      0.23       -9999      -9999      396.839    9.048      1.8068     2.2896     2.5593     2.9062     3.0409     2.552      1.5        2.252      2.67       4.326      3.874      -9999      0.1769568  0.173602   -9999      0.1803115  -9999      5.306728   1.449945   2.166      3.0409     0.4003041  -9999      59.03533   0.5786073  0.5574795  0.599735  
