~Version
 VERS              .         2.0                           : CWLS LOG ASCII STANDARD - VERSION 2.0
 WRAP              .         NO                            : ONE LINE PER DEPTH STEP
 DLM               .         SPACE                         : DELIMITING CHARACTER(SPACE TAB OR COMMA)
~Well Information
#_______________________________________________________________________________
#
#PARAMETER_NAME    .UNIT     VALUE                         : DESCRIPTION
#_______________________________________________________________________________
STRT               .M        912                           : First reference value
STOP               .M        1283.4                        : Last reference value
STEP               .M        0.1                           : Step increment
NULL               .         -9999                         : Missing value
COMP               .                                       : Company
WELL               .         6838                          : Well name
FLD                .         УЗЕНЬ                         : Field
LOC                .                                       : Location
CNTY               .                                       : County
STAT               .                                       : State
CTRY               .                                       : Country
SRVC               .         SCH                           : Service Company
DATE               .         21.04.2010г                   : Date
UWI                .                                       : Unique Well ID
Block              .         6а                            : 
Category           .         Нагнетательная                : 
Condition          .         В работе                      : 
EREF               .m        85.9                          : 100.8
GRP                .                                       : Group name
Gorizont           .         15                            : 14
ISS                .                                       : Well surveys
Interpretator      .         Кушнир И.Е.                   : 
Kupol              .         основной                      : osnovnoi
Mud                .         глинистый                     : 
Mud_density        .         1.32                          : 
Mud_resistivity    .         0.4                           : 
NGDU               .         НГДУ-2                        : 
ORIGINALWELLNAME   .         6838                          : 
Spud_date          .         2010                          : 1961
TIME               .                                       : LOG TIME
Viscosity          .         40                            : 
X                  .m        44779.34                      : 46154
Y                  .m        85362.73                      : 85761.93
YEAR               .         2018г                         : 
~Parameter Information Block
#_______________________________________________________________________________
#
#PARAMETER_NAME    .UNIT     VALUE                         : DESCRIPTION
#_______________________________________________________________________________
SET                .         LQC_KAZNIPI_Petrel            : 
PBBOTTOM           .M        1283.4                        : Глубина подошвы планшета
PBSCALE            .         1 _ 500                       : Вертикальный масштаб планшета
PBTOP              .M        912                           : Глубина кровли планшета
TLFamily_CALI      .         Caliper                       : 
TLFamily_COLL      .         Net Reservoir Flag            : 
TLFamily_CSAT      .         Fluid Code                    : 
TLFamily_DEPT      .         Measured Depth                : 
TLFamily_DT        .         Compressional Slowness        : 
TLFamily_GR        .         Russian Gamma Ray             : 
TLFamily_IK1       .         Resistivity 05                : 
TLFamily_IK2       .         Resistivity 07                : 
TLFamily_IK3       .         Resistivity 10                : 
TLFamily_IK4       .         Resistivity 14                : 
TLFamily_IK5       .         Resistivity 20                : 
TLFamily_LLS       .         Lateral Log Resistivity       : 
TLFamily_MBK       .         Micro Lateral Log Resistivity : 
TLFamily_MINV      .         Micro Gradient Resistivity    : 
TLFamily_MNOR      .         Micro Resistivity             : 
TLFamily_NNKTB     .         Neutron Far                   : 
TLFamily_NNKTM     .         Neutron Near                  : 
TLFamily_NPHI      .         Neutron Porosity              : 
TLFamily_PHIE      .         Effective Porosity            : 
TLFamily_PHIED     .         Effective Porosity            : 
TLFamily_PHIEN     .         Effective Porosity            : 
TLFamily_PHIES     .         Effective Porosity            : 
TLFamily_PHIT      .         Porosity                      : 
TLFamily_PRMB      .         Permeability                  : 
TLFamily_PRMB_DGR  .         Permeability                  : 
TLFamily_RHOB      .         Bulk Density                  : 
TLFamily_RT        .         Formation Resistivity         : 
TLFamily_SOIL_ARCHIE .         Oil Saturation                : 
TLFamily_SOIL_DW   .         Oil Saturation                : 
TLFamily_SP        .         Spontaneous Potential         : 
TLFamily_VSH_FIN   .         Shale Volume                  : 
TLFamily_VSH_GR    .         Shale Volume                  : 
TLFamily_VSH_SP    .         Shale Volume                  : 
~Curve Information
#_______________________________________________________________________________
#
#LOGNAME           .UNIT     LOG_ID                        : DESCRIPTION
#_______________________________________________________________________________
DEPT               .M                                      : Колонка глубины 
CALI               .м                                      : Каверномер 
COLL               .unitless                               : Описание 
CSAT               .unitless                               : Описание 
DT                 .мкс/м                                  : Интервальное время пробега продольной волны 
GR                 .uR/h                                   : Гамма каротаж 
IK1                .Ohmm                                   : И0.10И0.40 
IK2                .Ohmm                                   : И0.14И0.56 
IK3                .Ohmm                                   : И0.20И0.80 
IK4                .Ohmm                                   : И0.28И1.12 
IK5                .Ohmm                                   : И0.40И1.60 
LLS                .Ohmm                                   : Боковой каротаж 
MBK                .Ohmm                                   : Микробоковой каротаж 
MINV               .Ohmm                                   : Микро-градиент зонд 
MNOR               .Ohmm                                   : Микро-потенциал зонд 
NNKTB              .у.е.                                   :  
NNKTM              .у.е.                                   :  
NPHI               .v/v                                    : Total porosity 
PHIE               .v/v                                    : Описание 
PHIED              .v/v                                    :  
PHIEN              .v/v                                    :  
PHIES              .v/v                                    :  
PHIT               .v/v                                    : Описание 
PRMB               .mD                                     :  
PRMB_DGR           .mD                                     :  
RHOB               .G/C3                                   : Плотность по ГГК-П 
RT                 .ohmm                                   : Description 
SOIL_ARCHIE        .v/v                                    :  
SOIL_DW            .v/v                                    :  
SP                 .мВ                                     : Потенциал самополяризации 
VSH_FIN            .v/v                                    : Описание 
VSH_GR             .v/v                                    : Shale volume 
VSH_SP             .v/v                                    : Shale Volume 
~Ascii
# ...
984.6      0.227      -9999      -9999      337.722    5.034      2.3124     2.2694     2.2273     2.2771     2.3461     2.196      2.006      4.486      3.338      6.39       4.826      -9999      0.1084141  0.03808971 -9999      0.1787385  -9999      0.2852659  28.49626   2.45       2.3461     0          -9999      61.36041   0.4226761  0.165225   0.6801271 
984.7000000000001 0.227      -9999      -9999      333.829    5.01       2.1354     2.2028     2.2856     2.2896     2.399      2.228      1.924      4.258      3.258      6.486      4.866      -9999      0.1027629  0.03048431 -9999      0.1750416  -9999      0.2241697  29.58346   2.463      2.399      0          -9999      61.38486   0.421868   0.1627181  0.6810179 
984.8      0.227      -9999      -9999      328.081    5.01       2.1312     2.3054     2.3267     2.3293     2.4623     2.266      2.004      4.422      3.308      6.6        4.942      -9999      0.09581286 0.0226536  -9999      0.1689721  -9999      0.1666651  29.58346   2.476      2.4623     0          -9999      61.39631   0.4220768  0.1627181  0.6814355 
984.9      0.227      -9999      -9999      320.394    4.986      2.3906     2.4152     2.369      2.4863     2.5723     2.31       2.106      4.692      3.398      6.856      4.994      -9999      0.08869385 0.01636276 -9999      0.1610249  -9999      0.1230222  30.71216   2.487      2.5723     0          -9999      61.39076   0.4207411  0.1602492  0.681233  
985        0.227      -9999      -9999      311.349    4.868      2.6997     2.7151     2.672      2.6732     2.7058     2.41       2.13       5.004      3.488      7.11       5.018      -9999      0.08374083 0.01480174 -9999      0.1526799  -9999      0.09959588 36.91997   2.492      2.7058     0          -9999      61.35421   0.4142729  0.1486446  0.6799013 
985.1      0.229      -9999      -9999      301.826    4.768      3.0673     3.0738     3.0361     2.9514     2.9114     2.536      2.194      5.4        3.766      7.252      5.064      -9999      0.08006129 0.01690576 -9999      0.1432168  -9999      0.08513092 43.15353   2.491      2.9114     0          -9999      61.23266   0.4074796  0.1394705  0.6754887 
985.2000000000001 0.231      -9999      -9999      292.882    4.708      3.3052     3.2668     3.1791     3.2091     3.1015     2.766      2.528      6.118      4.844      7.354      5.132      -9999      0.07727048 0.02149242 -9999      0.1330485  -9999      0.07557789 47.38811   2.485      3.1015     0          -9999      61.12911   0.402994   0.1342402  0.6717478 
985.3      0.229      -9999      -9999      285.19     4.62       3.257      3.475400000000001 3.3323     3.227300000000001 3.1262     2.96       2.918      6.904      5.888      7.42       5.184      -9999      0.07653645 0.02875532 -9999      0.1243176  -9999      0.0732485  54.36184   2.475      3.1262     0          -9999      61.01255   0.3972397  0.1269216  0.6675578 
985.4      0.227      -9999      -9999      278.736    4.418      3.1188     3.2221     3.1437     3.2039     3.1212     3.008      3.31       7.672      5.972      7.448      5.198      -9999      0.07851154 0.03809622 -9999      0.1189269  -9999      0.07968602 74.50052   2.464      3.1212     0          -9999      60.74501   0.384809   0.1115961  0.6580219 
985.5      0.226      -9999      -9999      273.455    4.244      2.8672     2.9952     2.9705     3.014      2.996      3.01       3.576      8.118      5.778      7.384      5.174      -9999      0.1208964  0.1287426  -9999      0.1130502  -9999      0.485794   97.73577   2.455      2.996      0.1584786  -9999      60.70646   0.3782721  0.099887   0.6566572 
985.6      0.226      -9999      -9999      269.236    4.212      2.6978     2.8774     2.8497     2.849      2.8847     2.86       3.272      7.226      5.356      7.282      5.096      -9999      0.1201372  0.1335329  -9999      0.1067415  -9999      0.4703168  102.739    2.447      2.8847     0.1386828  -9999      60.71891   0.3774844  0.09787136 0.6570976 
985.7000000000001 0.226      -9999      -9999      266.149    4.25       2.6176     2.7663     2.7361     2.7313     2.79       2.71       2.876      6.18       4.918      7.086      5.026      -9999      0.07738233 0.05396968 -9999      0.100795   -9999      0.07593928 96.82516   2.439      2.79       0          -9999      60.83436   0.3807317  0.1002695  0.661194  
985.8      0.226      -9999      -9999      263.941    4.56       2.53       2.6361     2.6138     2.6246     2.7058     2.56       2.668      5.874      4.616      6.874      4.954      -9999      0.0751804  0.05714371 -9999      0.09321709 -9999      0.06913236 59.69628   2.429      2.7058     0          -9999      60.93281   0.3934327  0.1221619  0.6647035 
985.9      0.226      -9999      -9999      262.667    4.718      2.4312     2.5131     2.5012     2.5476     2.6446     2.424      2.508      5.724      4.366      6.696      4.874      -9999      0.07555611 0.06218478 -9999      0.08892746 -9999      0.07024907 46.65456   2.418      2.6446     0          -9999      60.96125   0.4004093  0.135098   0.6657205 
986        0.226      -9999      -9999      262.491    4.908      2.3235     2.3471     2.4159     2.488      2.6005     2.344      2.348      5.49       4.198      6.51       4.8        -9999      0.0758898  0.06609064 -9999      0.08568895 -9999      0.07125596 34.68641   2.408      2.6005     0          -9999      61.00071   0.4098071  0.152481   0.6671332 
986.1      0.226      -9999      -9999      263.506    5.066      2.2004     2.1954     2.3348     2.488      2.6138     2.28       2.198      5.226      4.016      6.256      4.764      -9999      0.07579522 0.06707148 -9999      0.08451895 -9999      0.07096911 27.10854   2.403      2.6138     0          -9999      61.05716   0.4188933  0.1686278  0.6691588 
986.2000000000001 0.227      -9999      -9999      265.198    5.096      2.2138     2.3767     2.4746     2.5167     2.6426     2.282      2.09       4.904      3.742      6.034      4.784      -9999      0.07627504 0.0659711  -9999      0.08657897 -9999      0.07243638 25.86898   2.404      2.6426     0          -9999      61.09261   0.4211574  0.1718815  0.6704332 
986.3      0.227      -9999      -9999      267.308    5.1        2.4381     2.581      2.6253     2.6614     2.73       2.3        2.046      4.744      3.618      6.016      4.806      -9999      0.07693078 0.06370078 -9999      0.09016076 -9999      0.0744908  25.70807   2.408      2.73       0          -9999      61.04905   0.4205938  0.17232    0.6688676 
986.4      0.227      -9999      -9999      270.075    5          2.5686     2.6055     2.6602     2.7871     2.8069     2.35       2.24       5.306      4.2        6.032      4.836      -9999      0.07932966 0.06211747 -9999      0.09654186 -9999      0.08251556 30.04862   2.413      2.8069     0          -9999      60.99051   0.4142263  0.1616848  0.6667678 
986.5      0.228      -9999      -9999      274.094    4.982      2.5155     2.6284     2.6957     2.7913     2.8218     2.4        2.458      5.92       4.804      5.988      4.866      -9999      0.08202691 0.06037597 -9999      0.1036779  -9999      0.09257538 30.90442   2.417      2.8218     0          -9999      60.87695   0.4112759  0.1598413  0.6627104 
986.6      0.229      -9999      -9999      279.437    5.294      2.5083     2.6634     2.6799     2.7767     2.8239     2.452      2.538      6.042      4.788      5.93       4.892      -9999      0.08127564 0.05574777 -9999      0.1068035  -9999      0.08965616 18.99435   2.419      2.8239     0          -9999      60.7594    0.4267603  0.1949886  0.658532  
986.7000000000001 0.228      -9999      -9999      286.215    5.604      2.5761     2.699      2.6641     2.6831     2.7649     2.492      2.584      6.224      4.716      5.88       4.892      -9999      0.08107375 0.05156627 -9999      0.1105812  -9999      0.08888746 11.71071   2.419      2.7649     0          -9999      60.62286   0.4456336  0.2375614  0.6537058 
