~Version
 VERS              .         2.0                           : CWLS LOG ASCII STANDARD - VERSION 2.0
 WRAP              .         NO                            : ONE LINE PER DEPTH STEP
 DLM               .         SPACE                         : DELIMITING CHARACTER(SPACE TAB OR COMMA)
~Well Information
#_______________________________________________________________________________
#
#PARAMETER_NAME    .UNIT     VALUE                         : DESCRIPTION
#_______________________________________________________________________________
STRT               .M        912                           : First reference value
STOP               .M        1283.4                        : Last reference value
STEP               .M        0.1                           : Step increment
NULL               .         -9999                         : Missing value
COMP               .                                       : Company
WELL               .         6838                          : Well name
FLD                .         УЗЕНЬ                         : Field
LOC                .                                       : Location
CNTY               .                                       : County
STAT               .                                       : State
CTRY               .                                       : Country
SRVC               .         SCH                           : Service Company
DATE               .         21.04.2010г                   : Date
UWI                .                                       : Unique Well ID
Block              .         6а                            : 
Category           .         Нагнетательная                : 
Condition          .         В работе                      : 
EREF               .m        85.9                          : 100.8
GRP                .                                       : Group name
Gorizont           .         15                            : 14
ISS                .                                       : Well surveys
Interpretator      .         Кушнир И.Е.                   : 
Kupol              .         основной                      : osnovnoi
Mud                .         глинистый                     : 
Mud_density        .         1.32                          : 
Mud_resistivity    .         0.4                           : 
NGDU               .         НГДУ-2                        : 
ORIGINALWELLNAME   .         6838                          : 
Spud_date          .         2010                          : 1961
TIME               .                                       : LOG TIME
Viscosity          .         40                            : 
X                  .m        44779.34                      : 46154
Y                  .m        85362.73                      : 85761.93
YEAR               .         2018г                         : 
~Parameter Information Block
#_______________________________________________________________________________
#
#PARAMETER_NAME    .UNIT     VALUE                         : DESCRIPTION
#_______________________________________________________________________________
SET                .         LQC_KAZNIPI_Petrel            : 
PBBOTTOM           .M        1283.4                        : Глубина подошвы планшета
PBSCALE            .         1 _ 500                       : Вертикальный масштаб планшета
PBTOP              .M        912                           : Глубина кровли планшета
TLFamily_CALI      .         Caliper                       : 
TLFamily_COLL      .         Net Reservoir Flag            : 
TLFamily_CSAT      .         Fluid Code                    : 
TLFamily_DEPT      .         Measured Depth                : 
TLFamily_DT        .         Compressional Slowness        : 
TLFamily_GR        .         Russian Gamma Ray             : 
TLFamily_IK1       .         Resistivity 05                : 
TLFamily_IK2       .         Resistivity 07                : 
TLFamily_IK3       .         Resistivity 10                : 
TLFamily_IK4       .         Resistivity 14                : 
TLFamily_IK5       .         Resistivity 20                : 
TLFamily_LLS       .         Lateral Log Resistivity       : 
TLFamily_MBK       .         Micro Lateral Log Resistivity : 
TLFamily_MINV      .         Micro Gradient Resistivity    : 
TLFamily_MNOR      .         Micro Resistivity             : 
TLFamily_NNKTB     .         Neutron Far                   : 
TLFamily_NNKTM     .         Neutron Near                  : 
TLFamily_NPHI      .         Neutron Porosity              : 
TLFamily_PHIE      .         Effective Porosity            : 
TLFamily_PHIED     .         Effective Porosity            : 
TLFamily_PHIEN     .         Effective Porosity            : 
TLFamily_PHIES     .         Effective Porosity            : 
TLFamily_PHIT      .         Porosity                      : 
TLFamily_PRMB      .         Permeability                  : 
TLFamily_PRMB_DGR  .         Permeability                  : 
TLFamily_RHOB      .         Bulk Density                  : 
TLFamily_RT        .         Formation Resistivity         : 
TLFamily_SOIL_ARCHIE .         Oil Saturation                : 
TLFamily_SOIL_DW   .         Oil Saturation                : 
TLFamily_SP        .         Spontaneous Potential         : 
TLFamily_VSH_FIN   .         Shale Volume                  : 
TLFamily_VSH_GR    .         Shale Volume                  : 
TLFamily_VSH_SP    .         Shale Volume                  : 
~Curve Information
#_______________________________________________________________________________
#
#LOGNAME           .UNIT     LOG_ID                        : DESCRIPTION
#_______________________________________________________________________________
DEPT               .M                                      : Колонка глубины 
CALI               .м                                      : Каверномер 
COLL               .unitless                               : Описание 
CSAT               .unitless                               : Описание 
DT                 .мкс/м                                  : Интервальное время пробега продольной волны 
GR                 .uR/h                                   : Гамма каротаж 
IK1                .Ohmm                                   : И0.10И0.40 
IK2                .Ohmm                                   : И0.14И0.56 
IK3                .Ohmm                                   : И0.20И0.80 
IK4                .Ohmm                                   : И0.28И1.12 
IK5                .Ohmm                                   : И0.40И1.60 
LLS                .Ohmm                                   : Боковой каротаж 
MBK                .Ohmm                                   : Микробоковой каротаж 
MINV               .Ohmm                                   : Микро-градиент зонд 
MNOR               .Ohmm                                   : Микро-потенциал зонд 
NNKTB              .у.е.                                   :  
NNKTM              .у.е.                                   :  
NPHI               .v/v                                    : Total porosity 
PHIE               .v/v                                    : Описание 
PHIED              .v/v                                    :  
PHIEN              .v/v                                    :  
PHIES              .v/v                                    :  
PHIT               .v/v                                    : Описание 
PRMB               .mD                                     :  
PRMB_DGR           .mD                                     :  
RHOB               .G/C3                                   : Плотность по ГГК-П 
RT                 .ohmm                                   : Description 
SOIL_ARCHIE        .v/v                                    :  
SOIL_DW            .v/v                                    :  
SP                 .мВ                                     : Потенциал самополяризации 
VSH_FIN            .v/v                                    : Описание 
VSH_GR             .v/v                                    : Shale volume 
VSH_SP             .v/v                                    : Shale Volume 
~Ascii
# ...
1133.8     0.215      1          2          314.699    6.404      3.4705     3.7303     3.9472     3.953300000000001 3.9649     4.05       5.854      4.564      6.224      4.376      3.964      0.239      0.2509425  0.2628743  0.1890391  0.2390107  0.2627841  124.5151   29.08052   2.231      3.9649     0.6094037  0.6404984  29.41089   0.1513968  0.1638614  0.1389321 
1133.9     0.215      1          2          311.048    6.564      3.586599999999999 3.8225     4.1443     4.109400000000001 3.9827     4.068      5.33       4.678      6.236      4.51       3.94       0.239      0.248576   0.2640718  0.1872882  0.2330803  0.261761   112.5613   24.25476   2.229      3.9827     0.606994   0.6390329  28.85185   0.1567025  0.1764637  0.1369414 
1134       0.215      1          2          307.247    6.484      3.7704     4.162299999999999 4.3281     4.2356     3.9862     4.158      5.47       4.556      6.214      4.646      3.95       0.246      0.2475246  0.2652695  0.1956033  0.2297797  0.2629769  107.6252   26.55825   2.227      3.9862     0.6057029  0.6394824  28.38782   0.1527174  0.1700458  0.135389  
1134.1     0.215      1          2          303.572    6.448      4.0734     4.553399999999999 4.5199     4.231699999999999 3.9297     4.238      5.76       4.444      6.224      4.722      3.994      0.248      0.2464398  0.2670659  0.1981731  0.2258136  0.2627398  102.7591   27.665     2.224      3.9297     0.6015313  0.6360252  28.18779   0.1509906  0.1672345  0.1347468 
1134.2     0.215      1          2          300.668    6.586      4.159500000000001 4.4422     4.2563     4.1357     3.837      4.278      6.006      4.576      6.402      4.78       3.998      0.243      0.2431864  0.2658682  0.191416   0.2205045  0.2594607  89.44568   23.65709   2.226      3.837      0.5923513  0.6268821  28.06476   0.1563152  0.1782707  0.1343597 
1134.3     0.215      1          2          299.311    6.712      3.8915     4.335      4.0114     3.7077     3.5928     4.264      6.15       4.754      6.584      4.832      3.942      0.2        0.2399765  0.2628743  0.1466259  0.2170787  0.2435544  78.00186   20.50703   2.231      3.5928     0.5746822  0.5980078  28.10873   0.1617397  0.188982   0.1344974 
1134.4     0.215      1          2          299.872    6.822      3.6081     3.8158     3.5473     3.3812     3.3877     4.034      5.928      4.92       6.646      4.864      3.914      0.215      0.2374715  0.2586827  0.1600119  0.2162603  0.2473955  70.09809   18.1019    2.238      3.3877     0.558773   0.5878058  28.07869   0.1666307  0.1988581  0.1344033 
1134.5     0.214      1          2          300.391    6.908      3.2944     3.3812     3.1563     3.2195     3.257      3.774      5.45       5.046      6.624      4.776      3.93       0.223      0.2363192  0.2568863  0.1667832  0.2157521  0.2496831  66.73634   16.41975   2.241      3.257      0.5486428  0.5809299  27.87366   0.1703539  0.2069376  0.1337702 
1134.6     0.214      1          2          302.949    6.896      3.1613     3.3424     3.2308     3.1454     3.186799999999999 3.396      4.254      5.068      6.378      4.654      3.928      0.232      0.2383834  0.257485   0.1761137  0.2192817  0.2539546  72.87804   16.64475   2.24       3.1868     0.547445   0.581978   27.58763   0.1693524  0.2057908  0.132914  
1134.7     0.214      1          2          302.745    6.858      3.2544     3.3043     3.3052     3.384      3.321400000000001 3.156      3.394      5.03       6.082      4.52       3.92       0.235      0.2401405  0.2604791  0.1799291  0.219802   0.2558678  78.54947   17.37774   2.235      3.3214     0.5589757  0.5935693  27.11359   0.1668815  0.2022011  0.1315619 
1134.8     0.215      1          2          299.069    6.746      3.488      3.8293     3.741000000000001 3.678999999999999 3.4997     3.436      4.742      4.874      5.842      4.388      3.92       0.239      0.2402051  0.263473   0.1858024  0.2169372  0.2566509  78.76607   19.73135   2.23       3.4997     0.5697667  0.6047917  26.69257   0.1612047  0.1919811  0.1304284 
1134.9     0.215      1          2          293.11     6.614      3.997      4.484500000000001 4.2681     4.1319     3.8573     3.752      6.31       4.732      5.722      4.332      3.92       0.235      0.2393593  0.2676646  0.1837955  0.2110539  0.2541225  75.97537   22.91768   2.223      3.8573     0.5877025  0.6208538  26.42253   0.1551653  0.1805972  0.1297334 
1135       0.215      1          2          291.884    6.432      4.5113     4.917900000000001 4.6429     4.6061     4.2328     4.212      6.634      4.75       6.11       4.276      3.924      0.234      0.2424152  0.2730539  0.1852815  0.2117766  0.2550391  86.55185   28.17158   2.214      4.2328     0.6096268  0.6407734  26.2345    0.1476319  0.1659999  0.1292638 
1135.1     0.215      1          2          294.129    6.252      4.9387     5.417      5.069100000000001 4.864599999999999 4.4984     4.638      6.782      4.784      6.55       4.154      3.942      0.267      0.2479431  0.2790419  0.2204667  0.2168443  0.2690323  109.5635   34.55149   2.204      4.4984     0.6279951  0.6652426  26.24747   0.1410098  0.1527239  0.1292958 
1135.2     0.215      1          2          298.265    6.112      5.340099999999999 5.8035     5.2313     5.0576     4.6881     4.928      7.472      4.752      6.734      4.05       3.952      0.264      0.2537853  0.2838323  0.2190462  0.2237384  0.2714269  140.5654   40.49683   2.196      4.6881     0.6424626  0.6769897  26.25343   0.1362236  0.1431366  0.1293105 
1135.3     0.215      1          2          299.813    6.016      5.6515     6.2259     5.4015     4.9033     4.4984     5.14       8.216      4.744      6.85       4.054      3.96       0.264      0.2574095  0.288024   0.2201791  0.226795   0.2734843  164.0615   45.1548    2.189      4.4984     0.639939   0.6736633  25.9894    0.1327907  0.1369126  0.1286688 
1135.4     0.215      1          2          299.603    6.096      5.5741     5.7537     5.0184     4.6642     4.2721     5.042      8.68       4.874      6.948      4.09       3.958      0.261      0.258893   0.2916167  0.2168019  0.2261693  0.2735927  174.777    41.23834   2.183      4.2721     0.6329529  0.6660357  24.67437   0.1339336  0.1420799  0.1257872 
1135.5     0.215      1          2          299.947    6.142      4.9634     5.333300000000001 4.674499999999999 4.1244     3.8984     4.86       8.872      5.022      7.016      4.192      3.948      0.26       0.2605942  0.2946108  0.2157708  0.2265776  0.2744034  187.9296   39.14217   2.178      3.8984     0.619022   0.6519676  23.08634   0.1340277  0.145139   0.1229165 
1135.6     0.215      1          2          301.838    6.054      4.4729     4.6642     4.1142     3.7013     3.5928     4.312      8.178      5.076      6.988      4.264      3.938      0.261      0.262428   0.2946108  0.2181161  0.2302452  0.2755332  203.2175   43.25017   2.178      3.5928     0.6065546  0.6394069  21.4873    0.1299514  0.1393432  0.1205595 
1135.7     0.215      1          2          305.126    6.048      4.0844     4.113200000000001 3.6516     3.4436     3.3821     3.826      7.29       5.114      6.844      4.174      3.928      0.256      0.2625634  0.2904192  0.2135142  0.2347076  0.2738307  204.3946   43.54546   2.185      3.3821     0.5954186  0.6271167  19.83927   0.1287449  0.1389566  0.1185332 
1135.8     0.215      1          2          306.519    6.274      3.9053     4.0871     3.6831     3.2535     3.2177     3.556      6.496      5.186      6.344      4.09       3.916      0.253      0.2584622  0.2826348  0.2082809  0.2342897  0.2708039  171.5953   33.70007   2.198      3.2177     0.5801289  0.612663   18.17524   0.1355125  0.1542878  0.1167372 
1135.9     0.215      1          2          306.206    6.208      3.9756     4.0576     3.7151     3.2378     3.186799999999999 3.356      5.972      5.3        5.948      4.2        3.9        0.253      0.2548802  0.2748503  0.2093354  0.2349101  0.2680819  147.2847   36.31935   2.211      3.1868     0.5730653  0.606183   16.47821   0.1323169  0.1496435  0.1149903 
