~Version
 VERS              .         2.0                           : CWLS LOG ASCII STANDARD - VERSION 2.0
 WRAP              .         NO                            : ONE LINE PER DEPTH STEP
 DLM               .         SPACE                         : DELIMITING CHARACTER(SPACE TAB OR COMMA)
~Well Information
#_______________________________________________________________________________
#
#PARAMETER_NAME    .UNIT     VALUE                         : DESCRIPTION
#_______________________________________________________________________________
STRT               .M        912                           : First reference value
STOP               .M        1283.4                        : Last reference value
STEP               .M        0.1                           : Step increment
NULL               .         -9999                         : Missing value
COMP               .                                       : Company
WELL               .         6838                          : Well name
FLD                .         УЗЕНЬ                         : Field
LOC                .                                       : Location
CNTY               .                                       : County
STAT               .                                       : State
CTRY               .                                       : Country
SRVC               .         SCH                           : Service Company
DATE               .         21.04.2010г                   : Date
UWI                .                                       : Unique Well ID
Block              .         6а                            : 
Category           .         Нагнетательная                : 
Condition          .         В работе                      : 
EREF               .m        85.9                          : 100.8
GRP                .                                       : Group name
Gorizont           .         15                            : 14
ISS                .                                       : Well surveys
Interpretator      .         Кушнир И.Е.                   : 
Kupol              .         основной                      : osnovnoi
Mud                .         глинистый                     : 
Mud_density        .         1.32                          : 
Mud_resistivity    .         0.4                           : 
NGDU               .         НГДУ-2                        : 
ORIGINALWELLNAME   .         6838                          : 
Spud_date          .         2010                          : 1961
TIME               .                                       : LOG TIME
Viscosity          .         40                            : 
X                  .m        44779.34                      : 46154
Y                  .m        85362.73                      : 85761.93
YEAR               .         2018г                         : 
~Parameter Information Block
#_______________________________________________________________________________
#
#PARAMETER_NAME    .UNIT     VALUE                         : DESCRIPTION
#_______________________________________________________________________________
SET                .         LQC_KAZNIPI_Petrel            : 
PBBOTTOM           .M        1283.4                        : Глубина подошвы планшета
PBSCALE            .         1 _ 500                       : Вертикальный масштаб планшета
PBTOP              .M        912                           : Глубина кровли планшета
TLFamily_CALI      .         Caliper                       : 
TLFamily_COLL      .         Net Reservoir Flag            : 
TLFamily_CSAT      .         Fluid Code                    : 
TLFamily_DEPT      .         Measured Depth                : 
TLFamily_DT        .         Compressional Slowness        : 
TLFamily_GR        .         Russian Gamma Ray             : 
TLFamily_IK1       .         Resistivity 05                : 
TLFamily_IK2       .         Resistivity 07                : 
TLFamily_IK3       .         Resistivity 10                : 
TLFamily_IK4       .         Resistivity 14                : 
TLFamily_IK5       .         Resistivity 20                : 
TLFamily_LLS       .         Lateral Log Resistivity       : 
TLFamily_MBK       .         Micro Lateral Log Resistivity : 
TLFamily_MINV      .         Micro Gradient Resistivity    : 
TLFamily_MNOR      .         Micro Resistivity             : 
TLFamily_NNKTB     .         Neutron Far                   : 
TLFamily_NNKTM     .         Neutron Near                  : 
TLFamily_NPHI      .         Neutron Porosity              : 
TLFamily_PHIE      .         Effective Porosity            : 
TLFamily_PHIED     .         Effective Porosity            : 
TLFamily_PHIEN     .         Effective Porosity            : 
TLFamily_PHIES     .         Effective Porosity            : 
TLFamily_PHIT      .         Porosity                      : 
TLFamily_PRMB      .         Permeability                  : 
TLFamily_PRMB_DGR  .         Permeability                  : 
TLFamily_RHOB      .         Bulk Density                  : 
TLFamily_RT        .         Formation Resistivity         : 
TLFamily_SOIL_ARCHIE .         Oil Saturation                : 
TLFamily_SOIL_DW   .         Oil Saturation                : 
TLFamily_SP        .         Spontaneous Potential         : 
TLFamily_VSH_FIN   .         Shale Volume                  : 
TLFamily_VSH_GR    .         Shale Volume                  : 
TLFamily_VSH_SP    .         Shale Volume                  : 
~Curve Information
#_______________________________________________________________________________
#
#LOGNAME           .UNIT     LOG_ID                        : DESCRIPTION
#_______________________________________________________________________________
DEPT               .M                                      : Колонка глубины 
CALI               .м                                      : Каверномер 
COLL               .unitless                               : Описание 
CSAT               .unitless                               : Описание 
DT                 .мкс/м                                  : Интервальное время пробега продольной волны 
GR                 .uR/h                                   : Гамма каротаж 
IK1                .Ohmm                                   : И0.10И0.40 
IK2                .Ohmm                                   : И0.14И0.56 
IK3                .Ohmm                                   : И0.20И0.80 
IK4                .Ohmm                                   : И0.28И1.12 
IK5                .Ohmm                                   : И0.40И1.60 
LLS                .Ohmm                                   : Боковой каротаж 
MBK                .Ohmm                                   : Микробоковой каротаж 
MINV               .Ohmm                                   : Микро-градиент зонд 
MNOR               .Ohmm                                   : Микро-потенциал зонд 
NNKTB              .у.е.                                   :  
NNKTM              .у.е.                                   :  
NPHI               .v/v                                    : Total porosity 
PHIE               .v/v                                    : Описание 
PHIED              .v/v                                    :  
PHIEN              .v/v                                    :  
PHIES              .v/v                                    :  
PHIT               .v/v                                    : Описание 
PRMB               .mD                                     :  
PRMB_DGR           .mD                                     :  
RHOB               .G/C3                                   : Плотность по ГГК-П 
RT                 .ohmm                                   : Description 
SOIL_ARCHIE        .v/v                                    :  
SOIL_DW            .v/v                                    :  
SP                 .мВ                                     : Потенциал самополяризации 
VSH_FIN            .v/v                                    : Описание 
VSH_GR             .v/v                                    : Shale volume 
VSH_SP             .v/v                                    : Shale Volume 
~Ascii
# ...
1281.7     0.212      -9999      -9999      -9999      8.798      1.5955     1.6998     1.7023     1.7315     1.5594     1.642      1.976      1.778      2.196      5.046      4.2        -9999      -9999      0.1748503  -9999      -9999      -9999      -9999      -9999      2.378      1.5594     -9999      -9999      42.84208   0.3205449  0.3981943  0.2428954 
1281.8     0.212      -9999      -9999      -9999      8.888      1.5936     1.7018     1.6953     1.7305     1.5041     1.65       1.902      1.612      2.168      4.904      4.204      -9999      -9999      0.1778444  -9999      -9999      -9999      -9999      -9999      2.373      1.5041     -9999      -9999      42.02208   0.323333   0.4140366  0.2326294 
1281.9     0.212      -9999      -9999      -9999      8.986      1.5891     1.7049     1.6873     1.7253     1.4638     1.65       1.844      1.428      2.08       4.702      4.23       -9999      -9999      0.1826347  -9999      -9999      -9999      -9999      -9999      2.365      1.4638     -9999      -9999      41.39008   0.3285684  0.432005   0.2251318 
1282       0.212      -9999      -9999      -9999      9.116      1.5872     1.7049     1.6922     1.7222     1.4304     1.65       1.918      1.272      1.874      4.652      4.282      -9999      -9999      0.188024   -9999      -9999      -9999      -9999      -9999      2.356      1.4304     -9999      -9999      -9999      -4999.271  0.4570495  -9999     
1282.1     0.211      -9999      -9999      -9999      9.222      1.59       1.7049     1.6973     1.7284     1.4234     1.65       1.94       1.172      1.676      4.984      4.346      -9999      -9999      0.1910179  -9999      -9999      -9999      -9999      -9999      2.351      1.4234     -9999      -9999      -9999      -4999.261  0.4785413  -9999     
1282.2     0.21       -9999      -9999      -9999      9.234      1.5936     1.7049     1.6953     1.7335     1.4188     1.65       1.674      1.242      1.612      5.334      4.428      -9999      -9999      0.1910179  -9999      -9999      -9999      -9999      -9999      2.351      1.4188     -9999      -9999      -9999      -4999.259  0.4810371  -9999     
1282.3     0.208      -9999      -9999      -9999      9.256      1.601      1.7049     1.6922     1.7387     1.425      1.65       1.396      1.336      1.586      5.384      4.518      -9999      -9999      0.188024   -9999      -9999      -9999      -9999      -9999      2.356      1.425      -9999      -9999      -9999      -4999.257  0.4856465  -9999     
1282.4     0.205      -9999      -9999      -9999      9.288      1.6019     1.7049     1.6912     1.7408     1.4289     1.65       1.34       1.362      1.618      5.358      4.604      -9999      -9999      0.1844312  -9999      -9999      -9999      -9999      -9999      2.362      1.4289     -9999      -9999      -9999      -4999.254  0.4924304  -9999     
1282.5     0.201      -9999      -9999      -9999      9.318      1.5927     1.7059     1.6892     1.7346     1.4273     1.648      1.34       1.372      1.644      5.346      4.662      -9999      -9999      0.1808383  -9999      -9999      -9999      -9999      -9999      2.368      1.4273     -9999      -9999      -9999      -4999.25   0.4988762  -9999     
1282.6     0.188      -9999      -9999      -9999      9.308      1.5882     1.6948     1.6882     1.7305     1.425      1.64       1.34       1.38       1.608      5.3        4.674      -9999      -9999      0.1778444  -9999      -9999      -9999      -9999      -9999      2.373      1.425      -9999      -9999      -9999      -4999.251  0.4967182  -9999     
1282.7     0.134      -9999      -9999      -9999      9.352      1.59       1.6848     1.6873     1.7367     1.4219     1.64       1.34       1.38       1.558      5.144      4.7        -9999      -9999      0.1748503  -9999      -9999      -9999      -9999      -9999      2.378      1.4219     -9999      -9999      -9999      -4999.247  0.5062836  -9999     
1282.8     0.08       -9999      -9999      -9999      9.612      1.5909     1.6948     1.6902     1.7398     1.4196     1.64       1.34       1.378      1.552      5.016      4.746      -9999      -9999      0.1724551  -9999      -9999      -9999      -9999      -9999      2.382      1.4196     -9999      -9999      -9999      -4999.217  0.5666864  -9999     
1282.9     0.063      -9999      -9999      -9999      9.8        1.5918     1.7049     1.6922     1.7273     1.425      1.64       1.34       1.372      1.56       5.108      4.77       -9999      -9999      0.169461   -9999      -9999      -9999      -9999      -9999      2.387      1.425      -9999      -9999      -9999      -4999.192  0.6148039  -9999     
1283       0.055      -9999      -9999      -9999      9.7        1.5936     1.7069     1.6973     1.7171     1.4297     1.64       1.34       1.382      1.56       5.196      4.77       -9999      -9999      -9999      -9999      -9999      -9999      -9999      -9999      2.391      1.43       -9999      -9999      -9999      -9999      0.708928   -9999     
1283.1     0.051      -9999      -9999      -9999      9.628      1.5982     1.7099     1.7033     1.7222     1.4297     1.64       1.34       1.39       1.558      5.062      4.768      -9999      -9999      -9999      -9999      -9999      -9999      -9999      -9999      2.394      1.43       -9999      -9999      -9999      -9999      0.6756173  -9999     
1283.2     0.048      -9999      -9999      -9999      9.668      1.6001     1.711      1.6953     1.7253     1.4297     1.64       1.34       1.39       1.55       4.928      4.758      -9999      -9999      -9999      -9999      -9999      -9999      -9999      -9999      2.396      1.43       -9999      -9999      -9999      -9999      0.6939253  -9999     
1283.3     0.047      -9999      -9999      -9999      9.706      1.5973     1.712      1.6873     1.7201     1.4297     1.64       1.34       1.39       1.552      5.032      4.75       -9999      -9999      -9999      -9999      -9999      -9999      -9999      -9999      2.397      1.43       -9999      -9999      -9999      -9999      0.7117772  -9999     
1283.4     0.047      -9999      -9999      -9999      9.734      1.5945     1.714      1.6942     1.7171     1.4297     1.64       1.34       1.39       1.56       5.13       4.75       -9999      -9999      -9999      -9999      -9999      -9999      -9999      -9999      2.397      1.43       -9999      -9999      -9999      -9999      0.7252244  -9999     
