~Version
 VERS              .         2.0                           : CWLS LOG ASCII STANDARD - VERSION 2.0
 WRAP              .         NO                            : ONE LINE PER DEPTH STEP
 DLM               .         SPACE                         : DELIMITING CHARACTER(SPACE TAB OR COMMA)
~Well Information
#_______________________________________________________________________________
#
#PARAMETER_NAME    .UNIT     VALUE                         : DESCRIPTION
#_______________________________________________________________________________
STRT               .M        912                           : First reference value
STOP               .M        1283.4                        : Last reference value
STEP               .M        0.1                           : Step increment
NULL               .         -9999                         : Missing value
COMP               .                                       : Company
WELL               .         6838                          : Well name
FLD                .         УЗЕНЬ                         : Field
LOC                .                                       : Location
CNTY               .                                       : County
STAT               .                                       : State
CTRY               .                                       : Country
SRVC               .         SCH                           : Service Company
DATE               .         21.04.2010г                   : Date
UWI                .                                       : Unique Well ID
Block              .         6а                            : 
Category           .         Нагнетательная                : 
Condition          .         В работе                      : 
EREF               .m        85.9                          : 100.8
GRP                .                                       : Group name
Gorizont           .         15                            : 14
ISS                .                                       : Well surveys
Interpretator      .         Кушнир И.Е.                   : 
Kupol              .         основной                      : osnovnoi
Mud                .         глинистый                     : 
Mud_density        .         1.32                          : 
Mud_resistivity    .         0.4                           : 
NGDU               .         НГДУ-2                        : 
ORIGINALWELLNAME   .         6838                          : 
Spud_date          .         2010                          : 1961
TIME               .                                       : LOG TIME
Viscosity          .         40                            : 
X                  .m        44779.34                      : 46154
Y                  .m        85362.73                      : 85761.93
YEAR               .         2018г                         : 
~Parameter Information Block
#_______________________________________________________________________________
#
#PARAMETER_NAME    .UNIT     VALUE                         : DESCRIPTION
#_______________________________________________________________________________
SET                .         LQC_KAZNIPI_Petrel            : 
PBBOTTOM           .M        1283.4                        : Глубина подошвы планшета
PBSCALE            .         1 _ 500                       : Вертикальный масштаб планшета
PBTOP              .M        912                           : Глубина кровли планшета
TLFamily_CALI      .         Caliper                       : 
TLFamily_COLL      .         Net Reservoir Flag            : 
TLFamily_CSAT      .         Fluid Code                    : 
TLFamily_DEPT      .         Measured Depth                : 
TLFamily_DT        .         Compressional Slowness        : 
TLFamily_GR        .         Russian Gamma Ray             : 
TLFamily_IK1       .         Resistivity 05                : 
TLFamily_IK2       .         Resistivity 07                : 
TLFamily_IK3       .         Resistivity 10                : 
TLFamily_IK4       .         Resistivity 14                : 
TLFamily_IK5       .         Resistivity 20                : 
TLFamily_LLS       .         Lateral Log Resistivity       : 
TLFamily_MBK       .         Micro Lateral Log Resistivity : 
TLFamily_MINV      .         Micro Gradient Resistivity    : 
TLFamily_MNOR      .         Micro Resistivity             : 
TLFamily_NNKTB     .         Neutron Far                   : 
TLFamily_NNKTM     .         Neutron Near                  : 
TLFamily_NPHI      .         Neutron Porosity              : 
TLFamily_PHIE      .         Effective Porosity            : 
TLFamily_PHIED     .         Effective Porosity            : 
TLFamily_PHIEN     .         Effective Porosity            : 
TLFamily_PHIES     .         Effective Porosity            : 
TLFamily_PHIT      .         Porosity                      : 
TLFamily_PRMB      .         Permeability                  : 
TLFamily_PRMB_DGR  .         Permeability                  : 
TLFamily_RHOB      .         Bulk Density                  : 
TLFamily_RT        .         Formation Resistivity         : 
TLFamily_SOIL_ARCHIE .         Oil Saturation                : 
TLFamily_SOIL_DW   .         Oil Saturation                : 
TLFamily_SP        .         Spontaneous Potential         : 
TLFamily_VSH_FIN   .         Shale Volume                  : 
TLFamily_VSH_GR    .         Shale Volume                  : 
TLFamily_VSH_SP    .         Shale Volume                  : 
~Curve Information
#_______________________________________________________________________________
#
#LOGNAME           .UNIT     LOG_ID                        : DESCRIPTION
#_______________________________________________________________________________
DEPT               .M                                      : Колонка глубины 
CALI               .м                                      : Каверномер 
COLL               .unitless                               : Описание 
CSAT               .unitless                               : Описание 
DT                 .мкс/м                                  : Интервальное время пробега продольной волны 
GR                 .uR/h                                   : Гамма каротаж 
IK1                .Ohmm                                   : И0.10И0.40 
IK2                .Ohmm                                   : И0.14И0.56 
IK3                .Ohmm                                   : И0.20И0.80 
IK4                .Ohmm                                   : И0.28И1.12 
IK5                .Ohmm                                   : И0.40И1.60 
LLS                .Ohmm                                   : Боковой каротаж 
MBK                .Ohmm                                   : Микробоковой каротаж 
MINV               .Ohmm                                   : Микро-градиент зонд 
MNOR               .Ohmm                                   : Микро-потенциал зонд 
NNKTB              .у.е.                                   :  
NNKTM              .у.е.                                   :  
NPHI               .v/v                                    : Total porosity 
PHIE               .v/v                                    : Описание 
PHIED              .v/v                                    :  
PHIEN              .v/v                                    :  
PHIES              .v/v                                    :  
PHIT               .v/v                                    : Описание 
PRMB               .mD                                     :  
PRMB_DGR           .mD                                     :  
RHOB               .G/C3                                   : Плотность по ГГК-П 
RT                 .ohmm                                   : Description 
SOIL_ARCHIE        .v/v                                    :  
SOIL_DW            .v/v                                    :  
SP                 .мВ                                     : Потенциал самополяризации 
VSH_FIN            .v/v                                    : Описание 
VSH_GR             .v/v                                    : Shale volume 
VSH_SP             .v/v                                    : Shale Volume 
~Ascii
# ...
936.2000000000001 0.215      1          3          295.198    2.444      4.9585     3.8225     2.7732     2.3717     2.2608     2.738      3.978      3.808      5.174      7.372      4.89       -9999      0.2260954  0.2143712  -9999      0.2378196  -9999      43.15132   2594.313   2.312      2.2608     0.443259   -9999      26.91433   0.07860144 0.02618515 0.1310177 
936.3      0.215      1          3          295.951    2.274      5.0385     3.8563     2.79       2.3585     2.2439     2.758      3.856      3.934      5.226      7.33       4.938      -9999      0.228835   0.2185628  -9999      0.2391071  -9999      48.49946   3145.955   2.305      2.2439     0.4471253  -9999      26.93633   0.07763995 0.02420278 0.1310771 
936.4      0.215      1          3          295.023    2.146      4.9883     3.779300000000001 2.7587     2.3439     2.2258     2.698      3.686      4.002      5.202      7.296      4.98       -9999      0.2295296  0.220958   -9999      0.2381011  -9999      49.95769   3637.445   2.301      2.2258     0.446483   -9999      26.95633   0.07697055 0.02280984 0.1311313 
936.5      0.215      1          3          293.102    2.066      4.7524     3.7045     2.726      2.3229     2.2034     2.642      3.606      4.088      5.198      7.332      5.032      -9999      0.2286205  0.2215569  -9999      0.2356842  -9999      48.05791   3982.895   2.3        2.2034     0.441924   -9999      26.96933   0.0765734  0.02198027 0.1311665 
936.6      0.215      1          3          290.885    2.146      4.780400000000001 3.981700000000001 2.7732     2.3133     2.1828     2.6        3.908      4.284      5.346      7.402      5.094      -9999      0.2276648  0.2227544  -9999      0.2325751  -9999      46.13834   3637.445   2.298      2.1828     0.4374097  -9999      26.97933   0.07700177 0.02280984 0.1311937 
936.7000000000001 0.215      1          3          289.043    2.202      5.2153     4.2948     2.8239     2.3422     2.1683     2.56       4.186      4.426      5.566      7.516      5.154      -9999      0.2281606  0.2263473  -9999      0.229974   -9999      47.12451   3413.616   2.292      2.1683     0.4367158  -9999      26.98133   0.07730412 0.0234091  0.1311991 
936.8      0.215      1          3          288.421    2.16       4.928899999999999 4.216100000000001 2.8411     2.352      2.1511     2.558      3.99       4.238      5.954      7.592      5.154      -9999      0.2310603  0.2329342  -9999      0.2291864  -9999      53.32807   3580.147   2.281      2.1511     0.4407914  -9999      26.99233   0.07709365 0.02295821 0.1312291 
936.9      0.214      1          3          289.684    2.104      4.9783     4.1433     2.8606     2.2865     2.1214     2.53       3.582      4.016      6.01       7.438      5.074      -9999      0.2364535  0.2419161  -9999      0.2309908  -9999      67.11971   3814.895   2.266      2.1214     0.4483292  -9999      27.03233   0.07685439 0.02237049 0.1313383 
937        0.214      1          3          292.434    2.022      4.837100000000001 3.873400000000001 2.7921     2.2207     2.0841     2.428      2.966      3.946      4.862      7.226      4.998      -9999      0.2419612  0.2491018  -9999      0.2348205  -9999      84.89188   4186.683   2.254      2.0841     0.4547625  -9999      27.06633   0.07648426 0.02153693 0.1314316 
937.1      0.215      1          3          295.805    1.964      4.4602     3.6854     2.726      2.149      2.0162     2.326      3.16       3.924      4.77       7.006      4.942      -9999      0.2460212  0.2526947  -9999      0.2393478  -9999      100.9412   4471.332   2.248      2.0162     0.4541897  -9999      27.11333   0.07626368 0.02096617 0.1315612 
937.2000000000001 0.215      1          3          298.971    2.032      3.979099999999999 3.1105     2.2654     2.0686     1.9504     2.256      2.986      4.11       4.884      6.832      4.91       -9999      0.2465032  0.2497006  -9999      0.2433059  -9999      103.0377   4139.471   2.253      1.9504     0.4465691  -9999      27.18733   0.07670189 0.0216369  0.1317669 
937.3      0.215      1          3          301.671    2.088      3.401800000000001 2.6595     2.0345     1.9499     1.8842     2.192      2.734      4.314      5.012      6.854      4.912      -9999      0.2442524  0.2419161  -9999      0.2465886  -9999      93.60612   3884.75    2.266      1.8842     0.4330162  -9999      27.30733   0.07715497 0.02220535 0.1321046 
937.4      0.215      1          3          304.104    2.126      3.236      2.821      2.1654     1.8174     1.8324     2.152      2.56       4.322      4.962      6.874      4.924      -9999      0.2409286  0.2323353  -9999      0.2495219  -9999      81.23437   3720.892   2.282      1.8324     0.4186544  -9999      27.39433   0.07747614 0.02259956 0.1323527 
937.5      0.215      1          3          306.897    2.158      3.586599999999999 2.9999     2.3108     1.9536     1.8212     2.118      2.548      4.294      4.92       6.694      4.928      -9999      0.2384264  0.2239521  -9999      0.2529007  -9999      73.01183   3588.277   2.296      1.8212     0.411654   -9999      27.37634   0.07761905 0.02293695 0.1323012 
937.6      0.215      1          3          310.736    2.198      3.8984     3.1105     2.4108     2.0835     1.8246     2.106      3.124      4.318      5.082      6.522      4.872      -9999      0.2389059  0.2203593  -9999      0.2574526  -9999      74.52048   3429.137   2.302      1.8246     0.4131966  -9999      27.34533   0.0777892  0.02336578 0.1322126 
937.7000000000001 0.215      1          3          316.068    2.228      4.0919     3.2299     2.5173     2.1306     1.8865     2.12       3.676      4.318      5.23       6.388      4.832      -9999      0.2426036  0.2215569  -9999      0.2636503  -9999      87.25009   3314.43    2.3        1.8865     0.4299882  -9999      27.25933   0.07783077 0.02369266 0.1319689 
937.8      0.215      1          3          322.563    2.216      4.2761     3.4264     2.5948     2.1663     2.0008     2.268      3.512      4.148      5.112      6.318      4.794      -9999      0.2480697  0.2251498  -9999      0.2709897  -9999      110.1568   3359.845   2.294      2.0008     0.4561641  -9999      27.18933   0.07766691 0.02356137 0.1317724 
937.9      0.215      1          3          329.487    2.238      4.4308     3.6413     2.6759     2.1448     1.9235     2.38       3.31       4.01       4.97       6.422      4.766      -9999      0.254779   0.2311378  -9999      0.2784202  -9999      146.6503   3277.054   2.284      1.9235     0.458743   -9999      27.15434   0.07773877 0.02380263 0.1316749 
938        0.215      1          3          335.948    2.426      4.3851     3.4988     2.5155     2.0821     1.8415     2.38       3.696      4.18       5.03       6.504      4.75       -9999      0.2612479  0.2377245  -9999      0.2847714  -9999      193.2429   2647.816   2.273      1.8415     0.4594969  -9999      27.12434   0.07877972 0.02596779 0.1315916 
938.1      0.215      1          3          341.168    2.57       4.055      3.3673     2.369      1.8696     1.733      2.374      3.982      4.352      5.058      6.254      4.746      -9999      0.2676127  0.245509   -9999      0.2897165  -9999      253.5099   2248.866   2.26       1.733      0.4554105  -9999      27.08833   0.07962532 0.02775848 0.1314922 
938.2000000000001 0.215      1          3          344.818    2.572      3.5958     2.8708     2.0385     1.6868     1.629      2.342      3.23       4.192      4.776      5.936      4.718      -9999      0.2729824  0.2526947  -9999      0.2932701  -9999      318.7525   2243.77    2.248      1.629      0.4489799  -9999      27.06934   0.07961202 0.0277842  0.1314398 
938.3      0.215      1          3          346.858    2.568      3.0148     2.4774     1.772      1.5267     1.5237     2.256      2.348      3.98       4.458      5.668      4.666      -9999      0.276953   0.2586827  -9999      0.2952234  -9999      377.5725   2253.972   2.238      1.5237     0.4385333  -9999      27.08334   0.07960558 0.02773279 0.1314784 
