~Version
 VERS              .         2.0                           : CWLS LOG ASCII STANDARD - VERSION 2.0
 WRAP              .         NO                            : ONE LINE PER DEPTH STEP
 DLM               .         SPACE                         : DELIMITING CHARACTER(SPACE TAB OR COMMA)
~Well Information
#_______________________________________________________________________________
#
#PARAMETER_NAME    .UNIT     VALUE                         : DESCRIPTION
#_______________________________________________________________________________
STRT               .M        912                           : First reference value
STOP               .M        1283.4                        : Last reference value
STEP               .M        0.1                           : Step increment
NULL               .         -9999                         : Missing value
COMP               .                                       : Company
WELL               .         6838                          : Well name
FLD                .         УЗЕНЬ                         : Field
LOC                .                                       : Location
CNTY               .                                       : County
STAT               .                                       : State
CTRY               .                                       : Country
SRVC               .         SCH                           : Service Company
DATE               .         21.04.2010г                   : Date
UWI                .                                       : Unique Well ID
Block              .         6а                            : 
Category           .         Нагнетательная                : 
Condition          .         В работе                      : 
EREF               .m        85.9                          : 100.8
GRP                .                                       : Group name
Gorizont           .         15                            : 14
ISS                .                                       : Well surveys
Interpretator      .         Кушнир И.Е.                   : 
Kupol              .         основной                      : osnovnoi
Mud                .         глинистый                     : 
Mud_density        .         1.32                          : 
Mud_resistivity    .         0.4                           : 
NGDU               .         НГДУ-2                        : 
ORIGINALWELLNAME   .         6838                          : 
Spud_date          .         2010                          : 1961
TIME               .                                       : LOG TIME
Viscosity          .         40                            : 
X                  .m        44779.34                      : 46154
Y                  .m        85362.73                      : 85761.93
YEAR               .         2018г                         : 
~Parameter Information Block
#_______________________________________________________________________________
#
#PARAMETER_NAME    .UNIT     VALUE                         : DESCRIPTION
#_______________________________________________________________________________
SET                .         LQC_KAZNIPI_Petrel            : 
PBBOTTOM           .M        1283.4                        : Глубина подошвы планшета
PBSCALE            .         1 _ 500                       : Вертикальный масштаб планшета
PBTOP              .M        912                           : Глубина кровли планшета
TLFamily_CALI      .         Caliper                       : 
TLFamily_COLL      .         Net Reservoir Flag            : 
TLFamily_CSAT      .         Fluid Code                    : 
TLFamily_DEPT      .         Measured Depth                : 
TLFamily_DT        .         Compressional Slowness        : 
TLFamily_GR        .         Russian Gamma Ray             : 
TLFamily_IK1       .         Resistivity 05                : 
TLFamily_IK2       .         Resistivity 07                : 
TLFamily_IK3       .         Resistivity 10                : 
TLFamily_IK4       .         Resistivity 14                : 
TLFamily_IK5       .         Resistivity 20                : 
TLFamily_LLS       .         Lateral Log Resistivity       : 
TLFamily_MBK       .         Micro Lateral Log Resistivity : 
TLFamily_MINV      .         Micro Gradient Resistivity    : 
TLFamily_MNOR      .         Micro Resistivity             : 
TLFamily_NNKTB     .         Neutron Far                   : 
TLFamily_NNKTM     .         Neutron Near                  : 
TLFamily_NPHI      .         Neutron Porosity              : 
TLFamily_PHIE      .         Effective Porosity            : 
TLFamily_PHIED     .         Effective Porosity            : 
TLFamily_PHIEN     .         Effective Porosity            : 
TLFamily_PHIES     .         Effective Porosity            : 
TLFamily_PHIT      .         Porosity                      : 
TLFamily_PRMB      .         Permeability                  : 
TLFamily_PRMB_DGR  .         Permeability                  : 
TLFamily_RHOB      .         Bulk Density                  : 
TLFamily_RT        .         Formation Resistivity         : 
TLFamily_SOIL_ARCHIE .         Oil Saturation                : 
TLFamily_SOIL_DW   .         Oil Saturation                : 
TLFamily_SP        .         Spontaneous Potential         : 
TLFamily_VSH_FIN   .         Shale Volume                  : 
TLFamily_VSH_GR    .         Shale Volume                  : 
TLFamily_VSH_SP    .         Shale Volume                  : 
~Curve Information
#_______________________________________________________________________________
#
#LOGNAME           .UNIT     LOG_ID                        : DESCRIPTION
#_______________________________________________________________________________
DEPT               .M                                      : Колонка глубины 
CALI               .м                                      : Каверномер 
COLL               .unitless                               : Описание 
CSAT               .unitless                               : Описание 
DT                 .мкс/м                                  : Интервальное время пробега продольной волны 
GR                 .uR/h                                   : Гамма каротаж 
IK1                .Ohmm                                   : И0.10И0.40 
IK2                .Ohmm                                   : И0.14И0.56 
IK3                .Ohmm                                   : И0.20И0.80 
IK4                .Ohmm                                   : И0.28И1.12 
IK5                .Ohmm                                   : И0.40И1.60 
LLS                .Ohmm                                   : Боковой каротаж 
MBK                .Ohmm                                   : Микробоковой каротаж 
MINV               .Ohmm                                   : Микро-градиент зонд 
MNOR               .Ohmm                                   : Микро-потенциал зонд 
NNKTB              .у.е.                                   :  
NNKTM              .у.е.                                   :  
NPHI               .v/v                                    : Total porosity 
PHIE               .v/v                                    : Описание 
PHIED              .v/v                                    :  
PHIEN              .v/v                                    :  
PHIES              .v/v                                    :  
PHIT               .v/v                                    : Описание 
PRMB               .mD                                     :  
PRMB_DGR           .mD                                     :  
RHOB               .G/C3                                   : Плотность по ГГК-П 
RT                 .ohmm                                   : Description 
SOIL_ARCHIE        .v/v                                    :  
SOIL_DW            .v/v                                    :  
SP                 .мВ                                     : Потенциал самополяризации 
VSH_FIN            .v/v                                    : Описание 
VSH_GR             .v/v                                    : Shale volume 
VSH_SP             .v/v                                    : Shale Volume 
~Ascii
# ...
1034.1     0.235      -9999      -9999      255.255    5.704      2.4693     2.6036     2.8781     2.94       2.9025     2.802      2.136      5.248      3.566      6.64       4.406      -9999      0.07609427 0.06997214 -9999      0.0822164  -9999      0.07188008 17.97682   2.412      2.9025     0          -9999      57.90104   0.3814772  0.199422   0.5635325 
1034.2     0.235      -9999      -9999      236.894    5.272      3.1791     3.604099999999999 3.648499999999999 3.5766     3.4103     3.16       2.474      5.936      4.476      7.288      4.592      -9999      0.09645274 0.1389222  -9999      0.0539833  -9999      0.1712761  33.28789   2.438      3.4103     0.03593115 -9999      57.99314   0.3607326  0.155065   0.5664002 
1034.3     0.232      -9999      -9999      224.842    4.87       4.3893     5.3058     4.7757     4.0871     3.6547     3.566      3.714      8.142      6.138      7.926      4.816      -9999      0.07638127 0.1191617  -9999      0.03360084 -9999      0.07276534 59.0579    2.471      3.6547     0          -9999      57.90524   0.3431812  0.1226994  0.5636631 
1034.4     0.229      -9999      -9999      219.664    4.62       5.4015     5.262299999999999 4.6206     4.4548     3.8135     4.198      8.654      16.834     10.488     8.564      5.084      -9999      0.06271656 0.1005987  -9999      0.02483438 -9999      0.04062757 84.3575    2.502      3.8135     0          -9999      57.77735   0.3328882  0.1060751  0.5597012 
1034.5     0.228      -9999      -9999      220.783    4.368      5.21       5.2193     4.4729     3.9148     3.544299999999999 4.696      12.908     24.308     14.294     9.234      5.278      -9999      0.05881451 0.08682629 -9999      0.03080274 -9999      0.03439898 120.8392   2.525      3.5443     0          -9999      57.55746   0.322271   0.09159657 0.5529454 
1034.6     0.228      -9999      -9999      226.039    4.108      4.1481     3.779300000000001 3.433      3.3868     3.2491     4.626      10.506     20.11      13.068     9.692      5.362      -9999      0.06416656 0.08263469 -9999      0.04569843 -9999      0.04321937 175.0845   2.532      3.2491     0          -9999      57.38356   0.3131898  0.07872657 0.5476531 
1034.7     0.228      -9999      -9999      233.334    3.964      2.666      2.8599     2.7158     2.7252     2.8111     4.376      6.86       13.824     10.642     9.248      5.406      -9999      0.07507861 0.08742519 -9999      0.06273203 -9999      0.06883289 215        2.524      2.8111     0          -9999      57.33766   0.3093287  0.07239386 0.5462636 
1034.8     0.228      -9999      -9999      239.911    4.284      2.0991     2.5095     2.4381     2.3277     2.5137     3.408      4.588      10.358     8.148      8.554      5.372      -9999      0.08623476 0.09880233 -9999      0.07366721 -9999      0.1107733  136.2186   2.505      2.5137     0          -9999      57.37577   0.3173204  0.08722367 0.5474172 
1034.9     0.229      -9999      -9999      243.775    4.604      2.0345     2.2177     2.2004     2.3536     2.4816     2.604      2.878      7.778      5.824      7.716      5.244      -9999      0.09460758 0.111976   -9999      0.07723912 -9999      0.1583142  86.30456   2.483      2.4816     0          -9999      57.62388   0.330035   0.1050914  0.5549785 
1035       0.229      -9999      -9999      244.708    4.924      2.1005     2.481      2.5336     2.4478     2.5101     2.426      2.232      6.176      4.292      6.926      4.972      -9999      0.09793244 0.1215569  -9999      0.074308   -9999      0.1824335  54.68036   2.467      2.5101     0          -9999      57.90198   0.3450905  0.1266192  0.5635619 
1035.1     0.231      -9999      -9999      243.287    5.174      2.3956     2.7956     2.9476     2.873      2.8069     2.342      1.944      5.148      3.344      6.478      4.75       -9999      0.09711629 0.1275449  -9999      0.06668769 -9999      0.1761925  38.28122   2.457      2.8069     0          -9999      58.26408   0.3606864  0.1464631  0.5749096 
1035.2     0.232      -9999      -9999      240.644    5.142      2.6838     3.2483     3.3821     3.3233     3.1089     2.602      2.09       5.572      4.062      6.27       4.616      -9999      0.09423368 0.1281437  -9999      0.0603237  -9999      0.1558097  40.06875   2.456      3.1089     0          -9999      58.5892    0.3645121  0.143759   0.5852652 
1035.3     0.234      -9999      -9999      238.077    5.054      2.8958     3.8225     3.922699999999999 3.4379     3.2465     2.856      2.596      7.004      5.382      6.708      4.582      -9999      0.08989601 0.124551   -9999      0.05524106 -9999      0.1294942  45.42676   2.462      3.2465     0          -9999      58.8033    0.3643745  0.1365773  0.5921717 
1035.4     0.235      -9999      -9999      237.199    4.772      3.0553     3.359      3.4792     3.493      3.3461     3.084      4.192      11.294     7.596      7.218      4.694      -9999      0.08686692 0.1173653  -9999      0.05636854 -9999      0.1138005  67.91685   2.474      3.3461     0          -9999      58.8694    0.3551055  0.1158928  0.5943181 
1035.5     0.233      -9999      -9999      239.253    4.514      3.1064     2.9766     3.1064     3.296199999999999 3.273000000000001 3.214      5.462      14.692     9.298      7.386      4.816      -9999      0.08603297 0.1089821  -9999      0.06308385 -9999      0.109824   98.12468   2.488      3.273      0          -9999      58.86151   0.3468933  0.09972515 0.5940614 
1035.6     0.23       -9999      -9999      243.913    4.384      2.959      2.884      2.9137     3.1279     3.1945     2.984      4.226      11.406     7.906      7.456      4.936      -9999      0.08776453 0.1023952  -9999      0.07313389 -9999      0.1182415  118.1131   2.499      3.1945     0          -9999      58.90562   0.3439754  0.09245402 0.5954968 
1035.7     0.229      -9999      -9999      250.24     4.32       2.5761     2.7934     2.7361     3.0023     3.0941     2.78       2.716      7.35       6.02       7.484      4.986      -9999      0.09206194 0.09940123 -9999      0.08472265 -9999      0.1420262  129.4012   2.504      3.0941     0          -9999      59.06172   0.344836   0.08907162 0.6006004 
1035.8     0.229      -9999      -9999      256.974    4.524      2.2965     2.6831     2.6349     2.8995     3.0243     2.68       2.522      6.752      5.128      7.496      4.918      -9999      0.09796583 0.1017964  -9999      0.09413525 -9999      0.1826934  96.73513   2.5        3.0243     0          -9999      59.21782   0.3530244  0.1003076  0.6057411 
1035.9     0.229      -9999      -9999      262.874    4.69       2.1019     2.5791     2.5391     2.8468     3.0529     2.596      2.61       6.944      4.682      7.472      4.862      -9999      0.1041582  0.1065868  -9999      0.1017296  -9999      0.2379144  76.34257   2.492      3.0529     0.05027303 -9999      59.37193   0.3606707  0.1104887  0.6108527 
1036       0.229      -9999      -9999      266.667    4.64       2.1482     2.9514     2.8892     2.8555     3.1262     2.578      2.604      7.058      5.146      7.414      4.82       -9999      0.1092939  0.1107785  -9999      0.1078092  -9999      0.2961732  81.98532   2.485      3.1262     0.09934495 -9999      59.48804   0.3610229  0.1073178  0.6147279 
1036.1     0.229      -9999      -9999      267.043    4.576      2.6043     3.4094     3.3187     3.1254     3.3877     2.608      2.63       7.172      5.86       7.278      4.774      -9999      0.1105231  0.111976   -9999      0.1090702  -9999      0.3121146  89.82066   2.483      3.3877     0.1410729  -9999      59.48014   0.3589277  0.1033916  0.6144637 
1036.2     0.23       -9999      -9999      264.083    4.458      3.1237     3.7045     3.6329     3.4065     3.648499999999999 2.798      2.896      7.39       6.716      7.158      4.748      -9999      0.1076249  0.1095808  -9999      0.105669   -9999      0.2758245  106.2829   2.487      3.6485     0.1510295  -9999      59.41825   0.3544607  0.09652539 0.6123961 
