~Version
 VERS              .         2.0                           : CWLS LOG ASCII STANDARD - VERSION 2.0
 WRAP              .         NO                            : ONE LINE PER DEPTH STEP
 DLM               .         SPACE                         : DELIMITING CHARACTER(SPACE TAB OR COMMA)
~Well Information
#_______________________________________________________________________________
#
#PARAMETER_NAME    .UNIT     VALUE                         : DESCRIPTION
#_______________________________________________________________________________
STRT               .M        912                           : First reference value
STOP               .M        1283.4                        : Last reference value
STEP               .M        0.1                           : Step increment
NULL               .         -9999                         : Missing value
COMP               .                                       : Company
WELL               .         6838                          : Well name
FLD                .         УЗЕНЬ                         : Field
LOC                .                                       : Location
CNTY               .                                       : County
STAT               .                                       : State
CTRY               .                                       : Country
SRVC               .         SCH                           : Service Company
DATE               .         21.04.2010г                   : Date
UWI                .                                       : Unique Well ID
Block              .         6а                            : 
Category           .         Нагнетательная                : 
Condition          .         В работе                      : 
EREF               .m        85.9                          : 100.8
GRP                .                                       : Group name
Gorizont           .         15                            : 14
ISS                .                                       : Well surveys
Interpretator      .         Кушнир И.Е.                   : 
Kupol              .         основной                      : osnovnoi
Mud                .         глинистый                     : 
Mud_density        .         1.32                          : 
Mud_resistivity    .         0.4                           : 
NGDU               .         НГДУ-2                        : 
ORIGINALWELLNAME   .         6838                          : 
Spud_date          .         2010                          : 1961
TIME               .                                       : LOG TIME
Viscosity          .         40                            : 
X                  .m        44779.34                      : 46154
Y                  .m        85362.73                      : 85761.93
YEAR               .         2018г                         : 
~Parameter Information Block
#_______________________________________________________________________________
#
#PARAMETER_NAME    .UNIT     VALUE                         : DESCRIPTION
#_______________________________________________________________________________
SET                .         LQC_KAZNIPI_Petrel            : 
PBBOTTOM           .M        1283.4                        : Глубина подошвы планшета
PBSCALE            .         1 _ 500                       : Вертикальный масштаб планшета
PBTOP              .M        912                           : Глубина кровли планшета
TLFamily_CALI      .         Caliper                       : 
TLFamily_COLL      .         Net Reservoir Flag            : 
TLFamily_CSAT      .         Fluid Code                    : 
TLFamily_DEPT      .         Measured Depth                : 
TLFamily_DT        .         Compressional Slowness        : 
TLFamily_GR        .         Russian Gamma Ray             : 
TLFamily_IK1       .         Resistivity 05                : 
TLFamily_IK2       .         Resistivity 07                : 
TLFamily_IK3       .         Resistivity 10                : 
TLFamily_IK4       .         Resistivity 14                : 
TLFamily_IK5       .         Resistivity 20                : 
TLFamily_LLS       .         Lateral Log Resistivity       : 
TLFamily_MBK       .         Micro Lateral Log Resistivity : 
TLFamily_MINV      .         Micro Gradient Resistivity    : 
TLFamily_MNOR      .         Micro Resistivity             : 
TLFamily_NNKTB     .         Neutron Far                   : 
TLFamily_NNKTM     .         Neutron Near                  : 
TLFamily_NPHI      .         Neutron Porosity              : 
TLFamily_PHIE      .         Effective Porosity            : 
TLFamily_PHIED     .         Effective Porosity            : 
TLFamily_PHIEN     .         Effective Porosity            : 
TLFamily_PHIES     .         Effective Porosity            : 
TLFamily_PHIT      .         Porosity                      : 
TLFamily_PRMB      .         Permeability                  : 
TLFamily_PRMB_DGR  .         Permeability                  : 
TLFamily_RHOB      .         Bulk Density                  : 
TLFamily_RT        .         Formation Resistivity         : 
TLFamily_SOIL_ARCHIE .         Oil Saturation                : 
TLFamily_SOIL_DW   .         Oil Saturation                : 
TLFamily_SP        .         Spontaneous Potential         : 
TLFamily_VSH_FIN   .         Shale Volume                  : 
TLFamily_VSH_GR    .         Shale Volume                  : 
TLFamily_VSH_SP    .         Shale Volume                  : 
~Curve Information
#_______________________________________________________________________________
#
#LOGNAME           .UNIT     LOG_ID                        : DESCRIPTION
#_______________________________________________________________________________
DEPT               .M                                      : Колонка глубины 
CALI               .м                                      : Каверномер 
COLL               .unitless                               : Описание 
CSAT               .unitless                               : Описание 
DT                 .мкс/м                                  : Интервальное время пробега продольной волны 
GR                 .uR/h                                   : Гамма каротаж 
IK1                .Ohmm                                   : И0.10И0.40 
IK2                .Ohmm                                   : И0.14И0.56 
IK3                .Ohmm                                   : И0.20И0.80 
IK4                .Ohmm                                   : И0.28И1.12 
IK5                .Ohmm                                   : И0.40И1.60 
LLS                .Ohmm                                   : Боковой каротаж 
MBK                .Ohmm                                   : Микробоковой каротаж 
MINV               .Ohmm                                   : Микро-градиент зонд 
MNOR               .Ohmm                                   : Микро-потенциал зонд 
NNKTB              .у.е.                                   :  
NNKTM              .у.е.                                   :  
NPHI               .v/v                                    : Total porosity 
PHIE               .v/v                                    : Описание 
PHIED              .v/v                                    :  
PHIEN              .v/v                                    :  
PHIES              .v/v                                    :  
PHIT               .v/v                                    : Описание 
PRMB               .mD                                     :  
PRMB_DGR           .mD                                     :  
RHOB               .G/C3                                   : Плотность по ГГК-П 
RT                 .ohmm                                   : Description 
SOIL_ARCHIE        .v/v                                    :  
SOIL_DW            .v/v                                    :  
SP                 .мВ                                     : Потенциал самополяризации 
VSH_FIN            .v/v                                    : Описание 
VSH_GR             .v/v                                    : Shale volume 
VSH_SP             .v/v                                    : Shale Volume 
~Ascii
# ...
1059.1     0.237      -9999      -9999      306.956    9.064      2.0008     2.0931     2.015      1.9388     1.9199     1.646      1.79       4.32       3.354      5.01       3.934      -9999      0.06180207 0.04442351 -9999      0.07918064 -9999      0.03907351 1.423873   2.362      1.9199     0          -9999      61.95938   0.6319264  0.5616254  0.7022273 
1059.2     0.237      -9999      -9999      304.236    9.086      2.0059     1.9425     1.9031     1.9585     1.9369     1.726      2.05       4.732      3.672      5.134      3.96       -9999      0.05661799 0.0401067  -9999      0.07312927 -9999      0.0313228  1.388787   2.366      1.9369     0          -9999      62.26749   0.6405997  0.5673765  0.7138228 
1059.3     0.237      -9999      -9999      301.952    9.04       1.7403     1.8074     1.8002     1.8535     1.8655     1.796      2.246      5.076      3.864      5.146      4.022      -9999      0.05643973 0.04113678 -9999      0.07174268 -9999      0.03108556 1.463161   2.366      1.8655     0          -9999      62.3376    0.6359504  0.555418   0.7164828 
1059.4     0.237      -9999      -9999      300.594    8.69       1.5514     1.712      1.7003     1.7524     1.7903     1.826      2          4.926      3.554      5.052      4.122      -9999      0.06813653 0.05328607 -9999      0.08298698 -9999      0.05119315 2.176095   2.361      1.7903     0          -9999      62.3497    0.5946276  0.4723121  0.716943  
1059.5     0.236      -9999      -9999      300.088    8.5        1.4281     1.6238     1.6084     1.6428     1.6853     1.838      1.706      4.648      3.166      4.642      4.164      -9999      0.07650087 0.06363622 -9999      0.08936552 -9999      0.07313744 2.699346   2.352      1.6853     0          -9999      62.21781   0.5722365  0.4325307  0.7119424 
1059.6     0.236      -9999      -9999      299.899    8.952      1.3533     1.5423     1.528      1.5519     1.5964     1.776      1.65       4.334      2.956      4.224      4.13       -9999      0.06749821 0.06049085 -9999      0.07450558 -9999      0.04981828 1.61672    2.34       1.5964     0          -9999      62.01992   0.6188658  0.5332386  0.7044931 
1059.7     0.236      -9999      -9999      299.359    9.382      1.3348     1.4666     1.4533     1.497      1.5392     1.702      1.63       3.95       2.782      4.11       4.068      -9999      0.05729058 0.0572347  -9999      0.05734644 -9999      0.03223432 0.9927652  2.326      1.5392     0          -9999      61.68602   0.6714002  0.6507314  0.692069  
1059.8     0.236      -9999      -9999      297.95     9.692      1.3119     1.4482     1.4486     1.4529     1.4916     1.612      1.524      3.334      2.592      4.03       3.962      -9999      0.04871012 0.05578943 -9999      0.04163081 -9999      0.02235567 0.698493   2.312      1.4916     0          -9999      61.36613   0.7157611  0.7511868  0.6803354 
1059.9     0.242      -9999      -9999      295.539    9.922      1.2829     1.4301     1.4438     1.4426     1.4703     1.528      1.418      2.816      2.412      3.822      3.876      -9999      0.04578465 0.05922499 -9999      0.03234431 -9999      0.01973335 0.5381215  2.299      1.4703     0          -9999      61.10223   0.7353898  0.8        0.6707796 
1060       0.247      -9999      -9999      292.283    9.83       1.2503     1.3873     1.4196     1.4301     1.4486     1.468      1.412      2.986      2.276      3.61       3.81       -9999      0.04756755 0.06564472 -9999      0.02949039 -9999      0.0212924  0.5973008  2.29       1.4486     0          -9999      60.84233   0.7307388  0.8        0.6614776 
1060.1     0.249      -9999      -9999      288.881    9.744      1.2134     1.3458     1.396      1.4085     1.4242     1.418      1.42       3.268      2.182      3.52       3.768      -9999      0.05138701 0.07176879 -9999      0.03100524 -9999      0.02505937 0.6584918  2.287      1.4242     0          -9999      60.60044   0.7112059  0.7694954  0.6529163 
1060.2     0.249      -9999      -9999      286.729    9.714      1.1864     1.3061     1.354      1.3866     1.402      1.408      1.418      3.348      2.2        3.478      3.758      -9999      0.05107927 0.07134117 -9999      0.03081736 -9999      0.02473261 0.6812816  2.291      1.402      0          -9999      60.39655   0.7023253  0.7588788  0.6457718 
1060.3     0.246      -9999      -9999      287.273    9.734      1.1729     1.2687     1.314      1.3623     1.3848     1.4        1.408      3.304      2.266      3.472      3.746      -9999      0.0482085  0.06549321 -9999      0.03092379 -9999      0.02188247 0.6660023  2.3        1.3848     0          -9999      60.31265   0.7043957  0.7659402  0.6428512 
1060.4     0.244      -9999      -9999      291.779    9.956      1.1557     1.2805     1.314      1.3408     1.3707     1.398      1.396      2.906      2.402      3.496      3.726      -9999      0.0432242  0.054258   -9999      0.03219041 -9999      0.01769193 0.5177667  2.313      1.3707     0          -9999      60.22876   0.7199708  0.8        0.6399416 
1060.5     0.241      -9999      -9999      299.979    10.11      1.1344     1.2925     1.3146     1.3295     1.3693     1.388      1.378      2.528      2.538      3.578      3.712      -9999      0.04540096 0.04741253 -9999      0.0433894  -9999      0.01941306 0.4347951  2.325      1.3693     0          -9999      60.13986   0.7184352  0.8        0.6368704 
1060.6     0.238      -9999      -9999      311.223    9.96       1.1416     1.3067     1.3064     1.3233     1.3737     1.378      1.37       2.542      2.572      3.698      3.724      -9999      0.04986572 0.04189637 -9999      0.05783506 -9999      0.02348508 0.5154232  2.335      1.3737     0          -9999      60.01597   0.7163055  0.8        0.632611  
1060.7     0.237      -9999      -9999      324.071    9.814      1.1935     1.3205     1.2983     1.3324     1.4066     1.37       1.37       2.616      2.566      3.944      3.746      -9999      0.05665822 0.03903123 -9999      0.07428521 -9999      0.03137659 0.6082377  2.342      1.4066     0          -9999      59.81607   0.7103185  0.7948481  0.6257888 
1060.8     0.237      -9999      -9999      336.867    9.682      1.2421     1.3799     1.3656     1.3537     1.4438     1.37       1.372      2.536      2.494      4.15       3.774      -9999      0.06975677 0.04362442 -9999      0.09588911 -9999      0.05485581 0.7064598  2.344      1.4438     0          -9999      59.66418   0.6841814  0.7477162  0.6206466 
1060.9     0.237      -9999      -9999      347.68     9.588      1.2842     1.4426     1.4383     1.4285     1.4958     1.376      1.388      2.538      2.494      4.084      3.792      -9999      0.07937899 0.04721959 -9999      0.1115384  -9999      0.08268934 0.7859323  2.344      1.4958     0          -9999      59.64628   0.6679546  0.7158662  0.620043  
1061       0.237      -9999      -9999      354.705    9.676      1.3292     1.4879     1.4727     1.5004     1.5488     1.408      1.432      3.06       2.836      4.01       3.808      -9999      0.07929008 0.04550027 -9999      0.1130799  -9999      0.08237637 0.7112836  2.341      1.5488     0          -9999      59.70439   0.6838229  0.7456414  0.6220044 
1061.1     0.237      -9999      -9999      357.567    9.688      1.3788     1.5362     1.5084     1.5379     1.5973     1.448      1.488      3.618      3.212      4.172      3.856      -9999      0.08058342 0.04760762 -9999      0.1135592  -9999      0.08704792 0.7016694  2.335      1.5973     0          -9999      59.97649   0.6905277  0.7497965  0.6312588 
1061.2     0.236      -9999      -9999      356.233    9.428      1.4549     1.5723     1.5782     1.5832     1.6461     1.49       1.526      3.782      3.358      4.366      3.932      -9999      0.09189825 0.05992972 -9999      0.1238668  -9999      0.1410381  0.9423019  2.328      1.6461     0          -9999      60.3146    0.6538305  0.6647422  0.6429189 
1061.3     0.236      -9999      -9999      351.705    9.222      1.5746     1.6098     1.6519     1.6583     1.6862     1.536      1.558      3.854      3.428      4.49       3.98       -9999      0.09765704 0.06886662 -9999      0.1264475  -9999      0.1803032  1.190286   2.321      1.6862     0          -9999      60.8167    0.6324126  0.604259   0.660566  
