~Version
 VERS              .         2.0                           : CWLS LOG ASCII STANDARD - VERSION 2.0
 WRAP              .         NO                            : ONE LINE PER DEPTH STEP
 DLM               .         SPACE                         : DELIMITING CHARACTER(SPACE TAB OR COMMA)
~Well Information
#_______________________________________________________________________________
#
#PARAMETER_NAME    .UNIT     VALUE                         : DESCRIPTION
#_______________________________________________________________________________
STRT               .M        912                           : First reference value
STOP               .M        1283.4                        : Last reference value
STEP               .M        0.1                           : Step increment
NULL               .         -9999                         : Missing value
COMP               .                                       : Company
WELL               .         6838                          : Well name
FLD                .         УЗЕНЬ                         : Field
LOC                .                                       : Location
CNTY               .                                       : County
STAT               .                                       : State
CTRY               .                                       : Country
SRVC               .         SCH                           : Service Company
DATE               .         21.04.2010г                   : Date
UWI                .                                       : Unique Well ID
Block              .         6а                            : 
Category           .         Нагнетательная                : 
Condition          .         В работе                      : 
EREF               .m        85.9                          : 100.8
GRP                .                                       : Group name
Gorizont           .         15                            : 14
ISS                .                                       : Well surveys
Interpretator      .         Кушнир И.Е.                   : 
Kupol              .         основной                      : osnovnoi
Mud                .         глинистый                     : 
Mud_density        .         1.32                          : 
Mud_resistivity    .         0.4                           : 
NGDU               .         НГДУ-2                        : 
ORIGINALWELLNAME   .         6838                          : 
Spud_date          .         2010                          : 1961
TIME               .                                       : LOG TIME
Viscosity          .         40                            : 
X                  .m        44779.34                      : 46154
Y                  .m        85362.73                      : 85761.93
YEAR               .         2018г                         : 
~Parameter Information Block
#_______________________________________________________________________________
#
#PARAMETER_NAME    .UNIT     VALUE                         : DESCRIPTION
#_______________________________________________________________________________
SET                .         LQC_KAZNIPI_Petrel            : 
PBBOTTOM           .M        1283.4                        : Глубина подошвы планшета
PBSCALE            .         1 _ 500                       : Вертикальный масштаб планшета
PBTOP              .M        912                           : Глубина кровли планшета
TLFamily_CALI      .         Caliper                       : 
TLFamily_COLL      .         Net Reservoir Flag            : 
TLFamily_CSAT      .         Fluid Code                    : 
TLFamily_DEPT      .         Measured Depth                : 
TLFamily_DT        .         Compressional Slowness        : 
TLFamily_GR        .         Russian Gamma Ray             : 
TLFamily_IK1       .         Resistivity 05                : 
TLFamily_IK2       .         Resistivity 07                : 
TLFamily_IK3       .         Resistivity 10                : 
TLFamily_IK4       .         Resistivity 14                : 
TLFamily_IK5       .         Resistivity 20                : 
TLFamily_LLS       .         Lateral Log Resistivity       : 
TLFamily_MBK       .         Micro Lateral Log Resistivity : 
TLFamily_MINV      .         Micro Gradient Resistivity    : 
TLFamily_MNOR      .         Micro Resistivity             : 
TLFamily_NNKTB     .         Neutron Far                   : 
TLFamily_NNKTM     .         Neutron Near                  : 
TLFamily_NPHI      .         Neutron Porosity              : 
TLFamily_PHIE      .         Effective Porosity            : 
TLFamily_PHIED     .         Effective Porosity            : 
TLFamily_PHIEN     .         Effective Porosity            : 
TLFamily_PHIES     .         Effective Porosity            : 
TLFamily_PHIT      .         Porosity                      : 
TLFamily_PRMB      .         Permeability                  : 
TLFamily_PRMB_DGR  .         Permeability                  : 
TLFamily_RHOB      .         Bulk Density                  : 
TLFamily_RT        .         Formation Resistivity         : 
TLFamily_SOIL_ARCHIE .         Oil Saturation                : 
TLFamily_SOIL_DW   .         Oil Saturation                : 
TLFamily_SP        .         Spontaneous Potential         : 
TLFamily_VSH_FIN   .         Shale Volume                  : 
TLFamily_VSH_GR    .         Shale Volume                  : 
TLFamily_VSH_SP    .         Shale Volume                  : 
~Curve Information
#_______________________________________________________________________________
#
#LOGNAME           .UNIT     LOG_ID                        : DESCRIPTION
#_______________________________________________________________________________
DEPT               .M                                      : Колонка глубины 
CALI               .м                                      : Каверномер 
COLL               .unitless                               : Описание 
CSAT               .unitless                               : Описание 
DT                 .мкс/м                                  : Интервальное время пробега продольной волны 
GR                 .uR/h                                   : Гамма каротаж 
IK1                .Ohmm                                   : И0.10И0.40 
IK2                .Ohmm                                   : И0.14И0.56 
IK3                .Ohmm                                   : И0.20И0.80 
IK4                .Ohmm                                   : И0.28И1.12 
IK5                .Ohmm                                   : И0.40И1.60 
LLS                .Ohmm                                   : Боковой каротаж 
MBK                .Ohmm                                   : Микробоковой каротаж 
MINV               .Ohmm                                   : Микро-градиент зонд 
MNOR               .Ohmm                                   : Микро-потенциал зонд 
NNKTB              .у.е.                                   :  
NNKTM              .у.е.                                   :  
NPHI               .v/v                                    : Total porosity 
PHIE               .v/v                                    : Описание 
PHIED              .v/v                                    :  
PHIEN              .v/v                                    :  
PHIES              .v/v                                    :  
PHIT               .v/v                                    : Описание 
PRMB               .mD                                     :  
PRMB_DGR           .mD                                     :  
RHOB               .G/C3                                   : Плотность по ГГК-П 
RT                 .ohmm                                   : Description 
SOIL_ARCHIE        .v/v                                    :  
SOIL_DW            .v/v                                    :  
SP                 .мВ                                     : Потенциал самополяризации 
VSH_FIN            .v/v                                    : Описание 
VSH_GR             .v/v                                    : Shale volume 
VSH_SP             .v/v                                    : Shale Volume 
~Ascii
# ...
1232.1     0.214      8          3          282.204    8.266      1.9467     1.9523     1.7947     1.6918     1.6214     1.7        2.136      3.092      3.728      4.326      3.848      0.116      0.06549253 0.08146594 0          0.1150117  0.1473618  0.04573394 4.56152    2.381      1.6214     0          0          54.93134   0.4133834  0.3491225  0.4776443 
1232.2     0.214      8          3          278.03     8.196      2.1312     2.0183     1.8035     1.668      1.5746     1.802      2.748      3.368      4.346      4.46       3.89       0.116      0.06832094 0.08890267 0          0.1160602  0.1478121  0.05159739 4.925478   2.377      1.5746     0          0          53.59118   0.3906282  0.3383486  0.4429079 
1232.3     0.214      8          3          274.318    8.072      2.2965     2.0862     1.8112     1.5959     1.5202     1.928      3.444      3.656      4.966      4.598      3.94       0.116      0.09849709 0.1766467  0          0.1188446  0.1752041  0.1868801  5.642956   2.375      1.5202     0          0          52.13702   0.3639888  0.3200729  0.4079046 
1232.4     0.214      8          3          271.282    7.732      2.4381     2.089      1.7237     1.5215     1.4678     2.12       3.956      3.722      5.116      4.684      3.988      0.128      0.1079909  0.1766467  0.02083949 0.1264866  0.1776484  0.2801637  8.192945   2.375      1.4678     0          0          50.63586   0.3247288  0.2748693  0.3745884 
1232.5     0.214      8          3          269.139    7.434      2.5191     2.0917     1.6414     1.4269     1.415      2.26       4.34       3.768      5.144      4.746      4.022      0.142      0.1164792  0.175449   0.04305468 0.130934   0.1807966  0.4023797  11.35977   2.377      1.415      0          0          49.8937    0.2998343  0.2405313  0.3591374 
1232.6     0.214      8          3          268.051    7.302      2.3839     1.7899     1.4719     1.3537     1.3737     2.16       4.316      3.968      5.164      4.774      4.024      0.149      0.1184867  0.1748503  0.05074518 0.1298647  0.1823553  0.4383485  13.12919   2.378      1.3737     0          0          50.35954   0.2977419  0.2267255  0.3687583 
1232.7     0.213      8          3          268.236    7.226      1.9969     1.5484     1.3264     1.3359     1.3649     2.056      4.108      4.14       5.106      4.774      3.996      0.156      0.1191842  0.1742515  0.05538465 0.1279163  0.1845871  0.4515834  14.27036   2.379      1.3649     0          0          51.37538   0.304895   0.2191391  0.3906509 
1232.8     0.213      8          3          269.401    7.404      1.8179     1.6098     1.3671     1.3331     1.3656     1.938      3.528      4.024      4.714      4.688      3.98       0.153      0.1125345  0.1748503  0.04244038 0.1203127  0.1844015  0.3400708  11.73973   2.378      1.3656     0          0          53.18022   0.3350292  0.2373215  0.4327368 
1232.9     0.213      8          3          271.078    7.558      1.8403     1.6749     1.4096     1.3948     1.4043     1.838      2.948      3.894      4.344      4.584      3.978      0.149      0.1057652  0.176048   0.02811655 0.1131312  0.1843431  0.2547925  9.915432   2.376      1.4043     0          0          54.95807   0.3663135  0.2542652  0.4783618 
1233       0.214      -9999      -9999      272.74     7.646      1.846      1.7524     1.485      1.4537     1.447      1.776      2.708      3.976      4.44       4.504      3.962      0.148      0.07102251 0.08857799 0.01771705 0.1067725  0.1557103  0.05789849 9.003254   2.376      1.447      0          0          56.6259    0.3947968  0.264485   0.5251086 
1233.1     0.215      -9999      -9999      274.128    7.762      1.8257     1.8364     1.5656     1.4871     1.5        1.728      2.642      4.142      4.658      4.448      3.924      0.147      0.06343667 0.08112542 0.008292441 0.1008921  0.1536007  0.0418947  7.927781   2.379      1.5        0          0          57.85375   0.4203259  0.2785868  0.562065  
1233.2     0.216      -9999      -9999      275.198    8.02       1.7838     1.7556     1.5872     1.5172     1.5497     1.77       2.976      4.458      4.952      4.494      3.904      0.137      0.05546206 0.0722269  0          0.09415927 0.1478421  0.02981604 5.974102   2.384      1.5497     0          0          58.46359   0.4469757  0.312706   0.5812455 
1233.3     0.216      -9999      -9999      275.894    8.228      1.7104     1.6788     1.6093     1.531      1.5773     1.804      3.26       4.818      5.204      4.554      3.922      0.124      0.04951757 0.06195255 0          0.08660016 0.1404335  0.02313895 4.755628   2.391      1.5773     0          0          59.21442   0.4744303  0.3432319  0.6056288 
1233.4     0.216      -9999      -9999      276.189    8.268      1.6724     1.6898     1.6404     1.5519     1.6065     1.776      2.924      5.262      5.21       4.57       3.928      0.119      0.04531426 0.05479366 0          0.08114912 0.1365282  0.01934141 4.551524   2.396      1.6065     0          0          60.14427   0.4932289  0.3494352  0.6370225 
1233.5     0.216      -9999      -9999      276.141    8.288      1.6833     1.6998     1.6714     1.6024     1.6461     1.756      2.532      5.67       5.172      4.568      3.918      0.117      0.04206567 0.04973555 0          0.07646144 0.1341515  0.016839   4.452781   2.399      1.6461     0          0          60.89411   0.5079505  0.3525789  0.6633222 
1233.6     0.216      -9999      -9999      276.045    8.228      1.6922     1.7099     1.7023     1.6563     1.6882     1.738      2.514      5.858      5.188      4.56       3.912      0.121      0.04115438 0.0483123  0          0.07515085 0.1349624  0.01619709 4.755628   2.4        1.6882     0          0          61.35995   0.5116712  0.3432319  0.6801106 
1233.7     0.216      -9999      -9999      276.152    8.148      1.7003     1.7201     1.734      1.7181     1.7403     1.726      2.526      5.932      5.14       4.532      3.918      0.123      0.04082369 0.04818597 0          0.07428512 0.1356405  0.01597026 5.191702   2.399      1.7403     0          0          61.8658    0.5149446  0.3311535  0.6987358 
1233.8     0.216      -9999      -9999      276.492    7.988      1.7114     1.7877     1.7838     1.7823     1.7914     1.706      2.292      5.726      4.718      4.388      3.902      0.131      0.04209395 0.05130719 0          0.07497466 0.1395173  0.01685932 6.187479   2.394      1.7914     0          0          62.44263   0.5143701  0.3082568  0.7204833 
1233.9     0.216      -9999      -9999      277.046    7.858      1.7268     1.8604     1.8347     1.841      1.8257     1.69       2.036      5.478      4.286      4.278      3.862      0.141      0.04403036 0.05617693 0          0.07591414 0.1447497  0.01831079 7.13558    2.386      1.8257     0          0          62.87648   0.5140125  0.2908241  0.7372008 
1234       0.215      -9999      -9999      277.96     7.85       1.755      1.9121     1.8725     1.8919     1.8517     1.688      1.922      5.32       4.186      4.382      3.822      0.146      0.0460577  0.0619925  0          0.07618061 0.1488075  0.0199645  7.198458   2.375      1.8517     0          0          63.08131   0.5174933  0.2897842  0.7452025 
1234.1     0.215      -9999      -9999      279.809    7.852      1.8024     1.9648     1.9126     1.9037     1.846      1.68       1.838      5.17       4.194      4.474      3.788      0.156      0.0494138  0.06924565 0          0.07899576 0.1554651  0.02303677 7.182684   2.363      1.846      0          0          63.05916   0.5171888  0.2900439  0.7443337 
1234.2     0.215      -9999      -9999      283.036    7.864      1.8415     1.9748     1.8971     1.899      1.8324     1.682      1.778      5.018      4.324      4.278      3.784      0.167      0.05443485 0.077412   0          0.08589254 0.1634077  0.028538   7.088784   2.352      1.8324     0          0          62.652     0.5100594  0.2916066  0.7285121 
1234.3     0.215      -9999      -9999      287.749    7.914      1.8678     1.9849     1.8818     1.8252     1.7893     1.694      1.786      4.858      4.494      4.09       3.798      0.178      0.06421402 0.08386899 0.01305462 0.09571846 0.1714334  0.04330694 6.710547   2.345      1.7893     0          0          61.93884   0.4998345  0.2982094  0.7014596 
