~Version
 VERS              .         2.0                           : CWLS LOG ASCII STANDARD - VERSION 2.0
 WRAP              .         NO                            : ONE LINE PER DEPTH STEP
 DLM               .         SPACE                         : DELIMITING CHARACTER(SPACE TAB OR COMMA)
~Well Information
#_______________________________________________________________________________
#
#PARAMETER_NAME    .UNIT     VALUE                         : DESCRIPTION
#_______________________________________________________________________________
STRT               .M        912                           : First reference value
STOP               .M        1283.4                        : Last reference value
STEP               .M        0.1                           : Step increment
NULL               .         -9999                         : Missing value
COMP               .                                       : Company
WELL               .         6838                          : Well name
FLD                .         УЗЕНЬ                         : Field
LOC                .                                       : Location
CNTY               .                                       : County
STAT               .                                       : State
CTRY               .                                       : Country
SRVC               .         SCH                           : Service Company
DATE               .         21.04.2010г                   : Date
UWI                .                                       : Unique Well ID
Block              .         6а                            : 
Category           .         Нагнетательная                : 
Condition          .         В работе                      : 
EREF               .m        85.9                          : 100.8
GRP                .                                       : Group name
Gorizont           .         15                            : 14
ISS                .                                       : Well surveys
Interpretator      .         Кушнир И.Е.                   : 
Kupol              .         основной                      : osnovnoi
Mud                .         глинистый                     : 
Mud_density        .         1.32                          : 
Mud_resistivity    .         0.4                           : 
NGDU               .         НГДУ-2                        : 
ORIGINALWELLNAME   .         6838                          : 
Spud_date          .         2010                          : 1961
TIME               .                                       : LOG TIME
Viscosity          .         40                            : 
X                  .m        44779.34                      : 46154
Y                  .m        85362.73                      : 85761.93
YEAR               .         2018г                         : 
~Parameter Information Block
#_______________________________________________________________________________
#
#PARAMETER_NAME    .UNIT     VALUE                         : DESCRIPTION
#_______________________________________________________________________________
SET                .         LQC_KAZNIPI_Petrel            : 
PBBOTTOM           .M        1283.4                        : Глубина подошвы планшета
PBSCALE            .         1 _ 500                       : Вертикальный масштаб планшета
PBTOP              .M        912                           : Глубина кровли планшета
TLFamily_CALI      .         Caliper                       : 
TLFamily_COLL      .         Net Reservoir Flag            : 
TLFamily_CSAT      .         Fluid Code                    : 
TLFamily_DEPT      .         Measured Depth                : 
TLFamily_DT        .         Compressional Slowness        : 
TLFamily_GR        .         Russian Gamma Ray             : 
TLFamily_IK1       .         Resistivity 05                : 
TLFamily_IK2       .         Resistivity 07                : 
TLFamily_IK3       .         Resistivity 10                : 
TLFamily_IK4       .         Resistivity 14                : 
TLFamily_IK5       .         Resistivity 20                : 
TLFamily_LLS       .         Lateral Log Resistivity       : 
TLFamily_MBK       .         Micro Lateral Log Resistivity : 
TLFamily_MINV      .         Micro Gradient Resistivity    : 
TLFamily_MNOR      .         Micro Resistivity             : 
TLFamily_NNKTB     .         Neutron Far                   : 
TLFamily_NNKTM     .         Neutron Near                  : 
TLFamily_NPHI      .         Neutron Porosity              : 
TLFamily_PHIE      .         Effective Porosity            : 
TLFamily_PHIED     .         Effective Porosity            : 
TLFamily_PHIEN     .         Effective Porosity            : 
TLFamily_PHIES     .         Effective Porosity            : 
TLFamily_PHIT      .         Porosity                      : 
TLFamily_PRMB      .         Permeability                  : 
TLFamily_PRMB_DGR  .         Permeability                  : 
TLFamily_RHOB      .         Bulk Density                  : 
TLFamily_RT        .         Formation Resistivity         : 
TLFamily_SOIL_ARCHIE .         Oil Saturation                : 
TLFamily_SOIL_DW   .         Oil Saturation                : 
TLFamily_SP        .         Spontaneous Potential         : 
TLFamily_VSH_FIN   .         Shale Volume                  : 
TLFamily_VSH_GR    .         Shale Volume                  : 
TLFamily_VSH_SP    .         Shale Volume                  : 
~Curve Information
#_______________________________________________________________________________
#
#LOGNAME           .UNIT     LOG_ID                        : DESCRIPTION
#_______________________________________________________________________________
DEPT               .M                                      : Колонка глубины 
CALI               .м                                      : Каверномер 
COLL               .unitless                               : Описание 
CSAT               .unitless                               : Описание 
DT                 .мкс/м                                  : Интервальное время пробега продольной волны 
GR                 .uR/h                                   : Гамма каротаж 
IK1                .Ohmm                                   : И0.10И0.40 
IK2                .Ohmm                                   : И0.14И0.56 
IK3                .Ohmm                                   : И0.20И0.80 
IK4                .Ohmm                                   : И0.28И1.12 
IK5                .Ohmm                                   : И0.40И1.60 
LLS                .Ohmm                                   : Боковой каротаж 
MBK                .Ohmm                                   : Микробоковой каротаж 
MINV               .Ohmm                                   : Микро-градиент зонд 
MNOR               .Ohmm                                   : Микро-потенциал зонд 
NNKTB              .у.е.                                   :  
NNKTM              .у.е.                                   :  
NPHI               .v/v                                    : Total porosity 
PHIE               .v/v                                    : Описание 
PHIED              .v/v                                    :  
PHIEN              .v/v                                    :  
PHIES              .v/v                                    :  
PHIT               .v/v                                    : Описание 
PRMB               .mD                                     :  
PRMB_DGR           .mD                                     :  
RHOB               .G/C3                                   : Плотность по ГГК-П 
RT                 .ohmm                                   : Description 
SOIL_ARCHIE        .v/v                                    :  
SOIL_DW            .v/v                                    :  
SP                 .мВ                                     : Потенциал самополяризации 
VSH_FIN            .v/v                                    : Описание 
VSH_GR             .v/v                                    : Shale volume 
VSH_SP             .v/v                                    : Shale Volume 
~Ascii
# ...
1256.8     0.218      -9999      -9999      302.167    9.868      1.4581     1.6573     1.5827     1.5795     1.6149     1.532      1.552      3.04       3.192      3.764      3.65       0.041      0.03196972 0.03329671 0          0.06261245 0.1152327  0.0109475  0.787259   2.368      1.6149     0          0          59.54059   0.665931   0.7153733  0.6164887 
1256.9     0.222      -9999      -9999      294.188    9.858      1.4557     1.6467     1.5991     1.5688     1.6196     1.542      1.554      3.296      3.122      3.99       3.698      0.034      0.02631246 0.02385469 0          0.05508268 0.1063292  0.008600596 0.7959403  2.387      1.6196     0          0          59.11089   0.6571962  0.7121769  0.6022155 
1257       0.225      -9999      -9999      288.581    10.048     1.4776     1.6438     1.6056     1.5598     1.6224     1.552      1.524      3.364      3.136      4.222      3.738      0.022      0.01957886 0.01475934 0          0.04397723 0.09677894 0.006453658 0.6462317  2.398      1.6224     0          0          57.83919   0.6685187  0.7754235  0.5616139 
1257.1     0.222      -9999      -9999      285.601    10.18      1.5357     1.6788     1.613      1.5625     1.6177     1.564      1.504      3.388      3.168      4.378      3.778      0.022      0.01766449 0.01233967 0          0.0406538  0.09459362 0.005947675 0.5591393  2.403      1.6177     0          0          56.85548   0.665926   0.8        0.5318521 
1257.2     0.217      -9999      -9999      285.301    10.078     1.5532     1.6266     1.628      1.5697     1.6158     1.584      1.528      3.43       3.208      4.476      3.816      0.022      0.01954383 0.01379604 0          0.04483546 0.09493867 0.006444025 0.6253168  2.406      1.6158     0          0          56.33178   0.6512452  0.7859108  0.5165796 
1257.3     0.216      -9999      -9999      286.688    9.986      1.5041     1.5768     1.613      1.5978     1.6224     1.606      1.594      3.512      3.288      4.398      3.844      0.021      0.02345172 0.01749615 0          0.052859   0.09648535 0.007612735 0.6916993  2.407      1.6224     0          0          56.08407   0.6318415  0.7541908  0.5094923 
1257.4     0.216      -9999      -9999      289.033    9.966      1.4891     1.5932     1.6224     1.6467     1.629      1.634      1.772      3.73       3.538      4.256      3.864      0.024      0.0248607  0.01825675 0          0.05632536 0.09881806 0.008084229 0.7070386  2.406      1.629      0          0          56.26837   0.6311117  0.7474662  0.5147572 
1257.5     0.217      -9999      -9999      291.923    9.964      1.5211     1.6098     1.6328     1.6818     1.6337     1.652      1.92       3.896      3.72       4.048      3.886      0.034      0.0252336  0.01709751 0          0.0586033  0.1030711  0.008213827 0.7085909  2.406      1.6337     0          0          56.65266   0.636344   0.7467971  0.5258908 
1257.6     0.217      -9999      -9999      295.088    10.034     1.562      1.6457     1.6616     1.711      1.6385     1.66       1.804      3.704      3.444      4.098      3.91       0.017      0.02256399 0.01169009 0          0.05600188 0.09700305 0.007329897 0.6562298  2.407      1.6385     0          0          57.31296   0.6580473  0.7705774  0.5455171 
1257.7     0.218      -9999      -9999      297.837    10.072     1.6186     1.6828     1.6922     1.7079     1.6442     1.658      1.652      3.458      3.134      4.192      3.922      0.01       0.02037131 0.0064322  0          0.05468173 0.09410983 0.006675505 0.6294451  2.41       1.6442     0          0          57.90126   0.6736706  0.7838019  0.5635395 
1257.8     0.218      -9999      -9999      299.58     9.98       1.649      1.7069     1.6922     1.7039     1.6793     1.646      1.618      3.356      3.122      4.278      3.978      0.023      0.02246546 0.007757344 0          0.05963903 0.09962979 0.007299158 0.6962659  2.411      1.6793     0          0          58.35556   0.6649871  0.7521669  0.5778072 
1257.9     0.217      -9999      -9999      300.513    9.9        1.6366     1.7305     1.6922     1.6968     1.6843     1.634      1.61       3.332      3.186      4.264      4.01       0.045      0.02501635 0.01113686 0          0.06391221 0.1084848  0.008138074 0.7601112  2.409      1.6843     0          0          58.56785   0.6551393  0.7256981  0.5845804 
1258       0.216      -9999      -9999      301.013    9.9        1.6309     1.7253     1.6882     1.6878     1.6882     1.652      1.61       3.502      3.266      4.216      4.008      0.055      0.0267595  0.0147946  0          0.06548391 0.1132482  0.00876615 0.7601112  2.404      1.6882     0          0          58.38015   0.6521432  0.7256981  0.5785882 
1258.1     0.216      -9999      -9999      301.178    9.88       1.6337     1.7201     1.6833     1.6779     1.6853     1.66       1.61       3.67       3.33       4.094      3.996      0.055      0.0302306  0.02182705 0          0.06886476 0.1156617  0.01016488 0.7769666  2.396      1.6853     0          0          57.94245   0.6420241  0.7192279  0.5648203 
1258.2     0.216      -9999      -9999      300.764    9.78       1.6442     1.7049     1.6773     1.669      1.6833     1.66       1.61       3.66       3.328      3.988      3.972      0.061      0.03656527 0.03271918 0          0.07697664 0.1211182  0.0133179  0.8670219  2.388      1.6833     0          0          57.17074   0.6144837  0.6877309  0.5412365 
1258.3     0.216      -9999      -9999      299.86     9.708      1.6655     1.6898     1.6724     1.667      1.6833     1.658      1.64       3.654      3.354      3.984      3.934      0.068      0.04091798 0.04070601 0          0.08204792 0.1257315  0.0160346  0.9382564  2.382      1.6833     0          0          56.56704   0.5946513  0.665911   0.5233917 
1258.4     0.215      -9999      -9999      298.836    9.748      1.6607     1.6739     1.6665     1.6631     1.6803     1.65       1.796      3.832      3.534      4.012      3.908      0.064      0.04128182 0.04345353 0          0.08039193 0.1248783  0.01628537 0.8979881  2.377      1.6803     0          0          56.22734   0.5957636  0.6779463  0.5135808 
1258.5     0.215      -9999      -9999      298.049    9.774      1.6168     1.6592     1.6616     1.6563     1.6675     1.648      1.93       4.006      3.712      4.074      3.906      0.052      0.04216404 0.04707313 0          0.07941899 0.1217479  0.01690979 0.8727454  2.371      1.6675     0          0          55.93963   0.5956427  0.6858857  0.5053998 
1258.6     0.215      -9999      -9999      297.627    9.744      1.6626     1.7694     1.6953     1.6476     1.6539     1.64       1.87       4.028      3.712      4.152      3.938      0.046      0.04478603 0.05301148 0          0.08134662 0.1215459  0.01891054 0.9019359  2.364      1.6539     0          0          55.70393   0.5877588  0.6767331  0.4987845 
1258.7     0.215      -9999      -9999      297.477    9.688      1.8655     1.8907     1.7289     1.6323     1.6366     1.64       1.778      4          3.656      4.264      3.978      0.037      0.04881212 0.0608998  0          0.08553656 0.1211108  0.02245313 0.9590634  2.356      1.6366     0          0          55.29822   0.5737767  0.6599735  0.48758   
1258.8     0.215      -9999      -9999      297.486    9.53       1.9031     1.7419     1.6587     1.6098     1.6149     1.64       1.724      3.896      3.532      4.392      4.018      0.045      0.05596747 0.07259004 0          0.09531236 0.127678   0.03046571 1.140509   2.348      1.6149     0          0          54.65852   0.542634   0.614892   0.470376  
1258.9     0.215      -9999      -9999      297.532    9.38       1.6793     1.6098     1.5927     1.5554     1.5746     1.644      1.778      3.838      3.51       4.552      4.054      0.063      0.06146085 0.08009092 0          0.1042916  0.1361982  0.03850899 1.344434   2.346      1.5746     0          0          54.00682   0.5141844  0.5749461  0.4534226 
1259       0.215      -9999      -9999      297.415    9.228      1.6205     1.6295     1.5746     1.5138     1.5401     1.666      2.19       4.044      3.99       4.676      4.076      0.085      0.06541188 0.08365798 0          0.1125777  0.1446701  0.0455769  1.588304   2.35       1.5401     0          0          53.37111   0.4872737  0.5371138  0.4374336 
