~Version
 VERS              .         2.0                           : CWLS LOG ASCII STANDARD - VERSION 2.0
 WRAP              .         NO                            : ONE LINE PER DEPTH STEP
 DLM               .         SPACE                         : DELIMITING CHARACTER(SPACE TAB OR COMMA)
~Well Information
#_______________________________________________________________________________
#
#PARAMETER_NAME    .UNIT     VALUE                         : DESCRIPTION
#_______________________________________________________________________________
STRT               .M        912                           : First reference value
STOP               .M        1283.4                        : Last reference value
STEP               .M        0.1                           : Step increment
NULL               .         -9999                         : Missing value
COMP               .                                       : Company
WELL               .         6838                          : Well name
FLD                .         УЗЕНЬ                         : Field
LOC                .                                       : Location
CNTY               .                                       : County
STAT               .                                       : State
CTRY               .                                       : Country
SRVC               .         SCH                           : Service Company
DATE               .         21.04.2010г                   : Date
UWI                .                                       : Unique Well ID
Block              .         6а                            : 
Category           .         Нагнетательная                : 
Condition          .         В работе                      : 
EREF               .m        85.9                          : 100.8
GRP                .                                       : Group name
Gorizont           .         15                            : 14
ISS                .                                       : Well surveys
Interpretator      .         Кушнир И.Е.                   : 
Kupol              .         основной                      : osnovnoi
Mud                .         глинистый                     : 
Mud_density        .         1.32                          : 
Mud_resistivity    .         0.4                           : 
NGDU               .         НГДУ-2                        : 
ORIGINALWELLNAME   .         6838                          : 
Spud_date          .         2010                          : 1961
TIME               .                                       : LOG TIME
Viscosity          .         40                            : 
X                  .m        44779.34                      : 46154
Y                  .m        85362.73                      : 85761.93
YEAR               .         2018г                         : 
~Parameter Information Block
#_______________________________________________________________________________
#
#PARAMETER_NAME    .UNIT     VALUE                         : DESCRIPTION
#_______________________________________________________________________________
SET                .         LQC_KAZNIPI_Petrel            : 
PBBOTTOM           .M        1283.4                        : Глубина подошвы планшета
PBSCALE            .         1 _ 500                       : Вертикальный масштаб планшета
PBTOP              .M        912                           : Глубина кровли планшета
TLFamily_CALI      .         Caliper                       : 
TLFamily_COLL      .         Net Reservoir Flag            : 
TLFamily_CSAT      .         Fluid Code                    : 
TLFamily_DEPT      .         Measured Depth                : 
TLFamily_DT        .         Compressional Slowness        : 
TLFamily_GR        .         Russian Gamma Ray             : 
TLFamily_IK1       .         Resistivity 05                : 
TLFamily_IK2       .         Resistivity 07                : 
TLFamily_IK3       .         Resistivity 10                : 
TLFamily_IK4       .         Resistivity 14                : 
TLFamily_IK5       .         Resistivity 20                : 
TLFamily_LLS       .         Lateral Log Resistivity       : 
TLFamily_MBK       .         Micro Lateral Log Resistivity : 
TLFamily_MINV      .         Micro Gradient Resistivity    : 
TLFamily_MNOR      .         Micro Resistivity             : 
TLFamily_NNKTB     .         Neutron Far                   : 
TLFamily_NNKTM     .         Neutron Near                  : 
TLFamily_NPHI      .         Neutron Porosity              : 
TLFamily_PHIE      .         Effective Porosity            : 
TLFamily_PHIED     .         Effective Porosity            : 
TLFamily_PHIEN     .         Effective Porosity            : 
TLFamily_PHIES     .         Effective Porosity            : 
TLFamily_PHIT      .         Porosity                      : 
TLFamily_PRMB      .         Permeability                  : 
TLFamily_PRMB_DGR  .         Permeability                  : 
TLFamily_RHOB      .         Bulk Density                  : 
TLFamily_RT        .         Formation Resistivity         : 
TLFamily_SOIL_ARCHIE .         Oil Saturation                : 
TLFamily_SOIL_DW   .         Oil Saturation                : 
TLFamily_SP        .         Spontaneous Potential         : 
TLFamily_VSH_FIN   .         Shale Volume                  : 
TLFamily_VSH_GR    .         Shale Volume                  : 
TLFamily_VSH_SP    .         Shale Volume                  : 
~Curve Information
#_______________________________________________________________________________
#
#LOGNAME           .UNIT     LOG_ID                        : DESCRIPTION
#_______________________________________________________________________________
DEPT               .M                                      : Колонка глубины 
CALI               .м                                      : Каверномер 
COLL               .unitless                               : Описание 
CSAT               .unitless                               : Описание 
DT                 .мкс/м                                  : Интервальное время пробега продольной волны 
GR                 .uR/h                                   : Гамма каротаж 
IK1                .Ohmm                                   : И0.10И0.40 
IK2                .Ohmm                                   : И0.14И0.56 
IK3                .Ohmm                                   : И0.20И0.80 
IK4                .Ohmm                                   : И0.28И1.12 
IK5                .Ohmm                                   : И0.40И1.60 
LLS                .Ohmm                                   : Боковой каротаж 
MBK                .Ohmm                                   : Микробоковой каротаж 
MINV               .Ohmm                                   : Микро-градиент зонд 
MNOR               .Ohmm                                   : Микро-потенциал зонд 
NNKTB              .у.е.                                   :  
NNKTM              .у.е.                                   :  
NPHI               .v/v                                    : Total porosity 
PHIE               .v/v                                    : Описание 
PHIED              .v/v                                    :  
PHIEN              .v/v                                    :  
PHIES              .v/v                                    :  
PHIT               .v/v                                    : Описание 
PRMB               .mD                                     :  
PRMB_DGR           .mD                                     :  
RHOB               .G/C3                                   : Плотность по ГГК-П 
RT                 .ohmm                                   : Description 
SOIL_ARCHIE        .v/v                                    :  
SOIL_DW            .v/v                                    :  
SP                 .мВ                                     : Потенциал самополяризации 
VSH_FIN            .v/v                                    : Описание 
VSH_GR             .v/v                                    : Shale volume 
VSH_SP             .v/v                                    : Shale Volume 
~Ascii
# ...
1182.7     0.216      -9999      -9999      318.521    8.814      1.5008     1.6248     1.613      1.6333     1.7936     1.816      1.618      3.016      2.736      3.988      3.772      0.153      0.07666461 0.1102394  0          0.1197544  0.1846931  0.07364998 2.500984   2.284      1.7936     0          0          60.37812   0.5456764  0.4462232  0.6451295 
1182.8     0.215      -9999      -9999      317.453    8.634      1.4694     1.5741     1.5845     1.6051     1.7539     1.796      1.608      3.078      2.816      3.986      3.736      0.172      0.07762634 0.112987   0          0.1198921  0.1915396  0.07673371 3.046776   2.281      1.7539     0          0          61.11113   0.5413834  0.4116669  0.6710999 
1182.9     0.215      -9999      -9999      316.001    8.494      1.425      1.5267     1.5567     1.5786     1.7114     1.774      1.58       3.052      2.886      4.028      3.726      0.176      0.07589062 0.1108148  0          0.1168571  0.1915969  0.07125845 3.552374   2.283      1.7114     0          0          62.03112   0.5457821  0.3866509  0.7049133 
1183       0.215      -9999      -9999      313.845    8.512      1.402      1.5336     1.5523     1.5572     1.6685     1.744      1.476      2.948      2.918      4.118      3.756      0.166      0.07114529 0.1041956  0          0.1092402  0.1852282  0.05820247 3.482939   2.288      1.6685     0          0          62.80713   0.5621438  0.38978    0.7345075 
1183.1     0.215      -9999      -9999      310.675    8.568      1.4104     1.5405     1.5479     1.5501     1.6214     1.718      1.384      2.772      2.924      4.194      3.786      0.156      0.065971   0.09650141 0          0.1014116  0.1780903  0.0466768  3.275477   2.296      1.6214     0          0          63.22412   0.5752504  0.3996781  0.7508226 
1183.2     0.215      -9999      -9999      306.305    8.808      1.4181     1.5405     1.5366     1.5414     1.5809     1.708      1.412      2.588      2.798      4.208      3.814      0.131      0.05690981 0.08391243 0          0.08681699 0.1638095  0.03171507 2.517497   2.306      1.5809     0          0          63.58213   0.6050439  0.4450258  0.7650619 
1183.3     0.217      -9999      -9999      301.084    9.018      1.4258     1.5405     1.5254     1.5215     1.5576     1.698      1.456      2.678      2.758      4.208      3.83       0.107      0.04808782 0.07212697 0          0.07213648 0.1497222  0.02177013 1.999637   2.316      1.5576     0          0          63.79213   0.6312107  0.4889064  0.7735151 
1183.4     0.218      -9999      -9999      295.544    9.108      1.3848     1.478      1.4825     1.5046     1.5383     1.688      1.432      2.94       2.994      4.248      3.828      0.091      0.04155253 0.0638003  0          0.06085728 0.1392392  0.01647448 1.8117     2.325      1.5383     0          0          63.95013   0.6444688  0.509013   0.7799245 
1183.5     0.217      -9999      -9999      290.308    9.186      1.2802     1.4192     1.4406     1.4987     1.5314     1.68       1.392      3.066      3.144      4.252      3.816      0.083      0.03633431 0.05775305 0          0.05124989 0.1322296  0.01318735 1.663171   2.332      1.5314     0          0          63.91713   0.6528443  0.5271063  0.7785823 
1183.6     0.217      -9999      -9999      286.031    9.216      1.2684     1.4529     1.4974     1.5079     1.534      1.678      1.354      3.042      3.016      4.102      3.794      0.08       0.03309091 0.05440971 0          0.04486303 0.128151   0.0114837  1.609344   2.337      1.534      0          0          63.81913   0.6544213  0.5342352  0.7746074 
1183.7     0.218      -9999      -9999      283.246    9.274      1.3945     1.4879     1.5576     1.5841     1.5719     1.67       1.34       2.754      2.824      3.952      3.758      0.085      0.03128114 0.05378996 0          0.04005345 0.1283002  0.01063067 1.510166   2.337      1.5719     0          0          63.60913   0.6572186  0.5482926  0.7661446 
1183.8     0.219      -9999      -9999      282.682    9.442      1.4598     1.5581     1.613      1.6438     1.6019     1.67       1.396      2.326      2.35       3.97       3.698      0.083      0.02871011 0.05233338 0          0.03379694 0.1268795  0.009526621 1.25606    2.333      1.6019     0          0          63.40713   0.6746035  0.5911325  0.7580745 
1183.9     0.219      -9999      -9999      284.446    9.554      1.4111     1.6342     1.6714     1.6144     1.5927     1.67       1.458      2.152      2.026      3.976      3.646      0.077      0.02946743 0.05574356 0          0.03265872 0.1268528  0.009839348 1.110882   2.323      1.5927     0          0          63.22713   0.6862386  0.6215361  0.7509412 
1184       0.218      -9999      -9999      288.131    9.472      1.3112     1.4545     1.5211     1.5741     1.5719     1.668      1.444      2.214      2.202      3.794      3.626      0.09       0.03673432 0.06720176 0          0.04300121 0.13672    0.01341426 1.215409   2.31       1.5719     0          0          62.95313   0.6696571  0.5991274  0.7401868 
1184.1     0.218      -9999      -9999      292.476    9.334      1.154      1.3026     1.39       1.4904     1.5092     1.648      1.406      2.532      2.49       3.602      3.608      0.101      0.04618455 0.08105953 0          0.05749412 0.1469721  0.0200728  1.413997   2.297      1.5092     0          0          62.46313   0.642245   0.5632238  0.7212661 
1184.2     0.218      -9999      -9999      296.462    9.004      1.1278     1.4085     1.4312     1.4379     1.4622     1.586      1.334      3.004      3.284      3.57       3.602      0.129      0.05871877 0.09831116 0          0.07784515 0.163809   0.03425879 2.030575   2.286      1.4622     0          0          61.96313   0.5941091  0.485851   0.7023672 
1184.3     0.218      -9999      -9999      299.688    8.732      1.2849     1.5275     1.4743     1.4945     1.4622     1.54       1.27       3.286      3.948      3.584      3.624      0.15       0.06786919 0.109712   0          0.09389555 0.1759939  0.05061276 2.73631    2.281      1.4622     0          0          61.41713   0.556165   0.4301352  0.6821949 
1184.4     0.218      -9999      -9999      301.979    8.692      1.4502     1.7018     1.5945     1.5396     1.4638     1.59       1.272      3.398      4.186      3.656      3.696      0.151      0.07133847 0.1124714  0          0.101544   0.1782124  0.058684   2.859014   2.282      1.4638     0          0          60.78712   0.5410073  0.4224992  0.6595154 
1184.5     0.219      -9999      -9999      303.297    8.698      1.601      1.9085     1.7289     1.531      1.4694     1.658      1.388      3.424      4.42       3.756      3.778      0.163      0.0735192  0.1127443  0          0.1078133  0.1828521  0.06440388 2.840266   2.287      1.4694     0          0          59.90713   0.5262622  0.4236358  0.6288887 
1184.6     0.219      -9999      -9999      304.145    8.89       1.7592     1.8163     1.6519     1.5215     1.4825     1.8        1.954      3.422      4.668      3.94       3.864      0.163      0.0724881  0.1092737  0          0.1081906  0.1820458  0.06163303 2.300986   2.292      1.4825     0          0          58.89513   0.5284131  0.461671   0.5951551 
1184.7     0.219      -9999      -9999      305.824    8.924      1.9115     1.7315     1.58       1.5138     1.5211     1.968      2.524      3.562      4.904      4.128      3.926      0.157      0.07593425 0.1116468  0          0.116156   0.1815252  0.0713912  2.216771   2.295      1.5211     0          0          57.47512   0.509594   0.4687538  0.5504342 
1184.8     0.218      -9999      -9999      309.556    8.296      2.1454     1.8342     1.6471     1.5301     1.58       2.21       2.668      3.796      5.124      4.264      3.952      0.195      0.111113   0.1310937  0.05490728 0.1473379  0.2021774  0.320066   4.413889   2.294      1.58       0          0.0823206  55.57513   0.4245234  0.3538442  0.4952025 
1184.9     0.216      -9999      -9999      315.222    7.768      2.5391     1.9462     1.7186     1.6544     1.7268     2.472      2.81       3.908      5.332      4.4        3.952      0.226      0.1718662  0.2257485  0.1115278  0.1783223  0.2462766  4.271075   7.875785   2.293      1.7268     0.2089316  0.3457966  52.41713   0.3468855  0.2793364  0.4144347 
