~Version
 VERS              .         2.0                           : CWLS LOG ASCII STANDARD - VERSION 2.0
 WRAP              .         NO                            : ONE LINE PER DEPTH STEP
 DLM               .         SPACE                         : DELIMITING CHARACTER(SPACE TAB OR COMMA)
~Well Information
#_______________________________________________________________________________
#
#PARAMETER_NAME    .UNIT     VALUE                         : DESCRIPTION
#_______________________________________________________________________________
STRT               .M        912                           : First reference value
STOP               .M        1283.4                        : Last reference value
STEP               .M        0.1                           : Step increment
NULL               .         -9999                         : Missing value
COMP               .                                       : Company
WELL               .         6838                          : Well name
FLD                .         УЗЕНЬ                         : Field
LOC                .                                       : Location
CNTY               .                                       : County
STAT               .                                       : State
CTRY               .                                       : Country
SRVC               .         SCH                           : Service Company
DATE               .         21.04.2010г                   : Date
UWI                .                                       : Unique Well ID
Block              .         6а                            : 
Category           .         Нагнетательная                : 
Condition          .         В работе                      : 
EREF               .m        85.9                          : 100.8
GRP                .                                       : Group name
Gorizont           .         15                            : 14
ISS                .                                       : Well surveys
Interpretator      .         Кушнир И.Е.                   : 
Kupol              .         основной                      : osnovnoi
Mud                .         глинистый                     : 
Mud_density        .         1.32                          : 
Mud_resistivity    .         0.4                           : 
NGDU               .         НГДУ-2                        : 
ORIGINALWELLNAME   .         6838                          : 
Spud_date          .         2010                          : 1961
TIME               .                                       : LOG TIME
Viscosity          .         40                            : 
X                  .m        44779.34                      : 46154
Y                  .m        85362.73                      : 85761.93
YEAR               .         2018г                         : 
~Parameter Information Block
#_______________________________________________________________________________
#
#PARAMETER_NAME    .UNIT     VALUE                         : DESCRIPTION
#_______________________________________________________________________________
SET                .         LQC_KAZNIPI_Petrel            : 
PBBOTTOM           .M        1283.4                        : Глубина подошвы планшета
PBSCALE            .         1 _ 500                       : Вертикальный масштаб планшета
PBTOP              .M        912                           : Глубина кровли планшета
TLFamily_CALI      .         Caliper                       : 
TLFamily_COLL      .         Net Reservoir Flag            : 
TLFamily_CSAT      .         Fluid Code                    : 
TLFamily_DEPT      .         Measured Depth                : 
TLFamily_DT        .         Compressional Slowness        : 
TLFamily_GR        .         Russian Gamma Ray             : 
TLFamily_IK1       .         Resistivity 05                : 
TLFamily_IK2       .         Resistivity 07                : 
TLFamily_IK3       .         Resistivity 10                : 
TLFamily_IK4       .         Resistivity 14                : 
TLFamily_IK5       .         Resistivity 20                : 
TLFamily_LLS       .         Lateral Log Resistivity       : 
TLFamily_MBK       .         Micro Lateral Log Resistivity : 
TLFamily_MINV      .         Micro Gradient Resistivity    : 
TLFamily_MNOR      .         Micro Resistivity             : 
TLFamily_NNKTB     .         Neutron Far                   : 
TLFamily_NNKTM     .         Neutron Near                  : 
TLFamily_NPHI      .         Neutron Porosity              : 
TLFamily_PHIE      .         Effective Porosity            : 
TLFamily_PHIED     .         Effective Porosity            : 
TLFamily_PHIEN     .         Effective Porosity            : 
TLFamily_PHIES     .         Effective Porosity            : 
TLFamily_PHIT      .         Porosity                      : 
TLFamily_PRMB      .         Permeability                  : 
TLFamily_PRMB_DGR  .         Permeability                  : 
TLFamily_RHOB      .         Bulk Density                  : 
TLFamily_RT        .         Formation Resistivity         : 
TLFamily_SOIL_ARCHIE .         Oil Saturation                : 
TLFamily_SOIL_DW   .         Oil Saturation                : 
TLFamily_SP        .         Spontaneous Potential         : 
TLFamily_VSH_FIN   .         Shale Volume                  : 
TLFamily_VSH_GR    .         Shale Volume                  : 
TLFamily_VSH_SP    .         Shale Volume                  : 
~Curve Information
#_______________________________________________________________________________
#
#LOGNAME           .UNIT     LOG_ID                        : DESCRIPTION
#_______________________________________________________________________________
DEPT               .M                                      : Колонка глубины 
CALI               .м                                      : Каверномер 
COLL               .unitless                               : Описание 
CSAT               .unitless                               : Описание 
DT                 .мкс/м                                  : Интервальное время пробега продольной волны 
GR                 .uR/h                                   : Гамма каротаж 
IK1                .Ohmm                                   : И0.10И0.40 
IK2                .Ohmm                                   : И0.14И0.56 
IK3                .Ohmm                                   : И0.20И0.80 
IK4                .Ohmm                                   : И0.28И1.12 
IK5                .Ohmm                                   : И0.40И1.60 
LLS                .Ohmm                                   : Боковой каротаж 
MBK                .Ohmm                                   : Микробоковой каротаж 
MINV               .Ohmm                                   : Микро-градиент зонд 
MNOR               .Ohmm                                   : Микро-потенциал зонд 
NNKTB              .у.е.                                   :  
NNKTM              .у.е.                                   :  
NPHI               .v/v                                    : Total porosity 
PHIE               .v/v                                    : Описание 
PHIED              .v/v                                    :  
PHIEN              .v/v                                    :  
PHIES              .v/v                                    :  
PHIT               .v/v                                    : Описание 
PRMB               .mD                                     :  
PRMB_DGR           .mD                                     :  
RHOB               .G/C3                                   : Плотность по ГГК-П 
RT                 .ohmm                                   : Description 
SOIL_ARCHIE        .v/v                                    :  
SOIL_DW            .v/v                                    :  
SP                 .мВ                                     : Потенциал самополяризации 
VSH_FIN            .v/v                                    : Описание 
VSH_GR             .v/v                                    : Shale volume 
VSH_SP             .v/v                                    : Shale Volume 
~Ascii
# ...
1158.2     0.214      1          2          319.98     6.352      2.8936     3.1885     3.1893     3.2562     3.5563     2.834      3.776      3.962      4.58       4.292      3.934      0.275      0.2554561  0.2622754  0.2288561  0.2486368  0.2765844  150.9471   30.84705   2.232      3.5563     0.595284   0.6341254  20.81902   0.1398301  0.1599627  0.1196976 
1158.3     0.214      1          2          320.033    6.3        3.0124     3.296199999999999 3.265      3.4638     3.8269     2.906      4.204      3.866      4.498      4.138      3.962      0.277      0.2548279  0.2604791  0.2313621  0.2491768  0.276672   146.9567   32.72088   2.235      3.8269     0.6081353  0.6469882  21.39499   0.1382967  0.1561567  0.1204367 
1158.4     0.214      1          2          320.361    6.402      3.1996     3.4638     3.517500000000001 3.717400000000001 4.1443     2.986      5.004      3.744      4.49       4.136      4.018      0.278      0.2528291  0.257485   0.2309205  0.2481731  0.2761293  134.9478   29.14655   2.24       4.1443     0.6199188  0.6592445  22.24596   0.1426651  0.1637097  0.1216204 
1158.5     0.214      1          2          321.021    6.486      3.5115     3.6475     3.8001     4.1319     4.5633     3.068      5.652      3.616      4.522      4.138      4.048      0.272      0.2518934  0.2562874  0.2234387  0.2474995  0.2739748  129.6688   26.49809   2.242      4.5633     0.6355395  0.673291   23.78593   0.1471554  0.1702034  0.1241073 
1158.6     0.214      1          2          321.861    6.464      3.7377     3.904300000000001 4.1671     4.5972     5.0335     3.16       5.992      3.496      4.686      4.024      4.038      0.268      0.2528945  0.257485   0.2193066  0.248304   0.2733507  135.325    27.16753   2.24       5.0335     0.6531324  0.6890506  25.0849    0.1475557  0.1684782  0.1266332 
1158.7     0.214      1          2          322.411    6.394      3.7803     4.1929     4.5896     5.0627     5.4868     3.294      6.194      3.412      4.862      3.968      4.024      0.263      0.2544001  0.2592815  0.2149469  0.2495187  0.272485   144.2994   29.41219   2.237      5.4868     0.6686056  0.7023947  25.75887   0.1456154  0.1631043  0.1281265 
1158.8     0.214      1          2          322.071    6.164      3.8505     4.4422     5.0133     5.632099999999999 5.9975     3.564      6.154      3.48       5.02       4.224      3.998      0.259      0.2559895  0.2604791  0.2134265  0.2514999  0.271426   154.4203   38.17766   2.235      5.9975     0.6838802  0.7154806  26.36083   0.1381016  0.1466252  0.129578  
1158.9     0.214      1          2          320.244    5.976      3.9685     4.7097     5.498300000000001 6.4694     6.545299999999999 3.828      6.046      3.512      5.088      4.53       3.998      0.255      0.2555471  0.2598802  0.2112584  0.251214   0.2692175  151.5341   47.25035   2.236      6.5453     0.6961263  0.7261746  26.7958    0.1325502  0.1343998  0.1307006 
1159       0.214      1          2          316.944    5.956      4.118      5.262299999999999 6.3403     7.390299999999999 7.112200000000001 4.068      5.846      3.256      4.808      4.776      4.034      0.246      0.2522169  0.2568863  0.2023143  0.2475476  0.2639797  131.4703   48.33433   2.241      7.1122     0.7043851  0.7328564  27.12777   0.132381   0.1331608  0.1316012 
1159.1     0.214      1          2          312.555    5.954      4.3281     5.9179     7.3921     8.012600000000003 7.473799999999999 4.272      5.802      3.014      4.536      4.956      4.042      0.243      0.2475843  0.2526947  0.1993089  0.242474   0.259893   107.8998   48.44407   2.248      7.4738     0.7064841  0.7349653  27.18373   0.1323972  0.1330375  0.1317568 
1159.2     0.214      1          2          307.884    6.022      4.4224     5.9633     7.5106     8.5245     7.746699999999999 4.334      6.074      3.104      4.636      4.922      4.006      0.239      0.2423522  0.2485029  0.1945515  0.2362014  0.2553115  86.31943   44.84859   2.255      7.7467     0.7059631  0.7345949  27.3027    0.1346925  0.1372935  0.1320915 
1159.3     0.214      1          2          303.692    6.09       4.3281     6.0158     7.622600000000001 8.370200000000001 7.5476     4.418      6.44       3.274      4.86       4.848      3.994      0.238      0.2387772  0.2473054  0.1926847  0.230249   0.2528693  74.11241   41.51993   2.257      7.5476     0.6984707  0.7279047  27.60067   0.137319   0.1416857  0.1329523 
1159.4     0.214      1          2          300.446    6.192      4.0956     5.405700000000001 6.904399999999999 7.992299999999999 7.215200000000001 4.558      6.94       3.442      5.272      4.84       4.012      0.238      0.2373379  0.2497006  0.1914175  0.2249752  0.2523111  69.69989   36.98439   2.253      7.2152     0.690404   0.7206302  27.87664   0.141159   0.1485388  0.1337793 
1159.5     0.214      1          2          298.28     6.318      3.7023     4.879      6.2835     6.8865     6.3979     4.644      7.082      3.692      5.75       4.858      4.014      0.237      0.2372937  0.2538922  0.1888229  0.2206952  0.2524533  69.56846   32.05973   2.246      6.3979     0.6723829  0.7033936  28.11561   0.1459914  0.1574637  0.134519  
1159.6     0.214      1          2          296.879    6.506      3.3378     4.0649     4.846599999999999 5.924300000000001 5.675700000000001 4.512      6.566      4.324      6.308      4.952      4.01       0.234      0.237642   0.2586827  0.1834189  0.2166013  0.2524468  70.60964   25.90382   2.238      5.6757     0.6538838  0.6852822  28.19357   0.1532761  0.1717871  0.1347652 
1159.7     0.214      1          2          295.953    6.632      2.989      3.4379     3.8505     4.932600000000001 4.928899999999999 4.338      5.854      4.866      6.67       5.052      4.012      0.227      0.2378103  0.2616766  0.1748911  0.213944   0.2507096  71.11841   22.45459   2.233      4.9289     0.6304225  0.6610553  27.85154   0.1579059  0.1821089  0.1337029 
1159.8     0.214      1          2          295.219    6.542      2.8325     3.4094     3.8068     4.310900000000001 4.4058     4.03       4.794      4.648      6.064      5.112      4.032      0.226      0.2386017  0.2628743  0.175308   0.2143292  0.2504551  73.55982   24.86755   2.231      4.4058     0.611569   0.6418052  27.46251   0.153612   0.174675   0.1325491 
1159.9     0.214      1          2          294.501    6.468      2.9003     3.3812     3.7638     4.3391     4.2721     3.712      3.88       4.268      5.33       5.162      4.09       0.227      0.2384069  0.2622754  0.1775227  0.2145384  0.2502739  72.95116   27.04458   2.232      4.2721     0.6056307  0.6359653  26.93447   0.1499313  0.1687905  0.1310721 
1160       0.214      1          2          293.623    6.456      2.9797     3.4179     3.8607     4.384      4.201699999999999 3.322      3.264      4.014      5.002      5.17       4.13       0.227      0.2374312  0.2610779  0.1779517  0.2137845  0.2494875  69.97765   27.41515   2.234      4.2017     0.6011214  0.6316196  26.29244   0.1486312  0.1678551  0.1294073 
1160.1     0.214      1          2          292.507    6.432      3.077      3.4551     3.9578     4.501600000000001 4.3646     3.004      2.902      3.774      4.788      5.17       4.126      0.225      0.2361031  0.2592815  0.1766113  0.2129247  0.2477266  66.12406   28.17158   2.237      4.3646     0.6062591  0.6362218  25.37741   0.1466324  0.1659999  0.1272649 
1160.2     0.215      1          2          291.273    6.392      3.1893     3.546400000000001 4.0222     4.610499999999999 4.5199     2.976      3.016      3.49       4.686      5.172      4.1        0.223      0.2344252  0.2568863  0.1753442  0.2119641  0.2457092  61.55754   29.47897   2.241      4.5199     0.610253   0.6397536  24.71538   0.1444115  0.1629533  0.1258696 
1160.3     0.215      1          2          290.075    6.396      3.3242     3.6413     4.0882     4.6552     4.6073     3.01       3.152      3.222      4.638      5.208      4.052      0.221      0.2314921  0.2526947  0.173289   0.2102896  0.2431046  54.31927   29.34555   2.248      4.6073     0.6094812  0.6390628  24.73135   0.1445786  0.1632555  0.1259018 
