~Version
 VERS              .         2.0                           : CWLS LOG ASCII STANDARD - VERSION 2.0
 WRAP              .         NO                            : ONE LINE PER DEPTH STEP
 DLM               .         SPACE                         : DELIMITING CHARACTER(SPACE TAB OR COMMA)
~Well Information
#_______________________________________________________________________________
#
#PARAMETER_NAME    .UNIT     VALUE                         : DESCRIPTION
#_______________________________________________________________________________
STRT               .M        912                           : First reference value
STOP               .M        1283.4                        : Last reference value
STEP               .M        0.1                           : Step increment
NULL               .         -9999                         : Missing value
COMP               .                                       : Company
WELL               .         6838                          : Well name
FLD                .         УЗЕНЬ                         : Field
LOC                .                                       : Location
CNTY               .                                       : County
STAT               .                                       : State
CTRY               .                                       : Country
SRVC               .         SCH                           : Service Company
DATE               .         21.04.2010г                   : Date
UWI                .                                       : Unique Well ID
Block              .         6а                            : 
Category           .         Нагнетательная                : 
Condition          .         В работе                      : 
EREF               .m        85.9                          : 100.8
GRP                .                                       : Group name
Gorizont           .         15                            : 14
ISS                .                                       : Well surveys
Interpretator      .         Кушнир И.Е.                   : 
Kupol              .         основной                      : osnovnoi
Mud                .         глинистый                     : 
Mud_density        .         1.32                          : 
Mud_resistivity    .         0.4                           : 
NGDU               .         НГДУ-2                        : 
ORIGINALWELLNAME   .         6838                          : 
Spud_date          .         2010                          : 1961
TIME               .                                       : LOG TIME
Viscosity          .         40                            : 
X                  .m        44779.34                      : 46154
Y                  .m        85362.73                      : 85761.93
YEAR               .         2018г                         : 
~Parameter Information Block
#_______________________________________________________________________________
#
#PARAMETER_NAME    .UNIT     VALUE                         : DESCRIPTION
#_______________________________________________________________________________
SET                .         LQC_KAZNIPI_Petrel            : 
PBBOTTOM           .M        1283.4                        : Глубина подошвы планшета
PBSCALE            .         1 _ 500                       : Вертикальный масштаб планшета
PBTOP              .M        912                           : Глубина кровли планшета
TLFamily_CALI      .         Caliper                       : 
TLFamily_COLL      .         Net Reservoir Flag            : 
TLFamily_CSAT      .         Fluid Code                    : 
TLFamily_DEPT      .         Measured Depth                : 
TLFamily_DT        .         Compressional Slowness        : 
TLFamily_GR        .         Russian Gamma Ray             : 
TLFamily_IK1       .         Resistivity 05                : 
TLFamily_IK2       .         Resistivity 07                : 
TLFamily_IK3       .         Resistivity 10                : 
TLFamily_IK4       .         Resistivity 14                : 
TLFamily_IK5       .         Resistivity 20                : 
TLFamily_LLS       .         Lateral Log Resistivity       : 
TLFamily_MBK       .         Micro Lateral Log Resistivity : 
TLFamily_MINV      .         Micro Gradient Resistivity    : 
TLFamily_MNOR      .         Micro Resistivity             : 
TLFamily_NNKTB     .         Neutron Far                   : 
TLFamily_NNKTM     .         Neutron Near                  : 
TLFamily_NPHI      .         Neutron Porosity              : 
TLFamily_PHIE      .         Effective Porosity            : 
TLFamily_PHIED     .         Effective Porosity            : 
TLFamily_PHIEN     .         Effective Porosity            : 
TLFamily_PHIES     .         Effective Porosity            : 
TLFamily_PHIT      .         Porosity                      : 
TLFamily_PRMB      .         Permeability                  : 
TLFamily_PRMB_DGR  .         Permeability                  : 
TLFamily_RHOB      .         Bulk Density                  : 
TLFamily_RT        .         Formation Resistivity         : 
TLFamily_SOIL_ARCHIE .         Oil Saturation                : 
TLFamily_SOIL_DW   .         Oil Saturation                : 
TLFamily_SP        .         Spontaneous Potential         : 
TLFamily_VSH_FIN   .         Shale Volume                  : 
TLFamily_VSH_GR    .         Shale Volume                  : 
TLFamily_VSH_SP    .         Shale Volume                  : 
~Curve Information
#_______________________________________________________________________________
#
#LOGNAME           .UNIT     LOG_ID                        : DESCRIPTION
#_______________________________________________________________________________
DEPT               .M                                      : Колонка глубины 
CALI               .м                                      : Каверномер 
COLL               .unitless                               : Описание 
CSAT               .unitless                               : Описание 
DT                 .мкс/м                                  : Интервальное время пробега продольной волны 
GR                 .uR/h                                   : Гамма каротаж 
IK1                .Ohmm                                   : И0.10И0.40 
IK2                .Ohmm                                   : И0.14И0.56 
IK3                .Ohmm                                   : И0.20И0.80 
IK4                .Ohmm                                   : И0.28И1.12 
IK5                .Ohmm                                   : И0.40И1.60 
LLS                .Ohmm                                   : Боковой каротаж 
MBK                .Ohmm                                   : Микробоковой каротаж 
MINV               .Ohmm                                   : Микро-градиент зонд 
MNOR               .Ohmm                                   : Микро-потенциал зонд 
NNKTB              .у.е.                                   :  
NNKTM              .у.е.                                   :  
NPHI               .v/v                                    : Total porosity 
PHIE               .v/v                                    : Описание 
PHIED              .v/v                                    :  
PHIEN              .v/v                                    :  
PHIES              .v/v                                    :  
PHIT               .v/v                                    : Описание 
PRMB               .mD                                     :  
PRMB_DGR           .mD                                     :  
RHOB               .G/C3                                   : Плотность по ГГК-П 
RT                 .ohmm                                   : Description 
SOIL_ARCHIE        .v/v                                    :  
SOIL_DW            .v/v                                    :  
SP                 .мВ                                     : Потенциал самополяризации 
VSH_FIN            .v/v                                    : Описание 
VSH_GR             .v/v                                    : Shale volume 
VSH_SP             .v/v                                    : Shale Volume 
~Ascii
# ...
1009.2     0.238      -9999      -9999      424.364    7.606      1.3737     1.5607     1.5506     1.6191     1.6607     1.612      1.412      3.022      2.514      4.22       3.904      -9999      0.09779976 0.01645231 -9999      0.1791472  -9999      0.181404   1.193019   2.405      1.6607     0          -9999      61.36306   0.6419586  0.6036935  0.6802237 
1009.3     0.238      -9999      -9999      426.941    7.794      1.3584     1.5813     1.5177     1.6361     1.6734     1.622      1.424      3.056      2.64       4.332      3.926      -9999      0.08979969 0.01020617 -9999      0.1693932  -9999      0.1289633  0.9124377  2.402      1.6734     0          -9999      61.43851   0.6782588  0.6735417  0.6829758 
1009.4     0.238      -9999      -9999      428.748    7.412      1.3627     1.5932     1.6461     1.6428     1.6853     1.63       1.446      3.192      2.58       4.494      3.954      -9999      0.1085793  0.02599193 -9999      0.1911666  -9999      0.2872829  1.573285   2.4        1.6853     0          -9999      61.51096   0.6124145  0.5392016  0.6856275 
1009.5     0.238      -9999      -9999      429.785    7.094      1.3975     1.6051     1.7903     1.6107     1.6932     1.632      1.472      3.348      2.506      4.632      3.974      -9999      0.1211222  0.03646331 -9999      0.2057812  -9999      0.4904962  2.476118   2.399      1.6932     0          -9999      61.56641   0.567855   0.4480477  0.6876624 
1009.6     0.238      -9999      -9999      429.757    7.062      1.4127     1.6051     1.7175     1.575      1.6993     1.642      1.482      3.488      2.544      4.636      3.992      -9999      0.1219817  0.03718227 -9999      0.2067812  -9999      0.5088103  2.59174    2.399      1.6993     0          -9999      61.61486   0.5646099  0.4397754  0.6894444 
1009.7     0.239      -9999      -9999      428.057    7.038      1.399      1.6051     1.6481     1.5258     1.7043     1.652      1.488      3.6        2.604      4.638      4.002      -9999      0.1221886  0.03779128 -9999      0.2065859  -9999      0.5133187  2.681985   2.399      1.7043     0          -9999      61.63131   0.5618612  0.4336717  0.6900507 
1009.8     0.239      -9999      -9999      424.705    7.078      1.405      1.6314     1.6626     1.5071     1.7104     1.66       1.478      3.592      2.624      4.734      4.016      -9999      0.1199603  0.03717022 -9999      0.2027504  -9999      0.4667814  2.533268   2.398      1.7104     0          -9999      61.65276   0.5673668  0.4438923  0.6908413 
1009.9     0.238      -9999      -9999      419.736    7.114      1.4406     1.6583     1.6783     1.6098     1.7186     1.66       1.468      3.544      2.632      4.822      4.042      -9999      0.1171877  0.0365454  -9999      0.19783    -9999      0.4147236  2.406487   2.397      1.7186     0          -9999      61.69721   0.5728895  0.4532966  0.6924824 
1010       0.238      -9999      -9999      413.35     7.136      1.4486     1.6191     1.6646     1.6988     1.7227     1.662      1.456      3.462      2.592      4.774      4.044      -9999      0.1144146  0.03634335 -9999      0.1924858  -9999      0.3684629  2.332152   2.396      1.7227     0          -9999      61.73466   0.5765046  0.4591417  0.6938675 
1010.1     0.238      -9999      -9999      405.634    7.222      1.4119     1.5813     1.651      1.6878     1.7145     1.67       1.438      3.39       2.566      4.728      4.016      -9999      0.108697   0.03413921 -9999      0.1832548  -9999      0.2887288  2.062957   2.395      1.7145     0          -9999      61.78111   0.5891555  0.4827223  0.6955888 
1010.2     0.238      -9999      -9999      397.201    7.534      1.4005     1.6024     1.6481     1.6828     1.7074     1.67       1.426      3.392      2.6        4.826      4.004      -9999      0.09353903 0.02511852 -9999      0.1619595  -9999      0.1512613  1.322035   2.392      1.7074     0          -9999      61.82056   0.6379787  0.5789041  0.6970533 
1010.3     0.238      -9999      -9999      388.752    7.782      1.4242     1.6238     1.6452     1.6948     1.6993     1.668      1.412      3.418      2.652      4.86       4.022      -9999      0.07889384 0.01628412 -9999      0.1415036  -9999      0.08099596 0.928188   2.39       1.6993     0          -9999      61.83701   0.6832579  0.6688511  0.6976647 
1010.4     0.238      -9999      -9999      380.733    7.742      1.4188     1.6163     1.649      1.7018     1.6942     1.66       1.424      3.51       2.714      4.488      4.032      -9999      0.07813223 0.01857069 -9999      0.1376938  -9999      0.07840732 0.9826778  2.389      1.6942     0          -9999      61.84146   0.6756406  0.6534508  0.6978303 
1010.5     0.238      -9999      -9999      372.997    7.692      1.3729     1.6079     1.6539     1.6838     1.6963     1.66       1.444      3.58       2.778      4.128      4.04       -9999      0.07685807 0.01904328 -9999      0.1346729  -9999      0.07426016 1.055311   2.392      1.6963     0          -9999      61.79491   0.6653994  0.634698   0.6961007 
1010.6     0.238      -9999      -9999      365.055    7.602      1.362      1.6024     1.6481     1.6719     1.7003     1.66       1.462      3.524      2.818      4.192      4.036      -9999      0.0769846  0.02050746 -9999      0.1334617  -9999      0.07466199 1.199844   2.396      1.7003     0          -9999      61.72935   0.6479801  0.602289   0.6936712 
1010.7     0.238      -9999      -9999      356.558    7.516      1.4013     1.5959     1.6423     1.6818     1.7114     1.66       1.468      3.436      2.85       4.344      4.016      -9999      0.07625499 0.02124107 -9999      0.1312689  -9999      0.07237447 1.356412   2.401      1.7114     0          -9999      61.61481   0.6311551  0.5728675  0.6894428 
1010.8     0.238      -9999      -9999      347.637    7.448      1.4234     1.6229     1.6695     1.6958     1.7268     1.66       1.454      3.314      2.85       4.464      3.994      -9999      0.07476358 0.02236256 -9999      0.1271646  -9999      0.06791425 1.494548   2.404      1.7268     0          -9999      61.50326   0.6179851  0.5506251  0.6853451 
1010.9     0.237      -9999      -9999      338.738    7.368      1.415      1.6495     1.6973     1.7253     1.7645     1.668      1.436      3.226      2.862      4.578      3.968      -9999      0.07428078 0.02554238 -9999      0.1230192  -9999      0.06653013 1.675175   2.404      1.7645     0          -9999      61.40371   0.6036329  0.5255607  0.6817052 
1011       0.237      -9999      -9999      330.333    7.21       1.4391     1.6948     1.7237     1.7598     1.8046     1.706      1.47       3.316      2.922      4.668      3.972      -9999      0.07643039 0.03088053 -9999      0.1219802  -9999      0.07291792 2.098566   2.404      1.8046     0          -9999      61.34916   0.5795391  0.4793606  0.6797176 
1011.1     0.237      -9999      -9999      323.025    7.07       1.5151     1.7419     1.7507     1.8185     1.8506     1.74       1.514      3.45       2.978      4.732      4.03       -9999      0.07719003 0.03475373 -9999      0.1196263  -9999      0.07531901 2.562337   2.404      1.8506     0          -9999      61.41961   0.5620574  0.4418291  0.6822856 
1011.2     0.237      -9999      -9999      317.288    6.968      1.5818     1.8207     1.8347     1.8755     1.8983     1.79       1.53       3.6        3.016      4.686      4.082      -9999      0.07653221 0.03650959 -9999      0.1165548  -9999      0.07323528 2.963558   2.405      1.8983     0          -9999      61.53505   0.5514297  0.4163485  0.686511  
1011.3     0.237      -9999      -9999      313.552    6.838      1.6309     1.905      1.9247     1.9181     1.9479     1.838      1.55       3.776      3.066      4.65       4.144      -9999      0.07666958 0.0377004  -9999      0.1156388  -9999      0.0736656  3.567248   2.407      1.9479     0          -9999      61.77351   0.5406494  0.3859918  0.695307  
1011.4     0.237      -9999      -9999      311.532    6.626      1.6704     1.9351     1.9405     1.9573     1.9931     1.876      1.652      4.062      3.198      4.758      4.218      -9999      0.07927118 0.03978178 -9999      0.1187606  -9999      0.08231001 4.826609   2.41       1.9931     0          -9999      62.03696   0.5231469  0.3411617  0.7051321 
