~Version
 VERS              .         2.0                           : CWLS LOG ASCII STANDARD - VERSION 2.0
 WRAP              .         NO                            : ONE LINE PER DEPTH STEP
 DLM               .         SPACE                         : DELIMITING CHARACTER(SPACE TAB OR COMMA)
~Well Information
#_______________________________________________________________________________
#
#PARAMETER_NAME    .UNIT     VALUE                         : DESCRIPTION
#_______________________________________________________________________________
STRT               .M        880                           : First reference value
STOP               .M        2244                          : Last reference value
STEP               .M        0.2                           : Step increment
NULL               .         -9999                         : Missing value
COMP               .                                       : Company
WELL               .         114                           : Well name
FLD                .         УЗЕНЬ                         : Field
LOC                .                                       : Location
PROV               .                                       : Province
SRVC               .                                       : Service Company
DATE               .                                       : Date
UWI                .                                       : Unique Well ID
Block              .         7                             : 
Category           .         Нефтяная                      : 
Condition          .         В работе                      : 
CTRY               .         Казахстан                     : Название страны
Date               .         11.05.1967                    : 
EREF               .m        85.5                          : 100.8
FILE               .                                       : 
Gorizont           .         23                            : 14
Interpretator      .         Ким С.В.                      : 
Kupol              .         Хумурун                       : 
Mud                .                                       : 
Mud_density        .                                       : 
Mud_resistivity    .                                       : 
NGDU               .         НГДУ-2                        : 
ORIGINALWELLNAME   .         UZEN_114                      : 
Spud_date          .         1967                          : 1961
TAPE               .                                       : 
Viscosity          .                                       : 
X                  .m        42795.4                       : 46154
Y                  .m        84890.4                       : 85761.93
YEAR               .         2019                          : 
~Parameter Information Block
#_______________________________________________________________________________
#
#PARAMETER_NAME    .UNIT     VALUE                         : DESCRIPTION
#_______________________________________________________________________________
SET                .         LQC_KAZNIPI_Petrel            : 
TLFamily_CALI      .         Caliper                       : 
TLFamily_COLL      .         Net Reservoir Flag            : 
TLFamily_CSAT      .         Fluid Code                    : 
TLFamily_DEPT      .         Measured Depth                : 
TLFamily_GR        .         Russian Gamma Ray             : 
TLFamily_GZ3       .         Gradient 225                  : 
TLFamily_NGLD      .         Neutron Gamma                 : 
TLFamily_OGZ       .         Gradient Inverted 225         : 
TLFamily_PHIE      .         Effective Porosity            : 
TLFamily_PHIEN     .         Effective Porosity            : 
TLFamily_PHIT      .         Porosity                      : 
TLFamily_PRMB      .         Permeability                  : 
TLFamily_PRMB_DGR  .         Permeability                  : 
TLFamily_RT        .         Formation Resistivity         : 
TLFamily_SOIL_ARCHIE .         Oil Saturation                : 
TLFamily_SOIL_DW   .         Oil Saturation                : 
TLFamily_SP        .         Spontaneous Potential         : 
TLFamily_VSH_FIN   .         Shale Volume                  : 
TLFamily_VSH_GR    .         Shale Volume                  : 
TLFamily_VSH_SP    .         Shale Volume                  : 
~Curve Information
#_______________________________________________________________________________
#
#LOGNAME           .UNIT     LOG_ID                        : DESCRIPTION
#_______________________________________________________________________________
DEPT               .M                                      : Колонка глубины 
CALI               .м                                      : Каверномер 
COLL               .unitless                               : Описание 
CSAT               .unitless                               : Описание 
GR                 .uR/h                                   : Гамма каротаж 
GZ3                .Ohmm                                   : 2  GZ3 
NGLD               .у.е.                                   : Показания зонда НГК-60 аппаратуры ДРСТ-3-90 
OGZ                .Ohmm                                   : 3  OGZ3 
PHIE               .v/v                                    : Описание 
PHIEN              .v/v                                    :  
PHIT               .v/v                                    : Описание 
PRMB               .mD                                     :  
PRMB_DGR           .mD                                     :  
RT                 .ohmm                                   : УЭС пласта 
SOIL_ARCHIE        .v/v                                    :  
SOIL_DW            .v/v                                    :  
SP                 .мВ                                     : Потенциал самополяризации 
VSH_FIN            .v/v                                    : Описание 
VSH_GR             .v/v                                    : Shale volume 
VSH_SP             .v/v                                    : Shale Volume 
~Ascii
# ...
1168.6     0.232      -9999      -9999      12.318     3.543906634021786 2.013      2.84799    0.08301198 0.08301198 0.2285329  0.09654758 10.14931   1.579      0          0.05071384 55.026     0.4409724  0.2518561  0.6300887 
1168.8     0.231      -9999      -9999      12.177     3.561785748660536 2.039      2.849753   0.07350248 0.07350248 0.2189987  0.06435797 12.15333   1.583      0          0          55.443     0.4408976  0.2339897  0.6478054 
1169       0.227      -9999      -9999      11.985     3.769830528046261 2.071      2.767686   0.06762016 0.06762016 0.2072643  0.05007805 15.53321   1.596      0          0          54.968     0.423164   0.2116813  0.6346466 
1169.2     0.225      -9999      -9999      11.676     4.002909177881199 2.093      2.601037   0.0702688  0.0702688  0.1991969  0.05606693 23.05498   1.577      0          0          53.878     0.3906913  0.1801573  0.6012253 
1169.4     0.227      -9999      -9999      11.53      4.255540282749742 2.07       2.332188   0.08734755 0.08734755 0.207631   0.1161573  27.78426   1.507      0          0          52.555     0.3644954  0.166941   0.5620497 
1169.6     0.232      -9999      -9999      11.719     4.004628027392525 1.994      2.09747    0.118076   0.118076   0.2355002  0.4307373  21.8222    1.377      0          0.1252148  51.311     0.3558309  0.1842457  0.5274161 
1169.8     0.238      -9999      -9999      12.2       3.584703818332682 1.912      1.930316   0.143464   0.143464   0.2655696  1.271916   11.8013    1.255      0          0.2107778  50.373     0.3700172  0.2368151  0.5032192 
1170       0.239      -9999      -9999      12.599     3.07565591932576 1.868      1.764169   0.1522616  0.1522616  0.2817044  1.851026   7.087183   1.121      0          0.2129333  49.906     0.3922508  0.2916335  0.4928682 
1170.2     0.238      -9999      -9999      12.837     2.650902913877562 1.858      1.86011    0.148923   0.148923   0.2853714  1.605361   5.228497   1.093      0          0.2022404  49.951     0.41348    0.3301999  0.4967602 
1170.4     0.236      -9999      -9999      13.024     2.451313255834043 1.856      2.10302    0.1413226  0.1413226  0.2861048  1.160904   4.117053   1.132      0          0.2012327  50.446     0.4387339  0.3640474  0.5134203 
1170.6     0.241      -9999      -9999      13.343     2.35800856381583 1.844      2.337293   0.1306166  0.1306166  0.2905052  0.7353497  2.738624   1.174      0          0.1992688  51.226     0.484511   0.4299867  0.5390353 
1170.8     0.247      -9999      -9999      13.814     2.38035132415713 1.845      2.380351   0.1053074  0.1053074  0.2901385  0.2498652  1.50008    1.19       0          0.1384529  52.154     0.5600944  0.549795   0.5703937 
1171       0.261      -9999      -9999      14.381     2.387877000451215 1.843      2.387877   0.06913977 0.06913977 0.2908719  0.05343113 0.726798   1.194      0          0.01170605 53.125     0.6719155  0.7391006  0.6047303 
1171.2     0.277      -9999      -9999      14.818     2.296842291020782 1.854      2.553675   0.04959032 0.04959032 0.2868382  0.02321086 0.4157823  1.209      0          0          54.011     0.718933   0.8        0.6378659 
1171.4     0.293      -9999      -9999      14.95      2.042613511760088 1.858      2.735195   0.0441343  0.0441343  0.2853714  0.01839215 0.351239   1.169      0          0          54.605     0.7310215  0.8        0.6620429 
1171.6     0.296      -9999      -9999      14.736     1.895503440345188 1.869      2.969829   0.03877198 0.03877198 0.2813377  0.01463218 0.4617196  1.157      0          0          54.83      0.7350477  0.8        0.6700953 
1171.8     0.293      -9999      -9999      14.389     1.963226840085506 1.876      3.143252   0.04688963 0.04688963 0.2787708  0.02068558 0.7194046  1.208      0          0          54.636     0.7026702  0.7421928  0.6631475 
1172       0.283      -9999      -9999      14.027     2.052940175962296 1.896      3.094607   0.06466791 0.06466791 0.2714368  0.04415345 1.142597   1.234      0          0          53.94      0.6265724  0.6144329  0.6387119 
1172.2     0.287      -9999      -9999      13.822     2.008589415618058 1.918      2.927917   0.07533359 0.07533359 0.2633694  0.06958552 1.484822   1.191      0          0          52.406     0.5698055  0.5520949  0.5875161 
1172.4     0.298      -9999      -9999      13.763     1.8419720890992 1.938      2.934661   0.08381768 0.08381768 0.2560354  0.09992284 1.60111    1.132      0          0          49.792     0.5218719  0.5353554  0.5083884 
1172.6     0.312      -9999      -9999      13.564     1.611355615775209 1.932      3.464536   0.1102755  0.1102755  0.2582356  0.3088361  2.064768   1.1        0          0.05122099 46.153     0.4483638  0.4825493  0.4141784 
1172.8     0.322      -9999      -9999      12.845     1.440680295848094 1.922      4.211079   0.1533081  0.1533081  0.2619026  1.935512   5.175313   1.073      0          0.1616789  41.961     0.3290742  0.3315813  0.3265671 
1173       0.289      1          2          11.921     1.441753542988195 1.917      4.730709   0.1869326  0.1869326  0.2637361  8.120893   16.85711   1.105      0.09341273 0.24123    37.909     0.2327378  0.2047282  0.2607473 
1173.2     0.254      1          2          11.118     1.580330181853787 1.931      5.223401   0.2000086  0.2000086  0.2586023  14.18412   47.04031   1.213      0.1818538  0.2878715  34.728     0.1775567  0.1346446  0.2204688 
1173.4     0.215      1          2          10.991     1.821870502337817 1.944      5.57132    0.2001478  0.2001478  0.2538352  14.26861   55.32976   1.373      0.2285341  0.3236049  32.694     0.162689   0.1260103  0.1993677 
1173.6     0.216      1          2          11.172     2.06601686369079 1.95       4.917912   0.1971261  0.1971261  0.251635   12.54331   43.90347   1.455      0.2392377  0.3353738  31.881     0.1651784  0.1384928  0.191864  
1173.8     0.218      1          2          11.671     2.343260413000518 1.947      4.131709   0.1911128  0.1911128  0.2527351  9.705788   23.20277   1.495      0.2283151  0.3374037  32.094     0.1867342  0.1796878  0.1937806 
1174       0.218      1          2          12.141     2.621137046289306 1.934      3.631448   0.1858108  0.1858108  0.2575022  7.741492   12.72555   1.522      0.2157866  0.3427327  33.256     0.2172467  0.2296349  0.2048585 
1174.2     0.218      1          2          12.4       2.863923078394719 1.917      3.236578   0.1841518  0.1841518  0.2637361  7.212657   9.13954    1.519      0.2089047  0.3488072  34.638     0.2411646  0.2628674  0.2194619 
1174.4     0.218      1          2          12.429     3.108019946581561 1.904      2.836532   0.1866693  0.1866693  0.2685032  8.030202   8.80701    1.483      0.2093562  0.3514896  35.474     0.2479814  0.2668758  0.2290871 
1174.6     0.221      1          2          12.459     3.175586375726887 1.914      2.596954   0.1827121  0.1827121  0.2648362  6.783125   8.475739   1.429      0.180319   0.3280746  35.266     0.2488608  0.2710867  0.2266349 
1174.8     0.221      1          2          12.299     2.641499015049677 1.934      2.524545   0.1803189  0.1803189  0.2575022  6.124926   10.39878   1.291      0.1303801  0.277405   34.543     0.2338889  0.2493713  0.2184065 
1175       0.218      1          2          12.302     2.491976314545605 1.961      2.41153    0.1707015  0.1707015  0.2476013  4.064102   10.35898   1.226      0.06547766 0.2238556  34.351     0.2330296  0.249762   0.2162972 
1175.2     0.216      1          2          12.279     2.819511848348224 1.959      2.301537   0.1700777  0.1700777  0.2483347  3.95739    10.66799   1.267      0.07685338 0.2366894  35.34      0.2371426  0.2467822  0.227503  
1175.4     0.214      1          2          12.358     3.301836165551517 1.932      2.16898    0.1734708  0.1734708  0.2582356  4.573596   9.643518   1.309      0.1063808  0.2720532  37.61      0.256863   0.2571686  0.2565574 
1175.6     0.217      1          2          12.254     3.657050577527664 1.89       1.921618   0.1835196  0.1835196  0.273637   7.020804   11.01434   1.26       0.1337812  0.2993289  40.604     0.273083   0.2435834  0.3025825 
