~Version
 VERS              .         2.0                           : CWLS LOG ASCII STANDARD - VERSION 2.0
 WRAP              .         NO                            : ONE LINE PER DEPTH STEP
 DLM               .         SPACE                         : DELIMITING CHARACTER(SPACE TAB OR COMMA)
~Well Information
#_______________________________________________________________________________
#
#PARAMETER_NAME    .UNIT     VALUE                         : DESCRIPTION
#_______________________________________________________________________________
STRT               .M        880                           : First reference value
STOP               .M        2244                          : Last reference value
STEP               .M        0.2                           : Step increment
NULL               .         -9999                         : Missing value
COMP               .                                       : Company
WELL               .         114                           : Well name
FLD                .         УЗЕНЬ                         : Field
LOC                .                                       : Location
PROV               .                                       : Province
SRVC               .                                       : Service Company
DATE               .                                       : Date
UWI                .                                       : Unique Well ID
Block              .         7                             : 
Category           .         Нефтяная                      : 
Condition          .         В работе                      : 
CTRY               .         Казахстан                     : Название страны
Date               .         11.05.1967                    : 
EREF               .m        85.5                          : 100.8
FILE               .                                       : 
Gorizont           .         23                            : 14
Interpretator      .         Ким С.В.                      : 
Kupol              .         Хумурун                       : 
Mud                .                                       : 
Mud_density        .                                       : 
Mud_resistivity    .                                       : 
NGDU               .         НГДУ-2                        : 
ORIGINALWELLNAME   .         UZEN_114                      : 
Spud_date          .         1967                          : 1961
TAPE               .                                       : 
Viscosity          .                                       : 
X                  .m        42795.4                       : 46154
Y                  .m        84890.4                       : 85761.93
YEAR               .         2019                          : 
~Parameter Information Block
#_______________________________________________________________________________
#
#PARAMETER_NAME    .UNIT     VALUE                         : DESCRIPTION
#_______________________________________________________________________________
SET                .         LQC_KAZNIPI_Petrel            : 
TLFamily_CALI      .         Caliper                       : 
TLFamily_COLL      .         Net Reservoir Flag            : 
TLFamily_CSAT      .         Fluid Code                    : 
TLFamily_DEPT      .         Measured Depth                : 
TLFamily_GR        .         Russian Gamma Ray             : 
TLFamily_GZ3       .         Gradient 225                  : 
TLFamily_NGLD      .         Neutron Gamma                 : 
TLFamily_OGZ       .         Gradient Inverted 225         : 
TLFamily_PHIE      .         Effective Porosity            : 
TLFamily_PHIEN     .         Effective Porosity            : 
TLFamily_PHIT      .         Porosity                      : 
TLFamily_PRMB      .         Permeability                  : 
TLFamily_PRMB_DGR  .         Permeability                  : 
TLFamily_RT        .         Formation Resistivity         : 
TLFamily_SOIL_ARCHIE .         Oil Saturation                : 
TLFamily_SOIL_DW   .         Oil Saturation                : 
TLFamily_SP        .         Spontaneous Potential         : 
TLFamily_VSH_FIN   .         Shale Volume                  : 
TLFamily_VSH_GR    .         Shale Volume                  : 
TLFamily_VSH_SP    .         Shale Volume                  : 
~Curve Information
#_______________________________________________________________________________
#
#LOGNAME           .UNIT     LOG_ID                        : DESCRIPTION
#_______________________________________________________________________________
DEPT               .M                                      : Колонка глубины 
CALI               .м                                      : Каверномер 
COLL               .unitless                               : Описание 
CSAT               .unitless                               : Описание 
GR                 .uR/h                                   : Гамма каротаж 
GZ3                .Ohmm                                   : 2  GZ3 
NGLD               .у.е.                                   : Показания зонда НГК-60 аппаратуры ДРСТ-3-90 
OGZ                .Ohmm                                   : 3  OGZ3 
PHIE               .v/v                                    : Описание 
PHIEN              .v/v                                    :  
PHIT               .v/v                                    : Описание 
PRMB               .mD                                     :  
PRMB_DGR           .mD                                     :  
RT                 .ohmm                                   : УЭС пласта 
SOIL_ARCHIE        .v/v                                    :  
SOIL_DW            .v/v                                    :  
SP                 .мВ                                     : Потенциал самополяризации 
VSH_FIN            .v/v                                    : Описание 
VSH_GR             .v/v                                    : Shale volume 
VSH_SP             .v/v                                    : Shale Volume 
~Ascii
# ...
1607.8     0.239      -9999      -9999      14.003     3.654330018999505 1.764      4.03189    0.1556158  0.1556158  0.2708     0.8754287  7.726909   1.917      0.2790453  0.4625003  55.555     0.3715618  0.2815216  0.461602  
1608       0.24       -9999      -9999      13.946     3.672539254424981 1.739      4.066587   0.1604796  0.1604796  0.2783     1.162615   8.184541   1.93       0.3003364  0.47951    56.454     0.3800657  0.2749844  0.485147  
1608.2     0.246      -9999      -9999      13.973     3.834459778267886 1.703      3.895344   0.1634416  0.1634416  0.2891     1.381886   7.964489   1.932      0.3117274  0.4950203  58.141     0.4053496  0.2780618  0.5326374 
1608.4     0.252      -9999      -9999      14.076     4.033012528219064 1.671      3.547322   0.162322   0.162322   0.2987     1.294516   7.177993   1.887      0.2998943  0.4971852  60.001     0.4399292  0.2901212  0.5897372 
1608.6     0.272      -9999      -9999      14.478     3.81872554551612 1.634      3.104685   0.160454   0.160454   0.3098     1.160878   4.783758   1.712      0.2597532  0.480735   60.965     0.4817613  0.3424063  0.6211163 
1608.8     0.308      -9999      -9999      14.735     3.277085411262461 1.613      2.629132   0.1613295  0.1613295  0.3161     1.221706   3.690642   1.459      0.2058404  0.4453574  60.882     0.4992595  0.380669   0.61785   
1609       0.323      -9999      -9999      14.786     2.703761577390202 1.619      2.451746   0.1645339  0.1645339  0.3143     1.472795   3.505449   1.286      0.1716937  0.4120636  59.66      0.4831165  0.388756   0.577477  
1609.2     0.313      -9999      -9999      14.715     2.925099886486151 1.651      2.9251     0.165113   0.165113   0.3047     1.523401   3.765908   1.463      0.2227128  0.4395329  57.883     0.4502805  0.3775438  0.5230171 
1609.4     0.28       8          3          14.58      3.375169932718012 1.673      3.279936   0.1700909  0.1700909  0.2981     2.036661   4.315716   1.663      0.2867645  0.4741873  55.94      0.4129325  0.357109   0.468756  
1609.6     0.261      8          3          14.346     3.855670526017232 1.673      3.579357   0.182172   0.182172   0.2981     4.120677   5.46559    1.856      0.361882   0.5165374  54.162     0.3739614  0.3242742  0.4236486 
1609.8     0.247      8          3          14.145     4.035663436329827 1.667      3.692464   0.1900771  0.1900771  0.2999     6.534756   6.695051   1.928      0.3959443  0.5357811  53.6       0.3542674  0.298491   0.4100437 
1610       0.235      8          3          14.132     4.07036343645419 1.685      3.700696   0.1834226  0.1834226  0.2945     4.432528   6.783489   1.938      0.3784124  0.5249556  54.026     0.3583142  0.2968958  0.4197325 
1610.2     0.23       -9999      -9999      14.33      4.070740017999603 1.723      3.600156   0.1645787  0.1645787  0.2831     1.476648   5.554581   1.911      0.3123532  0.4875585  54.974     0.3823268  0.3221426  0.4425109 
1610.4     0.231      -9999      -9999      14.538     4.050972027916196 1.754      3.556324   0.1469282  0.1469282  0.2738     0.5273959  4.502621   1.894      0.2377508  0.4495843  55.964     0.4092639  0.3509801  0.4675478 
1610.6     0.234      -9999      -9999      14.589     4.071490018999557 1.769      3.659669   0.1401512  0.1401512  0.2693     0.3551854  4.276687   1.927      0.2121592  0.4380763  56.251     0.416609   0.3584363  0.4747817 
1610.8     0.237      -9999      -9999      14.274     4.071863096819056 1.763      3.865963   0.152341   0.152341   0.2711     0.7232023  5.877616   1.983      0.2771396  0.4671073  55.368     0.3830935  0.3147919  0.451395  
1611       0.242      1          3          13.992     4.022739706893255 1.747      4.022745   0.1706571  0.1706571  0.2759     2.10505    7.813191   2.011      0.3494924  0.5007513  53.191     0.3394932  0.280248   0.3987384 
1611.2     0.247      1          3          13.926     3.918390990294492 1.736      4.022055   0.1840301  0.1840301  0.2792     4.592422   8.35146    1.985      0.3871304  0.5167747  50.462     0.3069996  0.2727268  0.3412723 
1611.4     0.247      1          3          13.741     3.564364056724236 1.74       4.035961   0.1927974  0.1927974  0.278      7.658476   10.06619   1.893      0.3982228  0.5138333  48.006     0.2748472  0.2527033  0.2969911 
1611.6     0.237      1          3          13.607     3.272646136490824 1.775      3.990715   0.1892576  0.1892576  0.2675     6.229736   11.52417   1.798      0.3734755  0.4860489  46.002     0.2523948  0.2391242  0.2656654 
1611.8     0.23       1          3          13.514     3.035470450361432 1.798      3.90216    0.1870975  0.1870975  0.2606     5.492217   12.65845   1.707      0.3515674  0.4620022  44.444     0.2371048  0.2301312  0.2440784 
1612       0.227      1          3          13.514     2.913962776729398 1.806      3.912882   0.1865615  0.1865615  0.2582     5.323139   12.65845   1.67       0.3432257  0.4525436  43.499     0.231092   0.2301312  0.2320529 
1612.2     0.227      1          3          13.688     3.010690142249188 1.779      3.93724    0.1925877  0.1925877  0.2663     7.565372   10.6194    1.706      0.3675231  0.4750322  43.201     0.2377816  0.2472426  0.2283207 
1612.4     0.224      1          3          13.918     3.152446406466653 1.764      3.834663   0.1919926  0.1919926  0.2708     7.307245   8.419169   1.73       0.3699597  0.4828997  43.898     0.2542175  0.271829   0.236606  
1612.6     0.22       1          3          14.191     3.254436539854352 1.747      3.693383   0.1894948  0.1894948  0.2759     6.316507   6.391283   1.73       0.3627328  0.4854179  45.189     0.2787266  0.3042046  0.2532487 
1612.8     0.217      1          3          14.256     3.38932343256115 1.739      3.629534   0.1876557  0.1876557  0.2783     5.67397    5.985393   1.753      0.3612676  0.4891619  46.539     0.2924012  0.312465   0.2723374 
1613       0.216      1          3          14.254     3.458333384387383 1.728      3.69965    0.1885891  0.1885891  0.2816     5.991471   5.997487   1.787      0.3697291  0.4984985  47.557     0.3000352  0.3122075  0.2878628 
1613.2     0.219      1          3          14.089     3.527340018999488 1.73       3.870557   0.1903293  0.1903293  0.281      6.631585   7.08442    1.845      0.3840528  0.5078016  47.907     0.2924863  0.2916799  0.2932926 
1613.4     0.221      1          3          14.078     3.527716962965669 1.738      4.007083   0.1891557  0.1891557  0.2786     6.192791   7.163519   1.876      0.385549   0.5081891  47.512     0.2885301  0.2903605  0.2866998 
1613.6     0.222      1          3          14.099     3.493790018999484 1.744      4.109103   0.1881292  0.1881292  0.2768     5.832894   7.013265   1.888      0.3844748  0.5067886  47.046     0.2860348  0.2928847  0.2791848 
1613.8     0.222      1          3          14.204     3.59108011812334 1.738      4.14615    0.1870462  0.1870462  0.2786     5.475786   6.307957   1.924      0.3868307  0.5120045  47.422     0.295335   0.305839   0.2848309 
1614       0.221      1          3          14.238     3.796463469239518 1.726      4.180847   0.1867411  0.1867411  0.2822     5.3792     6.095138   1.99       0.3956006  0.5233213  48.705     0.3079321  0.3101553  0.3057089 
1614.2     0.221      1          3          14.27      4.070709377436582 1.723      4.311859   0.1840698  0.1840698  0.2831     4.603068   5.901396   2.094      0.4024256  0.5332675  49.787     0.3194521  0.3142734  0.3246307 
1614.4     0.221      1          3          14.261     4.405890940058895 1.738      4.405891   0.1821217  0.1821217  0.2786     4.10861    5.955257   2.203      0.4110545  0.5386792  48.943     0.3112203  0.3131096  0.309331  
1614.6     0.224      1          3          14.196     4.61927769357948 1.753      4.619277   0.1860296  0.1860296  0.2741     5.160526   6.359103   2.31       0.4345699  0.5494406  46.052     0.2840981  0.3048322  0.263364  
1614.8     0.224      1          3          14.019     4.755844411478387 1.742      4.755844   0.2010354  0.2010354  0.2774     12.38329   7.603115   2.378      0.478657   0.5735337  41.665     0.2463375  0.2833844  0.2092906 
