~Version
 VERS              .         2.0                           : CWLS LOG ASCII STANDARD - VERSION 2.0
 WRAP              .         NO                            : ONE LINE PER DEPTH STEP
 DLM               .         SPACE                         : DELIMITING CHARACTER(SPACE TAB OR COMMA)
~Well Information
#_______________________________________________________________________________
#
#PARAMETER_NAME    .UNIT     VALUE                         : DESCRIPTION
#_______________________________________________________________________________
STRT               .M        880                           : First reference value
STOP               .M        2244                          : Last reference value
STEP               .M        0.2                           : Step increment
NULL               .         -9999                         : Missing value
COMP               .                                       : Company
WELL               .         114                           : Well name
FLD                .         УЗЕНЬ                         : Field
LOC                .                                       : Location
PROV               .                                       : Province
SRVC               .                                       : Service Company
DATE               .                                       : Date
UWI                .                                       : Unique Well ID
Block              .         7                             : 
Category           .         Нефтяная                      : 
Condition          .         В работе                      : 
CTRY               .         Казахстан                     : Название страны
Date               .         11.05.1967                    : 
EREF               .m        85.5                          : 100.8
FILE               .                                       : 
Gorizont           .         23                            : 14
Interpretator      .         Ким С.В.                      : 
Kupol              .         Хумурун                       : 
Mud                .                                       : 
Mud_density        .                                       : 
Mud_resistivity    .                                       : 
NGDU               .         НГДУ-2                        : 
ORIGINALWELLNAME   .         UZEN_114                      : 
Spud_date          .         1967                          : 1961
TAPE               .                                       : 
Viscosity          .                                       : 
X                  .m        42795.4                       : 46154
Y                  .m        84890.4                       : 85761.93
YEAR               .         2019                          : 
~Parameter Information Block
#_______________________________________________________________________________
#
#PARAMETER_NAME    .UNIT     VALUE                         : DESCRIPTION
#_______________________________________________________________________________
SET                .         LQC_KAZNIPI_Petrel            : 
TLFamily_CALI      .         Caliper                       : 
TLFamily_COLL      .         Net Reservoir Flag            : 
TLFamily_CSAT      .         Fluid Code                    : 
TLFamily_DEPT      .         Measured Depth                : 
TLFamily_GR        .         Russian Gamma Ray             : 
TLFamily_GZ3       .         Gradient 225                  : 
TLFamily_NGLD      .         Neutron Gamma                 : 
TLFamily_OGZ       .         Gradient Inverted 225         : 
TLFamily_PHIE      .         Effective Porosity            : 
TLFamily_PHIEN     .         Effective Porosity            : 
TLFamily_PHIT      .         Porosity                      : 
TLFamily_PRMB      .         Permeability                  : 
TLFamily_PRMB_DGR  .         Permeability                  : 
TLFamily_RT        .         Formation Resistivity         : 
TLFamily_SOIL_ARCHIE .         Oil Saturation                : 
TLFamily_SOIL_DW   .         Oil Saturation                : 
TLFamily_SP        .         Spontaneous Potential         : 
TLFamily_VSH_FIN   .         Shale Volume                  : 
TLFamily_VSH_GR    .         Shale Volume                  : 
TLFamily_VSH_SP    .         Shale Volume                  : 
~Curve Information
#_______________________________________________________________________________
#
#LOGNAME           .UNIT     LOG_ID                        : DESCRIPTION
#_______________________________________________________________________________
DEPT               .M                                      : Колонка глубины 
CALI               .м                                      : Каверномер 
COLL               .unitless                               : Описание 
CSAT               .unitless                               : Описание 
GR                 .uR/h                                   : Гамма каротаж 
GZ3                .Ohmm                                   : 2  GZ3 
NGLD               .у.е.                                   : Показания зонда НГК-60 аппаратуры ДРСТ-3-90 
OGZ                .Ohmm                                   : 3  OGZ3 
PHIE               .v/v                                    : Описание 
PHIEN              .v/v                                    :  
PHIT               .v/v                                    : Описание 
PRMB               .mD                                     :  
PRMB_DGR           .mD                                     :  
RT                 .ohmm                                   : УЭС пласта 
SOIL_ARCHIE        .v/v                                    :  
SOIL_DW            .v/v                                    :  
SP                 .мВ                                     : Потенциал самополяризации 
VSH_FIN            .v/v                                    : Описание 
VSH_GR             .v/v                                    : Shale volume 
VSH_SP             .v/v                                    : Shale Volume 
~Ascii
# ...
2234       -9999      -9999      -9999      12.401     4.67182    1.454      4.60462    0.2260545  0.2260545  0.28012    53.28993   24.96202   2.319      0.5419807  0.6083586  69.184     0.174405   0.1744047  0.3619582 
2234.2     -9999      -9999      -9999      12.297     4.40195    1.372      4.59628    0.2462936  0.2462936  0.29816    173.5257   27.63407   2.249      0.5687829  0.6302485  69.212     0.167311   0.1673109  0.3625337 
2234.4     -9999      -9999      -9999      12.47      4.132090000000001 1.354      4.58794    0.2465441  0.2465441  0.30212    176.0803   23.33338   2.174      0.5622525  0.6268276  69.211     0.179277   0.1792765  0.3625132 
2234.6     -9999      -9999      -9999      12.956     4.32687    1.381      4.57772    0.2287023  0.2287023  0.29618    62.19032   14.50744   2.224      0.5376151  0.6142654  69.211     0.21767    0.2176697  0.3625132 
2234.8     -9999      -9999      -9999      13.481     4.88914    1.417      4.56591    0.2050458  0.2050458  0.28826    15.647     8.68244    2.361      0.5055512  0.6011227  69.21      0.268433   0.2684327  0.3624926 
2235       -9999      -9999      -9999      13.961     5.40128    1.444      4.5541     0.1815266  0.1815266  0.28232    3.968436   5.430032   2.471      0.4618252  0.5839224  69.21      0.32514    0.3251396  0.3624926 
2235.2     -9999      -9999      -9999      14.117     5.8999     1.468      4.542291   0.1697688  0.1697688  0.27704    1.998754   4.661814   2.566      0.4395145  0.5751605  69.209     0.346036   0.3460357  0.3624721 
2235.4     -9999      -9999      -9999      14.231     5.629669999999999 1.483      4.53048    0.1614735  0.1614735  0.27374    1.232007   4.170068   2.51       0.4084243  0.5580771  69.233     0.36215    0.3621505  0.3629661 
2235.6     -9999      -9999      -9999      14.151     5.13323    1.492      4.51984    0.1630229  0.1630229  0.27176    1.348539   4.509375   2.404      0.4013239  0.5484241  69.277     0.350765   0.3507653  0.3638735 
2235.8     -9999      -9999      -9999      14.089     4.797510000000001 1.483      4.5154     0.1676614  0.1676614  0.27374    1.76755    4.791213   2.326      0.4066625  0.5483024  69.374     0.342189   0.3421886  0.3658822 
2236       -9999      -9999      -9999      14.043     4.63001    1.473      4.51097    0.1717921  0.1717921  0.27594    2.249129   5.011642   2.285      0.4142394  0.551081   69.374     0.335961   0.3359611  0.3658822 
2236.2     -9999      -9999      -9999      14.271     -9999      1.468      -9999      0.1629659  0.1629659  0.27704    1.344064   4.010111   -9999      -9999      -9999      -9999      0.367981   0.3679809  -9999     
2236.4     -9999      -9999      -9999      14.582     -9999      1.466      -9999      0.1483238  0.1483238  0.27748    0.5721253  2.958597   -9999      -9999      -9999      -9999      0.416633   0.4166334  -9999     
2236.6     -9999      -9999      -9999      14.752     -9999      1.452      -9999      0.1423326  0.1423326  0.28056    0.4033809  2.50549    -9999      -9999      -9999      -9999      0.445895   0.4458953  -9999     
2236.8     -9999      -9999      -9999      14.572     -9999      1.436      -9999      0.1554384  0.1554384  0.28408    0.8664143  2.987669   -9999      -9999      -9999      -9999      0.414973   0.4149732  -9999     
2237       -9999      -9999      -9999      14.227     -9999      1.414      -9999      0.1768324  0.1768324  0.28892    3.017867   4.186408   -9999      -9999      -9999      -9999      0.361573   0.3615726  -9999     
2237.2     -9999      -9999      -9999      13.94      -9999      1.401      -9999      0.1918282  0.1918282  0.29178    7.237542   5.542692   -9999      -9999      -9999      -9999      0.322425   0.3224246  -9999     
2237.4     -9999      -9999      -9999      13.726     -9999      1.386      -9999      0.2033141  0.2033141  0.29508    14.1437    6.8328     -9999      -9999      -9999      -9999      0.296019   0.296019   -9999     
2237.6     -9999      -9999      -9999      13.444     -9999      1.386      -9999      0.2130862  0.2130862  0.29508    25.0104    9.002316   -9999      -9999      -9999      -9999      0.264496   0.2644962  -9999     
2237.8     -9999      -9999      -9999      13.597     -9999      1.412      -9999      0.202201   0.202201   0.28936    13.25457   7.751407   -9999      -9999      -9999      -9999      0.281158   0.281158   -9999     
2238       -9999      -9999      -9999      13.898     -9999      1.475      -9999      0.1772105  0.1772105  0.2755     3.085166   5.775062   -9999      -9999      -9999      -9999      0.317063   0.3170627  -9999     
2238.2     -9999      -9999      -9999      14.258     -9999      1.508      -9999      0.1547564  0.1547564  0.26824    0.8326262  4.061411   -9999      -9999      -9999      -9999      0.366076   0.3660758  -9999     
2238.4     -9999      -9999      -9999      14.308     -9999      1.496      -9999      0.1551083  0.1551083  0.27088    0.8498929  3.867622   -9999      -9999      -9999      -9999      0.373457   0.3734575  -9999     
2238.6     -9999      -9999      -9999      14.503     -9999      1.464      -9999      0.1527739  0.1527739  0.27792    0.741698   3.196201   -9999      -9999      -9999      -9999      0.403697   0.4036967  -9999     
2238.8     -9999      -9999      -9999      14.498     -9999      1.429      -9999      0.1607235  0.1607235  0.28562    1.17927    3.211868   -9999      -9999      -9999      -9999      0.402892   0.4028915  -9999     
2239       -9999      -9999      -9999      14.671     -9999      1.403      -9999      0.1575115  0.1575115  0.29134    0.9777842  2.712006   -9999      -9999      -9999      -9999      0.431705   0.431705   -9999     
2239.2     -9999      -9999      -9999      14.618     -9999      1.403      -9999      0.1603138  0.1603138  0.29134    1.151426   2.85626    -9999      -9999      -9999      -9999      0.422665   0.4226654  -9999     
2239.4     -9999      -9999      -9999      14.702     -9999      1.416      -9999      0.1529846  0.1529846  0.28848    0.7508675  2.631032   -9999      -9999      -9999      -9999      0.437082   0.4370817  -9999     
2239.6     -9999      -9999      -9999      14.591     -9999      1.432      -9999      0.1553388  0.1553388  0.28496    0.8613945  2.932675   -9999      -9999      -9999      -9999      0.418133   0.4181333  -9999     
2239.8     -9999      -9999      -9999      14.387     -9999      1.445      -9999      0.1626182  0.1626182  0.2821     1.317083   3.580102   -9999      -9999      -9999      -9999      0.385425   0.3854253  -9999     
2240       -9999      -9999      -9999      14.084     -9999      1.446      -9999      0.1760131  0.1760131  0.28188    2.877046   4.814697   -9999      -9999      -9999      -9999      0.341506   0.3415061  -9999     
2240.2     -9999      -9999      -9999      13.935     -9999      1.445      -9999      0.1823476  0.1823476  0.2821     4.163101   5.569853   -9999      -9999      -9999      -9999      0.321782   0.3217817  -9999     
2240.4     -9999      -9999      -9999      14.075     -9999      1.434      -9999      0.1790329  0.1790329  0.28452    3.431198   4.857255   -9999      -9999      -9999      -9999      0.340281   0.3402811  -9999     
2240.6     -9999      -9999      -9999      14.394     -9999      1.437      -9999      0.1640438  0.1640438  0.28386    1.431284   3.55568    -9999      -9999      -9999      -9999      0.386504   0.3865041  -9999     
2240.8     -9999      -9999      -9999      14.574     -9999      1.443      -9999      0.1537955  0.1537955  0.28254    0.7872373  2.98183    -9999      -9999      -9999      -9999      0.415305   0.4153048  -9999     
2241       -9999      -9999      -9999      14.695     -9999      1.448      -9999      0.1463228  0.1463228  0.28144    0.5090964  2.649103   -9999      -9999      -9999      -9999      0.435862   0.4358618  -9999     
2241.2     -9999      -9999      -9999      14.561     -9999      1.443      -9999      0.154462   0.154462   0.28254    0.8184461  3.019977   -9999      -9999      -9999      -9999      0.413155   0.4131546  -9999     
