~Version
 VERS              .         2.0                           : CWLS LOG ASCII STANDARD - VERSION 2.0
 WRAP              .         NO                            : ONE LINE PER DEPTH STEP
 DLM               .         SPACE                         : DELIMITING CHARACTER(SPACE TAB OR COMMA)
~Well Information
#_______________________________________________________________________________
#
#PARAMETER_NAME    .UNIT     VALUE                         : DESCRIPTION
#_______________________________________________________________________________
STRT               .M        880                           : First reference value
STOP               .M        2244                          : Last reference value
STEP               .M        0.2                           : Step increment
NULL               .         -9999                         : Missing value
COMP               .                                       : Company
WELL               .         114                           : Well name
FLD                .         УЗЕНЬ                         : Field
LOC                .                                       : Location
PROV               .                                       : Province
SRVC               .                                       : Service Company
DATE               .                                       : Date
UWI                .                                       : Unique Well ID
Block              .         7                             : 
Category           .         Нефтяная                      : 
Condition          .         В работе                      : 
CTRY               .         Казахстан                     : Название страны
Date               .         11.05.1967                    : 
EREF               .m        85.5                          : 100.8
FILE               .                                       : 
Gorizont           .         23                            : 14
Interpretator      .         Ким С.В.                      : 
Kupol              .         Хумурун                       : 
Mud                .                                       : 
Mud_density        .                                       : 
Mud_resistivity    .                                       : 
NGDU               .         НГДУ-2                        : 
ORIGINALWELLNAME   .         UZEN_114                      : 
Spud_date          .         1967                          : 1961
TAPE               .                                       : 
Viscosity          .                                       : 
X                  .m        42795.4                       : 46154
Y                  .m        84890.4                       : 85761.93
YEAR               .         2019                          : 
~Parameter Information Block
#_______________________________________________________________________________
#
#PARAMETER_NAME    .UNIT     VALUE                         : DESCRIPTION
#_______________________________________________________________________________
SET                .         LQC_KAZNIPI_Petrel            : 
TLFamily_CALI      .         Caliper                       : 
TLFamily_COLL      .         Net Reservoir Flag            : 
TLFamily_CSAT      .         Fluid Code                    : 
TLFamily_DEPT      .         Measured Depth                : 
TLFamily_GR        .         Russian Gamma Ray             : 
TLFamily_GZ3       .         Gradient 225                  : 
TLFamily_NGLD      .         Neutron Gamma                 : 
TLFamily_OGZ       .         Gradient Inverted 225         : 
TLFamily_PHIE      .         Effective Porosity            : 
TLFamily_PHIEN     .         Effective Porosity            : 
TLFamily_PHIT      .         Porosity                      : 
TLFamily_PRMB      .         Permeability                  : 
TLFamily_PRMB_DGR  .         Permeability                  : 
TLFamily_RT        .         Formation Resistivity         : 
TLFamily_SOIL_ARCHIE .         Oil Saturation                : 
TLFamily_SOIL_DW   .         Oil Saturation                : 
TLFamily_SP        .         Spontaneous Potential         : 
TLFamily_VSH_FIN   .         Shale Volume                  : 
TLFamily_VSH_GR    .         Shale Volume                  : 
TLFamily_VSH_SP    .         Shale Volume                  : 
~Curve Information
#_______________________________________________________________________________
#
#LOGNAME           .UNIT     LOG_ID                        : DESCRIPTION
#_______________________________________________________________________________
DEPT               .M                                      : Колонка глубины 
CALI               .м                                      : Каверномер 
COLL               .unitless                               : Описание 
CSAT               .unitless                               : Описание 
GR                 .uR/h                                   : Гамма каротаж 
GZ3                .Ohmm                                   : 2  GZ3 
NGLD               .у.е.                                   : Показания зонда НГК-60 аппаратуры ДРСТ-3-90 
OGZ                .Ohmm                                   : 3  OGZ3 
PHIE               .v/v                                    : Описание 
PHIEN              .v/v                                    :  
PHIT               .v/v                                    : Описание 
PRMB               .mD                                     :  
PRMB_DGR           .mD                                     :  
RT                 .ohmm                                   : УЭС пласта 
SOIL_ARCHIE        .v/v                                    :  
SOIL_DW            .v/v                                    :  
SP                 .мВ                                     : Потенциал самополяризации 
VSH_FIN            .v/v                                    : Описание 
VSH_GR             .v/v                                    : Shale volume 
VSH_SP             .v/v                                    : Shale Volume 
~Ascii
# ...
2050.8     0.213      1          3          9.219      2.99144    1.62       5.14972    0.2169927  0.2169927  0.2436     31.41104   401.0777   1.892      0.4778056  0.5230207  10.007     0.08583011 0.05612149 0.1155387 
2051       0.214      1          3          8.736      3.2912     1.608      4.89073    0.221417   0.221417   0.24624    40.65976   702.1365   1.967      0.4961807  0.5391771  10.055     0.08007407 0.0446504  0.1154977 
2051.2     0.214      1          3          8.178      3.44203    1.579      4.64104    0.229451   0.229451   0.25262    64.96638   1340.842   1.976      0.5126252  0.5538709  9.847      0.07473885 0.0342848  0.1151929 
2051.4     0.213      1          3          7.913      3.52244    1.569      4.30115    0.2323807  0.2323807  0.25482    77.07403   1823.084   1.937      0.513451   0.5541022  9.297      0.07238482 0.03024253 0.1145271 
2051.6     0.213      1          3          7.983      3.52317    1.581      3.96121    0.2297161  0.2297161  0.25218    65.97906   1680.975   1.865      0.4997253  0.5405872  8.588      0.07246415 0.03126151 0.1136668 
2051.8     0.212      1          3          8.235      3.564169999999999 1.598      3.64145    0.2255443  0.2255443  0.24844    51.72744   1255.099   1.801      0.4832774  0.5247314  7.656      0.0738571  0.03522253 0.1124917 
2052       0.211      1          3          8.461      4.125399999999999 1.604      3.17622    0.2238022  0.2238022  0.24712    46.72917   965.7961   1.795      0.4789607  0.52087    6.754      0.07521881 0.03919999 0.1112376 
2052.2     0.211      1          3          8.549      4.541409999999999 1.606      2.80776    0.2233082  0.2233082  0.24668    45.40192   872.1221   1.735      0.4695616  0.5116922  5.907      0.07539294 0.04086753 0.1099183 
2052.4     0.212      1          3          8.434      5.061829999999999 1.622      2.49902    0.2203037  0.2203037  0.24316    38.10315   996.5068   1.673      0.4540226  0.4957161  5.253      0.07373003 0.03870212 0.1087579 
2052.6     0.212      1          3          8.122      5.617709999999999 1.646      2.42374    0.2160375  0.2160375  0.23788    29.70882   1430.784   1.693      0.4477325  0.4881315  4.627      0.07045961 0.03338782 0.1075314 
2052.8     0.212      1          3          7.78       6.05592    1.681      2.41316    0.2092838  0.2092838  0.23018    20.03517   2127.026   1.726      0.4373623  0.4763605  4.12       0.06740716 0.02839707 0.1064172 
2053       0.213      1          3          7.504      6.25138    1.708      2.42531    0.2040513  0.2040513  0.22424    14.76515   2929.142   1.747      0.4280719  0.465929   3.67       0.06512491 0.02491888 0.1053309 
2053.2     0.214      1          3          7.501      6.10563    1.726      2.33849    0.2002451  0.2002451  0.22028    11.82542   2939.348   1.691      0.4096586  0.4471464  3.314      0.06462867 0.02488351 0.1043738 
2053.4     0.214      1          3          7.681      5.868479999999999 1.711      2.20415    0.2033398  0.2033398  0.22358    14.1649    2385.722   1.602      0.402523   0.4404984  3.012      0.06529105 0.02709688 0.1034852 
2053.6     0.212      1          3          7.889      5.736380000000001 1.692      2.00132    0.2071979  0.2071979  0.22776    17.73994   1874.523   1.484      0.3907374  0.4294187  2.795      0.06632924 0.02990086 0.1027576 
2053.8     0.211      1          3          7.888      5.73751    1.688      1.83278    0.2081795  0.2081795  0.22864    18.78532   1876.698   1.389      0.3741079  0.4127299  2.624      0.06600156 0.02988671 0.1021164 
2054       0.21       1          3          7.743      5.80667    1.684      1.78155    0.2094463  0.2094463  0.22952    20.22602   2220.254   1.363      0.371861   0.4100216  2.511      0.06475382 0.027904   0.1016036 
2054.2     0.211      1          3          7.708      5.74184    1.691      1.88452    0.2080463  0.2080463  0.22798    18.63986   2312.199   1.419      0.3800069  0.4178812  2.429      0.06430241 0.02744546 0.1011594 
2054.4     0.212      1          3          7.819      5.43627    1.695      2.05695    0.2069842  0.2069842  0.2271     17.5201    2032.995   1.492      0.391726   0.4297786  2.402      0.06488977 0.02892623 0.1008533 
2054.6     0.212      1          3          8.054      4.92847    1.682      2.19019    0.2093647  0.2093647  0.22996    20.12997   1548.148   1.516      0.4022472  0.4410731  2.375      0.06643639 0.03233013 0.1005426 
2054.8     0.212      1          3          8.201      4.34583    1.669      2.29434    0.2118787  0.2118787  0.23282    23.30941   1305.56    1.502      0.4058481  0.4452659  2.427      0.0675524  0.03466015 0.1004447 
2055       0.213      1          3          8.377      3.84705    1.665      2.29511    0.2122826  0.2122826  0.2337     23.86504   1064.585   1.438      0.3945874  0.4347137  2.537      0.06908841 0.03767173 0.1005051 
2055.2     0.213      1          3          8.423      3.25022    1.674      2.22815    0.21015    0.21015    0.23172    21.07346   1009.296   1.322      0.3646521  0.4049698  2.682      0.06958074 0.0385011  0.1006604 
2055.4     0.211      1          3          8.553      2.91689    1.685      2.12435    0.2073365  0.2073365  0.2293     17.88388   868.0863   1.229      0.3347638  0.375514   2.805      0.07085015 0.04094501 0.1007553 
2055.6     0.21       1          3          8.484      2.74536    1.694      2.22336    0.2055379  0.2055379  0.22732    16.10266   940.3833   1.228      0.3294405  0.3698068  2.947      0.07026491 0.03962914 0.1009007 
2055.8     0.21       1          3          8.396      2.64725    1.697      2.46487    0.2050979  0.2050979  0.22666    15.69466   1041.39    1.276      0.3401677  0.3801874  3.109      0.06955516 0.03801211 0.1010982 
2056       0.211      1          3          8.131      2.67192    1.694      2.67192    0.2064174  0.2064174  0.22732    16.95033   1415.933   1.336      0.3578397  0.3969793  3.283      0.06742784 0.03353037 0.1013253 
2056.2     0.21       1          3          7.858      2.54089    1.685      2.97675    0.2090165  0.2090165  0.2293     19.72519   1943.12    1.371      0.3724619  0.4108895  3.398      0.06543077 0.02946525 0.1013963 
2056.4     0.21       1          3          7.635      2.40384    1.672      3.25272    0.2123523  0.2123523  0.23216    23.96221   2516.408   1.382      0.383373   0.4213668  3.441      0.06389591 0.02651318 0.1012786 
2056.6     0.21       1          3          7.547      2.11949    1.658      3.54155    0.2156277  0.2156277  0.23524    29.00713   2786.697   1.326      0.3796129  0.4175695  3.461      0.06326537 0.02543133 0.1010994 
2056.8     0.209      1          3          7.742      2.01008    1.644      3.50784    0.218372   0.218372   0.23832    34.04279   2222.829   1.278      0.3757     0.4143042  3.439      0.06434834 0.02789079 0.1008059 
2057       0.208      1          3          7.819      1.87588    1.643      3.33632    0.2184794  0.2184794  0.23854    34.25663   2032.995   1.201      0.3575019  0.39626    3.413      0.06471175 0.02892623 0.1004973 
2057.2     0.208      1          3          7.762      1.89013    1.658      3.11072    0.2153554  0.2153554  0.23524    28.55003   2171.881   1.176      0.3429381  0.3811858  3.368      0.06414373 0.02815612 0.1001313 
2057.4     0.208      1          3          7.681      2.03937    1.693      2.90807    0.20788    0.20788    0.22754    18.45992   2385.722   1.199      0.3285369  0.3658237  3.317      0.06341952 0.02709688 0.09974216
2057.6     0.209      1          3          7.62       2.17699    1.731      2.65862    0.1997036  0.1997036  0.21918    11.45772   2560.554   1.197      0.3041106  0.3402824  3.26       0.06282713 0.02632557 0.09932868
2057.8     0.211      1          3          7.475      2.37926    1.761      2.37474    0.1934519  0.1934519  0.21258    7.956509   3029.299   1.188      0.2820259  0.3168486  3.176      0.06170361 0.02457911 0.09882813
2058       0.212      1          3          7.165      2.46992    1.772      2.19732    0.1916298  0.1916298  0.21016    7.154254   4339.392   1.163      0.2688226  0.302221   3.095      0.05977485 0.02122417 0.09832554
