~Version
 VERS              .         2.0                           : CWLS LOG ASCII STANDARD - VERSION 2.0
 WRAP              .         NO                            : ONE LINE PER DEPTH STEP
 DLM               .         SPACE                         : DELIMITING CHARACTER(SPACE TAB OR COMMA)
~Well Information
#_______________________________________________________________________________
#
#PARAMETER_NAME    .UNIT     VALUE                         : DESCRIPTION
#_______________________________________________________________________________
STRT               .M        880                           : First reference value
STOP               .M        2244                          : Last reference value
STEP               .M        0.2                           : Step increment
NULL               .         -9999                         : Missing value
COMP               .                                       : Company
WELL               .         114                           : Well name
FLD                .         УЗЕНЬ                         : Field
LOC                .                                       : Location
PROV               .                                       : Province
SRVC               .                                       : Service Company
DATE               .                                       : Date
UWI                .                                       : Unique Well ID
Block              .         7                             : 
Category           .         Нефтяная                      : 
Condition          .         В работе                      : 
CTRY               .         Казахстан                     : Название страны
Date               .         11.05.1967                    : 
EREF               .m        85.5                          : 100.8
FILE               .                                       : 
Gorizont           .         23                            : 14
Interpretator      .         Ким С.В.                      : 
Kupol              .         Хумурун                       : 
Mud                .                                       : 
Mud_density        .                                       : 
Mud_resistivity    .                                       : 
NGDU               .         НГДУ-2                        : 
ORIGINALWELLNAME   .         UZEN_114                      : 
Spud_date          .         1967                          : 1961
TAPE               .                                       : 
Viscosity          .                                       : 
X                  .m        42795.4                       : 46154
Y                  .m        84890.4                       : 85761.93
YEAR               .         2019                          : 
~Parameter Information Block
#_______________________________________________________________________________
#
#PARAMETER_NAME    .UNIT     VALUE                         : DESCRIPTION
#_______________________________________________________________________________
SET                .         LQC_KAZNIPI_Petrel            : 
TLFamily_CALI      .         Caliper                       : 
TLFamily_COLL      .         Net Reservoir Flag            : 
TLFamily_CSAT      .         Fluid Code                    : 
TLFamily_DEPT      .         Measured Depth                : 
TLFamily_GR        .         Russian Gamma Ray             : 
TLFamily_GZ3       .         Gradient 225                  : 
TLFamily_NGLD      .         Neutron Gamma                 : 
TLFamily_OGZ       .         Gradient Inverted 225         : 
TLFamily_PHIE      .         Effective Porosity            : 
TLFamily_PHIEN     .         Effective Porosity            : 
TLFamily_PHIT      .         Porosity                      : 
TLFamily_PRMB      .         Permeability                  : 
TLFamily_PRMB_DGR  .         Permeability                  : 
TLFamily_RT        .         Formation Resistivity         : 
TLFamily_SOIL_ARCHIE .         Oil Saturation                : 
TLFamily_SOIL_DW   .         Oil Saturation                : 
TLFamily_SP        .         Spontaneous Potential         : 
TLFamily_VSH_FIN   .         Shale Volume                  : 
TLFamily_VSH_GR    .         Shale Volume                  : 
TLFamily_VSH_SP    .         Shale Volume                  : 
~Curve Information
#_______________________________________________________________________________
#
#LOGNAME           .UNIT     LOG_ID                        : DESCRIPTION
#_______________________________________________________________________________
DEPT               .M                                      : Колонка глубины 
CALI               .м                                      : Каверномер 
COLL               .unitless                               : Описание 
CSAT               .unitless                               : Описание 
GR                 .uR/h                                   : Гамма каротаж 
GZ3                .Ohmm                                   : 2  GZ3 
NGLD               .у.е.                                   : Показания зонда НГК-60 аппаратуры ДРСТ-3-90 
OGZ                .Ohmm                                   : 3  OGZ3 
PHIE               .v/v                                    : Описание 
PHIEN              .v/v                                    :  
PHIT               .v/v                                    : Описание 
PRMB               .mD                                     :  
PRMB_DGR           .mD                                     :  
RT                 .ohmm                                   : УЭС пласта 
SOIL_ARCHIE        .v/v                                    :  
SOIL_DW            .v/v                                    :  
SP                 .мВ                                     : Потенциал самополяризации 
VSH_FIN            .v/v                                    : Описание 
VSH_GR             .v/v                                    : Shale volume 
VSH_SP             .v/v                                    : Shale Volume 
~Ascii
# ...
1694.2     0.239      -9999      -9999      15.273     4.494003496944111 1.491      5.2245     0.1089585  0.1089585  0.27198    0.05757688 1.400955   2.416      0.1345208  0.4572919  60.286     0.5258759  0.5653589  0.4863929 
1694.4     0.231      -9999      -9999      14.873     4.969739351982977 1.473      4.94868    0.1334602  0.1334602  0.27594    0.2404099  2.141497   2.48       0.2835181  0.5109116  58.663     0.4596121  0.4754131  0.4438111 
1694.6     0.227      -9999      -9999      14.432     5.524550364062906 1.463      4.663168   0.1550975  0.1550975  0.27814    0.8493552  3.419016   2.529      0.3771468  0.547258   56.88      0.3969113  0.3927394  0.4010833 
1694.8     0.227      8          3          13.971     5.741813290960161 1.475      4.431738   0.1690633  0.1690633  0.2755     1.918161   5.575706   2.501      0.4191791  0.5587374  55.226     0.3433443  0.3216437  0.365045  
1695       0.228      8          3          13.636     5.506559844943895 1.499      4.249744   0.1747021  0.1747021  0.27022    2.665225   7.9551     2.399      0.4244037  0.5508503  53.875     0.3081223  0.2781957  0.3380488 
1695.2     0.227      8          3          13.602     5.362563138291291 1.527      4.16343    0.1716383  0.1716383  0.26406    2.229046   8.247275   2.344      0.4090687  0.5360889  53.026     0.2981345  0.2741284  0.3221406 
1695.4     0.223      8          3          13.828     5.281273385129135 1.54       4.175462   0.16601    0.16601    0.2612     1.60523    6.489101   2.332      0.3901902  0.5252248  52.451     0.3070645  0.3023236  0.3118053 
1695.6     0.222      8          3          14.057     5.383701481958652 1.518      4.233325   0.1671425  0.1671425  0.26604    1.714849   5.089516   2.37       0.398371   0.5353061  52.015     0.3190242  0.3338524  0.304196  
1695.8     0.221      8          3          14.036     5.381088385580899 1.499      4.34575    0.1731964  0.1731964  0.27022    2.441131   5.204176   2.404      0.4206143  0.5496376  51.478     0.3129793  0.3308292  0.2951294 
1696       0.218      8          3          13.988     5.315663297930897 1.511      4.534875   0.173402   0.173402   0.26758    2.470576   5.476047   2.447      0.4260077  0.5513451  50.764     0.3038     0.3240211  0.2835789 
1696.2     0.215      8          3          14.023     5.14843780675904 1.537      4.783556   0.1689776  0.1689776  0.26186    1.9086     5.276447   2.48       0.4166189  0.5437707  49.896     0.2996207  0.3289713  0.2702703 
1696.4     0.211      8          3          14.154     4.955533135681701 1.561      4.955554   0.1627812  0.1627812  0.25658    1.329664   4.591823   2.478      0.3970964  0.5307675  48.974     0.3025768  0.3481798  0.2569738 
1696.6     0.21       8          3          14.195     4.887710033998819 1.574      5.170207   0.1590434  0.1590434  0.25372    1.069182   4.396381   2.512      0.3886959  0.5262548  48.937     0.3054084  0.3544189  0.2563979 
1696.8     0.21       8          3          14.155     4.918413869738233 1.569      5.410796   0.1583873  0.1583873  0.25482    1.029036   4.586957   2.576      0.3936915  0.532499   50.147     0.3110733  0.3483305  0.273816  
1697       0.212      8          3          14.176     4.991860033998841 1.554      5.50578    0.1552241  0.1552241  0.25812    0.8556522  4.485898   2.618      0.3876098  0.5356623  52.517     0.3319223  0.3515137  0.3123308 
1697.2     0.217      8          3          14.149     4.992546616562268 1.543      5.467124   0.1513297  0.1513297  0.26054    0.6817719  4.616245   2.61       0.3730065  0.5323918  54.895     0.3522915  0.3474264  0.3571565 
1697.4     0.222      -9999      -9999      14.101     4.924703434432332 1.548      5.33377    0.1446386  0.1446386  0.25944    0.4614608  4.857405   2.561      0.3419925  0.517623   56.912     0.3703271  0.3402768  0.4003774 
1697.6     0.227      -9999      -9999      14.056     4.792886138487622 1.553      5.100313   0.1390157  0.1390157  0.25834    0.3324209  5.094921   2.471      0.3073402  0.4994078  58.426     0.3849172  0.3337078  0.4361267 
1697.8     0.229      -9999      -9999      13.878     4.651980603750675 1.551      4.931304   0.1381733  0.1381733  0.25878    0.316481   6.153864   2.394      0.293242   0.4906231  59.725     0.389054   0.3089433  0.4691647 
1698       0.231      -9999      -9999      13.789     4.424323274139915 1.529      4.823979   0.1402322  0.1402322  0.26362    0.3568667  6.763218   2.308      0.2902067  0.4899442  60.821     0.3980253  0.2972589  0.4987917 
1698.2     0.233      -9999      -9999      14.016     4.276490033998648 1.543      4.858933   0.1274077  0.1274077  0.26054    0.1688976  5.315777   2.275      0.2231383  0.4616256  61.946     0.4294591  0.3279752  0.5309429 
1698.4     0.237      -9999      -9999      14.316     4.277173447073683 1.58       4.92814    0.1069485  0.1069485  0.2524     0.05120694 3.866752   2.29       0.09798197 0.412679   63.071     0.4691985  0.3734917  0.5649053 
1698.6     0.241      -9999      -9999      14.784     4.346381587099078 1.605      4.963085   0.08330614 0.08330614 0.2469     0.01289428 2.353546   2.317      0          0.3470667  64.113     0.5277221  0.4574328  0.5980114 
1698.8     0.243      -9999      -9999      14.992     4.430796790700708 1.604      5.06655    0.07265595 0.07265595 0.24712    0.006927802 1.887515   2.364      0          0.3196718  64.928     0.5627873  0.5005631  0.6250114 
1699       0.245      -9999      -9999      15.229     4.587586834836718 1.584      5.067239   0.06545388 0.06545388 0.25152    0.004551403 1.467899   2.408      0          0.3074928  65.535     0.6002133  0.5546851  0.6457415 
1699.2     0.246      -9999      -9999      15.197     4.773893039308885 1.569      5.051253   0.06821975 0.06821975 0.25482    0.005348269 1.518588   2.454      0          0.3297917  65.855     0.6019363  0.5470489  0.6568237 
1699.4     0.247      -9999      -9999      15.232     4.965827526675881 1.562      4.965821   0.06816119 0.06816119 0.25636    0.00533003 1.463234   2.483      0          0.3360669  65.895     0.6070929  0.5554065  0.6587794 
1699.6     0.247      -9999      -9999      15.183     5.151515487670046 1.553      4.829453   0.0742514  0.0742514  0.25834    0.007603493 1.541311   2.493      0          0.3609335  65.457     0.5938342  0.5437412  0.6439272 
1699.8     0.244      -9999      -9999      15.033     5.253895596093968 1.537      4.72737    0.08752287 0.08752287 0.26186    0.01648997 1.807175   2.488      0          0.4037431  64.601     0.5623779  0.5095331  0.6152226 
1700       0.237      -9999      -9999      14.862     5.344743429971645 1.516      4.7623     0.1054754  0.1054754  0.26648    0.04699058 2.166633   2.518      0.1267909  0.4548133  63.05      0.5193698  0.4731531  0.5655864 
1700.2     0.232      -9999      -9999      14.687     5.379290013999818 1.522      4.796851   0.1185728  0.1185728  0.26516    0.100881   2.608639   2.536      0.2140545  0.4802206  61.068     0.4728619  0.4386099  0.5071138 
1700.4     0.229      -9999      -9999      14.61      5.379560013999819 1.555      4.792463   0.1224982  0.1224982  0.2579     0.1268387  2.830681   2.535      0.2358942  0.4785303  58.899     0.4367799  0.4242209  0.4493389 
1700.6     0.228      -9999      -9999      14.668     5.379836576128962 1.565      4.623943   0.1266004  0.1266004  0.2557     0.1611286  2.661754   2.487      0.2508131  0.4780242  56.736     0.4164502  0.4350146  0.3978858 
1700.8     0.227      -9999      -9999      14.609     5.283925911222545 1.552      4.45475    0.1399176  0.1399176  0.25856    0.3503785  2.833683   2.417      0.3040519  0.4954708  54.022     0.3827174  0.4240372  0.3413975 
1701       0.224      -9999      -9999      14.556     5.170253226832415 1.541      4.28687    0.1520145  0.1520145  0.26098    0.7095591  2.997577   2.344      0.3431569  0.5079967  51.015     0.3515016  0.4144125  0.2885906 
1701.2     0.222      1          3          14.407     5.001743111790856 1.53       4.084263   0.1646196  0.1646196  0.2634     1.480174   3.510912   2.248      0.3750399  0.5169941  48.283     0.3186466  0.3885089  0.2487842 
