~Version
 VERS              .         2.0                           : CWLS LOG ASCII STANDARD - VERSION 2.0
 WRAP              .         NO                            : ONE LINE PER DEPTH STEP
 DLM               .         SPACE                         : DELIMITING CHARACTER(SPACE TAB OR COMMA)
~Well Information
#_______________________________________________________________________________
#
#PARAMETER_NAME    .UNIT     VALUE                         : DESCRIPTION
#_______________________________________________________________________________
STRT               .M        880                           : First reference value
STOP               .M        2244                          : Last reference value
STEP               .M        0.2                           : Step increment
NULL               .         -9999                         : Missing value
COMP               .                                       : Company
WELL               .         114                           : Well name
FLD                .         УЗЕНЬ                         : Field
LOC                .                                       : Location
PROV               .                                       : Province
SRVC               .                                       : Service Company
DATE               .                                       : Date
UWI                .                                       : Unique Well ID
Block              .         7                             : 
Category           .         Нефтяная                      : 
Condition          .         В работе                      : 
CTRY               .         Казахстан                     : Название страны
Date               .         11.05.1967                    : 
EREF               .m        85.5                          : 100.8
FILE               .                                       : 
Gorizont           .         23                            : 14
Interpretator      .         Ким С.В.                      : 
Kupol              .         Хумурун                       : 
Mud                .                                       : 
Mud_density        .                                       : 
Mud_resistivity    .                                       : 
NGDU               .         НГДУ-2                        : 
ORIGINALWELLNAME   .         UZEN_114                      : 
Spud_date          .         1967                          : 1961
TAPE               .                                       : 
Viscosity          .                                       : 
X                  .m        42795.4                       : 46154
Y                  .m        84890.4                       : 85761.93
YEAR               .         2019                          : 
~Parameter Information Block
#_______________________________________________________________________________
#
#PARAMETER_NAME    .UNIT     VALUE                         : DESCRIPTION
#_______________________________________________________________________________
SET                .         LQC_KAZNIPI_Petrel            : 
TLFamily_CALI      .         Caliper                       : 
TLFamily_COLL      .         Net Reservoir Flag            : 
TLFamily_CSAT      .         Fluid Code                    : 
TLFamily_DEPT      .         Measured Depth                : 
TLFamily_GR        .         Russian Gamma Ray             : 
TLFamily_GZ3       .         Gradient 225                  : 
TLFamily_NGLD      .         Neutron Gamma                 : 
TLFamily_OGZ       .         Gradient Inverted 225         : 
TLFamily_PHIE      .         Effective Porosity            : 
TLFamily_PHIEN     .         Effective Porosity            : 
TLFamily_PHIT      .         Porosity                      : 
TLFamily_PRMB      .         Permeability                  : 
TLFamily_PRMB_DGR  .         Permeability                  : 
TLFamily_RT        .         Formation Resistivity         : 
TLFamily_SOIL_ARCHIE .         Oil Saturation                : 
TLFamily_SOIL_DW   .         Oil Saturation                : 
TLFamily_SP        .         Spontaneous Potential         : 
TLFamily_VSH_FIN   .         Shale Volume                  : 
TLFamily_VSH_GR    .         Shale Volume                  : 
TLFamily_VSH_SP    .         Shale Volume                  : 
~Curve Information
#_______________________________________________________________________________
#
#LOGNAME           .UNIT     LOG_ID                        : DESCRIPTION
#_______________________________________________________________________________
DEPT               .M                                      : Колонка глубины 
CALI               .м                                      : Каверномер 
COLL               .unitless                               : Описание 
CSAT               .unitless                               : Описание 
GR                 .uR/h                                   : Гамма каротаж 
GZ3                .Ohmm                                   : 2  GZ3 
NGLD               .у.е.                                   : Показания зонда НГК-60 аппаратуры ДРСТ-3-90 
OGZ                .Ohmm                                   : 3  OGZ3 
PHIE               .v/v                                    : Описание 
PHIEN              .v/v                                    :  
PHIT               .v/v                                    : Описание 
PRMB               .mD                                     :  
PRMB_DGR           .mD                                     :  
RT                 .ohmm                                   : УЭС пласта 
SOIL_ARCHIE        .v/v                                    :  
SOIL_DW            .v/v                                    :  
SP                 .мВ                                     : Потенциал самополяризации 
VSH_FIN            .v/v                                    : Описание 
VSH_GR             .v/v                                    : Shale volume 
VSH_SP             .v/v                                    : Shale Volume 
~Ascii
# ...
1435       0.206      -9999      -9999      13.765     2.260529294901592 1.94       2.536476   0.1286906  0.1286906  0.255302   0.6773597  4.11094    1.195      0          0.2100975  40.399     0.383671   0.3642684  0.4030736 
1435.2     0.206      -9999      -9999      13.869     2.32511284746195 1.96       2.629093   0.1209049  0.1209049  0.247968   0.4859709  3.652002   1.234      0          0.1888293  39.695     0.3850396  0.3823085  0.3877707 
1435.4     0.206      -9999      -9999      13.897     2.494356778076954 1.98       2.702067   0.1191178  0.1191178  0.240634   0.4503079  3.537446   1.297      0          0.1896367  37.824     0.3682307  0.3873163  0.3491451 
1435.6     0.207      -9999      -9999      13.952     2.631813382176384 1.997      2.908844   0.1199339  0.1199339  0.2344001  0.4662565  3.322782   1.382      0          0.2048354  34.893     0.3468673  0.3973448  0.2963898 
1435.8     0.206      -9999      -9999      14.059     2.70004338864852 2.004      3.258533   0.1219606  0.1219606  0.2318332  0.5083509  2.941769   1.477      0          0.2310926  31.638     0.3329474  0.4176049  0.24829   
1436       0.206      -9999      -9999      14.075     2.767836810527104 2.011      3.586292   0.1239249  0.1239249  0.2292663  0.5527735  2.88868    1.562      0          0.2523077  29.095     0.3192165  0.420722   0.2177112 
1436.2     0.206      6          6          13.93      2.836923434132635 2.037      3.98538    0.1207046  0.1207046  0.2197321  0.481836   3.407037   1.657      0.001405895 0.2475844  28.048     0.3000835  0.3933027  0.2068644 
1436.4     0.206      6          6          13.559     2.871596804285417 2.083      4.366069   0.1130459  0.1130459  0.2028639  0.3475698  5.197243   1.732      0          0.2075671  28.648     0.2721759  0.3310092  0.2133425 
1436.6     0.205      6          6          13.222     2.806383159309132 2.12       4.70362    0.1044031  0.1044031  0.189296   0.2404122  7.627144   1.758      0          0.1534702  30.223     0.2572514  0.2830195  0.2314833 
1436.8     0.205      6          6          12.975     2.636966031516163 2.122      4.918364   0.1053117  0.1053117  0.1885626  0.2499119  10.10324   1.717      0          0.1445425  31.821     0.2522754  0.2523244  0.2522263 
1437       0.205      6          6          12.826     2.364928212260573 2.06       5.22944    0.1288204  0.1288204  0.211298   0.6811226  11.9706    1.628      0.04857792 0.2441482  32.671     0.249932   0.2354417  0.2644224 
1437.2     0.205      1          3          12.653     2.390999172793901 2.024      5.609892   0.1453872  0.1453872  0.2244992  1.380642   14.57589   1.676      0.1553236  0.3165007  32.495     0.2397335  0.2172517  0.2622153 
1437.4     0.206      1          3          12.621     2.528903430627435 2.027      6.060055   0.1470187  0.1470187  0.2233991  1.480133   15.11658   1.784      0.1876513  0.3387781  31.505     0.2314558  0.2140445  0.2488672 
1437.6     0.207      1          3          12.559     2.563577770332779 2.029      6.451746   0.1503091  0.1503091  0.2226657  1.703129   16.22191   1.835      0.2136319  0.352929   30.036     0.2192623  0.2079645  0.2305602 
1437.8     0.208      1          3          12.393     2.508015229929049 2.021      6.227675   0.1587907  0.1587907  0.2255993  2.44538    19.5957    1.788      0.2411593  0.3644779  28.403     0.2024505  0.1925226  0.2123784 
1438       0.209      1          3          11.982     2.426500012999652 2.026      5.788616   0.1652069  0.1652069  0.2237658  3.215071   31.28453   1.71       0.2513864  0.3581648  26.715     0.1774512  0.1590454  0.1958569 
1438.2     0.211      1          3          11.675     2.479880121624579 2.04       5.454726   0.1660009  0.1660009  0.218632   3.325809   44.36992   1.705      0.2534809  0.35006    24.976     0.1594883  0.1378964  0.1810801 
1438.4     0.21       1          3          11.594     2.705266759995024 2.067      5.284526   0.1590512  0.1590512  0.2087311  2.472705   48.65522   1.789      0.2424409  0.3364358  23.22      0.1505452  0.1328015  0.1682889 
1438.6     0.209      6          6          11.662     3.100777326802601 2.094      5.042354   0.1501981  0.1501981  0.1988302  1.695085   45.03136   1.92       0.2296694  0.3250422  21.503     0.1473698  0.1370657  0.157674  
1438.8     0.207      6          6          11.684     3.480422119075685 2.124      4.515821   0.1402612  0.1402612  0.1878292  1.109521   43.91771   1.966      0.191383   0.2903832  20.006     0.1441454  0.1384744  0.1498164 
1439       0.207      6          6          11.549     3.963838947266139 2.146      4.022776   0.1344339  0.1344339  0.1797618  0.8653651  51.21231   1.997      0.1670766  0.2647813  18.871     0.1373575  0.1300528  0.1446621 
1439.2     0.207      1          3          11.422     4.204961352621246 2.142      3.941594   0.1376021  0.1376021  0.1812286  0.9905648  59.17712   2.035      0.1909924  0.2823057  18.166     0.1322016  0.1225983  0.1418048 
1439.4     0.207      1          3          11.15      4.424114444264909 2.124      4.446157   0.1468114  0.1468114  0.1878292  1.467104   80.65134   2.218      0.265656   0.3450183  17.827     0.1242963  0.1080391  0.1405535 
1439.6     0.207      1          3          10.844     4.328400257923146 2.115      4.592258   0.1525208  0.1525208  0.1911295  1.8716     114.2552   2.228      0.2911543  0.3635542  17.733     0.1169961  0.09371621 0.1402759 
1439.8     0.206      6          6          10.44      4.374855706538688 2.138      3.786778   0.1466508  0.1466508  0.1826954  1.457093   180.961    2.03       0.2337617  0.3042473  17.841     0.1092259  0.07767243 0.1407794 
1440       0.207      6          6          10.271     5.402569084411243 2.177      3.254469   0.1330161  0.1330161  0.1683941  0.8145911  219.3444   2.031      0.1659835  0.2400323  18.275     0.1072059  0.07180491 0.1426069 
1440.2     0.207      6          6          10.283     6.575123534465219 2.189      2.751992   0.1279158  0.1279158  0.1639937  0.6553439  216.3687   1.94       0.1183308  0.1971461  19.14      0.1093271  0.07220651 0.1464476 
1440.4     0.206      6          6          10.569     7.25061678837247 2.158      2.316333   0.1364011  0.1364011  0.1753614  0.9411053  156.2487   1.756      0.1263853  0.209874   20.578     0.1180614  0.08247186 0.1536509 
1440.6     0.205      1          3          10.981     6.88978520623055 2.106      2.08599    0.1506895  0.1506895  0.1944298  1.730985   97.75815   1.601      0.1634899  0.2524943  22.515     0.1325464  0.09987766 0.1652151 
1440.8     0.205      1          3          11.555     6.479779887078287 2.065      2.120473   0.157908   0.157908   0.2094645  2.355032   50.86371   1.598      0.1961875  0.2970963  24.81      0.1562318  0.130416   0.1820476 
1441       0.205      1          3          12.105     5.969982299230846 2.056      2.155363   0.1506873  0.1506873  0.2127648  1.730821   27.1974    1.584      0.1592781  0.2859648  27.613     0.1881137  0.1684026  0.2078248 
1441.2     0.206      1          3          12.656     5.44737381991366 2.054      2.256757   0.13723    0.13723    0.2134982  0.9749695  14.5262    1.596      0.09113608 0.2611445  30.768     0.2311158  0.2175548  0.2446768 
1441.4     0.207      1          3          13.063     4.966373568003047 2.059      2.396777   0.1193166  0.1193166  0.2116647  0.4541404  9.140299   1.617      0          0.2177147  34.28      0.2798429  0.2628585  0.2968273 
1441.6     0.208      1          3          13.34      4.481296938505392 2.05       2.50027    0.1072839  0.1072839  0.214965   0.2718422  6.668545   1.605      0          0.1872383  37.366     0.3263063  0.298975   0.3536377 
1441.8     0.21       1          3          13.469     4.250683552350636 2.038      2.500536   0.09927764 0.09927764 0.2193654  0.1932061  5.757883   1.574      0          0.1634824  39.965     0.3639022  0.3174487  0.4103557 
1442       0.212      -9999      -9999      13.722     4.152426357068481 2.013      2.431994   0.09368189 0.09368189 0.2285329  0.1521857  4.317152   1.534      0          0.1543008  41.971     0.4086394  0.3570606  0.4602183 
