~Version
 VERS              .         2.0                           : CWLS LOG ASCII STANDARD - VERSION 2.0
 WRAP              .         NO                            : ONE LINE PER DEPTH STEP
 DLM               .         SPACE                         : DELIMITING CHARACTER(SPACE TAB OR COMMA)
~Well Information
#_______________________________________________________________________________
#
#PARAMETER_NAME    .UNIT     VALUE                         : DESCRIPTION
#_______________________________________________________________________________
STRT               .M        880                           : First reference value
STOP               .M        2244                          : Last reference value
STEP               .M        0.2                           : Step increment
NULL               .         -9999                         : Missing value
COMP               .                                       : Company
WELL               .         114                           : Well name
FLD                .         УЗЕНЬ                         : Field
LOC                .                                       : Location
PROV               .                                       : Province
SRVC               .                                       : Service Company
DATE               .                                       : Date
UWI                .                                       : Unique Well ID
Block              .         7                             : 
Category           .         Нефтяная                      : 
Condition          .         В работе                      : 
CTRY               .         Казахстан                     : Название страны
Date               .         11.05.1967                    : 
EREF               .m        85.5                          : 100.8
FILE               .                                       : 
Gorizont           .         23                            : 14
Interpretator      .         Ким С.В.                      : 
Kupol              .         Хумурун                       : 
Mud                .                                       : 
Mud_density        .                                       : 
Mud_resistivity    .                                       : 
NGDU               .         НГДУ-2                        : 
ORIGINALWELLNAME   .         UZEN_114                      : 
Spud_date          .         1967                          : 1961
TAPE               .                                       : 
Viscosity          .                                       : 
X                  .m        42795.4                       : 46154
Y                  .m        84890.4                       : 85761.93
YEAR               .         2019                          : 
~Parameter Information Block
#_______________________________________________________________________________
#
#PARAMETER_NAME    .UNIT     VALUE                         : DESCRIPTION
#_______________________________________________________________________________
SET                .         LQC_KAZNIPI_Petrel            : 
TLFamily_CALI      .         Caliper                       : 
TLFamily_COLL      .         Net Reservoir Flag            : 
TLFamily_CSAT      .         Fluid Code                    : 
TLFamily_DEPT      .         Measured Depth                : 
TLFamily_GR        .         Russian Gamma Ray             : 
TLFamily_GZ3       .         Gradient 225                  : 
TLFamily_NGLD      .         Neutron Gamma                 : 
TLFamily_OGZ       .         Gradient Inverted 225         : 
TLFamily_PHIE      .         Effective Porosity            : 
TLFamily_PHIEN     .         Effective Porosity            : 
TLFamily_PHIT      .         Porosity                      : 
TLFamily_PRMB      .         Permeability                  : 
TLFamily_PRMB_DGR  .         Permeability                  : 
TLFamily_RT        .         Formation Resistivity         : 
TLFamily_SOIL_ARCHIE .         Oil Saturation                : 
TLFamily_SOIL_DW   .         Oil Saturation                : 
TLFamily_SP        .         Spontaneous Potential         : 
TLFamily_VSH_FIN   .         Shale Volume                  : 
TLFamily_VSH_GR    .         Shale Volume                  : 
TLFamily_VSH_SP    .         Shale Volume                  : 
~Curve Information
#_______________________________________________________________________________
#
#LOGNAME           .UNIT     LOG_ID                        : DESCRIPTION
#_______________________________________________________________________________
DEPT               .M                                      : Колонка глубины 
CALI               .м                                      : Каверномер 
COLL               .unitless                               : Описание 
CSAT               .unitless                               : Описание 
GR                 .uR/h                                   : Гамма каротаж 
GZ3                .Ohmm                                   : 2  GZ3 
NGLD               .у.е.                                   : Показания зонда НГК-60 аппаратуры ДРСТ-3-90 
OGZ                .Ohmm                                   : 3  OGZ3 
PHIE               .v/v                                    : Описание 
PHIEN              .v/v                                    :  
PHIT               .v/v                                    : Описание 
PRMB               .mD                                     :  
PRMB_DGR           .mD                                     :  
RT                 .ohmm                                   : УЭС пласта 
SOIL_ARCHIE        .v/v                                    :  
SOIL_DW            .v/v                                    :  
SP                 .мВ                                     : Потенциал самополяризации 
VSH_FIN            .v/v                                    : Описание 
VSH_GR             .v/v                                    : Shale volume 
VSH_SP             .v/v                                    : Shale Volume 
~Ascii
# ...
1341.4     0.212      -9999      -9999      13.604     2.279013455670583 1.894      1.65878    0.1451958  0.1451958  0.2721702  1.369418   2.734087   0.96       0          0.1524742  39.478     0.3847709  0.430278   0.3392639 
1341.6     0.213      -9999      -9999      13.381     2.346526781023799 1.907      1.6595     0.1424837  0.1424837  0.2674031  1.219836   3.595146   0.972      0          0.1422983  41.147     0.3785437  0.3847659  0.3723216 
1341.8     0.212      -9999      -9999      13.273     2.280466564250597 1.917      1.69468    0.1370026  0.1370026  0.2637361  0.9655567  4.104897   0.972      0          0.1214704  42.597     0.384041   0.3644873  0.4035947 
1342       0.213      -9999      -9999      13.326     2.185189297873315 1.939      1.72985    0.1222389  0.1222389  0.2556687  0.5144213  3.846293   0.966      0          0.06055924 43.923     0.4043327  0.3743017  0.4343637 
1342.2     0.213      -9999      -9999      13.38      2.144090035996978 1.972      1.675355   0.1035213  0.1035213  0.2435676  0.2315385  3.599561   0.94       0          0          45.129     0.4243828  0.3845731  0.4641925 
1342.4     0.214      -9999      -9999      13.515     2.144813455024773 1.99       1.611743   0.08930609 0.08930609 0.236967   0.1262768  3.04977    0.92       0          0          45.88      0.4474573  0.4115018  0.4834128 
1342.6     0.214      -9999      -9999      13.658     2.21446209803092 2.006      1.732018   0.08037122 0.08037122 0.2310998  0.0862637  2.558701   0.972      0          0          45.462     0.4567532  0.4420854  0.471421  
1342.8     0.214      -9999      -9999      13.777     2.269698023419206 2.043      1.922123   0.07119413 0.07119413 0.2175319  0.05832385 2.210896   1.041      0          0          43.346     0.4434478  0.469262   0.4176336 
1343       0.213      -9999      -9999      13.81      2.215023127488762 2.072      2.128847   0.07318619 0.07318619 0.2068976  0.06349563 2.123111   1.086      0          0          39.397     0.4051861  0.47709    0.3332821 
1343.2     0.213      1          3          13.615     2.119779383103317 2.091      2.232532   0.08686179 0.08686179 0.1999303  0.1137756  2.697412   1.087      0          0          34.427     0.3426318  0.4326573  0.2526063 
1343.4     0.212      1          3          13.192     2.113983454621206 2.085      2.355232   0.1122923  0.1122923  0.2021305  0.3365761  4.534102   1.114      0          0          29.306     0.272237   0.3499829  0.1944911 
1343.6     0.21       1          3          12.626     2.230092272384336 2.067      2.32149    0.1385723  0.1385723  0.2087311  1.032414   9.084131   1.137      0          0.07163294 25.012     0.2126024  0.2635209  0.1616839 
1343.8     0.21       1          3          12.188     2.287760035997168 2.053      2.287758   0.1550328  0.1550328  0.2138649  2.083254   15.55343   1.144      0          0.1295172  21.854     0.178279   0.2115689  0.1449891 
1344       0.211      1          3          11.966     2.279927431588637 2.048      2.211496   0.1618699  0.1618699  0.2156984  2.788572   20.42664   1.123      0.02468809 0.1416031  19.822     0.1631165  0.1892854  0.1369476 
1344.2     0.211      1          3          11.919     2.185816328337344 2.043      2.009118   0.1651051  0.1651051  0.2175319  3.201148   21.64001   1.047      0.009306467 0.122733   18.567     0.158869   0.1848775  0.1328606 
1344.4     0.211      1          3          11.853     2.114263375298674 2.038      2.011733   0.1683107  0.1683107  0.2193654  3.670127   23.46652   1.031      0.01869446 0.1273881  17.77      0.154711   0.1788604  0.1305616 
1344.6     0.21       1          3          11.689     1.980463163356059 2.035      1.877766   0.1719504  0.1719504  0.2204655  4.286442   28.70077   0.964      0.005955704 0.1083518  17.3       0.1470153  0.1647432  0.1292874 
1344.8     0.21       1          3          11.479     1.830527082826963 2.055      1.743696   0.1674033  0.1674033  0.2131315  3.530797   37.14205   0.893      0          0.04458822 17.154     0.1385703  0.148281   0.1288596 
1345       0.21       1          3          11.245     1.671710035996125 2.071      1.67171    0.1641365  0.1641365  0.2072643  3.071603   49.50342   0.836      0          0          17.449     0.1306901  0.1318676  0.1295125 
1345.2     0.211      1          3          10.957     1.637960035996045 2.07       1.63796    0.1670199  0.1670199  0.207631   3.473539   70.50134   0.819      0          0          18.41      0.123064   0.1141389  0.131989  
1345.4     0.211      1          3          10.802     1.638683446504549 2.036      1.638683   0.1798895  0.1798895  0.2200988  6.013775   85.27927   0.819      0          0.05031947 20.351     0.1218465  0.1056055  0.1380875 
1345.6     0.21       1          3          10.779     1.673867896843781 2.014      1.673876   0.1860221  0.1860221  0.2281662  7.811592   87.72169   0.837      0.008157329 0.09283476 23.397     0.1277093  0.1043948  0.1510238 
1345.8     0.209      1          3          10.977     1.674593447276416 1.99       1.86908    0.188997   0.188997   0.236967   8.868302   68.79123   0.883      0.0460221  0.1414989  27.357     0.1453637  0.1152891  0.1754384 
1346       0.209      1          3          11.197     1.744253448684427 1.922      2.111302   0.2054049  0.2054049  0.2619026  17.85481   52.50843   0.955      0.1447891  0.247686   31.622     0.1712051  0.1287322  0.2136779 
1346.2     0.21       1          3          11.383     1.831906758782866 1.847      2.318666   0.2225701  0.2225701  0.2894051  37.12758   41.78815   1.023      0.2278578  0.3366544  35.662     0.2025302  0.1413137  0.2637468 
1346.4     0.21       -9999      -9999      11.428     1.934935172257349 1.777      2.560894   0.2385073  0.2385073  0.3150741  73.26418   39.54203   1.102      0.2979333  0.4089631  39.145     0.2320207  0.1445379  0.3195035 
1346.6     0.212      -9999      -9999      11.35      2.038075273196833 1.752      2.755711   0.238992   0.238992   0.3242416  74.79439   43.51598   1.172      0.3191372  0.4367355  42.128     0.2583323  0.138995   0.3776695 
1346.8     0.217      -9999      -9999      11.259     2.126334845376852 1.768      2.940927   0.2241073  0.2241073  0.3183744  39.64329   48.65981   1.234      0.2971264  0.4299479  44.792     0.2856577  0.1327964  0.4385191 
1347       0.224      -9999      -9999      11.357     2.230480035997096 1.816      3.023368   0.1969161  0.1969161  0.3007728  12.43148   43.1436    1.284      0.2278387  0.3901964  46.791     0.3147171  0.1394836  0.4899507 
1347.2     0.234      -9999      -9999      11.609     2.26568003699698 1.867      2.937325   0.1736271  0.1736271  0.2820711  4.604185   31.66282   1.279      0.1367972  0.3316155  47.146     0.3286183  0.1582668  0.4989698 
1347.4     0.243      -9999      -9999      11.99      2.290617602497998 1.911      2.902586   0.1608316  0.1608316  0.2659363  2.667777   19.83353   1.28       0.07762115 0.2861694  45.156     0.3184991  0.1915766  0.4454216 
1347.6     0.247      -9999      -9999      12.351     2.224833196023459 1.942      3.025605   0.1580267  0.1580267  0.2545686  2.366982   12.73251   1.282      0.06406402 0.2628472  41.209     0.2925513  0.2295836  0.3555191 
1347.8     0.245      -9999      -9999      12.551     2.052322530196627 1.969      3.129777   0.1566029  0.1566029  0.2446677  2.227528   9.960335   1.24       0.04179589 0.2299657  36.981     0.2668631  0.2537965  0.2799297 
1348       0.233      1          3          12.608     1.684242000676852 1.981      3.221421   0.1587937  0.1587937  0.2402673  2.445696   9.287127   1.106      0.001128014 0.1807247  33.574     0.2468898  0.2611535  0.2326261 
1348.2     0.221      1          3          12.479     1.510830034995947 1.973      3.234687   0.1685599  0.1685599  0.2432009  3.709339   10.88089   1.03       0.01951161 0.1778302  31.359     0.2261848  0.244799   0.2075706 
1348.4     0.212      1          3          12.415     1.546028932912333 1.945      3.158323   0.1825716  0.1825716  0.2534685  6.742609   11.77034   1.038      0.08869898 0.2268472  29.828     0.2148389  0.2370692  0.1926085 
