~Version
 VERS              .         2.0                           : CWLS LOG ASCII STANDARD - VERSION 2.0
 WRAP              .         NO                            : ONE LINE PER DEPTH STEP
 DLM               .         SPACE                         : DELIMITING CHARACTER(SPACE TAB OR COMMA)
~Well Information
#_______________________________________________________________________________
#
#PARAMETER_NAME    .UNIT     VALUE                         : DESCRIPTION
#_______________________________________________________________________________
STRT               .M        880                           : First reference value
STOP               .M        2244                          : Last reference value
STEP               .M        0.2                           : Step increment
NULL               .         -9999                         : Missing value
COMP               .                                       : Company
WELL               .         114                           : Well name
FLD                .         УЗЕНЬ                         : Field
LOC                .                                       : Location
PROV               .                                       : Province
SRVC               .                                       : Service Company
DATE               .                                       : Date
UWI                .                                       : Unique Well ID
Block              .         7                             : 
Category           .         Нефтяная                      : 
Condition          .         В работе                      : 
CTRY               .         Казахстан                     : Название страны
Date               .         11.05.1967                    : 
EREF               .m        85.5                          : 100.8
FILE               .                                       : 
Gorizont           .         23                            : 14
Interpretator      .         Ким С.В.                      : 
Kupol              .         Хумурун                       : 
Mud                .                                       : 
Mud_density        .                                       : 
Mud_resistivity    .                                       : 
NGDU               .         НГДУ-2                        : 
ORIGINALWELLNAME   .         UZEN_114                      : 
Spud_date          .         1967                          : 1961
TAPE               .                                       : 
Viscosity          .                                       : 
X                  .m        42795.4                       : 46154
Y                  .m        84890.4                       : 85761.93
YEAR               .         2019                          : 
~Parameter Information Block
#_______________________________________________________________________________
#
#PARAMETER_NAME    .UNIT     VALUE                         : DESCRIPTION
#_______________________________________________________________________________
SET                .         LQC_KAZNIPI_Petrel            : 
TLFamily_CALI      .         Caliper                       : 
TLFamily_COLL      .         Net Reservoir Flag            : 
TLFamily_CSAT      .         Fluid Code                    : 
TLFamily_DEPT      .         Measured Depth                : 
TLFamily_GR        .         Russian Gamma Ray             : 
TLFamily_GZ3       .         Gradient 225                  : 
TLFamily_NGLD      .         Neutron Gamma                 : 
TLFamily_OGZ       .         Gradient Inverted 225         : 
TLFamily_PHIE      .         Effective Porosity            : 
TLFamily_PHIEN     .         Effective Porosity            : 
TLFamily_PHIT      .         Porosity                      : 
TLFamily_PRMB      .         Permeability                  : 
TLFamily_PRMB_DGR  .         Permeability                  : 
TLFamily_RT        .         Formation Resistivity         : 
TLFamily_SOIL_ARCHIE .         Oil Saturation                : 
TLFamily_SOIL_DW   .         Oil Saturation                : 
TLFamily_SP        .         Spontaneous Potential         : 
TLFamily_VSH_FIN   .         Shale Volume                  : 
TLFamily_VSH_GR    .         Shale Volume                  : 
TLFamily_VSH_SP    .         Shale Volume                  : 
~Curve Information
#_______________________________________________________________________________
#
#LOGNAME           .UNIT     LOG_ID                        : DESCRIPTION
#_______________________________________________________________________________
DEPT               .M                                      : Колонка глубины 
CALI               .м                                      : Каверномер 
COLL               .unitless                               : Описание 
CSAT               .unitless                               : Описание 
GR                 .uR/h                                   : Гамма каротаж 
GZ3                .Ohmm                                   : 2  GZ3 
NGLD               .у.е.                                   : Показания зонда НГК-60 аппаратуры ДРСТ-3-90 
OGZ                .Ohmm                                   : 3  OGZ3 
PHIE               .v/v                                    : Описание 
PHIEN              .v/v                                    :  
PHIT               .v/v                                    : Описание 
PRMB               .mD                                     :  
PRMB_DGR           .mD                                     :  
RT                 .ohmm                                   : УЭС пласта 
SOIL_ARCHIE        .v/v                                    :  
SOIL_DW            .v/v                                    :  
SP                 .мВ                                     : Потенциал самополяризации 
VSH_FIN            .v/v                                    : Описание 
VSH_GR             .v/v                                    : Shale volume 
VSH_SP             .v/v                                    : Shale Volume 
~Ascii
# ...
1874.2     0.217      1          3          10.19      1.906259990999788 1.722      4.344388   0.1924863  0.1924863  0.22116    7.520769   209.6624   1.325      0.3148927  0.3656047  12.798     0.09249575 0.07314082 0.1118507 
1874.4     0.217      1          3          10.652     1.947526668528651 1.713      3.844889   0.1916546  0.1916546  0.22314    7.16461    121.4792   1.293      0.3043691  0.3597003  12.684     0.1015657  0.09139923 0.1117323 
1874.6     0.217      1          3          11.211     2.146280989803148 1.724      3.437026   0.1849106  0.1849106  0.22072    4.834449   62.76532   1.321      0.2895027  0.3523771  12.363     0.1155141  0.1196865  0.1113418 
1874.8     0.217      1          3          11.445     2.399113973143809 1.739      3.058289   0.1794807  0.1794807  0.21742    3.522007   47.60712   1.344      0.2767001  0.343881   11.929     0.1223849  0.1339877  0.1107822 
1875       0.216      1          3          11.047     2.766963183185337 1.745      2.618383   0.1818844  0.1818844  0.2161     4.052123   76.18271   1.345      0.285282   0.3458251  11.473     0.110373   0.1105833  0.1101627 
1875.2     0.215      1          3          9.976      3.211926748671509 1.735      2.41857    0.1910799  0.1910799  0.2183     6.928408   269.9656   1.38       0.3235374  0.3718394  11.106     0.08780677 0.06596749 0.1096461 
1875.4     0.214      1          3          9.658      3.554216641303471 1.725      2.31724    0.1947623  0.1947623  0.2205     8.588536   393.0527   1.403      0.3398311  0.3857366  10.966     0.08302492 0.05658657 0.1094633 
1875.6     0.215      1          3          9.521      3.861096576074832 1.711      2.351406   0.1983769  0.1983769  0.22358    10.60446   462.0995   1.461      0.3625533  0.4075524  11.055     0.08130036 0.05296803 0.1096327 
1875.8     0.216      1          3          9.605      4.235182723410674 1.701      2.454223   0.2001601  0.2001601  0.22578    11.76693   418.448    1.554      0.385556   0.4309349  11.367     0.08264474 0.05515826 0.1101312 
1876       0.216      1          3          9.569      4.513970132343238 1.685      2.488377   0.2036861  0.2036861  0.2293     14.45392   436.6265   1.604      0.403757   0.448968   11.992     0.08262566 0.05420873 0.1110426 
1876.2     0.216      1          3          9.467      4.852186917460786 1.675      2.55685    0.2059897  0.2059897  0.2315     16.53268   492.537    1.674      0.4212858  0.4661466  13.516     0.0822914  0.05160616 0.1129766 
1876.4     0.216      1          3          9.531      5.042433990172443 1.67       2.55667    0.2064502  0.2064502  0.2326     16.98281   456.6728   1.696      0.4259384  0.4715317  15.822     0.08435424 0.05322415 0.1154843 
1876.6     0.215      1          3          9.837      5.036299682035634 1.682      2.614697   0.2020848  0.2020848  0.22996    13.16498   318.1405   1.721      0.419155   0.4669758  18.343     0.0899201  0.06168951 0.1181507 
1876.8     0.215      1          3          10.398     4.773626256051143 1.694      2.762305   0.1960911  0.1960911  0.22732    9.280759   163.9876   1.75       0.4083798  0.4607884  20.353     0.1007382  0.08085985 0.1206166 
1877       0.215      1          3          10.88      4.490593941285 1.714      3.057593   0.1881857  0.1881857  0.22292    5.852141   92.79654   1.819      0.3978191  0.4554186  21.348     0.1120461  0.1020247  0.1220675 
1877.2     0.214      1          3          10.829     4.21773692944497 1.724      3.276862   0.1864026  0.1864026  0.22072    5.274044   98.55895   1.844      0.3966822  0.453829   21.187     0.1107012  0.09954549 0.121857  
1877.4     0.213      1          3          10.433     3.857882648621936 1.746      3.603678   0.1846007  0.1846007  0.21588    4.74783    157.3458   1.863      0.3944761  0.4475361  19.472     0.100901   0.08223657 0.1195654 
1877.6     0.214      1          3          10.053     3.536600684033273 1.753      3.757058   0.1856379  0.1856379  0.21434    5.043942   246.4932   1.822      0.3910983  0.4405581  16.889     0.09258754 0.06846371 0.1167114 
1877.8     0.214      1          3          9.644      3.193336057018332 1.757      3.894145   0.1870868  0.1870868  0.21346    5.488795   399.607    1.755      0.3844805  0.4306827  14.209     0.08507474 0.05620573 0.1139437 
1878       0.214      1          3          9.541      2.954773130775695 1.742      4.010327   0.1911712  0.1911712  0.21676    6.96541    451.3098   1.701      0.3870259  0.4321223  12.207     0.08254451 0.0534815  0.1116075 
1878.2     0.214      1          3          9.638      2.829636537908708 1.722      4.14596    0.1954223  0.1954223  0.22116    8.925633   402.4497   1.682      0.3954777  0.4407637  11.029     0.08302493 0.05604329 0.1100066 
1878.4     0.214      1          3          9.719      2.760809990999853 1.687      4.271111   0.2029056  0.2029056  0.22886    13.81066   365.7263   1.677      0.4141248  0.4595916  10.463     0.08372381 0.05827631 0.1091713 
1878.6     0.215      1          3          9.893      2.760619990999853 1.65       4.451269   0.2102897  0.2102897  0.237      21.24596   297.7759   1.704      0.4363241  0.4824889  10.301     0.0861622  0.06337859 0.1089458 
1878.8     0.216      1          3          10.141     2.760436536362918 1.62       4.379792   0.2156494  0.2156494  0.2436     29.04377   222.1564   1.693      0.4468669  0.4943534  10.248     0.0901633  0.07143237 0.1088942 
1879       0.217      1          3          10.402     2.677637064551977 1.614      4.162373   0.2154567  0.2154567  0.24492    28.71913   163.2144   1.629      0.4363346  0.4858377  10.336     0.095043   0.08101605 0.10907   
1879.2     0.216      1          3          10.477     2.449246620797915 1.622      3.920676   0.213187   0.213187   0.24316    25.15788   149.3763   1.508      0.4101296  0.4609206  10.507     0.09668703 0.08400062 0.1093735 
1879.4     0.216      1          3          10.585     2.382353398644421 1.641      3.651016   0.2082514  0.2082514  0.23898    18.86429   131.4846   1.442      0.3851952  0.4375416  10.735     0.09912438 0.08849259 0.1097562 
1879.6     0.216      1          3          10.72      2.450819866716231 1.651      3.378062   0.205104   0.205104   0.23678    15.70028   112.1027   1.42       0.3724754  0.4263941  10.819     0.1021805  0.09444687 0.1099141 
1879.8     0.217      1          3          10.838     2.688080014147482 1.652      3.137026   0.2040808  0.2040808  0.23656    14.79063   97.51667   1.448      0.3754848  0.4303973  10.567     0.1047715  0.09997857 0.1095645 
1880       0.218      1          3          10.731     2.862292886398864 1.645      2.862283   0.2065488  0.2065488  0.2381     17.0808    110.6555   1.431      0.3785546  0.4321437  9.946      0.101778   0.09494932 0.1086067 
1880.2     0.218      1          3          10.256     3.027770045513609 1.645      2.710745   0.2097913  0.2097913  0.2381     20.63715   193.9371   1.43       0.3867272  0.4359134  9.083      0.09131845 0.07550678 0.1071301 
1880.4     0.217      1          3          9.743      3.224398055146959 1.648      2.656006   0.2119415  0.2119415  0.23744    23.39489   355.5031   1.456      0.3972676  0.4426866  8.255      0.08225323 0.05895487 0.1055516 
1880.6     0.217      1          3          9.25       3.514808151744413 1.655      2.587197   0.2125551  0.2125551  0.2359     24.24736   636.4521   1.49       0.4052605  0.4478316  7.577      0.07530624 0.04647754 0.1041349 
1880.8     0.217      1          3          9.175      3.743415648358115 1.649      2.770606   0.2142277  0.2142277  0.23722    26.73233   695.4128   1.592      0.4273788  0.4693269  7.284      0.07416877 0.04482618 0.1035114 
1881       0.218      1          3          9.227      4.073323350817 1.651      2.917279   0.2135859  0.2135859  0.23678    25.75013   653.9811   1.7        0.4432946  0.4852402  7.333      0.07481955 0.04596476 0.1036743 
1881.2     0.219      1          3          9.329      4.323490093274808 1.64       3.08711    0.2155498  0.2155498  0.2392     28.87549   579.7442   1.801      0.4624715  0.504715   7.587      0.07629108 0.04828282 0.1042994 
