~Version
 VERS              .         2.0                           : CWLS LOG ASCII STANDARD - VERSION 2.0
 WRAP              .         NO                            : ONE LINE PER DEPTH STEP
 DLM               .         SPACE                         : DELIMITING CHARACTER(SPACE TAB OR COMMA)
~Well Information
#_______________________________________________________________________________
#
#PARAMETER_NAME    .UNIT     VALUE                         : DESCRIPTION
#_______________________________________________________________________________
STRT               .M        880                           : First reference value
STOP               .M        2244                          : Last reference value
STEP               .M        0.2                           : Step increment
NULL               .         -9999                         : Missing value
COMP               .                                       : Company
WELL               .         114                           : Well name
FLD                .         УЗЕНЬ                         : Field
LOC                .                                       : Location
PROV               .                                       : Province
SRVC               .                                       : Service Company
DATE               .                                       : Date
UWI                .                                       : Unique Well ID
Block              .         7                             : 
Category           .         Нефтяная                      : 
Condition          .         В работе                      : 
CTRY               .         Казахстан                     : Название страны
Date               .         11.05.1967                    : 
EREF               .m        85.5                          : 100.8
FILE               .                                       : 
Gorizont           .         23                            : 14
Interpretator      .         Ким С.В.                      : 
Kupol              .         Хумурун                       : 
Mud                .                                       : 
Mud_density        .                                       : 
Mud_resistivity    .                                       : 
NGDU               .         НГДУ-2                        : 
ORIGINALWELLNAME   .         UZEN_114                      : 
Spud_date          .         1967                          : 1961
TAPE               .                                       : 
Viscosity          .                                       : 
X                  .m        42795.4                       : 46154
Y                  .m        84890.4                       : 85761.93
YEAR               .         2019                          : 
~Parameter Information Block
#_______________________________________________________________________________
#
#PARAMETER_NAME    .UNIT     VALUE                         : DESCRIPTION
#_______________________________________________________________________________
SET                .         LQC_KAZNIPI_Petrel            : 
TLFamily_CALI      .         Caliper                       : 
TLFamily_COLL      .         Net Reservoir Flag            : 
TLFamily_CSAT      .         Fluid Code                    : 
TLFamily_DEPT      .         Measured Depth                : 
TLFamily_GR        .         Russian Gamma Ray             : 
TLFamily_GZ3       .         Gradient 225                  : 
TLFamily_NGLD      .         Neutron Gamma                 : 
TLFamily_OGZ       .         Gradient Inverted 225         : 
TLFamily_PHIE      .         Effective Porosity            : 
TLFamily_PHIEN     .         Effective Porosity            : 
TLFamily_PHIT      .         Porosity                      : 
TLFamily_PRMB      .         Permeability                  : 
TLFamily_PRMB_DGR  .         Permeability                  : 
TLFamily_RT        .         Formation Resistivity         : 
TLFamily_SOIL_ARCHIE .         Oil Saturation                : 
TLFamily_SOIL_DW   .         Oil Saturation                : 
TLFamily_SP        .         Spontaneous Potential         : 
TLFamily_VSH_FIN   .         Shale Volume                  : 
TLFamily_VSH_GR    .         Shale Volume                  : 
TLFamily_VSH_SP    .         Shale Volume                  : 
~Curve Information
#_______________________________________________________________________________
#
#LOGNAME           .UNIT     LOG_ID                        : DESCRIPTION
#_______________________________________________________________________________
DEPT               .M                                      : Колонка глубины 
CALI               .м                                      : Каверномер 
COLL               .unitless                               : Описание 
CSAT               .unitless                               : Описание 
GR                 .uR/h                                   : Гамма каротаж 
GZ3                .Ohmm                                   : 2  GZ3 
NGLD               .у.е.                                   : Показания зонда НГК-60 аппаратуры ДРСТ-3-90 
OGZ                .Ohmm                                   : 3  OGZ3 
PHIE               .v/v                                    : Описание 
PHIEN              .v/v                                    :  
PHIT               .v/v                                    : Описание 
PRMB               .mD                                     :  
PRMB_DGR           .mD                                     :  
RT                 .ohmm                                   : УЭС пласта 
SOIL_ARCHIE        .v/v                                    :  
SOIL_DW            .v/v                                    :  
SP                 .мВ                                     : Потенциал самополяризации 
VSH_FIN            .v/v                                    : Описание 
VSH_GR             .v/v                                    : Shale volume 
VSH_SP             .v/v                                    : Shale Volume 
~Ascii
# ...
2146.4     0.214      1          3          9.457      12.40209   1.608      14.52809   0.2140304  0.2140304  0.24624    26.42652   176.1161   6.691      0.7078488  0.7462947  30.658     0.1039018  0.07853795 0.1292657 
2146.6     0.214      1          3          8.986      13.0773    1.635      14.22905   0.210387   0.210387   0.2403     21.36687   304.0541   6.814      0.7059714  0.7432193  31.004     0.09649356 0.06284092 0.1301462 
2146.8     0.214      1          3          8.578      13.53939   1.666      14.17351   0.2053794  0.2053794  0.23348    15.95454   487.9573   6.925      0.7020054  0.7383997  30.743     0.09064696 0.0518034  0.1294905 
2147       0.214      1          3          8.531      13.7644    1.689      14.29173   0.2007255  0.2007255  0.22842    12.16147   515.2839   7.012      0.6977726  0.7341478  30.123     0.08933706 0.05066349 0.1280106 
2147.2     0.215      1          3          8.716      13.65643   1.69       14.49793   0.200044   0.200044   0.2282     11.68748   415.8129   7.032      0.6972809  0.7339784  29.362     0.09082586 0.05530072 0.126351  
2147.4     0.217      1          3          8.842      13.55893   1.68       14.72618   0.2019459  0.2019459  0.2304     13.05873   359.2989   7.059      0.7003049  0.7370073  28.614     0.09178761 0.05869976 0.1248755 
2147.6     0.217      1          3          8.959      13.69843   1.678      14.61385   0.2020479  0.2020479  0.23084    13.13672   313.7225   7.071      0.7006754  0.7375658  27.967     0.09287767 0.06204279 0.1237126 
2147.8     0.216      1          3          9.132      14.25103   1.676      14.25103   0.2018219  0.2018219  0.23128    12.96468   256.7076   7.126      0.7014709  0.7387226  27.364     0.09502599 0.06733796 0.122714  
2148       0.216      1          3          9.204      14.66482   1.673      14.00551   0.2022474  0.2022474  0.23194    13.29049   236.1489   7.164      0.7027608  0.740071   26.83      0.09578247 0.06967279 0.1218921 
2148.2     0.217      1          3          9.298      15.01725   1.667      13.73788   0.203189   0.203189   0.23326    14.04082   211.7661   7.175      0.7041738  0.7416203  26.325     0.09700332 0.07284327 0.1211634 
2148.4     0.218      1          3          9.351      15.38894   1.646      13.46451   0.2076145  0.2076145  0.23788    18.17624   199.1456   7.181      0.7097873  0.7469646  25.888     0.09763075 0.07469406 0.1205674 
2148.6     0.218      1          3          9.419      15.44094   1.636      13.07018   0.2094759  0.2094759  0.24008    20.26101   184.0485   7.078      0.7100759  0.7474338  25.689     0.0987227  0.07713772 0.1203077 
2148.8     0.218      1          3          9.476      15.12667   1.628      12.71972   0.2108795  0.2108795  0.24184    21.98961   172.279    6.91       0.7084896  0.7461708  25.83      0.09987254 0.07924756 0.1204975 
2149       0.219      1          3          9.537      14.76603   1.635      12.43679   0.2089133  0.2089133  0.2403     19.60685   160.516    6.751      0.7028734  0.7412067  26.143     0.1012474  0.08156943 0.1209253 
2149.2     0.221      1          3          9.694      14.49385   1.641      12.17048   0.2065794  0.2065794  0.23898    17.11127   133.8035   6.615      0.6970726  0.7364381  26.318     0.1045182  0.08786311 0.1211732 
2149.4     0.219      1          3          9.773      14.35114   1.658      11.84072   0.2023252  0.2023252  0.23524    13.35095   122.093    6.488      0.6887137  0.7290275  26.293     0.1061766  0.09121133 0.121142  
2149.6     0.22       1          3          9.945      14.2484    1.69       11.57019   0.1940523  0.1940523  0.2282     8.240113   100.0201   6.385      0.6747534  0.7169833  26.443     0.1101538  0.09894908 0.1213586 
2149.8     0.218      1          3          9.959      14.31733   1.71       11.33402   0.1894263  0.1894263  0.2238     6.291341   98.40982   6.326      0.6663962  0.7094699  26.981     0.1108828  0.09960706 0.1221586 
2150       0.218      1          3          9.969      14.37225   1.719      11.15152   0.1871363  0.1871363  0.22182    5.504667   97.27543   6.279      0.6616616  0.705349   27.918     0.1118828  0.1000797  0.1236859 
2150.2     0.216      1          3          10.075     14.54439   1.701      11.05646   0.1899536  0.1899536  0.22578    6.48786    86.02634   6.281      0.6660862  0.7102057  29.104     0.115569   0.10523    0.125908  
2150.4     0.215      1          3          9.97       14.7312    1.69       11.02282   0.1927308  0.1927308  0.2282     7.628778   97.16267   6.305      0.6708702  0.714319   30.372     0.1144168  0.1001271  0.1287065 
2150.6     0.215      1          3          9.863      14.835     1.682      11.05786   0.1947562  0.1947562  0.22996    8.585491   109.9955   6.335      0.6745791  0.7175289  31.613     0.1135606  0.09518153 0.1319397 
2150.8     0.216      1          3          9.559      14.88673   1.663      11.02421   0.2003796  0.2003796  0.23414    11.91855   156.4736   6.334      0.6825242  0.7238483  32.748     0.1089045  0.08242343 0.1353856 
2151       0.218      1          3          9.378      14.719     1.669      10.97377   0.199534   0.199534   0.23282    11.34493   193.0083   6.287      0.6802371  0.7214248  33.813     0.1073741  0.07565495 0.1390933 
2151.2     0.218      1          3          9.323      14.47279   1.687      10.84002   0.1952659  0.1952659  0.22886    8.844596   205.7164   6.198      0.6719708  0.7140039  34.811     0.108368   0.07371049 0.1430254 
2151.4     0.218      1          3          9.254      14.07724   1.717      10.59391   0.1884731  0.1884731  0.22226    5.95106    222.8492   6.045      0.6577061  0.7009844  35.636     0.1089901  0.07134162 0.1466386 
2151.6     0.219      1          3          9.242      13.90937   1.746      10.3       0.181742   0.181742   0.21588    4.018609   225.9712   5.918      0.6431528  0.6878495  36.199     0.1101226  0.07093748 0.1493077 
2151.8     0.22       1          3          9.293      13.87797   1.769      10.06394   0.1764051  0.1764051  0.21082    2.943588   212.9972   5.834      0.6313032  0.6771851  36.207     0.1110157  0.07267105 0.1493603 
2152       0.222      1          3          9.56       13.74696   1.774      9.96375    0.174392   0.174392   0.20972    2.61745    156.2923   5.777      0.6258793  0.6729813  35.366     0.1139612  0.08246247 0.14546   
2152.2     0.222      1          3          9.729      13.50515   1.78       9.998761   0.1730201  0.1730201  0.2084     2.416152   128.4827   5.745      0.6223138  0.6697606  33.751     0.1141287  0.08933106 0.1389264 
2152.4     0.221      1          3          9.916      13.19283   1.773      10.16899   0.1742885  0.1742885  0.20994    2.601699   103.4401   5.743      0.6246476  0.6721174  31.753     0.1150047  0.09759994 0.1324095 
2152.6     0.218      1          3          9.81       12.74602   1.75       10.30636   0.1809191  0.1809191  0.215      3.830267   116.9663   5.699      0.6353438  0.6805415  29.617     0.1099384  0.0928231  0.1270538 
2152.8     0.217      1          3          9.782      12.34529   1.708      10.37859   0.1909953  0.1909953  0.22424    6.894298   120.8257   5.638      0.6503963  0.6937222  27.398     0.1072411  0.09160077 0.1228813 
2153       0.217      1          3          9.837      11.8495    1.658      10.44291   0.2021006  0.2021006  0.23524    13.17712   113.3616   5.551      0.6647507  0.7069027  25.22      0.1069014  0.09401716 0.1197856 
2153.2     0.217      1          3          10.108     11.40786   1.61       10.44865   0.2109077  0.2109077  0.2458     22.02582   82.79723   5.454      0.6742936  0.7168515  23.893     0.1125558  0.1068869  0.1182247 
2153.4     0.216      1          3          10.345     11.13894   1.575      10.41498   0.2166142  0.2166142  0.2535     30.7252    62.90485   5.382      0.6797889  0.7231063  24.042     0.1189864  0.119578   0.1183948 
2153.6     0.214      1          3          10.4       11.10267   1.561      10.3353    0.2188925  0.2188925  0.25658    35.09223   59.01898   5.353      0.6818881  0.7254913  25.699     0.1215726  0.1227324  0.1204128 
