~Version
 VERS              .         2.0                           : CWLS LOG ASCII STANDARD - VERSION 2.0
 WRAP              .         NO                            : ONE LINE PER DEPTH STEP
 DLM               .         SPACE                         : DELIMITING CHARACTER(SPACE TAB OR COMMA)
~Well Information
#_______________________________________________________________________________
#
#PARAMETER_NAME    .UNIT     VALUE                         : DESCRIPTION
#_______________________________________________________________________________
STRT               .M        880                           : First reference value
STOP               .M        2244                          : Last reference value
STEP               .M        0.2                           : Step increment
NULL               .         -9999                         : Missing value
COMP               .                                       : Company
WELL               .         114                           : Well name
FLD                .         УЗЕНЬ                         : Field
LOC                .                                       : Location
PROV               .                                       : Province
SRVC               .                                       : Service Company
DATE               .                                       : Date
UWI                .                                       : Unique Well ID
Block              .         7                             : 
Category           .         Нефтяная                      : 
Condition          .         В работе                      : 
CTRY               .         Казахстан                     : Название страны
Date               .         11.05.1967                    : 
EREF               .m        85.5                          : 100.8
FILE               .                                       : 
Gorizont           .         23                            : 14
Interpretator      .         Ким С.В.                      : 
Kupol              .         Хумурун                       : 
Mud                .                                       : 
Mud_density        .                                       : 
Mud_resistivity    .                                       : 
NGDU               .         НГДУ-2                        : 
ORIGINALWELLNAME   .         UZEN_114                      : 
Spud_date          .         1967                          : 1961
TAPE               .                                       : 
Viscosity          .                                       : 
X                  .m        42795.4                       : 46154
Y                  .m        84890.4                       : 85761.93
YEAR               .         2019                          : 
~Parameter Information Block
#_______________________________________________________________________________
#
#PARAMETER_NAME    .UNIT     VALUE                         : DESCRIPTION
#_______________________________________________________________________________
SET                .         LQC_KAZNIPI_Petrel            : 
TLFamily_CALI      .         Caliper                       : 
TLFamily_COLL      .         Net Reservoir Flag            : 
TLFamily_CSAT      .         Fluid Code                    : 
TLFamily_DEPT      .         Measured Depth                : 
TLFamily_GR        .         Russian Gamma Ray             : 
TLFamily_GZ3       .         Gradient 225                  : 
TLFamily_NGLD      .         Neutron Gamma                 : 
TLFamily_OGZ       .         Gradient Inverted 225         : 
TLFamily_PHIE      .         Effective Porosity            : 
TLFamily_PHIEN     .         Effective Porosity            : 
TLFamily_PHIT      .         Porosity                      : 
TLFamily_PRMB      .         Permeability                  : 
TLFamily_PRMB_DGR  .         Permeability                  : 
TLFamily_RT        .         Formation Resistivity         : 
TLFamily_SOIL_ARCHIE .         Oil Saturation                : 
TLFamily_SOIL_DW   .         Oil Saturation                : 
TLFamily_SP        .         Spontaneous Potential         : 
TLFamily_VSH_FIN   .         Shale Volume                  : 
TLFamily_VSH_GR    .         Shale Volume                  : 
TLFamily_VSH_SP    .         Shale Volume                  : 
~Curve Information
#_______________________________________________________________________________
#
#LOGNAME           .UNIT     LOG_ID                        : DESCRIPTION
#_______________________________________________________________________________
DEPT               .M                                      : Колонка глубины 
CALI               .м                                      : Каверномер 
COLL               .unitless                               : Описание 
CSAT               .unitless                               : Описание 
GR                 .uR/h                                   : Гамма каротаж 
GZ3                .Ohmm                                   : 2  GZ3 
NGLD               .у.е.                                   : Показания зонда НГК-60 аппаратуры ДРСТ-3-90 
OGZ                .Ohmm                                   : 3  OGZ3 
PHIE               .v/v                                    : Описание 
PHIEN              .v/v                                    :  
PHIT               .v/v                                    : Описание 
PRMB               .mD                                     :  
PRMB_DGR           .mD                                     :  
RT                 .ohmm                                   : УЭС пласта 
SOIL_ARCHIE        .v/v                                    :  
SOIL_DW            .v/v                                    :  
SP                 .мВ                                     : Потенциал самополяризации 
VSH_FIN            .v/v                                    : Описание 
VSH_GR             .v/v                                    : Shale volume 
VSH_SP             .v/v                                    : Shale Volume 
~Ascii
# ...
1787.8     0.217      6          6          10.431     10.76204933216996 1.823      10.00639   0.1692529  0.1692529  0.19894    1.939503   170.0447   5.185      0.5960206  0.6398222  18.34      0.09576473 0.07967111 0.1118583 
1788       0.217      6          6          10.308     12.083392108316 1.781      9.458833   0.1795767  0.1795767  0.20818    3.541777   196.1074   5.306      0.6204556  0.6618592  16.588     0.09226885 0.07516444 0.1093733 
1788.2     0.216      1          3          9.963      13.86409639705171 1.76       8.774638   0.186407   0.186407   0.2128     5.275392   292.5509   5.374      0.6347862  0.6735661  14.923     0.08513874 0.06383838 0.1064391 
1788.4     0.216      1          3          9.765      15.51908903498658 1.753      8.225475   0.1892493  0.1892493  0.21434    6.226715   368.0398   5.376      0.639631   0.6771256  13.671     0.08093772 0.05812645 0.103749  
1788.6     0.218      1          3          9.688      17.04506799760969 1.745      7.780583   0.1917328  0.1917328  0.2161     7.197366   402.4062   5.342      0.6426376  0.6794404  12.641     0.07860383 0.05604576 0.1011619 
1788.8     0.219      1          3          9.823      18.66509829407696 1.701      7.438986   0.2012326  0.2012326  0.22578    12.52653   344.1057   5.319      0.6566819  0.6931498  11.754     0.07918534 0.05974455 0.09862614
1789       0.217      1          3          9.981      20.29035802570127 1.654      7.093133   0.2111782  0.2111782  0.23612    22.37615   286.5093   5.256      0.6689621  0.7052945  11.095     0.08045723 0.06438468 0.09652979
1789.2     0.217      1          3          10.109     19.67078444799242 1.617      7.22069    0.2188357  0.2188357  0.24426    34.97609   246.9962   5.282      0.6798162  0.7160387  10.836     0.08201399 0.06840675 0.09562123
1789.4     0.218      1          3          10.214     18.71328780941765 1.607      7.329531   0.2204752  0.2204752  0.24646    38.48634   218.687    5.267      0.6814662  0.717982   10.892     0.08382179 0.07189297 0.09575061
1789.6     0.223      1          3          10.404     17.39256169563462 1.602      7.097593   0.2204479  0.2204479  0.24756    38.42494   175.4516   5.041      0.6748076  0.7124174  11.063     0.08745851 0.07865926 0.09625775
1789.8     0.227      1          3          10.623     15.80660965682303 1.608      6.754191   0.2177189  0.2177189  0.24624    32.77019   136.1102   4.732      0.6613557  0.7006272  11.234     0.09200365 0.08725201 0.0967553 
1790       0.23       1          3          10.787     14.68249523967853 1.612      6.33255    0.2157135  0.2157135  0.24536    29.15265   112.5425   4.424      0.6476614  0.6884758  11.319     0.09563377 0.09429598 0.09697156
1790.2     0.233      1          3          10.773     13.89873099140043 1.622      6.08157    0.2136275  0.2136275  0.24316    25.81263   114.3841   4.23       0.6371104  0.6784269  11.301     0.09526621 0.09367309 0.09685934
1790.4     0.234      1          3          10.758     13.35128706718959 1.613      5.950139   0.2157989  0.2157989  0.24514    29.29813   116.3906   4.116      0.6356514  0.6769287  11.141     0.0946488  0.09301029 0.0962873 
1790.6     0.233      1          3          10.624     12.88420172603151 1.609      5.812318   0.2177218  0.2177218  0.24602    32.77586   135.9526   4.005      0.6337876  0.6744303  10.854     0.09128448 0.0872933  0.09527565
1790.8     0.232      1          3          10.289     12.40433737493294 1.605      5.555089   0.2208098  0.2208098  0.2469     39.24472   200.4751   3.837      0.630904   0.6701318  10.456     0.084162   0.0744914  0.0938326 
1791       0.232      1          3          9.959      11.91604522245255 1.629      5.335885   0.2174629  0.2174629  0.24162    32.2845    293.911    3.686      0.6188475  0.6570714  10.01      0.07792629 0.06371759 0.09213499
1791.2     0.232      1          3          9.718      11.20323729941674 1.659      5.271726   0.2122033  0.2122033  0.23502    23.75487   388.6505   3.585      0.6055229  0.6430271  9.568      0.0736023  0.05684742 0.09035718
1791.4     0.233      1          3          9.719      10.56742283409233 1.684      5.83946    0.2069194  0.2069194  0.22952    17.45409   388.2005   3.761      0.6057314  0.6428807  9.235      0.07290502 0.05687432 0.08893572
1791.6     0.234      1          3          9.793      9.893889360226304 1.678      6.383586   0.2080074  0.2080074  0.23084    18.59769   356.2843   3.88       0.6132234  0.6503329  9.125      0.07365348 0.05890206 0.08840491
1791.8     0.235      1          3          9.892      9.416011464171399 1.651      6.85356    0.213419   0.213419   0.23678    25.50067   317.651    3.966      0.6256503  0.6628634  9.282      0.07535794 0.06172832 0.08898756
1792       0.234      1          3          10.043     8.585198755031829 1.622      7.124927   0.2188476  0.2188476  0.24316    35.00045   266.6376   3.894      0.6305886  0.6684681  9.686      0.07842708 0.06630245 0.09055172
1792.2     0.234      1          3          10.168     7.90645629694794 1.617      7.70454    0.219011   0.219011   0.24426    35.33562   230.6661   3.902      0.631184   0.6697386  10.225     0.08144844 0.07034433 0.09255254
1792.4     0.233      1          3          10.319     7.497453090260154 1.634      8.013989   0.2141404  0.2141404  0.24052    26.59654   193.6222   3.874      0.6226152  0.6623197  10.822     0.08509564 0.0755569  0.09463438
1792.6     0.232      1          3          10.238     7.392639888165093 1.656      8.526513   0.2094548  0.2094548  0.23568    20.23602   212.686    3.96       0.6192166  0.6588716  11.39      0.08459746 0.07271446 0.09648046
1792.8     0.232      1          3          10.187     7.124296239982761 1.667      8.996351   0.2070383  0.2070383  0.23326    17.5755    225.6406   3.976      0.6160758  0.6558277  11.954     0.08458616 0.07097991 0.0981924 
1793       0.234      1          3          10.14      6.782599809472924 1.659      8.990232   0.2088032  0.2088032  0.23502    19.48136   238.2768   3.866      0.6138532  0.6537312  12.494     0.08457015 0.06941805 0.09972225
1793.2     0.233      1          3          10.128     6.399526285013881 1.663      8.700196   0.2077629  0.2077629  0.23414    18.33427   241.6149   3.687      0.6034451  0.6438931  13.033     0.08508752 0.06902482 0.1011502 
1793.4     0.233      1          3          10.272     6.081999281820056 1.676      8.375956   0.2039505  0.2039505  0.23128    14.6786    204.4653   3.523      0.5882995  0.6301571  13.548     0.08815971 0.07389434 0.1024251 
1793.6     0.233      1          3          10.401     6.301618924511319 1.702      8.148848   0.1973742  0.1973742  0.22556    10.00203   176.0629   3.554      0.5781157  0.6211188  13.925     0.0909218  0.07854762 0.103296  
1793.8     0.233      1          3          10.429     6.312846907792308 1.701      8.452018   0.1973836  0.1973836  0.22578    10.00748   170.4394   3.614      0.5814344  0.6244866  14.075     0.09160139 0.07959571 0.1036071 
1794       0.233      1          3          10.619     5.847267638874254 1.672      8.752731   0.2026358  0.2026358  0.23216    13.59503   136.7428   3.505      0.5849777  0.6289032  14         0.09523924 0.08708696 0.1033915 
1794.2     0.233      1          3          10.863     5.441423622913661 1.61       8.595789   0.2147255  0.2147255  0.2458     27.52003   103.0506   3.332      0.5959197  0.640651   13.741     0.1002402  0.0977504  0.1027301 
1794.4     0.236      1          3          10.827     5.785725114021696 1.564      8.153588   0.2252469  0.2252469  0.25592    50.83796   107.4426   3.384      0.6152156  0.6586758  13.383     0.09894536 0.09609859 0.1017921 
1794.6     0.238      1          3          10.797     6.344935274889348 1.554      7.73999    0.2278398  0.2278398  0.25812    59.13899   111.2453   3.487      0.624355   0.6670536  12.953     0.09767795 0.09474345 0.1006124 
1794.8     0.237      1          3          10.376     6.793810156053341 1.581      7.469969   0.2247352  0.2247352  0.25218    49.34277   181.2406   3.558      0.6234182  0.6640792  12.55      0.08853173 0.07762349 0.09943996
