~Version
 VERS              .         2.0                           : CWLS LOG ASCII STANDARD - VERSION 2.0
 WRAP              .         NO                            : ONE LINE PER DEPTH STEP
 DLM               .         SPACE                         : DELIMITING CHARACTER(SPACE TAB OR COMMA)
~Well Information
#_______________________________________________________________________________
#
#PARAMETER_NAME    .UNIT     VALUE                         : DESCRIPTION
#_______________________________________________________________________________
STRT               .M        880                           : First reference value
STOP               .M        2244                          : Last reference value
STEP               .M        0.2                           : Step increment
NULL               .         -9999                         : Missing value
COMP               .                                       : Company
WELL               .         114                           : Well name
FLD                .         УЗЕНЬ                         : Field
LOC                .                                       : Location
PROV               .                                       : Province
SRVC               .                                       : Service Company
DATE               .                                       : Date
UWI                .                                       : Unique Well ID
Block              .         7                             : 
Category           .         Нефтяная                      : 
Condition          .         В работе                      : 
CTRY               .         Казахстан                     : Название страны
Date               .         11.05.1967                    : 
EREF               .m        85.5                          : 100.8
FILE               .                                       : 
Gorizont           .         23                            : 14
Interpretator      .         Ким С.В.                      : 
Kupol              .         Хумурун                       : 
Mud                .                                       : 
Mud_density        .                                       : 
Mud_resistivity    .                                       : 
NGDU               .         НГДУ-2                        : 
ORIGINALWELLNAME   .         UZEN_114                      : 
Spud_date          .         1967                          : 1961
TAPE               .                                       : 
Viscosity          .                                       : 
X                  .m        42795.4                       : 46154
Y                  .m        84890.4                       : 85761.93
YEAR               .         2019                          : 
~Parameter Information Block
#_______________________________________________________________________________
#
#PARAMETER_NAME    .UNIT     VALUE                         : DESCRIPTION
#_______________________________________________________________________________
SET                .         LQC_KAZNIPI_Petrel            : 
TLFamily_CALI      .         Caliper                       : 
TLFamily_COLL      .         Net Reservoir Flag            : 
TLFamily_CSAT      .         Fluid Code                    : 
TLFamily_DEPT      .         Measured Depth                : 
TLFamily_GR        .         Russian Gamma Ray             : 
TLFamily_GZ3       .         Gradient 225                  : 
TLFamily_NGLD      .         Neutron Gamma                 : 
TLFamily_OGZ       .         Gradient Inverted 225         : 
TLFamily_PHIE      .         Effective Porosity            : 
TLFamily_PHIEN     .         Effective Porosity            : 
TLFamily_PHIT      .         Porosity                      : 
TLFamily_PRMB      .         Permeability                  : 
TLFamily_PRMB_DGR  .         Permeability                  : 
TLFamily_RT        .         Formation Resistivity         : 
TLFamily_SOIL_ARCHIE .         Oil Saturation                : 
TLFamily_SOIL_DW   .         Oil Saturation                : 
TLFamily_SP        .         Spontaneous Potential         : 
TLFamily_VSH_FIN   .         Shale Volume                  : 
TLFamily_VSH_GR    .         Shale Volume                  : 
TLFamily_VSH_SP    .         Shale Volume                  : 
~Curve Information
#_______________________________________________________________________________
#
#LOGNAME           .UNIT     LOG_ID                        : DESCRIPTION
#_______________________________________________________________________________
DEPT               .M                                      : Колонка глубины 
CALI               .м                                      : Каверномер 
COLL               .unitless                               : Описание 
CSAT               .unitless                               : Описание 
GR                 .uR/h                                   : Гамма каротаж 
GZ3                .Ohmm                                   : 2  GZ3 
NGLD               .у.е.                                   : Показания зонда НГК-60 аппаратуры ДРСТ-3-90 
OGZ                .Ohmm                                   : 3  OGZ3 
PHIE               .v/v                                    : Описание 
PHIEN              .v/v                                    :  
PHIT               .v/v                                    : Описание 
PRMB               .mD                                     :  
PRMB_DGR           .mD                                     :  
RT                 .ohmm                                   : УЭС пласта 
SOIL_ARCHIE        .v/v                                    :  
SOIL_DW            .v/v                                    :  
SP                 .мВ                                     : Потенциал самополяризации 
VSH_FIN            .v/v                                    : Описание 
VSH_GR             .v/v                                    : Shale volume 
VSH_SP             .v/v                                    : Shale Volume 
~Ascii
# ...
1521.4     0.226      -9999      -9999      15.939     2.923826541629168 2.151      2.923827   0.01       0          0.1779283  0.0001791968 0.586667   1.462      0          0          61.57      0.7420814  0.8        0.6841628 
1521.6     0.228      -9999      -9999      15.474     2.888079744053794 2.112      2.888097   0.01       0          0.1922296  0.0001791968 0.9690275  1.444      0          0          58.964     0.6256841  0.657194   0.5941741 
1521.8     0.228      -9999      -9999      14.958     2.753469847958035 2.066      2.95833    0.05490967 0.05490967 0.2090978  0.002460529 1.691156   1.426      0          0          54.79      0.4973811  0.5235271  0.4712351 
1522       0.225      1          3          14.371     2.751980457619345 2.028      2.958383   0.1063775  0.1063775  0.2230324  0.04952971 3.186464   1.426      0          0.1678094  49.458     0.3763058  0.4042     0.3484117 
1522.2     0.218      1          3          13.976     2.786433420916519 2.013      3.027239   0.1343344  0.1343344  0.2285329  0.2529866  4.880277   1.451      0.04877019 0.2614698  44.772     0.3038662  0.3396247  0.2681076 
1522.4     0.212      1          3          13.606     2.855276541136139 2.014      3.189574   0.1480888  0.1480888  0.2281662  0.5643369  7.275495   1.507      0.1415871  0.3040024  41.743     0.2583143  0.2885273  0.2281011 
1522.6     0.208      1          3          13.237     2.786514137771993 2.017      3.302547   0.1552001  0.1552001  0.2270661  0.8544549  10.83457   1.511      0.1769715  0.3168705  40.897     0.2318259  0.2452258  0.218426  
1522.8     0.208      1          3          12.968     2.717770001999992 2.026      3.432884   0.1548968  0.1548968  0.2237658  0.8394688  14.48408   1.517      0.1770996  0.3119346  41.607     0.2221582  0.2178129  0.2265035 
1523       0.207      1          3          12.937     2.738466743297909 2.026      3.474668   0.1523771  0.1523771  0.2237658  0.7247258  14.97685   1.531      0.1688516  0.3102366  43.158     0.2302862  0.2148576  0.2457147 
1523.2     0.207      1          3          13.146     2.855478639972565 2.027      3.440328   0.1449724  0.1449724  0.2233991  0.4705335  11.95262   1.56       0.139607   0.3012842  44.927     0.2529894  0.2355863  0.2703925 
1523.4     0.209      1          3          13.458     3.046170110361718 2.026      3.385275   0.1358867  0.1358867  0.2237658  0.2769633  8.535508   1.603      0.1012552  0.2921734  46.602     0.2834809  0.27031    0.2966519 
1523.6     0.211      1          3          13.63      3.234020002999986 2.036      3.23402    0.1249874  0.1249874  0.2200988  0.1466592  7.089469   1.617      0.03730383 0.2630058  48.065     0.306811   0.2915951  0.322027  
1523.8     0.213      1          3          13.744     3.165265124649109 2.06       3.337297   0.1103284  0.1103284  0.211298   0.06236673 6.268765   1.625      0          0.2070363  49.274     0.3257084  0.3066184  0.3447985 
1524       0.215      -9999      -9999      13.866     3.062089503139886 2.058      3.455635   0.1057757  0.1057757  0.2120314  0.04782119 5.495422   1.623      0          0.1943462  50.131     0.3427601  0.3235542  0.361966  
1524.2     0.215      -9999      -9999      14.179     2.924529137730217 2.057      3.523055   0.09735873 0.09735873 0.2123981  0.02926793 3.920115   1.598      0          0.1611517  50.555     0.3710948  0.3714073  0.3707824 
1524.4     0.216      -9999      -9999      14.456     2.924580680208454 2.029      3.600697   0.1003801  0.1003801  0.2226657  0.03490851 2.907165   1.614      0          0.1984651  50.485     0.3944698  0.4196276  0.3693119 
1524.6     0.215      -9999      -9999      14.504     2.99962620243709 1.978      3.534374   0.1192675  0.1192675  0.2413674  0.1050528  2.760402   1.623      0          0.2895027  49.993     0.3938706  0.4285983  0.3591429 
1524.8     0.214      -9999      -9999      14.297     3.1311368094239 1.963      3.4408     0.1327893  0.1327893  0.2468679  0.2311825  3.451378   1.639      0.09253088 0.3324457  49.272     0.3679955  0.3912315  0.3447595 
1525       0.213      8          3          14.161     3.272696433357529 1.971      3.475274   0.1356204  0.1356204  0.2439343  0.2726936  3.997011   1.685      0.1205497  0.3427918  48.516     0.3493999  0.3684729  0.3303269 
1525.2     0.212      8          3          14.21      3.379909637301911 1.993      3.536935   0.1281714  0.1281714  0.2358669  0.1765912  3.791135   1.728      0.08705711 0.3224111  47.858     0.3474049  0.3765159  0.3182939 
1525.4     0.211      8          3          14.255     3.509800002999986 2.005      3.5098     0.1239586  0.1239586  0.2314665  0.1381173  3.611419   1.755      0.06690665 0.310705   47.362     0.3467995  0.384057   0.3095419 
1525.6     0.209      8          3          14.392     3.475450002999987 2.009      3.47545    0.1197298  0.1197298  0.2299997  0.1079245  3.115058   1.738      0.03386493 0.2947128  47.008     0.3557091  0.4079579  0.3034603 
1525.8     0.209      8          3          14.414     3.509920002999988 2.012      3.50992    0.1188529  0.1188529  0.2288996  0.1025429  3.041973   1.755      0.0320908  0.2940208  46.686     0.3549891  0.4119322  0.2980461 
1526       0.209      8          3          14.306     3.609303356347468 2.014      3.411933   0.1222363  0.1222363  0.2281662  0.1249157  3.418019   1.754      0.05521375 0.3006425  46.234     0.3417093  0.3927862  0.2906325 
1526.2     0.21       8          3          14.252     3.647683055315581 2.036      3.277273   0.1174793  0.1174793  0.2200988  0.09464717 3.623132   1.726      0.01456639 0.2680324  45.465     0.3310305  0.3835495  0.2785116 
1526.4     0.213      8          3          14.167     3.552822204098471 2.053      3.165965   0.11615    0.11615    0.2138649  0.08758534 3.971215   1.674      0          0.2405673  44.277     0.3152094  0.3694484  0.2609705 
1526.6     0.215      8          3          14.094     3.441324316326409 2.073      3.062787   0.1143022  0.1143022  0.2065309  0.07863598 4.296731   1.621      0          0.2070878  42.498     0.297512   0.3577525  0.2372715 
1526.8     0.215      8          3          14.047     3.317581630316537 2.051      3.028433   0.1274658  0.1274658  0.2145983  0.1694707  4.520296   1.583      0.04414254 0.2503164  40.277     0.2810725  0.350419   0.2117261 
1527       0.213      8          3          14.069     3.131720002999986 2.022      3.13172    0.1413038  0.1413038  0.2252326  0.379887   4.414236   1.566      0.1217676  0.2982715  37.75      0.2707379  0.3538328  0.187643  
1527.2     0.211      8          3          14.033     3.166201642325639 1.983      3.166183   0.1593153  0.1593153  0.2395339  1.086277   4.589114   1.583      0.2129013  0.3598725  35.366     0.2587695  0.3482637  0.1692753 
1527.4     0.208      8          3          13.913     3.33832681692939 1.971      3.09741    0.1684855  0.1684855  0.2439343  1.854591   5.223629   1.607      0.255621   0.3861695  33.31      0.2433833  0.3303255  0.1564412 
1527.6     0.206      1          3          13.692     3.390381804125587 1.972      3.09747    0.1740058  0.1740058  0.2435676  2.559147   6.63062    1.619      0.2787539  0.3963853  31.908     0.2243928  0.299672   0.1491136 
1527.8     0.206      1          3          13.402     3.476108951420212 1.982      3.097517   0.1763857  0.1763857  0.2399006  2.940261   9.067267   1.638      0.2911288  0.3982716  31.253     0.2048866  0.2637209  0.1460523 
1528       0.207      1          3          13.052     3.432483992743519 1.988      3.063159   0.1800525  0.1800525  0.2377004  3.641468   13.2288    1.619      0.299896   0.3970168  31.218     0.1859609  0.2260268  0.145895  
1528.2     0.208      1          3          12.874     3.372973427527772 1.993      2.99437    0.180816   0.180816   0.2358669  3.807314   16.03057   1.586      0.2956981  0.3892401  31.284     0.1775834  0.2089745  0.1461923 
1528.4     0.208      1          3          12.955     3.41268334257856 1.986      2.96001    0.1823773  0.1823773  0.2384338  4.170326   14.68873   1.585      0.3007452  0.3950369  31.036     0.1808275  0.2165686  0.1450864 
