~Version
 VERS              .         2.0                           : CWLS LOG ASCII STANDARD - VERSION 2.0
 WRAP              .         NO                            : ONE LINE PER DEPTH STEP
 DLM               .         SPACE                         : DELIMITING CHARACTER(SPACE TAB OR COMMA)
~Well Information
#_______________________________________________________________________________
#
#PARAMETER_NAME    .UNIT     VALUE                         : DESCRIPTION
#_______________________________________________________________________________
STRT               .M        880                           : First reference value
STOP               .M        2244                          : Last reference value
STEP               .M        0.2                           : Step increment
NULL               .         -9999                         : Missing value
COMP               .                                       : Company
WELL               .         114                           : Well name
FLD                .         УЗЕНЬ                         : Field
LOC                .                                       : Location
PROV               .                                       : Province
SRVC               .                                       : Service Company
DATE               .                                       : Date
UWI                .                                       : Unique Well ID
Block              .         7                             : 
Category           .         Нефтяная                      : 
Condition          .         В работе                      : 
CTRY               .         Казахстан                     : Название страны
Date               .         11.05.1967                    : 
EREF               .m        85.5                          : 100.8
FILE               .                                       : 
Gorizont           .         23                            : 14
Interpretator      .         Ким С.В.                      : 
Kupol              .         Хумурун                       : 
Mud                .                                       : 
Mud_density        .                                       : 
Mud_resistivity    .                                       : 
NGDU               .         НГДУ-2                        : 
ORIGINALWELLNAME   .         UZEN_114                      : 
Spud_date          .         1967                          : 1961
TAPE               .                                       : 
Viscosity          .                                       : 
X                  .m        42795.4                       : 46154
Y                  .m        84890.4                       : 85761.93
YEAR               .         2019                          : 
~Parameter Information Block
#_______________________________________________________________________________
#
#PARAMETER_NAME    .UNIT     VALUE                         : DESCRIPTION
#_______________________________________________________________________________
SET                .         LQC_KAZNIPI_Petrel            : 
TLFamily_CALI      .         Caliper                       : 
TLFamily_COLL      .         Net Reservoir Flag            : 
TLFamily_CSAT      .         Fluid Code                    : 
TLFamily_DEPT      .         Measured Depth                : 
TLFamily_GR        .         Russian Gamma Ray             : 
TLFamily_GZ3       .         Gradient 225                  : 
TLFamily_NGLD      .         Neutron Gamma                 : 
TLFamily_OGZ       .         Gradient Inverted 225         : 
TLFamily_PHIE      .         Effective Porosity            : 
TLFamily_PHIEN     .         Effective Porosity            : 
TLFamily_PHIT      .         Porosity                      : 
TLFamily_PRMB      .         Permeability                  : 
TLFamily_PRMB_DGR  .         Permeability                  : 
TLFamily_RT        .         Formation Resistivity         : 
TLFamily_SOIL_ARCHIE .         Oil Saturation                : 
TLFamily_SOIL_DW   .         Oil Saturation                : 
TLFamily_SP        .         Spontaneous Potential         : 
TLFamily_VSH_FIN   .         Shale Volume                  : 
TLFamily_VSH_GR    .         Shale Volume                  : 
TLFamily_VSH_SP    .         Shale Volume                  : 
~Curve Information
#_______________________________________________________________________________
#
#LOGNAME           .UNIT     LOG_ID                        : DESCRIPTION
#_______________________________________________________________________________
DEPT               .M                                      : Колонка глубины 
CALI               .м                                      : Каверномер 
COLL               .unitless                               : Описание 
CSAT               .unitless                               : Описание 
GR                 .uR/h                                   : Гамма каротаж 
GZ3                .Ohmm                                   : 2  GZ3 
NGLD               .у.е.                                   : Показания зонда НГК-60 аппаратуры ДРСТ-3-90 
OGZ                .Ohmm                                   : 3  OGZ3 
PHIE               .v/v                                    : Описание 
PHIEN              .v/v                                    :  
PHIT               .v/v                                    : Описание 
PRMB               .mD                                     :  
PRMB_DGR           .mD                                     :  
RT                 .ohmm                                   : УЭС пласта 
SOIL_ARCHIE        .v/v                                    :  
SOIL_DW            .v/v                                    :  
SP                 .мВ                                     : Потенциал самополяризации 
VSH_FIN            .v/v                                    : Описание 
VSH_GR             .v/v                                    : Shale volume 
VSH_SP             .v/v                                    : Shale Volume 
~Ascii
# ...
1255       0.288      -9999      -9999      12.281     1.548060067985071 1.825      1.54806    0.1523496  0.1523496  0.2974725  1.857988   6.843305   0.774      0          0.08386709 52.198     0.4397662  0.2958334  0.583699  
1255.2     0.285      -9999      -9999      12.414     1.54942346888144 1.815      1.549423   0.1511674  0.1511674  0.3011395  1.766627   5.70978    0.775      0          0.08853593 52.393     0.4544609  0.318538   0.5903837 
1255.4     0.282      -9999      -9999      12.621     1.58801319269264 1.799      1.588013   0.1500155  0.1500155  0.3070067  1.681934   4.307386   0.794      0          0.107469   52.494     0.4757309  0.3573909  0.5940709 
1255.6     0.283      -9999      -9999      12.885     1.622366442389594 1.796      1.622367   0.1416491  0.1416491  0.3081068  1.177183   3.006788   0.811      0          0.09925866 52.508     0.5044171  0.4138937  0.5949405 
1255.8     0.28       -9999      -9999      13.318     1.622306592466487 1.812      1.794313   0.1171626  0.1171626  0.3022396  0.4142801  1.667468   0.852      0          0.04547624 52.501     0.5608393  0.5265512  0.5951273 
1256       0.275      -9999      -9999      13.708     1.557829771833007 1.836      1.83007    0.0871004  0.0871004  0.2934388  0.1149394  0.9804804  0.842      0          0          52.53      0.6252679  0.6540485  0.5964873 
1256.2     0.266      -9999      -9999      13.969     1.620903422612889 1.851      1.83496    0.06413281 0.06413281 0.2879383  0.0431572  0.6872299  0.861      0          0          52.631     0.6781985  0.7561898  0.6002073 
1256.4     0.258      -9999      -9999      13.949     1.724840542147172 1.864      1.867197   0.0601338  0.0601338  0.2831712  0.03638999 0.7062009  0.897      0          0          52.731     0.675871   0.747828   0.6039139 
1256.6     0.25       -9999      -9999      13.836     1.730950067986648 1.868      1.937356   0.06628539 0.06628539 0.2817044  0.04730688 0.8236611  0.914      0          0          52.699     0.6527848  0.7022905  0.6032791 
1256.8     0.246      -9999      -9999      13.676     1.758734852405359 1.874      2.01285    0.07555266 0.07555266 0.2795042  0.07023874 1.024146   0.939      0          0          52.389     0.618035   0.6425148  0.5935552 
1257       0.247      -9999      -9999      13.357     1.630476592647036 1.873      2.043264   0.09644119 0.09644119 0.2798709  0.1711917  1.581231   0.907      0          0          51.753     0.5558476  0.5380934  0.5736017 
1257.2     0.249      -9999      -9999      12.841     1.528648553175336 1.866      2.079027   0.1302925  0.1302925  0.2824378  0.7252555  3.782557   0.881      0          0.07102036 50.821     0.4610463  0.3768643  0.5452284 
1257.4     0.247      1          3          12.214     1.530010067984897 1.856      2.209217   0.1573975  0.1573975  0.2861048  2.30431    8.722515   0.904      0          0.1549038  49.681     0.3900223  0.2679285  0.5121162 
1257.6     0.241      1          3          11.801     1.565771702709157 1.843      2.356916   0.1766944  0.1766944  0.2908719  5.247668   15.12349   0.941      0          0.2171105  48.436     0.3459925  0.2140045  0.4779805 
1257.8     0.232      1          3          11.664     1.601533470136013 1.838      2.521104   0.1861737  0.1861737  0.2927054  7.862259   18.1525    0.979      0.05081519 0.2514331  47.234     0.3228232  0.1986316  0.4470147 
1258       0.228      1          3          11.626     1.637296803674536 1.835      2.624944   0.1920446  0.1920446  0.2938055  10.09925   19.09534   1.008      0.08870716 0.2732335  46.21      0.3083664  0.1945668  0.4221661 
1258.2     0.227      1          3          11.631     1.741843473145792 1.837      2.704938   0.1940825  0.1940825  0.2930721  11.01633   18.96856   1.06       0.1181109  0.2933227  45.458     0.2999685  0.1950968  0.4048401 
1258.4     0.228      1          3          11.667     1.811990067987247 1.844      2.6375     0.1929876  0.1929876  0.2905052  10.51372   18.08007   1.074      0.1191949  0.2926574  44.88      0.2955079  0.1989561  0.3920597 
1258.6     0.229      1          3          11.877     1.778956595635644 1.846      2.658383   0.190533   0.190533   0.2897718  9.468718   13.66689   1.066      0.1061896  0.2851892  44.243     0.3007237  0.2230398  0.3784077 
1258.8     0.231      1          3          12.048     1.703713860714099 1.843      2.727417   0.1911885  0.1911885  0.2908719  9.737192   10.88199   1.049      0.1021114  0.2820408  43.32      0.3020707  0.2447888  0.3593526 
1259       0.234      -9999      -9999      12.272     1.604757096900891 1.833      2.865937   0.1936744  0.1936744  0.2945389  10.82623   8.073755   1.029      0.1041006  0.2842372  42.057     0.3056501  0.276519   0.3347813 
1259.2     0.233      -9999      -9999      12.577     1.579506527267535 1.835      3.022497   0.1891355  0.1891355  0.2938055  8.920844   5.377335   1.037      0.08872169 0.2789578  40.56      0.3171819  0.3264369  0.3079268 
1259.4     0.231      -9999      -9999      12.768     1.681210189892732 1.844      3.16019    0.1843653  0.1843653  0.2905052  7.278653   4.169001   1.097      0.09249282 0.2868357  38.91      0.3216361  0.3621883  0.2810838 
1259.6     0.227      -9999      -9999      12.819     1.717583412870492 1.85       3.112007   0.1845029  0.1845029  0.288305   7.321484   3.895087   1.107      0.09693591 0.2870892  37.24      0.3145518  0.37238    0.2567236 
1259.8     0.227      1          3          12.771     1.752730067986814 1.838      2.832357   0.1940105  0.1940105  0.2927054  10.98253   4.152367   1.083      0.1266674  0.3002453  35.598     0.2990755  0.3627801  0.2353709 
1260       0.225      1          3          12.549     1.78848347306226 1.82       2.550802   0.2101857  0.2101857  0.299306   21.89306   5.581758   1.051      0.1739578  0.3217837  34.155     0.2700616  0.3215012  0.2186219 
1260.2     0.226      1          3          12.248     1.858636488427596 1.809      2.304346   0.224438   0.224438   0.3033397  40.20631   8.336141   1.029      0.2120527  0.338307   32.876     0.239096   0.2729314  0.2052607 
1260.4     0.227      1          3          11.761     2.001216102996351 1.822      2.00121    0.2317539  0.2317539  0.2985726  54.92908   15.95147   1.001      0.2237768  0.3320445  31.856     0.2024809  0.209397   0.1955649 
1260.6     0.226      1          3          11.071     2.170886464787912 1.847      1.930127   0.234618   0.234618   0.2894051  62.06574   40.00514   1.022      0.239482   0.330481   31.016     0.1660216  0.1438523  0.188191  
1260.8     0.226      1          3          10.584     2.275420067989842 1.882      1.8971     0.2281577  0.2281577  0.2765706  47.11849   76.55117   1.035      0.225369   0.3089872  30.389     0.1467059  0.1103656  0.1830463 
1261       0.228      1          3          10.479     2.276763871254637 1.917      1.89846    0.2166962  0.2166962  0.2637361  28.89994   88.04747   1.035      0.189804   0.274113   30.104     0.1425452  0.1042369  0.1808535 
1261.2     0.229      1          3          10.525     2.149778098617138 1.943      1.934206   0.2059796  0.2059796  0.2542019  18.29785   82.81254   1.018      0.1466056  0.2361094  30.646     0.1461282  0.1068788  0.1853777 
1261.4     0.23       1          3          10.732     2.141929080778811 1.948      1.901177   0.1988135  0.1988135  0.2523684  13.47926   62.84941   1.007      0.1153779  0.2170439  32.769     0.1622877  0.1196211  0.2049542 
1261.6     0.229      1          3          11.055     2.303953473293916 1.915      1.86814    0.199881   0.199881   0.2644695  14.10716   40.86724   1.032      0.1295689  0.2489085  36.533     0.1957227  0.1426054  0.2488399 
1261.8     0.229      1          3          11.438     2.511950185691359 1.869      1.8695     0.1990796  0.1990796  0.2813377  13.63311   24.53165   1.072      0.1419667  0.2878377  41.238     0.249267   0.1756477  0.3228864 
1262       0.23       -9999      -9999      11.839     2.754676836469638 1.808      1.890042   0.1993388  0.1993388  0.3037064  13.78465   14.37675   1.121      0.160727   0.3344375  45.613     0.3162656  0.2184754  0.4140557 
