~Version
 VERS              .         2.0                           : CWLS LOG ASCII STANDARD - VERSION 2.0
 WRAP              .         NO                            : ONE LINE PER DEPTH STEP
 DLM               .         SPACE                         : DELIMITING CHARACTER(SPACE TAB OR COMMA)
~Well Information
#_______________________________________________________________________________
#
#PARAMETER_NAME    .UNIT     VALUE                         : DESCRIPTION
#_______________________________________________________________________________
STRT               .M        880                           : First reference value
STOP               .M        2244                          : Last reference value
STEP               .M        0.2                           : Step increment
NULL               .         -9999                         : Missing value
COMP               .                                       : Company
WELL               .         114                           : Well name
FLD                .         УЗЕНЬ                         : Field
LOC                .                                       : Location
PROV               .                                       : Province
SRVC               .                                       : Service Company
DATE               .                                       : Date
UWI                .                                       : Unique Well ID
Block              .         7                             : 
Category           .         Нефтяная                      : 
Condition          .         В работе                      : 
CTRY               .         Казахстан                     : Название страны
Date               .         11.05.1967                    : 
EREF               .m        85.5                          : 100.8
FILE               .                                       : 
Gorizont           .         23                            : 14
Interpretator      .         Ким С.В.                      : 
Kupol              .         Хумурун                       : 
Mud                .                                       : 
Mud_density        .                                       : 
Mud_resistivity    .                                       : 
NGDU               .         НГДУ-2                        : 
ORIGINALWELLNAME   .         UZEN_114                      : 
Spud_date          .         1967                          : 1961
TAPE               .                                       : 
Viscosity          .                                       : 
X                  .m        42795.4                       : 46154
Y                  .m        84890.4                       : 85761.93
YEAR               .         2019                          : 
~Parameter Information Block
#_______________________________________________________________________________
#
#PARAMETER_NAME    .UNIT     VALUE                         : DESCRIPTION
#_______________________________________________________________________________
SET                .         LQC_KAZNIPI_Petrel            : 
TLFamily_CALI      .         Caliper                       : 
TLFamily_COLL      .         Net Reservoir Flag            : 
TLFamily_CSAT      .         Fluid Code                    : 
TLFamily_DEPT      .         Measured Depth                : 
TLFamily_GR        .         Russian Gamma Ray             : 
TLFamily_GZ3       .         Gradient 225                  : 
TLFamily_NGLD      .         Neutron Gamma                 : 
TLFamily_OGZ       .         Gradient Inverted 225         : 
TLFamily_PHIE      .         Effective Porosity            : 
TLFamily_PHIEN     .         Effective Porosity            : 
TLFamily_PHIT      .         Porosity                      : 
TLFamily_PRMB      .         Permeability                  : 
TLFamily_PRMB_DGR  .         Permeability                  : 
TLFamily_RT        .         Formation Resistivity         : 
TLFamily_SOIL_ARCHIE .         Oil Saturation                : 
TLFamily_SOIL_DW   .         Oil Saturation                : 
TLFamily_SP        .         Spontaneous Potential         : 
TLFamily_VSH_FIN   .         Shale Volume                  : 
TLFamily_VSH_GR    .         Shale Volume                  : 
TLFamily_VSH_SP    .         Shale Volume                  : 
~Curve Information
#_______________________________________________________________________________
#
#LOGNAME           .UNIT     LOG_ID                        : DESCRIPTION
#_______________________________________________________________________________
DEPT               .M                                      : Колонка глубины 
CALI               .м                                      : Каверномер 
COLL               .unitless                               : Описание 
CSAT               .unitless                               : Описание 
GR                 .uR/h                                   : Гамма каротаж 
GZ3                .Ohmm                                   : 2  GZ3 
NGLD               .у.е.                                   : Показания зонда НГК-60 аппаратуры ДРСТ-3-90 
OGZ                .Ohmm                                   : 3  OGZ3 
PHIE               .v/v                                    : Описание 
PHIEN              .v/v                                    :  
PHIT               .v/v                                    : Описание 
PRMB               .mD                                     :  
PRMB_DGR           .mD                                     :  
RT                 .ohmm                                   : УЭС пласта 
SOIL_ARCHIE        .v/v                                    :  
SOIL_DW            .v/v                                    :  
SP                 .мВ                                     : Потенциал самополяризации 
VSH_FIN            .v/v                                    : Описание 
VSH_GR             .v/v                                    : Shale volume 
VSH_SP             .v/v                                    : Shale Volume 
~Ascii
# ...
1082.2     0.404      -9999      -9999      9.271      2.394600125983431 1.756      1.898387   0.2015689  0.2015689  0.3227748  15.16012   8.753064   1.059      0.1216945  0.3236164  56.755     0.3672906  0.2675462  0.3672906 
1082.4     0.403      -9999      -9999      9.282      2.408596543835563 1.782      1.91441    0.1934152  0.1934152  0.3132406  10.70724   8.681241   1.067      0.09274278 0.3024794  56.569     0.3631072  0.2684478  0.3631072 
1082.6     0.403      -9999      -9999      9.321      2.259855692025988 1.803      1.882464   0.1863238  0.1863238  0.3055399  7.912747   8.431303   1.027      0.04578497 0.2674497  56.495     0.3612609  0.2716692  0.3612609 
1082.8     0.403      -9999      -9999      9.347      2.014293321433467 1.825      2.027975   0.1774952  0.1774952  0.2974725  5.429988   8.268692   1.011      0          0.2350125  56.623     0.3635677  0.2738383  0.3635677 
1083       0.374      -9999      -9999      9.439      2.536910028910559 1.829      2.236194   0.1736616  0.1736616  0.2960057  4.610973   7.718066   1.189      0.05285601 0.2863092  56.983     0.3707396  0.2816533  0.3707396 
1083.2     0.341      -9999      -9999      9.575      2.994589395689081 1.808      2.549755   0.177917   0.177917   0.3037064  5.528561   6.970548   1.377      0.1343493  0.3532522  57.488     0.3811801  0.2936163  0.3811801 
1083.4     0.318      -9999      -9999      9.703      3.407035130917132 1.77       2.726134   0.1881624  0.1881624  0.317641   8.55818    6.333267   1.514      0.211439   0.4128737  58.013     0.3923596  0.3053394  0.3923596 
1083.6     0.334      -9999      -9999      9.799      3.426432357009549 1.737      2.864131   0.1970109  0.1970109  0.3297421  12.48184   5.893842   1.56       0.2529436  0.4447227  58.466     0.4022157  0.3144378  0.4022157 
1083.8     0.331      -9999      -9999      9.815      3.095065181296754 1.731      2.995855   0.1971767  0.1971767  0.3319423  12.57038   5.823626   1.522      0.2448016  0.4402633  58.75      0.4083807  0.3159804  0.4083807 
1084       0.324      -9999      -9999      9.776      3.097573398662242 1.744      2.998883   0.1917725  0.1917725  0.3271752  9.982761   5.996258   1.524      0.2267764  0.4294595  58.849     0.4103111  0.3122336  0.4103111 
1084.2     0.317      -9999      -9999      9.597      2.970272927689819 1.77       2.640535   0.1828271  0.1828271  0.317641   6.816457   6.856623   1.398      0.1606158  0.381973   58.788     0.4085271  0.2955987  0.4085271 
1084.4     0.335      -9999      -9999      9.487      2.500876826016115 1.797      2.37187    0.1737329  0.1737329  0.3077401  4.625019   7.445497   1.217      0.06348001 0.3110408  58.698     0.4060822  0.2858188  0.4060822 
1084.6     0.343      -9999      -9999      9.558      2.341050123983586 1.825      2.34105    0.1645317  0.1645317  0.2974725  3.123811   7.05988    1.171      0.0001096993 0.2675098  58.573     0.4028508  0.2920935  0.4028508 
1084.8     0.339      -9999      -9999      9.938      2.376616499370817 1.845      2.376617   0.1592475  0.1592475  0.2901385  2.493498   5.311055   1.188      0          0.2521344  58.315     0.3966392  0.3280943  0.3966392 
1085       0.324      -9999      -9999      10.341     2.412180125983552 1.852      2.41218    0.1603279  0.1603279  0.2875716  2.61108    3.927195   1.206      0          0.2557034  57.833     0.3855869  0.3711338  0.3855869 
1085.2     0.327      -9999      -9999      10.557     2.413427563176412 1.84       2.413428   0.1692678  0.1692678  0.291972   3.823034   3.340535   1.207      0.0382833  0.2784583  57.209     0.3718309  0.3964812  0.3718309 
1085.4     0.342      -9999      -9999      10.667     2.285611577800106 1.811      2.285612   0.1837599  0.1837599  0.3026063  7.093109   3.076326   1.143      0.08150245 0.2977007  56.662     0.3601407  0.4100476  0.3601407 
1085.6     0.375      -9999      -9999      10.795     2.096904040196393 1.774      2.096904   0.1997287  0.1997287  0.3161742  14.01582   2.795072   1.048      0.1103021  0.3090913  56.318     0.352865   0.4264194  0.352865  
1085.8     0.396      -9999      -9999      10.982     1.918193889452378 1.753      1.91821    0.2084536  0.2084536  0.3238749  20.33407   2.429744   0.959      0.1063724  0.3002274  56.178     0.3497615  0.4515199  0.3497615 
1086       0.403      -9999      -9999      10.915     1.766485274544557 1.756      1.848638   0.2073721  0.2073721  0.3227748  19.41743   2.554797   0.903      0.07660726 0.2758697  56.191     0.3497052  0.4423611  0.3497052 
1086.2     0.399      -9999      -9999      10.75      1.919770203129147 1.778      2.320167   0.1981927  0.1981927  0.3147074  13.12708   2.890893   1.051      0.1055005  0.3060029  56.376     0.3530748  0.4205905  0.3530748 
1086.4     0.37       -9999      -9999      10.764     2.122711091405811 1.794      2.612497   0.190022   0.190022   0.3088402  9.264606   2.860735   1.171      0.117996   0.3237224  56.737     0.3600551  0.4223953  0.3600551 
1086.6     0.343      -9999      -9999      11.045     2.253629021483985 1.814      2.854517   0.1799036  0.1799036  0.3015062  6.017415   2.317749   1.259      0.10587    0.3236585  57.161     0.3684926  0.4603046  0.3684926 
1086.8     0.315      -9999      -9999      11.293     2.437824104676773 1.824      3.061844   0.1739992  0.1739992  0.2978392  4.677841   1.924822   1.357      0.1113174  0.3349404  57.498     0.3752727  0.4965787  0.3752727 
1087       0.322      -9999      -9999      11.182     2.471844412255469 1.833      3.145366   0.1695464  0.1695464  0.2945389  3.868732   2.0917     1.384      0.09938882 0.3301613  57.677     0.3787652  0.4800026  0.3787652 
1087.2     0.336      -9999      -9999      10.896     2.471177947745879 1.825      3.044526   0.1720166  0.1720166  0.2974725  4.298559   2.591417   1.364      0.1045678  0.3331277  57.758     0.3801693  0.4397979  0.3801693 
1087.4     0.349      -9999      -9999      10.594     2.392919085694054 1.825      2.758504   0.1716374  0.1716374  0.2974725  4.22959    3.249225   1.281      0.0760209  0.3112597  57.827     0.3813186  0.4009936  0.3813186 
1087.6     0.349      -9999      -9999      10.474     2.188286182191855 1.838      2.757278   0.1665901  0.1665901  0.2927054  3.410449   3.55481    1.22       0.02972408 0.2788573  57.882     0.3821674  0.3865426  0.3821674 
1087.8     0.338      -9999      -9999      10.385     2.157163595559207 1.855      2.95467    0.1605054  0.1605054  0.2864715  2.630919   3.799869   1.247      0.00800739 0.2666589  57.877     0.3817154  0.3761623  0.3817154 
1088       0.307      -9999      -9999      10.437     2.226556634343591 1.86       3.102502   0.1598099  0.1598099  0.284638   2.554022   3.654707   1.296      0.02209583 0.276615   57.733     0.378267   0.3821929  0.378267  
1088.2     0.276      -9999      -9999      10.412     2.159506542544682 1.84       3.110696   0.1693484  0.1693484  0.291972   3.836194   3.723794   1.275      0.06309117 0.2980956  57.435     0.3715868  0.3792816  0.3715868 
1088.4     0.268      -9999      -9999      10.44      1.964402703524291 1.829      2.536045   0.1760861  0.1760861  0.2960057  5.113273   3.646507   1.107      0.0323125  0.2644237  57.058     0.3633929  0.3825437  0.3633929 
1088.6     0.303      -9999      -9999      10.331     1.666858797919952 1.82       2.428953   0.181389   0.181389   0.299306   6.410964   3.956718   0.989      0.005778845 0.2360566  56.777     0.357324   0.3700005  0.357324  
1088.8     0.354      -9999      -9999      10.26      1.655829338649407 1.83       2.88204    0.177868   0.177868   0.295639   5.517034   4.172842   1.052      0.01754614 0.24791    56.771     0.3568816  0.3620521  0.3568816 
1089       0.369      -9999      -9999      10.022     2.073591466499915 1.833      3.47503    0.1747452  0.1747452  0.2945389  4.829066   4.987176   1.299      0.09628668 0.3168469  57.087     0.3630113  0.336633   0.3630113 
1089.2     0.34       -9999      -9999      9.768      2.518435126434117 1.84       3.857707   0.1685745  0.1685745  0.291972   3.711655   6.032299   1.524      0.1348855  0.356824   57.625     0.3739316  0.3114705  0.3739316 
