~Version
 VERS              .         2.0                           : CWLS LOG ASCII STANDARD - VERSION 2.0
 WRAP              .         NO                            : ONE LINE PER DEPTH STEP
 DLM               .         SPACE                         : DELIMITING CHARACTER(SPACE TAB OR COMMA)
~Well Information
#_______________________________________________________________________________
#
#PARAMETER_NAME    .UNIT     VALUE                         : DESCRIPTION
#_______________________________________________________________________________
STRT               .M        880                           : First reference value
STOP               .M        2244                          : Last reference value
STEP               .M        0.2                           : Step increment
NULL               .         -9999                         : Missing value
COMP               .                                       : Company
WELL               .         114                           : Well name
FLD                .         УЗЕНЬ                         : Field
LOC                .                                       : Location
PROV               .                                       : Province
SRVC               .                                       : Service Company
DATE               .                                       : Date
UWI                .                                       : Unique Well ID
Block              .         7                             : 
Category           .         Нефтяная                      : 
Condition          .         В работе                      : 
CTRY               .         Казахстан                     : Название страны
Date               .         11.05.1967                    : 
EREF               .m        85.5                          : 100.8
FILE               .                                       : 
Gorizont           .         23                            : 14
Interpretator      .         Ким С.В.                      : 
Kupol              .         Хумурун                       : 
Mud                .                                       : 
Mud_density        .                                       : 
Mud_resistivity    .                                       : 
NGDU               .         НГДУ-2                        : 
ORIGINALWELLNAME   .         UZEN_114                      : 
Spud_date          .         1967                          : 1961
TAPE               .                                       : 
Viscosity          .                                       : 
X                  .m        42795.4                       : 46154
Y                  .m        84890.4                       : 85761.93
YEAR               .         2019                          : 
~Parameter Information Block
#_______________________________________________________________________________
#
#PARAMETER_NAME    .UNIT     VALUE                         : DESCRIPTION
#_______________________________________________________________________________
SET                .         LQC_KAZNIPI_Petrel            : 
TLFamily_CALI      .         Caliper                       : 
TLFamily_COLL      .         Net Reservoir Flag            : 
TLFamily_CSAT      .         Fluid Code                    : 
TLFamily_DEPT      .         Measured Depth                : 
TLFamily_GR        .         Russian Gamma Ray             : 
TLFamily_GZ3       .         Gradient 225                  : 
TLFamily_NGLD      .         Neutron Gamma                 : 
TLFamily_OGZ       .         Gradient Inverted 225         : 
TLFamily_PHIE      .         Effective Porosity            : 
TLFamily_PHIEN     .         Effective Porosity            : 
TLFamily_PHIT      .         Porosity                      : 
TLFamily_PRMB      .         Permeability                  : 
TLFamily_PRMB_DGR  .         Permeability                  : 
TLFamily_RT        .         Formation Resistivity         : 
TLFamily_SOIL_ARCHIE .         Oil Saturation                : 
TLFamily_SOIL_DW   .         Oil Saturation                : 
TLFamily_SP        .         Spontaneous Potential         : 
TLFamily_VSH_FIN   .         Shale Volume                  : 
TLFamily_VSH_GR    .         Shale Volume                  : 
TLFamily_VSH_SP    .         Shale Volume                  : 
~Curve Information
#_______________________________________________________________________________
#
#LOGNAME           .UNIT     LOG_ID                        : DESCRIPTION
#_______________________________________________________________________________
DEPT               .M                                      : Колонка глубины 
CALI               .м                                      : Каверномер 
COLL               .unitless                               : Описание 
CSAT               .unitless                               : Описание 
GR                 .uR/h                                   : Гамма каротаж 
GZ3                .Ohmm                                   : 2  GZ3 
NGLD               .у.е.                                   : Показания зонда НГК-60 аппаратуры ДРСТ-3-90 
OGZ                .Ohmm                                   : 3  OGZ3 
PHIE               .v/v                                    : Описание 
PHIEN              .v/v                                    :  
PHIT               .v/v                                    : Описание 
PRMB               .mD                                     :  
PRMB_DGR           .mD                                     :  
RT                 .ohmm                                   : УЭС пласта 
SOIL_ARCHIE        .v/v                                    :  
SOIL_DW            .v/v                                    :  
SP                 .мВ                                     : Потенциал самополяризации 
VSH_FIN            .v/v                                    : Описание 
VSH_GR             .v/v                                    : Shale volume 
VSH_SP             .v/v                                    : Shale Volume 
~Ascii
# ...
1962.2     0.203      1          3          9.849      0.55143    1.702      3.80052    0.1980168  0.1980168  0.22556    10.38406   313.6626   0.482      0          0          6.924      0.0888489  0.06204763 0.1156502 
1962.4     0.204      1          3          9.476      0.62036    1.704      3.38359    0.1990932  0.1990932  0.22512    11.05695   487.3284   0.524      0          0.01606536 7.326      0.08395733 0.05183068 0.116084  
1962.6     0.204      1          3          9.061      0.76188    1.7        3.0673     0.2013749  0.2013749  0.226      12.63098   795.6607   0.61       0.05208062 0.09467246 7.655      0.07943577 0.04242777 0.1164438 
1962.8     0.204      1          3          8.747      0.89903    1.681      2.94888    0.206414   0.206414   0.23018    16.94702   1152.971   0.689      0.1237992  0.16603    8.04       0.07666443 0.03646461 0.1168642 
1963       0.205      1          3          8.46       0.99944    1.668      2.96386    0.2099029  0.2099029  0.23304    20.77192   1618.292   0.747      0.1686344  0.2104638  8.642      0.07463586 0.0317504  0.1175213 
1963.2     0.205      1          3          8.344      1.10282    1.668      3.07964    0.2100305  0.2100305  0.23304    20.92709   1855.958   0.812      0.2009789  0.2429314  9.445      0.07422431 0.03002263 0.118426  
1963.4     0.206      1          3          8.353      1.17133    1.691      3.05652    0.2047921  0.2047921  0.22798    15.4172    1836.331   0.847      0.1992233  0.241155   10.294     0.07479965 0.03015325 0.119446  
1963.6     0.206      1          3          8.387      1.17173    1.723      2.87919    0.1976008  0.1976008  0.22094    10.13508   1764.038   0.833      0.1674136  0.2088609  10.657     0.07528776 0.03065185 0.1199237 
1963.8     0.207      1          3          8.222      1.20618    1.744      2.50371    0.1934232  0.1934232  0.21632    7.943207   2143.667   0.814      0.1425394  0.1825014  10.226     0.07386076 0.02830685 0.1194147 
1964       0.206      1          3          8.08       1.20076    1.75       2.00064    0.1925915  0.1925915  0.215      7.567069   2535.171   0.75       0.1055986  0.1438067  9.103      0.07228538 0.02643288 0.1181379 
1964.2     0.205      1          3          8.106      1.33169    1.736      1.48708    0.1958377  0.1958377  0.21808    9.144583   2458.491   0.703      0.09134471 0.129118   7.765      0.07174927 0.02676647 0.1167321 
1964.4     0.205      1          3          8.133      1.63576    1.729      1.14618    0.1975118  0.1975118  0.21962    10.08263   2381.314   0.674      0.0800487  0.1174042  6.561      0.07131667 0.02711736 0.115516  
1964.6     0.206      1          3          8.354      2.08173    1.726      0.94224    0.1978266  0.1978266  0.22028    10.26944   1834.162   0.649      0.06488365 0.1026903  5.746      0.07243045 0.0301678  0.1146931 
1964.8     0.206      1          3          8.581      2.43724    1.743      0.86152    0.1936176  0.1936176  0.21654    8.033786   1402.751   0.637      0.03882225 0.07681147 5.286      0.07394329 0.03365868 0.1142279 
1965       0.207      1          3          8.566      2.85214    1.753      0.80852    0.1914615  0.1914615  0.21434    7.084354   1427.829   0.63       0.02435598 0.06175128 5.227      0.07380165 0.03341602 0.1141873 
1965.2     0.207      1          3          8.481      3.29879    1.764      0.79258    0.1892462  0.1892462  0.21192    6.225584   1578.641   0.639      0.02095508 0.0576232  5.226      0.07314126 0.03207365 0.1142089 
1965.4     0.206      1          3          8.336      3.68186    1.758      0.79258    0.1908889  0.1908889  0.21324    6.851649   1873.579   0.652      0.03743753 0.07385752 5.284      0.07210028 0.02990701 0.1142936 
1965.6     0.206      1          3          8.35       3.928389999999999 1.753      0.75811    0.1919636  0.1919636  0.21434    7.294921   1842.849   0.635      0.03018336 0.06655589 5.226      0.07218189 0.03010966 0.1142541 
1965.8     0.205      1          3          8.373      3.76703    1.742      0.72365    0.1943567  0.1943567  0.21676    8.387726   1793.454   0.607      0.02007248 0.05642322 5.054      0.07226877 0.03044556 0.114092  
1966       0.205      1          3          8.424      3.46368    1.739      0.79256    0.1949489  0.1949489  0.21742    8.682565   1688.597   0.645      0.05012136 0.08742008 4.738      0.07248732 0.03120381 0.1137708 
1966.2     0.206      1          3          8.484      3.4351     1.737      0.79255    0.1952977  0.1952977  0.21786    8.860994   1573.056   0.644      0.05090801 0.08845992 4.422      0.0727817  0.0321201  0.1134433 
1966.4     0.206      1          3          8.454      3.51476    1.747      0.83404    0.1932108  0.1932108  0.21566    7.845414   1629.802   0.674      0.062238   0.09964678 4.164      0.07241677 0.03165865 0.1131749 
1966.6     0.207      1          3          8.289      3.45977    1.757      0.93633    0.1914183  0.1914183  0.21346    7.06655    1980.546   0.737      0.09341788 0.1304804  3.963      0.07110211 0.02923661 0.1129676 
1966.8     0.207      1          3          8.113      3.10217    1.764      1.18864    0.1902641  0.1902641  0.21192    6.606442   2438.245   0.859      0.151842   0.1891744  3.848      0.06985757 0.026857   0.1128581 
1967       0.207      1          3          8.068      2.68412    1.755      1.48758    0.192335   0.192335   0.2139     7.454664   2571.364   0.957      0.2013346  0.2394456  3.819      0.06956462 0.02628032 0.1128489 
1967.2     0.206      1          3          8.24       2.24865    1.736      1.8385     0.1961517  0.1961517  0.21808    9.313609   2098.568   1.011      0.234852   0.2743162  3.858      0.07073642 0.02855369 0.1129192 
1967.4     0.205      1          3          8.457      1.81759    1.714      2.14895    0.2004839  0.2004839  0.22292    11.99128   1624.038   0.985      0.2400377  0.2807292  3.945      0.07237452 0.03170449 0.1130446 
1967.6     0.204      1          3          8.739      1.37782    1.695      2.46557    0.2039286  0.2039286  0.2271     14.65984   1163.918   0.884      0.2122361  0.2542068  4.032      0.0747465  0.03632418 0.1131688 
1967.8     0.204      1          3          9.072      1.07131    1.681      2.8392     0.2060006  0.2060006  0.23018    16.54317   785.3889   0.778      0.1709063  0.2144695  4.164      0.07799823 0.04265349 0.113343  
1968       0.204      1          3          9.351      0.82694    1.66       3.14234    0.2096401  0.2096401  0.2348     20.45597   564.8721   0.655      0.1147803  0.1598365  4.304      0.08116094 0.04879791 0.113524  
1968.2     0.205      1          3          9.666      0.88833    1.635      3.41796    0.2138658  0.2138658  0.2403     26.17389   389.3556   0.705      0.1595522  0.2075709  4.476      0.08527176 0.05680536 0.1137381 
1968.4     0.205      1          3          9.755      0.99921    1.615      3.62408    0.2178473  0.2178473  0.2447     33.01659   350.4993   0.783      0.2126858  0.2616964  4.645      0.08662169 0.05929711 0.1139463 
1968.6     0.206      1          3          9.903      0.9992     1.612      3.75561    0.2177904  0.2177904  0.24536    32.90731   294.279    0.789      0.2153228  0.2655098  4.843      0.08893408 0.06368504 0.1141831 
1968.8     0.206      1          3          9.886      0.93028    1.626      3.82449    0.214741   0.214741   0.24228    27.54484   300.2485   0.748      0.1854833  0.2355531  5.125      0.08883552 0.06316495 0.1145061 
1969       0.205      1          3          9.727      0.93027    1.635      3.92782    0.2134191  0.2134191  0.2403     25.50073   362.2862   0.752      0.183138   0.2320103  5.502      0.08671264 0.05850163 0.1149236 
1969.2     0.204      1          3          9.624      0.98388    1.645      4.10237    0.2115783  0.2115783  0.2381     22.90444   409.1607   0.794      0.1976765  0.2458743  5.982      0.08555394 0.0556661  0.1154418 
1969.4     0.202      1          3          9.456      1.06807    1.655      4.239191   0.2099691  0.2099691  0.2359     20.85231   498.9788   0.853      0.2190381  0.2661821  6.469      0.08364809 0.05133308 0.1159631 
