~Version
 VERS              .         2.0                           : CWLS LOG ASCII STANDARD - VERSION 2.0
 WRAP              .         NO                            : ONE LINE PER DEPTH STEP
 DLM               .         SPACE                         : DELIMITING CHARACTER(SPACE TAB OR COMMA)
~Well Information
#_______________________________________________________________________________
#
#PARAMETER_NAME    .UNIT     VALUE                         : DESCRIPTION
#_______________________________________________________________________________
STRT               .M        880                           : First reference value
STOP               .M        2244                          : Last reference value
STEP               .M        0.2                           : Step increment
NULL               .         -9999                         : Missing value
COMP               .                                       : Company
WELL               .         114                           : Well name
FLD                .         УЗЕНЬ                         : Field
LOC                .                                       : Location
PROV               .                                       : Province
SRVC               .                                       : Service Company
DATE               .                                       : Date
UWI                .                                       : Unique Well ID
Block              .         7                             : 
Category           .         Нефтяная                      : 
Condition          .         В работе                      : 
CTRY               .         Казахстан                     : Название страны
Date               .         11.05.1967                    : 
EREF               .m        85.5                          : 100.8
FILE               .                                       : 
Gorizont           .         23                            : 14
Interpretator      .         Ким С.В.                      : 
Kupol              .         Хумурун                       : 
Mud                .                                       : 
Mud_density        .                                       : 
Mud_resistivity    .                                       : 
NGDU               .         НГДУ-2                        : 
ORIGINALWELLNAME   .         UZEN_114                      : 
Spud_date          .         1967                          : 1961
TAPE               .                                       : 
Viscosity          .                                       : 
X                  .m        42795.4                       : 46154
Y                  .m        84890.4                       : 85761.93
YEAR               .         2019                          : 
~Parameter Information Block
#_______________________________________________________________________________
#
#PARAMETER_NAME    .UNIT     VALUE                         : DESCRIPTION
#_______________________________________________________________________________
SET                .         LQC_KAZNIPI_Petrel            : 
TLFamily_CALI      .         Caliper                       : 
TLFamily_COLL      .         Net Reservoir Flag            : 
TLFamily_CSAT      .         Fluid Code                    : 
TLFamily_DEPT      .         Measured Depth                : 
TLFamily_GR        .         Russian Gamma Ray             : 
TLFamily_GZ3       .         Gradient 225                  : 
TLFamily_NGLD      .         Neutron Gamma                 : 
TLFamily_OGZ       .         Gradient Inverted 225         : 
TLFamily_PHIE      .         Effective Porosity            : 
TLFamily_PHIEN     .         Effective Porosity            : 
TLFamily_PHIT      .         Porosity                      : 
TLFamily_PRMB      .         Permeability                  : 
TLFamily_PRMB_DGR  .         Permeability                  : 
TLFamily_RT        .         Formation Resistivity         : 
TLFamily_SOIL_ARCHIE .         Oil Saturation                : 
TLFamily_SOIL_DW   .         Oil Saturation                : 
TLFamily_SP        .         Spontaneous Potential         : 
TLFamily_VSH_FIN   .         Shale Volume                  : 
TLFamily_VSH_GR    .         Shale Volume                  : 
TLFamily_VSH_SP    .         Shale Volume                  : 
~Curve Information
#_______________________________________________________________________________
#
#LOGNAME           .UNIT     LOG_ID                        : DESCRIPTION
#_______________________________________________________________________________
DEPT               .M                                      : Колонка глубины 
CALI               .м                                      : Каверномер 
COLL               .unitless                               : Описание 
CSAT               .unitless                               : Описание 
GR                 .uR/h                                   : Гамма каротаж 
GZ3                .Ohmm                                   : 2  GZ3 
NGLD               .у.е.                                   : Показания зонда НГК-60 аппаратуры ДРСТ-3-90 
OGZ                .Ohmm                                   : 3  OGZ3 
PHIE               .v/v                                    : Описание 
PHIEN              .v/v                                    :  
PHIT               .v/v                                    : Описание 
PRMB               .mD                                     :  
PRMB_DGR           .mD                                     :  
RT                 .ohmm                                   : УЭС пласта 
SOIL_ARCHIE        .v/v                                    :  
SOIL_DW            .v/v                                    :  
SP                 .мВ                                     : Потенциал самополяризации 
VSH_FIN            .v/v                                    : Описание 
VSH_GR             .v/v                                    : Shale volume 
VSH_SP             .v/v                                    : Shale Volume 
~Ascii
# ...
902.2000000000001 0.329      -9999      -9999      11.274     3.892858701373748 1.933      6.881087   -9999      -9999      -9999      -9999      -9999      2.486      -9999      -9999      57.661     -9999      0.8        0.8       
902.4      0.326      -9999      -9999      10.514     3.686722862791824 1.927      7.427967   -9999      -9999      -9999      -9999      -9999      2.464      -9999      -9999      57.828     -9999      0.8        0.8       
902.6      0.319      -9999      -9999      9.796      3.485916161592161 1.927      7.952298   -9999      -9999      -9999      -9999      -9999      2.424      -9999      -9999      57.9       -9999      0.7559111  0.8       
902.8      0.33       -9999      -9999      9.18       3.315446256581999 1.931      6.990925   -9999      -9999      -9999      -9999      -9999      2.249      -9999      -9999      57.896     -9999      0.50078    0.8       
903        0.354      -9999      -9999      8.793      3.145479581861099 1.932      7.732081   0.1759388  0.1759388  0.2582356  5.08127    16.92807   2.236      0.3037358  0.4384059  57.851     0.249384   0.2043773  0.2943908 
903.2000000000001 0.382      -9999      -9999      8.468      3.212985750990448 1.944      9.241437   0.1748976  0.1748976  0.2538352  4.860558   21.35463   2.384      0.3208627  0.4492352  57.737     0.2392048  0.1858824  0.2925273 
903.4      0.358      -9999      -9999      8.317      3.642890205259957 1.968      10.18764   0.1683411  0.1683411  0.2450344  3.674884   23.78836   2.683      0.3357525  0.4615388  57.39      0.2324039  0.1778683  0.2869394 
903.6      0.305      -9999      -9999      8.1        3.930551408242826 2.001      9.741807   0.1598257  0.1598257  0.2329333  2.555746   27.7795    2.801      0.3189286  0.445338   56.695     0.2215383  0.1669527  0.2761239 
903.8      0.27       -9999      -9999      8.033      4.446417930110611 2.036      13.26425   0.1500838  0.1500838  0.2200988  1.686843   29.14218   3.33       0.3366779  0.4602621  55.638     0.2121666  0.1637197  0.2606135 
904        0.253      6          6          7.921      5.371298971355338 2.103      15.95864   0.1293568  0.1293568  0.1955299  0.6968821  31.57101   4.019      0.3087847  0.4400899  54.304     0.2005247  0.1584545  0.2425949 
904.2000000000001 0.247      6          6          7.889      6.47854635224801 2.208      18.54244   0.09422934 0.09422934 0.1570264  0.1557808  32.30144   4.801      0.1620358  0.3364865  52.743     0.1902942  0.1569815  0.2236068 
904.4      0.216      6          6          7.859      7.541152597279015 2.338      20.19363   0.04984366 0.04984366 0.1093554  0.023463   33.00153   5.491      0          0.008746855 51.015     0.1803385  0.1556131  0.205064  
904.6      0.209      6          6          7.531      8.609380712769598 2.446      19.744     0.01533412 0.01533412 0.06975176 0.005384969 41.72054   5.995      0          0          49.224     0.1649019  0.1414071  0.1883968 
904.8      0.207      6          6          7.156      9.484810757446235 2.498      17.20127   0.01       0.0009419101 0.05068344 0.004289259 54.54502   6.114      0          0          47.514     0.1507319  0.1267474  0.1747163 
905        0.207      6          6          6.741      9.315616199749654 2.472      13.48189   0.01463829 0.01463829 0.06021764 0.005227508 73.37984   5.509      0          0          45.949     0.1381193  0.1122889  0.1639496 
905.2000000000001 0.206      6          6          6.535      8.656737790820756 2.375      11.31142   0.05264169 0.05264169 0.0957875  0.02643686 85.0202    4.904      0          0          44.573     0.1307449  0.1057367  0.155753  
905.4      0.205      6          6          6.38       8.162028508241203 2.253      9.457666   0.09919507 0.09919507 0.1405249  0.1925269  94.98086   4.381      0.1635173  0.2733741  43.358     0.1252419  0.10106    0.1494237 
905.6      0.205      6          6          6.24       8.040553945843776 2.153      8.40071    0.1373185  0.1373185  0.1771949  0.9786538  104.977    4.108      0.3505328  0.4275456  42.325     0.1208376  0.09701391 0.1446612 
905.8      0.205      1          3          6.059      8.503638194231977 2.113      7.744043   0.1534148  0.1534148  0.1918629  1.94434    119.4755   4.053      0.4065584  0.4746852  41.439     0.1165095  0.09202205 0.140997  
906        0.205      1          3          5.911      8.57936928743877 2.112      7.124784   0.1548634  0.1548634  0.1922296  2.068254   132.8068   3.892      0.400093   0.4666371  40.731     0.1132309  0.08813177 0.13833   
906.2000000000001 0.205      1          3          5.821      9.321804553713013 2.118      6.508173   0.1533476  0.1533476  0.1900294  1.938778   141.6307   3.832      0.3905042  0.4566379  40.198     0.1111568  0.08584695 0.1364667 
906.4      0.206      1          3          5.859      10.23711790323295 2.114      6.042209   0.1548541  0.1548541  0.1914962  2.067435   137.8357   3.8        0.3932889  0.4590104  39.836     0.1110366  0.08680434 0.1352688 
906.6      0.205      1          3          5.849      11.00085483295529 2.101      5.639723   0.1597809  0.1597809  0.1962633  2.550865   138.8244   3.728      0.4042917  0.4685886  39.612     0.1105527  0.08655136 0.1345541 
906.8      0.205      1          3          5.916      11.96811356605806 2.111      5.292089   0.155908   0.155908   0.1925963  2.162482   132.333    3.67       0.3869294  0.4528998  39.464     0.1111766  0.08826048 0.1340927 
907        0.205      1          3          5.923      12.71955221542628 2.134      4.897979   0.1474998  0.1474998  0.1841622  1.510818   131.6726   3.536      0.3452722  0.4144802  39.354     0.1110981  0.08844098 0.1337553 
907.2000000000001 0.206      1          3          6.071      13.47510308989077 2.174      4.397889   0.1322579  0.1322579  0.1694942  0.7886701  118.4552   3.316      0.2579913  0.3358092  39.213     0.1128372  0.0923449  0.1333296 
907.4      0.207      1          3          6.242      13.95793793396637 2.191      3.994622   0.1253321  0.1253321  0.1632603  0.5869667  104.827    3.106      0.1981614  0.282636   39.033     0.1149338  0.09707057 0.1327971 
907.6      0.208      1          3          6.428      13.72833430299649 2.184      3.624691   0.1271182  0.1271182  0.1658272  0.6334251  91.77753   2.868      0.1777919  0.2645741  38.796     0.1173     0.1024857  0.1321143 
907.8      0.208      1          3          6.556      13.35578588916916 2.14       3.49691    0.1427226  0.1427226  0.181962   1.232332   83.75356   2.771      0.2445638  0.3246725  38.55      0.118907   0.1063868  0.1314272 
908        0.206      1          3          6.629      13.12412496704217 2.099      3.531698   0.1574971  0.1574971  0.1969967  2.314124   79.4956    2.783      0.3080766  0.3825387  38.286     0.1196958  0.1086778  0.1307138 
908.2000000000001 0.205      1          3          6.72       12.78278863103323 2.07       3.428997   0.1677468  0.1677468  0.207631   3.582913   74.48957   2.704      0.3361367  0.408283   38.059     0.1208612  0.1116028  0.1301196 
908.4      0.205      1          3          6.734      11.80556677596626 2.065      3.252232   0.1695847  0.1695847  0.2094645  3.875063   73.74789   2.55       0.3240611  0.3965466  37.869     0.1208477  0.1120598  0.1296356 
908.6      0.206      1          3          6.652      10.80032348230112 2.066      2.876661   0.1696908  0.1696908  0.2090978  3.892635   78.19943   2.272      0.2868253  0.3602134  37.783     0.1194151  0.1094097  0.1294205 
908.8      0.208      1          3          6.439      9.420228952692092 2.063      2.408104   0.1718794  0.1718794  0.2101979  4.273483   91.05875   1.918      0.2363973  0.3095234  37.782     0.1161167  0.1028153  0.129418  
909        0.209      1          3          6.356      8.204996712465359 2.063      2.466977   0.1722574  0.1722574  0.2101979  4.342934   96.62424   1.897      0.2339092  0.306356   37.85      0.1149712  0.1003546  0.1295879 
909.2000000000001 0.211      1          3          6.275      7.327712740053993 2.055      2.713371   0.175537   0.175537   0.2131315  4.994925   102.3834   1.98       0.2613832  0.3318087  37.948     0.1139227  0.09801    0.1298354 
