~Version
 VERS              .         2.0                           : CWLS LOG ASCII STANDARD - VERSION 2.0
 WRAP              .         NO                            : ONE LINE PER DEPTH STEP
 DLM               .         SPACE                         : DELIMITING CHARACTER(SPACE TAB OR COMMA)
~Well Information
#_______________________________________________________________________________
#
#PARAMETER_NAME    .UNIT     VALUE                         : DESCRIPTION
#_______________________________________________________________________________
STRT               .M        880                           : First reference value
STOP               .M        2244                          : Last reference value
STEP               .M        0.2                           : Step increment
NULL               .         -9999                         : Missing value
COMP               .                                       : Company
WELL               .         114                           : Well name
FLD                .         УЗЕНЬ                         : Field
LOC                .                                       : Location
PROV               .                                       : Province
SRVC               .                                       : Service Company
DATE               .                                       : Date
UWI                .                                       : Unique Well ID
Block              .         7                             : 
Category           .         Нефтяная                      : 
Condition          .         В работе                      : 
CTRY               .         Казахстан                     : Название страны
Date               .         11.05.1967                    : 
EREF               .m        85.5                          : 100.8
FILE               .                                       : 
Gorizont           .         23                            : 14
Interpretator      .         Ким С.В.                      : 
Kupol              .         Хумурун                       : 
Mud                .                                       : 
Mud_density        .                                       : 
Mud_resistivity    .                                       : 
NGDU               .         НГДУ-2                        : 
ORIGINALWELLNAME   .         UZEN_114                      : 
Spud_date          .         1967                          : 1961
TAPE               .                                       : 
Viscosity          .                                       : 
X                  .m        42795.4                       : 46154
Y                  .m        84890.4                       : 85761.93
YEAR               .         2019                          : 
~Parameter Information Block
#_______________________________________________________________________________
#
#PARAMETER_NAME    .UNIT     VALUE                         : DESCRIPTION
#_______________________________________________________________________________
SET                .         LQC_KAZNIPI_Petrel            : 
TLFamily_CALI      .         Caliper                       : 
TLFamily_COLL      .         Net Reservoir Flag            : 
TLFamily_CSAT      .         Fluid Code                    : 
TLFamily_DEPT      .         Measured Depth                : 
TLFamily_GR        .         Russian Gamma Ray             : 
TLFamily_GZ3       .         Gradient 225                  : 
TLFamily_NGLD      .         Neutron Gamma                 : 
TLFamily_OGZ       .         Gradient Inverted 225         : 
TLFamily_PHIE      .         Effective Porosity            : 
TLFamily_PHIEN     .         Effective Porosity            : 
TLFamily_PHIT      .         Porosity                      : 
TLFamily_PRMB      .         Permeability                  : 
TLFamily_PRMB_DGR  .         Permeability                  : 
TLFamily_RT        .         Formation Resistivity         : 
TLFamily_SOIL_ARCHIE .         Oil Saturation                : 
TLFamily_SOIL_DW   .         Oil Saturation                : 
TLFamily_SP        .         Spontaneous Potential         : 
TLFamily_VSH_FIN   .         Shale Volume                  : 
TLFamily_VSH_GR    .         Shale Volume                  : 
TLFamily_VSH_SP    .         Shale Volume                  : 
~Curve Information
#_______________________________________________________________________________
#
#LOGNAME           .UNIT     LOG_ID                        : DESCRIPTION
#_______________________________________________________________________________
DEPT               .M                                      : Колонка глубины 
CALI               .м                                      : Каверномер 
COLL               .unitless                               : Описание 
CSAT               .unitless                               : Описание 
GR                 .uR/h                                   : Гамма каротаж 
GZ3                .Ohmm                                   : 2  GZ3 
NGLD               .у.е.                                   : Показания зонда НГК-60 аппаратуры ДРСТ-3-90 
OGZ                .Ohmm                                   : 3  OGZ3 
PHIE               .v/v                                    : Описание 
PHIEN              .v/v                                    :  
PHIT               .v/v                                    : Описание 
PRMB               .mD                                     :  
PRMB_DGR           .mD                                     :  
RT                 .ohmm                                   : УЭС пласта 
SOIL_ARCHIE        .v/v                                    :  
SOIL_DW            .v/v                                    :  
SP                 .мВ                                     : Потенциал самополяризации 
VSH_FIN            .v/v                                    : Описание 
VSH_GR             .v/v                                    : Shale volume 
VSH_SP             .v/v                                    : Shale Volume 
~Ascii
# ...
988.6      0.244      -9999      -9999      9.912      2.962123030238528 1.785      2.2903     0.09250548 0.09250548 0.3121405  0.1447385  2.20516    1.292      0          0.1660626  69.029     0.6655607  0.46976    0.6655607 
988.8      0.239      -9999      -9999      10.168     2.925532956204935 1.774      2.494593   0.0956634  0.0956634  0.3161742  0.1656061  1.778622   1.346      0          0.1989307  69.079     0.6682145  0.5128573  0.6682145 
989        0.232      -9999      -9999      10.368     2.665157564082274 1.755      2.665153   0.1015977  0.1015977  0.3231415  0.2133013  1.503659   1.333      0          0.2224858  69.142     0.6713449  0.5492602  0.6713449 
989.2000000000001 0.232      -9999      -9999      10.398     2.513820126415173 1.738      2.525962   0.1071046  0.1071046  0.3293754  0.2697712  1.466254   1.26       0          0.2243485  69.179     0.6735477  0.5549392  0.6735477 
989.4      0.235      -9999      -9999      10.374     2.352265865831347 1.734      2.696535   0.1084156  0.1084156  0.3308422  0.2852848  1.496103   1.256      0          0.2286005  69.168     0.6740199  0.5503913  0.6740199 
989.6      0.229      -9999      -9999      10.326     2.25529189577936 1.764      2.884747   0.09764027 0.09764027 0.3198412  0.1801742  1.557634   1.266      0          0.1859113  69.125     0.6733361  0.5414072  0.6733361 
989.8      0.22       -9999      -9999      10.236     2.395866335025579 1.817      3.182806   0.07885909 0.07885909 0.3004061  0.08087602 1.679911   1.367      0          0.1237465  69.046     0.6713545  0.5249553  0.6713545 
990        0.215      -9999      -9999      10.06      2.726343448806727 1.872      3.345921   0.0594495  0.0594495  0.2802376  0.0353433  1.947459   1.502      0          0.04367096 68.958     0.6690549  0.4942134  0.6690549 
990.2000000000001 0.224      -9999      -9999      9.913      2.799424341096259 1.873      3.018218   0.05988694 0.05988694 0.2798709  0.03600886 2.203308   1.452      0          0.02853325 68.866     0.666618   0.4699212  0.666618  
990.4      0.243      -9999      -9999      9.845      2.550611781888416 1.833      2.550612   0.07469588 0.07469588 0.2945389  0.06771844 2.332776   1.275      0          0.06446691 68.83      0.666191   0.4590915  0.666191  
990.6      0.267      -9999      -9999      9.936      2.241772350896213 1.775      2.241772   0.09553803 0.09553803 0.3158075  0.1647229  2.161166   1.121      0          0.1211483  68.842     0.6674833  0.4736416  0.6674833 
990.8      0.289      -9999      -9999      10.177     1.971803120425222 1.755      2.169413   0.1020655  0.1020655  0.3231415  0.2176002  1.765232   1.033      0          0.1181435  68.886     0.6699272  0.5144424  0.6699272 
991        0.287      -9999      -9999      10.512     1.692988582721052 1.761      2.202322   0.09917535 0.09917535 0.3209413  0.192365   1.332405   0.957      0          0.07067386 68.92      0.672018   0.5770599  0.672018  
991.2000000000001 0.28       -9999      -9999      10.819     1.847893226522388 1.781      2.330773   0.09137611 0.09137611 0.3136073  0.1379321  1.029631   1.031      0          0.06559131 68.935     0.6734278  0.6411147  0.6734278 
991.4      0.267      -9999      -9999      10.967     1.958301212007326 1.797      2.465318   0.08538894 0.08538894 0.3077401  0.1068485  0.9093069  1.091      0          0.05941617 68.921     0.6737913  0.6744877  0.6737913 
991.6      0.267      -9999      -9999      10.908     2.025629996383123 1.808      2.565272   0.08192614 0.08192614 0.3037064  0.09217834 0.9554901  1.132      0          0.05579055 68.849     0.6720614  0.6609802  0.6720614 
991.8      0.255      -9999      -9999      10.774     2.161766678167934 1.82       2.609237   0.07853433 0.07853433 0.299306   0.07976355 1.069282   1.182      0          0.05406382 68.74      0.669005   0.6312986  0.669005  
992        0.25       -9999      -9999      10.527     2.263503413346316 1.825      2.716262   0.07749305 0.07749305 0.2974725  0.07629873 1.315728   1.235      0          0.06674889 68.649     0.6666043  0.5800355  0.6666043 
992.2000000000001 0.246      -9999      -9999      10.425     2.36521668455661 1.837      2.74383    0.07296178 0.07296178 0.2930721  0.06289083 1.433385   1.27       0          0.0524702  68.636     0.6670009  0.5601004  0.6670009 
992.4      0.251      -9999      -9999      10.351     2.394196994871129 1.85       2.742303   0.0670564  0.0670564  0.288305   0.04888834 1.525277   1.278      0          0.01952296 68.708     0.6704503  0.546068   0.6704503 
992.6      0.258      -9999      -9999      10.572     2.499826685115226 1.871      2.77518    0.05786641 0.05786641 0.2806043  0.03303577 1.266941   1.315      0          0          68.809     0.6749632  0.5890543  0.6749632 
992.8      0.27       -9999      -9999      10.896     2.487099791085921 1.864      2.761384   0.05940357 0.05940357 0.2831712  0.03527413 0.9651662  1.309      0          0          68.871     0.6780838  0.6582662  0.6780838 
993        0.283      -9999      -9999      11.168     2.624437936454873 1.838      2.624438   0.06888909 0.06888909 0.2927054  0.05286291 0.7680883  1.312      0          0.05027972 68.851     0.6782312  0.7226111  0.6782312 
993.2000000000001 0.293      -9999      -9999      11.126     2.529621555937221 1.792      2.529621   0.08640298 0.08640298 0.3095736  0.1115709  0.7956594  1.265      0          0.1333214  68.773     0.6762745  0.7122796  0.6762745 
993.4      0.3        -9999      -9999      10.793     2.419237025625294 1.766      2.419237   0.09635469 0.09635469 0.3191078  0.1705614  1.052357   1.21       0          0.1623088  68.714     0.6750094  0.6354247  0.6750094 
993.6      0.311      -9999      -9999      10.39      2.2856158637006 1.755      2.285616   0.09995741 0.09995741 0.3231415  0.1988895  1.476136   1.143      0          0.1557239  68.726     0.6763154  0.5534191  0.6763154 
993.8      0.312      -9999      -9999      10.125     2.180849865979416 1.765      2.180857   0.09505478 0.09505478 0.3194745  0.1613627  1.844017   1.09       0          0.1140801  68.805     0.6800598  0.5053514  0.6800598 
994        0.309      -9999      -9999      9.911      2.180216166203497 1.776      2.299523   0.08942956 0.08942956 0.3154408  0.1269435  2.207012   1.119      0          0.1002547  68.913     0.6848825  0.469599   0.6848825 
994.2000000000001 0.292      -9999      -9999      9.803      2.278533259258152 1.781      2.45107    0.08632337 0.08632337 0.3136073  0.1111927  2.416514   1.181      0          0.1105777  68.994     0.6887392  0.4525277  0.6887392 
994.4      0.276      -9999      -9999      9.649      2.318319216315667 1.776      2.623677   0.08752394 0.08752394 0.3154408  0.1170344  2.750103   1.231      0          0.1361271  69.022     0.6906571  0.429253   0.6906571 
994.6      0.269      -9999      -9999      9.642      2.450056682238782 1.766      2.685748   0.09106835 0.09106835 0.3191078  0.1361334  2.766315   1.281      0          0.1705256  69.008     0.6910286  0.4282239  0.6910286 
994.8      0.269      -9999      -9999      9.622      2.448509845975786 1.767      2.72384    0.09045736 0.09045736 0.3187411  0.1326319  2.813166   1.289      0          0.1706395  69.004     0.6917689  0.4252974  0.6917689 
995        0.272      -9999      -9999      9.703      2.412571331912991 1.777      2.722286   0.08593515 0.08593515 0.3150741  0.1093668  2.62819    1.279      0          0.1467878  69.05      0.6943605  0.4372747  0.6943605 
995.2000000000001 0.266      -9999      -9999      9.666      2.560164414915573 1.794      2.560164   0.07852461 0.07852461 0.3088402  0.07973048 2.711125   1.28       0          0.1102518  69.122     0.697926   0.4317623  0.697926  
995.4      0.261      -9999      -9999      9.642      2.615986687091344 1.807      2.615987   0.07280991 0.07280991 0.3040731  0.06248478 2.766315   1.308      0          0.08920982 69.175     0.7007975  0.4282239  0.7007975 
995.6      0.257      -9999      -9999      9.593      2.633741828963625 1.801      2.63376    0.07436811 0.07436811 0.3062733  0.06677838 2.882509   1.317      0          0.1027143  69.203     0.702743   0.4210896  0.702743  
