~Version
 VERS              .         2.0                           : CWLS LOG ASCII STANDARD - VERSION 2.0
 WRAP              .         NO                            : ONE LINE PER DEPTH STEP
 DLM               .         SPACE                         : DELIMITING CHARACTER(SPACE TAB OR COMMA)
~Well Information
#_______________________________________________________________________________
#
#PARAMETER_NAME    .UNIT     VALUE                         : DESCRIPTION
#_______________________________________________________________________________
STRT               .M        850                           : First reference value
STOP               .M        1262                          : Last reference value
STEP               .M        0.2                           : Step increment
NULL               .         -9999                         : Missing value
COMP               .                                       : Company
WELL               .         1467                          : Well name
FLD                .         Узень                         : Field
LOC                .                                       : Location
CNTY               .                                       : County
STAT               .         500                           : State
CTRY               .                                       : Country
SRVC               .                                       : Service Company
DATE               .         20.03.1970                    : Date
UWI                .                                       : Unique Well ID
Block              .         7                             : 
Cartographic_reference_system .         GCS_WGS_1984                  : ESRI,PE_10_3_1- <?xml version="1.0" encoding="utf-16"?><ILateBoundCoordinateReferenceSystem name="GCS_WGS_1984"><AuthorityCode>EPSG,4326</AuthorityCode></ILateBoundCoordinateReferenceSystem>
Category           .         Нефтяная                      : 
Condition          .         Ликвидированная               : 
DATA               .         20.03.1970                    : 
Date               .         20.03.1970                    : 
EREF               .m        85.5                          : 100.8
Gorizont           .         14                            : 14
HZCS               .GCS_WGS_1984 WGS_1984_EASE-Grid_2.0_Global : ESRI,PE_10_3_1- <?xml version="1.0" encoding="utf-16"?><ILateBoundCoordinateReferenceSystem name="WGS_1984_EASE-Grid_2.0_Global"><AuthorityCode>EPSG,6933</AuthorityCode></ILateBoundCoordinateReferenceSystem>
Interpretator      .         Бердибекулы М.                : 
Kupol              .         Основной                      : osnovnoi
LATI               .dega     0.6637468873                  : GCS_WGS_1984
LONG               .dega     0.4442061596                  : GCS_WGS_1984
METD               .         GR, NEUT                      : Method
Mud                .                                       : 
Mud_density        .                                       : 
Mud_resistivity    .                                       : 
NGDU               .         НГДУ-2                        : 
ORIGINALWELLNAME   .         1467                          : 
Spud_date          .         1970                          : 1961
Viscosity          .                                       : 
X                  .m        42859.8                       : 46154
Y                  .m        84674.53                      : 85761.93
YEAR               .         2019                          : 
~Parameter Information Block
#_______________________________________________________________________________
#
#PARAMETER_NAME    .UNIT     VALUE                         : DESCRIPTION
#_______________________________________________________________________________
SET                .         LQC_KAZNIPI_Petrel            : 
TLFamily_CALI      .         Caliper                       : 
TLFamily_COLL      .         Net Reservoir Flag            : 
TLFamily_CSAT      .         Fluid Code                    : 
TLFamily_DEPT      .         Measured Depth                : 
TLFamily_GR        .         Russian Gamma Ray             : 
TLFamily_GZ1       .         Gradient 045                  : 
TLFamily_GZ2       .         Gradient 105                  : 
TLFamily_GZ3       .         Gradient 225                  : 
TLFamily_GZ4       .         Gradient 425                  : 
TLFamily_GZ5       .         Gradient 850                  : 
TLFamily_LLS       .         Lateral Log Resistivity       : 
TLFamily_MINV      .         Micro Gradient Resistivity    : 
TLFamily_MNOR      .         Micro Resistivity             : 
TLFamily_NGLD      .         Neutron Far                   : 
TLFamily_OGZ       .         Gradient Inverted 225         : 
TLFamily_PHIE      .         Effective Porosity            : 
TLFamily_PHIEN     .         Effective Porosity            : 
TLFamily_PHIT      .         Porosity                      : 
TLFamily_PRMB      .         Permeability                  : 
TLFamily_PRMB_DGR  .         Permeability                  : 
TLFamily_RT        .         Formation Resistivity         : 
TLFamily_SOIL_ARCHIE .         Oil Saturation                : 
TLFamily_SOIL_DW   .         Oil Saturation                : 
TLFamily_SP        .         Spontaneous Potential         : 
TLFamily_VSH_FIN   .         Shale Volume                  : 
TLFamily_VSH_GR    .         Shale Volume                  : 
TLFamily_VSH_SP    .         Shale Volume                  : 
~Curve Information
#_______________________________________________________________________________
#
#LOGNAME           .UNIT     LOG_ID                        : DESCRIPTION
#_______________________________________________________________________________
DEPT               .M                                      : Колонка глубины 
CALI               .м                                      : Каверномер 
COLL               .unitless                               : Описание 
CSAT               .unitless                               : Описание 
GR                 .uR/h                                   : Гамма каротаж 
GZ1                .Ohmm                                   : А0.4М0.1N 
GZ2                .Ohmm                                   : A1.0M0.1N 
GZ3                .Ohmm                                   : Подошвенный зонд 
GZ4                .Ohmm                                   : A4M0.5N 
GZ5                .Ohmm                                   : A8M1N 
LLS                .Ohmm                                   : Боковой каротаж 
MINV               .Ohmm                                   : Микро-градиент зонд 
MNOR               .Ohmm                                   : Микро-потенциал зонд 
NGLD               .у.е.                                   : Показания зонда НГК-60 аппаратуры ДРСТ-3-90 
OGZ                .Ohmm                                   : Кровельный 
PHIE               .v/v                                    : Описание 
PHIEN              .v/v                                    :  
PHIT               .v/v                                    : Описание 
PRMB               .mD                                     :  
PRMB_DGR           .mD                                     :  
RT                 .ohmm                                   : УЭС пласта 
SOIL_ARCHIE        .v/v                                    :  
SOIL_DW            .v/v                                    :  
SP                 .мВ                                     : Потенциал самополяризации 
VSH_FIN            .v/v                                    : Описание 
VSH_GR             .v/v                                    : Shale volume 
VSH_SP             .v/v                                    : Shale Volume 
~Ascii
# ...
893.2000000000001 0.272      -9999      -9999      6.029      -9999      -9999      4.111001   -9999      -9999      0.535      -9999      -9999      0.954      7.277      -9999      -9999      -9999      -9999      -9999      0.535      -9999      -9999      22.475     -9999      0.06094185 0.1861491 
893.4      0.284      -9999      -9999      6.129      -9999      -9999      4.369      -9999      -9999      0.583      -9999      -9999      0.961      7.948      -9999      -9999      -9999      -9999      -9999      0.583      -9999      -9999      22.475     -9999      0.06515468 0.1861491 
893.6      0.297      -9999      -9999      6.179      -9999      -9999      4.162      -9999      -9999      0.583      -9999      -9999      0.969      8.877      -9999      -9999      -9999      -9999      -9999      0.583      -9999      -9999      22.39      -9999      0.06736906 0.1854357 
893.8      0.253      -9999      -9999      6.054      -9999      -9999      3.904      -9999      -9999      0.528      -9999      -9999      0.986      12.181     -9999      -9999      -9999      -9999      -9999      0.528      -9999      -9999      22.305     -9999      0.06196881 0.1847276 
894        0.258      -9999      -9999      5.878      -9999      -9999      3.646      -9999      -9999      0.465      -9999      -9999      1.017      14.979     -9999      -9999      -9999      -9999      -9999      0.465      -9999      -9999      22.051     -9999      0.05509099 0.1826429 
894.2000000000001 0.264      -9999      -9999      5.627      -9999      -9999      3.698      -9999      -9999      0.541      -9999      -9999      1.053      17.778     -9999      -9999      -9999      -9999      -9999      0.541      -9999      -9999      21.711     -9999      0.04658173 0.179925  
894.4      0.269      -9999      -9999      5.35       -9999      -9999      3.801      -9999      -9999      0.619      -9999      -9999      1.091      20.576     -9999      -9999      -9999      -9999      -9999      0.619      -9999      -9999      21.287     -9999      0.03870819 0.1766499 
894.6      0.275      -9999      -9999      5.099      -9999      -9999      4.162      -9999      -9999      0.729      -9999      -9999      1.128      23.375     0.1029471  0.1029471  0.2602616  0.2259372  4.38777    0.729      0          0          20.863     0.4767106  0.3547028  0.5987185 
894.8      0.248      -9999      -9999      4.848      -9999      -9999      4.42       -9999      -9999      0.736      -9999      -9999      1.164      26.839     0.1077079  0.1077079  0.2476508  0.2768024  7.802253   0.736      0          0          20.185     0.4240693  0.2804084  0.5677303 
895        0.236      -9999      -9999      4.597      -9999      -9999      4.885      -9999      -9999      0.889      -9999      -9999      1.202      30.452     0.1095736  0.1095736  0.2343394  0.2997276  13.87383   0.889      0          0          19.421     0.3780782  0.2216753  0.5344811 
895.2000000000001 0.226      6          6          4.346      -9999      -9999      5.297999   -9999      -9999      0.931      -9999      -9999      1.237      33.29      0.1091481  0.1091481  0.2220789  0.2943373  24.67021   0.931      0          0          18.828     0.3422146  0.1752442  0.509185  
895.4      0.222      6          6          4.094      -9999      -9999      6.536      -9999      -9999      0.785      -9999      -9999      1.344      35.097     0.08065025 0.08065025 0.1845968  0.08729639 43.96888   0.785      0          0          18.404     0.3149896  0.1384086  0.4915705 
895.6      0.226      6          6          3.894      -9999      -9999      7.724      -9999      -9999      0.979      -9999      -9999      1.522      36.645     0.02501254 0.02501254 0.1222434  0.008136749 69.55521   0.979      0          0          17.98      0.294639   0.1147703  0.4745077 
895.8      0.222      6          6          3.642      -9999      -9999      8.911      -9999      -9999      2.542      -9999      -9999      1.565      33.548     0.01717146 0.01717146 0.1071805  0.005823916 123.9659   2.542      0          0          17.471     0.2727546  0.0906461  0.4548631 
896        0.217      6          6          3.467      -9999      -9999      10.098     -9999      -9999      3.542      -9999      -9999      1.565      29.935     0.02254862 0.02254862 0.1071805  0.007325093 185.1776   3.542      0          0          16.962     0.2564602  0.07694532 0.4359751 
896.2000000000001 0.216      6          6          3.341      -9999      -9999      11.285     -9999      -9999      5.382      -9999      -9999      1.565      26.323     0.02928334 0.02928334 0.1071805  0.0097624  247.2148   5.382      0          0          16.029     0.2360519  0.06838204 0.4037218 
896.4      0.216      6          6          3.215      -9999      -9999      12.524     -9999      -9999      7.188      -9999      -9999      1.565      22.968     0.03590048 0.03590048 0.1071805  0.01294559 330.0356   7.188      0          0.01212026 15.011     0.216      0.06077176 0.3712282 
896.6      0.216      6          6          3.09       -9999      -9999      8.424      -9999      -9999      6.216      -9999      -9999      1.565      19.871     0.03996176 0.03996176 0.1071805  0.01539383 439.5933   6.216      0          0          14.418     0.2036931  0.05405904 0.3533271 
896.8      0.216      6          6          3.039      -9999      -9999      10.231     -9999      -9999      3.89       -9999      -9999      1.565      17.032     0.04318833 0.04318833 0.1071805  0.01766488 494.132    3.89       0          0          13.824     0.1939156  0.05153808 0.3362931 
897        0.216      6          6          3.115      -9999      -9999      11.521     -9999      -9999      2.223      -9999      -9999      1.565      14.71      0.04522769 0.04522769 0.1071805  0.01927013 415.1002   2.223      0          0          13.23      0.1877357  0.05533947 0.320132  
897.2000000000001 0.216      6          6          3.14       -9999      -9999      13.07      -9999      -9999      1.598      -9999      -9999      1.53       12.387     0.06013529 0.06013529 0.119441   0.0363923  391.9718   1.598      0          0          12.552     0.1797143  0.05665024 0.3027784 
897.4      0.216      6          6          3.14       -9999      -9999      14.36      -9999      -9999      1.632      -9999      -9999      1.49       9.058001   0.07554516 0.07554516 0.133453   0.07021627 391.9718   1.632      0          0          12.213     0.1754783  0.05665024 0.2943063 
897.6      0.216      6          6          3.115      -9999      -9999      15.65      -9999      -9999      1.667      -9999      -9999      1.453      8.077      0.08878713 0.08878713 0.1464141  0.1235126  415.1002   1.667      0          0          12.213     0.1746272  0.05533947 0.293915  
897.8      0.216      6          6          3.09       -9999      -9999      16.941     -9999      -9999      1.562      -9999      -9999      1.425      7.097      0.09887126 0.09887126 0.1562225  0.1898863  439.5933   1.562      0          0          12.213     0.1737917  0.05405904 0.2935243 
898        0.216      6          6          3.039      -9999      -9999      18.489     -9999      -9999      1.354      -9999      -9999      1.404      6.297      0.1067079  0.1067079  0.1635788  0.2652446  494.132    1.354      0          0          12.213     0.1723361  0.05153808 0.2931342 
898.2000000000001 0.216      6          6          2.964      -9999      -9999      19.779     -9999      -9999      1.181      -9999      -9999      1.384      5.677001   0.1143549  0.1143549  0.1705848  0.3675258  586.8636   1.181      0          0          12.213     0.1703938  0.04804278 0.2927447 
898.4      0.216      6          6          2.914      -9999      -9999      21.328     -9999      -9999      1.145      -9999      -9999      1.364      5.058      0.1224347  0.1224347  0.1775908  0.5187343  658.1627   1.145      0          0          12.043     0.1671399  0.04584529 0.2884344 
