~Version
 VERS              .         2.0                           : CWLS LOG ASCII STANDARD - VERSION 2.0
 WRAP              .         NO                            : ONE LINE PER DEPTH STEP
 DLM               .         SPACE                         : DELIMITING CHARACTER(SPACE TAB OR COMMA)
~Well Information
#_______________________________________________________________________________
#
#PARAMETER_NAME    .UNIT     VALUE                         : DESCRIPTION
#_______________________________________________________________________________
STRT               .M        850                           : First reference value
STOP               .M        1262                          : Last reference value
STEP               .M        0.2                           : Step increment
NULL               .         -9999                         : Missing value
COMP               .                                       : Company
WELL               .         1467                          : Well name
FLD                .         Узень                         : Field
LOC                .                                       : Location
CNTY               .                                       : County
STAT               .         500                           : State
CTRY               .                                       : Country
SRVC               .                                       : Service Company
DATE               .         20.03.1970                    : Date
UWI                .                                       : Unique Well ID
Block              .         7                             : 
Cartographic_reference_system .         GCS_WGS_1984                  : ESRI,PE_10_3_1- <?xml version="1.0" encoding="utf-16"?><ILateBoundCoordinateReferenceSystem name="GCS_WGS_1984"><AuthorityCode>EPSG,4326</AuthorityCode></ILateBoundCoordinateReferenceSystem>
Category           .         Нефтяная                      : 
Condition          .         Ликвидированная               : 
DATA               .         20.03.1970                    : 
Date               .         20.03.1970                    : 
EREF               .m        85.5                          : 100.8
Gorizont           .         14                            : 14
HZCS               .GCS_WGS_1984 WGS_1984_EASE-Grid_2.0_Global : ESRI,PE_10_3_1- <?xml version="1.0" encoding="utf-16"?><ILateBoundCoordinateReferenceSystem name="WGS_1984_EASE-Grid_2.0_Global"><AuthorityCode>EPSG,6933</AuthorityCode></ILateBoundCoordinateReferenceSystem>
Interpretator      .         Бердибекулы М.                : 
Kupol              .         Основной                      : osnovnoi
LATI               .dega     0.6637468873                  : GCS_WGS_1984
LONG               .dega     0.4442061596                  : GCS_WGS_1984
METD               .         GR, NEUT                      : Method
Mud                .                                       : 
Mud_density        .                                       : 
Mud_resistivity    .                                       : 
NGDU               .         НГДУ-2                        : 
ORIGINALWELLNAME   .         1467                          : 
Spud_date          .         1970                          : 1961
Viscosity          .                                       : 
X                  .m        42859.8                       : 46154
Y                  .m        84674.53                      : 85761.93
YEAR               .         2019                          : 
~Parameter Information Block
#_______________________________________________________________________________
#
#PARAMETER_NAME    .UNIT     VALUE                         : DESCRIPTION
#_______________________________________________________________________________
SET                .         LQC_KAZNIPI_Petrel            : 
TLFamily_CALI      .         Caliper                       : 
TLFamily_COLL      .         Net Reservoir Flag            : 
TLFamily_CSAT      .         Fluid Code                    : 
TLFamily_DEPT      .         Measured Depth                : 
TLFamily_GR        .         Russian Gamma Ray             : 
TLFamily_GZ1       .         Gradient 045                  : 
TLFamily_GZ2       .         Gradient 105                  : 
TLFamily_GZ3       .         Gradient 225                  : 
TLFamily_GZ4       .         Gradient 425                  : 
TLFamily_GZ5       .         Gradient 850                  : 
TLFamily_LLS       .         Lateral Log Resistivity       : 
TLFamily_MINV      .         Micro Gradient Resistivity    : 
TLFamily_MNOR      .         Micro Resistivity             : 
TLFamily_NGLD      .         Neutron Far                   : 
TLFamily_OGZ       .         Gradient Inverted 225         : 
TLFamily_PHIE      .         Effective Porosity            : 
TLFamily_PHIEN     .         Effective Porosity            : 
TLFamily_PHIT      .         Porosity                      : 
TLFamily_PRMB      .         Permeability                  : 
TLFamily_PRMB_DGR  .         Permeability                  : 
TLFamily_RT        .         Formation Resistivity         : 
TLFamily_SOIL_ARCHIE .         Oil Saturation                : 
TLFamily_SOIL_DW   .         Oil Saturation                : 
TLFamily_SP        .         Spontaneous Potential         : 
TLFamily_VSH_FIN   .         Shale Volume                  : 
TLFamily_VSH_GR    .         Shale Volume                  : 
TLFamily_VSH_SP    .         Shale Volume                  : 
~Curve Information
#_______________________________________________________________________________
#
#LOGNAME           .UNIT     LOG_ID                        : DESCRIPTION
#_______________________________________________________________________________
DEPT               .M                                      : Колонка глубины 
CALI               .м                                      : Каверномер 
COLL               .unitless                               : Описание 
CSAT               .unitless                               : Описание 
GR                 .uR/h                                   : Гамма каротаж 
GZ1                .Ohmm                                   : А0.4М0.1N 
GZ2                .Ohmm                                   : A1.0M0.1N 
GZ3                .Ohmm                                   : Подошвенный зонд 
GZ4                .Ohmm                                   : A4M0.5N 
GZ5                .Ohmm                                   : A8M1N 
LLS                .Ohmm                                   : Боковой каротаж 
MINV               .Ohmm                                   : Микро-градиент зонд 
MNOR               .Ohmm                                   : Микро-потенциал зонд 
NGLD               .у.е.                                   : Показания зонда НГК-60 аппаратуры ДРСТ-3-90 
OGZ                .Ohmm                                   : Кровельный 
PHIE               .v/v                                    : Описание 
PHIEN              .v/v                                    :  
PHIT               .v/v                                    : Описание 
PRMB               .mD                                     :  
PRMB_DGR           .mD                                     :  
RT                 .ohmm                                   : УЭС пласта 
SOIL_ARCHIE        .v/v                                    :  
SOIL_DW            .v/v                                    :  
SP                 .мВ                                     : Потенциал самополяризации 
VSH_FIN            .v/v                                    : Описание 
VSH_GR             .v/v                                    : Shale volume 
VSH_SP             .v/v                                    : Shale Volume 
~Ascii
# ...
963.4      0.23       -9999      -9999      4.672      2.334      3.356      2.975      2.651      3.326      2.924      2.491      2.155      0.962      3.2        0.1300428  0.1300428  0.3184114  0.7175729  2.548523   2.924      0.201202   0.5141015  26.885     0.570814   0.4428055  0.6988224 
963.6      0.237      -9999      -9999      4.597      2.486      3.508      2.872      2.676      3.288      3.097      2.332      1.959      0.944      3.097      0.14028    0.14028    0.3247168  1.110413   3.008179   3.097      0.2721202  0.5465105  26.969     0.5588993  0.4138155  0.7039829 
963.8      0.223      -9999      -9999      4.572      2.385      3.659      3.027      2.715      3.326      2.757      1.921      1.579      0.928      2.994      0.1472963  0.1472963  0.3303216  1.497762   3.179135   2.757      0.2632861  0.5330588  26.969     0.5546222  0.4045802  0.7046641 
964        0.232      -9999      -9999      4.522      2.574      3.912      3.13       2.778      3.301      2.73       2.668      2.199      0.91       2.89       0.1564356  0.1564356  0.336627   2.21169    3.550744   2.73       0.2976806  0.5466344  26.969     0.5460346  0.3867234  0.7053459 
964.2000000000001 0.217      -9999      -9999      4.597      2.612      4          3.13       2.842      3.326      2.896      2.263      1.959      0.913      2.735      0.1508019  0.1508019  0.3355761  1.7393     3.008179   2.896      0.2946935  0.5528333  26.969     0.5599219  0.4138155  0.7060283 
964.4      0.222      -9999      -9999      4.672      2.486      3.71       2.975      2.905      3.301      2.812      2.237      1.807      0.922      2.632      0.1427532  0.1427532  0.3324234  1.233936   2.548523   2.812      0.2498924  0.534086   26.969     0.5747584  0.4428055  0.7067112 
964.6      0.228      -9999      -9999      4.773      2.372      3.457      2.769      2.931      3.301      2.438      1.623      1.459      0.918      2.581      0.1370663  0.1370663  0.3338246  0.9681861  2.038487   2.438      0.169029   0.4934279  26.969     0.5962372  0.48508    0.7073945 
964.8      0.235      -9999      -9999      4.672      2.246      3.243      2.614      2.944      3.276      2.223      1.263      1.585      0.915      2.426      0.1449796  0.1449796  0.3348755  1.356853   2.548523   2.223      0.1736385  0.4813867  26.969     0.575442   0.4428055  0.7080784 
965        0.241      -9999      -9999      4.572      2.246      3.533      2.717      2.956      3.377      2.452      2.908      2.263      0.903      2.323      0.1553775  0.1553775  0.3390791  2.1141     3.179135   2.452      0.2569993  0.5225614  26.969     0.5566716  0.4045802  0.7087629 
965.2000000000001 0.244      -9999      -9999      4.496      2.41       3.836      2.924      2.944      3.528      3.139      2.522      2.193      0.924      2.426      0.1530793  0.1530793  0.3317228  1.916719   3.760839   3.139      0.329672   0.5698131  26.885     0.5413439  0.3777515  0.7049362 
965.4      0.237      -9999      -9999      4.622      2.498      3.672      3.078      2.918      3.541      2.987      2.123      1.737      0.937      2.477      0.1409037  0.1409037  0.3271689  1.140347   2.846416   2.987      0.2625172  0.5411719  26.885     0.5644399  0.4232616  0.7056181 
965.6      0.23       -9999      -9999      4.748      2.587      3.886      3.285      2.867      3.528      2.799      1.946      1.604      0.918      2.581      0.139033   0.139033   0.3338246  1.052899   2.154333   2.799      0.2307708  0.5296856  26.885     0.5902776  0.4742545  0.7063007 
965.8      0.223      -9999      -9999      4.823      2.738      4.252      3.44       2.855      3.465      3.25       2.788      2.206      0.901      2.477      0.1393934  0.1393934  0.3397797  1.069208   1.825146   3.25       0.2844656  0.5688069  26.885     0.6072311  0.5074785  0.7069838 
966        0.214      -9999      -9999      4.923      2.927      4.151      3.388      2.956      3.44       3.5        2.402      2.028      0.903      2.271      0.1306687  0.1306687  0.3390791  0.7369877  1.463111   3.5        0.268902   0.5740751  26.885     0.6315466  0.5554256  0.7076674 
966.2000000000001 0.225      -9999      -9999      4.823      2.726      3.785      3.285      3.147      3.326      2.869      1.592      1.44       0.904      2.116      0.1388692  0.1388692  0.3387288  1.04557    1.825146   2.869      0.2388547  0.5395315  26.8       0.6056351  0.5074785  0.7037918 
966.4      0.239      -9999      -9999      4.722      2.309      3.382      3.078      3.287      3.124      2.431      1.136      1.225      0.903      2.013      0.1464045  0.1464045  0.3390791  1.441865   2.281803   2.431      0.2143267  0.5097278  26.8       0.5838624  0.4632519  0.704473  
966.6      0.252      -9999      -9999      4.597      1.956      3.028      2.872      3.427      3.099      2.076      0.972      0.864      0.894      2.271      0.1576017  0.1576017  0.3422318  2.324473   3.008179   2.076      0.2065174  0.4868627  26.8       0.5594851  0.4138155  0.7051546 
966.8      0.266      -9999      -9999      4.496      1.792      2.902      2.769      3.478      3.099      1.84       0.756      1.117      0.881      2.426      0.1687438  0.1687438  0.3467857  3.738543   3.760839   1.84       0.208788   0.4732316  26.715     0.539521   0.3777515  0.7012904 
967        0.253      -9999      -9999      4.421      1.855      3.18       2.769      3.351      3.061      2.007      1.218      1.307      0.863      2.477      0.1790178  0.1790178  0.3530911  5.794302   4.43915    2.007      0.2785074  0.5123794  26.715     0.527495   0.3530206  0.7019695 
967.2000000000001 0.24       -9999      -9999      4.321      1.943      3.041      2.769      3.122      2.985      2.278      1.699      1.491      0.899      2.426      0.1713231  0.1713231  0.3404803  4.173278   5.53758    2.278      0.2936217  0.5239645  26.715     0.5125976  0.3225461  0.7026492 
967.4      0.226      -9999      -9999      4.371      1.905      2.65       2.717      2.969      2.947      2.229      1.269      1.199      0.917      2.323      0.1624481  0.1624481  0.3341749  2.858185   4.958042   2.229      0.252538   0.503152   26.715     0.5203844  0.3374394  0.7033294 
967.6      0.234      -9999      -9999      4.446      1.779      2.284      2.717      2.931      2.947      1.945      1.041      1.079      0.896      2.581      0.1665401  0.1665401  0.3415312  3.403175   4.200438   1.945      0.2202505  0.4801866  26.63      0.5302761  0.3610789  0.6994733 
967.8      0.25       -9999      -9999      4.597      1.59       2.057      2.717      2.931      3.01       1.722      0.813      0.959      0.88       2.787      0.1640767  0.1640767  0.347136   3.063775   3.008179   1.722      0.1636089  0.4499825  26.545     0.5547251  0.4138155  0.6956347 
968        0.266      -9999      -9999      4.697      1.451      2.183      2.717      3.007      3.061      1.611      0.706      0.794      0.865      3.045      0.1627688  0.1627688  0.3523905  2.897547   2.411478   1.611      0.1310074  0.4349288  26.545     0.5746113  0.4529133  0.6963093 
968.2000000000001 0.268      -9999      -9999      4.798      1.653      2.435      2.511      3.096      3.073      1.91       0.801      1.142      0.844      3.303      0.1628792  0.1628792  0.3597468  2.911221   1.928869   1.91       0.198205   0.4878154  26.545     0.5965686  0.4961528  0.6969845 
968.4      0.258      -9999      -9999      4.848      1.905      2.612      2.356      3.096      3.099      2.313      1.687      1.484      0.854      3.458      0.1554846  0.1554846  0.3562438  2.123779   1.727      2.313      0.2368287  0.5235081  26.545     0.6083614  0.5190626  0.6976601 
968.6      0.248      -9999      -9999      4.672      2.019      2.612      2.201      3.071      3.162      2.521      1.655      1.415      0.861      3.613      0.1655033  0.1655033  0.3537917  3.255973   2.548523   2.521      0.3058503  0.552226   26.545     0.5705709  0.4428055  0.6983363 
