~Version
 VERS              .         2.0                           : CWLS LOG ASCII STANDARD - VERSION 2.0
 WRAP              .         NO                            : ONE LINE PER DEPTH STEP
 DLM               .         SPACE                         : DELIMITING CHARACTER(SPACE TAB OR COMMA)
~Well Information
#_______________________________________________________________________________
#
#PARAMETER_NAME    .UNIT     VALUE                         : DESCRIPTION
#_______________________________________________________________________________
STRT               .M        850                           : First reference value
STOP               .M        1262                          : Last reference value
STEP               .M        0.2                           : Step increment
NULL               .         -9999                         : Missing value
COMP               .                                       : Company
WELL               .         1467                          : Well name
FLD                .         Узень                         : Field
LOC                .                                       : Location
CNTY               .                                       : County
STAT               .         500                           : State
CTRY               .                                       : Country
SRVC               .                                       : Service Company
DATE               .         20.03.1970                    : Date
UWI                .                                       : Unique Well ID
Block              .         7                             : 
Cartographic_reference_system .         GCS_WGS_1984                  : ESRI,PE_10_3_1- <?xml version="1.0" encoding="utf-16"?><ILateBoundCoordinateReferenceSystem name="GCS_WGS_1984"><AuthorityCode>EPSG,4326</AuthorityCode></ILateBoundCoordinateReferenceSystem>
Category           .         Нефтяная                      : 
Condition          .         Ликвидированная               : 
DATA               .         20.03.1970                    : 
Date               .         20.03.1970                    : 
EREF               .m        85.5                          : 100.8
Gorizont           .         14                            : 14
HZCS               .GCS_WGS_1984 WGS_1984_EASE-Grid_2.0_Global : ESRI,PE_10_3_1- <?xml version="1.0" encoding="utf-16"?><ILateBoundCoordinateReferenceSystem name="WGS_1984_EASE-Grid_2.0_Global"><AuthorityCode>EPSG,6933</AuthorityCode></ILateBoundCoordinateReferenceSystem>
Interpretator      .         Бердибекулы М.                : 
Kupol              .         Основной                      : osnovnoi
LATI               .dega     0.6637468873                  : GCS_WGS_1984
LONG               .dega     0.4442061596                  : GCS_WGS_1984
METD               .         GR, NEUT                      : Method
Mud                .                                       : 
Mud_density        .                                       : 
Mud_resistivity    .                                       : 
NGDU               .         НГДУ-2                        : 
ORIGINALWELLNAME   .         1467                          : 
Spud_date          .         1970                          : 1961
Viscosity          .                                       : 
X                  .m        42859.8                       : 46154
Y                  .m        84674.53                      : 85761.93
YEAR               .         2019                          : 
~Parameter Information Block
#_______________________________________________________________________________
#
#PARAMETER_NAME    .UNIT     VALUE                         : DESCRIPTION
#_______________________________________________________________________________
SET                .         LQC_KAZNIPI_Petrel            : 
TLFamily_CALI      .         Caliper                       : 
TLFamily_COLL      .         Net Reservoir Flag            : 
TLFamily_CSAT      .         Fluid Code                    : 
TLFamily_DEPT      .         Measured Depth                : 
TLFamily_GR        .         Russian Gamma Ray             : 
TLFamily_GZ1       .         Gradient 045                  : 
TLFamily_GZ2       .         Gradient 105                  : 
TLFamily_GZ3       .         Gradient 225                  : 
TLFamily_GZ4       .         Gradient 425                  : 
TLFamily_GZ5       .         Gradient 850                  : 
TLFamily_LLS       .         Lateral Log Resistivity       : 
TLFamily_MINV      .         Micro Gradient Resistivity    : 
TLFamily_MNOR      .         Micro Resistivity             : 
TLFamily_NGLD      .         Neutron Far                   : 
TLFamily_OGZ       .         Gradient Inverted 225         : 
TLFamily_PHIE      .         Effective Porosity            : 
TLFamily_PHIEN     .         Effective Porosity            : 
TLFamily_PHIT      .         Porosity                      : 
TLFamily_PRMB      .         Permeability                  : 
TLFamily_PRMB_DGR  .         Permeability                  : 
TLFamily_RT        .         Formation Resistivity         : 
TLFamily_SOIL_ARCHIE .         Oil Saturation                : 
TLFamily_SOIL_DW   .         Oil Saturation                : 
TLFamily_SP        .         Spontaneous Potential         : 
TLFamily_VSH_FIN   .         Shale Volume                  : 
TLFamily_VSH_GR    .         Shale Volume                  : 
TLFamily_VSH_SP    .         Shale Volume                  : 
~Curve Information
#_______________________________________________________________________________
#
#LOGNAME           .UNIT     LOG_ID                        : DESCRIPTION
#_______________________________________________________________________________
DEPT               .M                                      : Колонка глубины 
CALI               .м                                      : Каверномер 
COLL               .unitless                               : Описание 
CSAT               .unitless                               : Описание 
GR                 .uR/h                                   : Гамма каротаж 
GZ1                .Ohmm                                   : А0.4М0.1N 
GZ2                .Ohmm                                   : A1.0M0.1N 
GZ3                .Ohmm                                   : Подошвенный зонд 
GZ4                .Ohmm                                   : A4M0.5N 
GZ5                .Ohmm                                   : A8M1N 
LLS                .Ohmm                                   : Боковой каротаж 
MINV               .Ohmm                                   : Микро-градиент зонд 
MNOR               .Ohmm                                   : Микро-потенциал зонд 
NGLD               .у.е.                                   : Показания зонда НГК-60 аппаратуры ДРСТ-3-90 
OGZ                .Ohmm                                   : Кровельный 
PHIE               .v/v                                    : Описание 
PHIEN              .v/v                                    :  
PHIT               .v/v                                    : Описание 
PRMB               .mD                                     :  
PRMB_DGR           .mD                                     :  
RT                 .ohmm                                   : УЭС пласта 
SOIL_ARCHIE        .v/v                                    :  
SOIL_DW            .v/v                                    :  
SP                 .мВ                                     : Потенциал самополяризации 
VSH_FIN            .v/v                                    : Описание 
VSH_GR             .v/v                                    : Shale volume 
VSH_SP             .v/v                                    : Shale Volume 
~Ascii
# ...
1152.4     0.244      -9999      -9999      7.059      1.703      2.145      1.736      2.74       2.707      1.848      1.636      1.307      0.969      1.806      0.1162942  0.1162942  0.3159593  0.399217   1.207022   1.848      0          0.3605429  17.386     0.6050457  0.6008237  0.6092678 
1152.6     0.247      -9999      -9999      7.209      1.779      2.196      1.788      2.816      2.783      1.757      1.598      1.535      0.981      2.116      0.0977158  0.0977158  0.3117557  0.1807556  0.9259465  1.757      0          0.2973015  17.725     0.6486058  0.6695118  0.6276997 
1152.8     0.248      -9999      -9999      7.26       1.741      2.082      1.891      2.855      2.897      1.701      1.516      1.098      0.998      2.374      0.08450096 0.08450096 0.3058006  0.1028776  0.8461391  1.701      0          0.2409249  18.064     0.6706049  0.6946117  0.6465983 
1153       0.252      -9999      -9999      7.033      1.691      1.956      1.891      2.855      2.96       1.75       1.358      1.282      0.989      2.529      0.1024818  0.1024818  0.3089533  0.221498   1.263779   1.75       0          0.3031016  18.319     0.6256711  0.5896556  0.6616867 
1153.2     0.246      -9999      -9999      6.908      1.691      1.868      1.943      2.855      3.073      1.827      1.693      1.174      0.979      2.426      0.1111192  0.1111192  0.3124563  0.3201514  1.576204   1.827      0          0.3417264  18.658     0.6101124  0.5387936  0.6814312 
1153.4     0.234      -9999      -9999      6.858      1.716      1.842      1.995      2.829      3.086      1.917      1.383      1.269      0.969      2.323      0.1159156  0.1159156  0.3159593  0.3928223  1.721824   1.917      0          0.3714299  18.828     0.6061931  0.5196992  0.692687  
1153.6     0.226      -9999      -9999      6.858      1.691      1.893      1.995      2.778      3.124      1.951      1.535      1.13       0.957      2.323      0.1182457  0.1182457  0.3201629  0.433865   1.721824   1.951      0          0.3865689  18.997     0.6118704  0.5196992  0.7040417 
1153.8     0.221      -9999      -9999      6.858      1.628      1.981      1.995      2.702      3.149      1.937      1.5        1.292      0.971      2.529      0.1159174  0.1159174  0.3152587  0.3928532  1.721824   1.937      0          0.3737905  18.658     0.6040644  0.5196992  0.6884296 
1154       0.22       -9999      -9999      6.807      1.817      2.057      1.995      2.626      3.175      1.896      1.465      1.459      0.985      2.735      0.1166406  0.1166406  0.3103545  0.4051591  1.884225   1.896      0          0.3620462  18.319     0.5870117  0.5009199  0.6731035 
1154.2     0.218      -9999      -9999      6.732      1.842      2.032      1.943      2.537      3.187      1.833      1.769      1.434      0.991      2.942      0.120672   0.120672   0.3082527  0.4811683  2.151283   1.833      0          0.3562478  18.064     0.5684263  0.4745289  0.6623237 
1154.4     0.217      -9999      -9999      6.606      1.741      2.032      1.891      2.486      3.162      1.764      1.579      1.294      0.983      3.2        0.1291871  0.1291871  0.3110551  0.691858   2.687858   1.764      0          0.3635437  18.149     0.5511151  0.4332846  0.6689456 
1154.6     0.217      -9999      -9999      6.506      1.716      2.019      1.736      2.435      3.111      1.73       1.402      1.193      0.981      3.458      0.1337635  0.1337635  0.3117557  0.8409754  3.207444   1.73       0.002928504 0.3664151  18.234     0.5393702  0.4031183  0.675622  
1154.8     0.216      -9999      -9999      6.481      1.741      2.069      1.633      2.384      3.048      1.695      1.187      1.098      1.02       3.613      0.12091    0.12091    0.298094   0.4860755  3.352335   1.695      0          0.3165986  18.234     0.5369214  0.3959108  0.677932  
1155       0.215      -9999      -9999      6.581      1.754      2.107      1.53       2.333      2.985      1.771      1.275      1.256      1.053      3.561      0.1069585  0.1069585  0.2865341  0.2680947  2.809277   1.771      0          0.2833052  17.895     0.5441687  0.4255377  0.6627996 
1155.2     0.215      -9999      -9999      6.732      1.741      2.069      1.478      2.282      2.972      1.917      1.566      1.377      1.085      3.665      0.09424396 0.09424396 0.2753245  0.155878   2.151283   1.917      0          0.2608963  17.047     0.5487289  0.4745289  0.6229289 
1155.4     0.215      -9999      -9999      6.632      1.817      1.943      1.478      2.257      2.947      2.063      1.37       1.294      1.119      3.974      0.08766578 0.08766578 0.2634143  0.1177446  1.900106   2.063      0          0.2569022  15.775     0.5325713  0.499206   0.5659366 
1155.6     0.215      -9999      -9999      6.481      1.855      1.842      1.478      2.231      3.061      2.105      1.611      1.921      1.152      4.439      0.09199896 0.09199896 0.2518544  0.1416452  2.471935   2.105      0          0.2554586  14.672     0.4844105  0.4483571  0.5204639 
1155.8     0.216      -9999      -9999      6.355      1.893      1.994      1.478      2.282      3.288      2.174      1.668      2.446      1.185      4.954999   0.09427618 0.09427618 0.2402945  0.1560924  3.078782   2.174      0          0.2516877  13.485     0.4424798  0.409914   0.4750456 
1156       0.216      6          6          6.255      1.994      2.208      1.633      2.511      3.554      3.153      2.041      2.769      1.217      5.523      0.09748714 0.09748714 0.2290849  0.1790014  3.664771   3.153      0.02281607 0.3674675  11.789     0.3987811  0.381764   0.4157982 
1156.2     0.216      6          6          6.054      2.107      2.789      2.046      2.778      3.908      3.959      2.446      2.528      1.251      6.039      0.09740812 0.09740812 0.2171747  0.1783991  5.201639   3.959      0.1211982  0.4161886  11.11      0.362929   0.330895   0.394963  
1156.4     0.216      6          6          5.878      2.423      4.744      2.459      3.058      4.438      7.744      2.206      2.839      1.295      6.400001   0.09082963 0.09082963 0.2017615  0.1347544  7.068321   7.744      0.3182802  0.5513085  10.601     0.3361572  0.291951   0.3803635 
1156.6     0.216      6          6          5.627      3.167      5.363      2.82       3.325      5.197      10.834     2.915      3.579      1.3        5.574      0.0988579  0.0988579  0.20001    0.1897782  10.9457    10.834     0.4590722  0.630753   10.177     0.3065216  0.244206   0.3688371 
1156.8     0.217      6          6          5.928      4.871      8.013      3.182      3.478      5.5        9.479      2.408      3.775      1.268      4.697      0.1018805  0.1018805  0.2112196  0.2158902  6.478613   9.479      0.4389818  0.6226601  9.838      0.3313305  0.3025234  0.3601376 
1157       0.217      6          6          6.179      6.347      10.221     3.595      3.351      5.083      7.327      2.313      3.693      1.221      3.819      0.1099861  0.1099861  0.2276837  0.305048   4.183646   7.327      0.4077551  0.6020727  9.499      0.3566593  0.36167    0.3516486 
1157.2     0.217      -9999      -9999      6.431      5.627999   10.978     3.904      3.071      4.552      5.139      2.212      3.902      1.181      3.2        0.1140346  0.1140346  0.2416957  0.3625399  2.696937   5.139      0.3221754  0.5483367  9.075      0.3868518  0.4326884  0.3410152 
1157.4     0.217      -9999      -9999      6.732      4.782      10.095     4.007      2.791      4.072      2.75       2.528      3.32       1.155      2.684      0.1074206  0.1074206  0.2508035  0.2734315  1.596282   2.75       0.04248802 0.3828428  8.735      0.4344936  0.5360159  0.3329714 
1157.6     0.217      -9999      -9999      6.707      3.722      8.77       3.595      2.524      3.667      2.271      2.199      2.769      1.125      2.271      0.1211443  0.1211443  0.2613125  0.4909583  1.667351   2.271      0.05665575 0.3673513  8.311      0.4247521  0.5265664  0.3229378 
