~Version
 VERS              .         2.0                           : CWLS LOG ASCII STANDARD - VERSION 2.0
 WRAP              .         NO                            : ONE LINE PER DEPTH STEP
 DLM               .         SPACE                         : DELIMITING CHARACTER(SPACE TAB OR COMMA)
~Well Information
#_______________________________________________________________________________
#
#PARAMETER_NAME    .UNIT     VALUE                         : DESCRIPTION
#_______________________________________________________________________________
STRT               .M        850                           : First reference value
STOP               .M        1262                          : Last reference value
STEP               .M        0.2                           : Step increment
NULL               .         -9999                         : Missing value
COMP               .                                       : Company
WELL               .         1467                          : Well name
FLD                .         Узень                         : Field
LOC                .                                       : Location
CNTY               .                                       : County
STAT               .         500                           : State
CTRY               .                                       : Country
SRVC               .                                       : Service Company
DATE               .         20.03.1970                    : Date
UWI                .                                       : Unique Well ID
Block              .         7                             : 
Cartographic_reference_system .         GCS_WGS_1984                  : ESRI,PE_10_3_1- <?xml version="1.0" encoding="utf-16"?><ILateBoundCoordinateReferenceSystem name="GCS_WGS_1984"><AuthorityCode>EPSG,4326</AuthorityCode></ILateBoundCoordinateReferenceSystem>
Category           .         Нефтяная                      : 
Condition          .         Ликвидированная               : 
DATA               .         20.03.1970                    : 
Date               .         20.03.1970                    : 
EREF               .m        85.5                          : 100.8
Gorizont           .         14                            : 14
HZCS               .GCS_WGS_1984 WGS_1984_EASE-Grid_2.0_Global : ESRI,PE_10_3_1- <?xml version="1.0" encoding="utf-16"?><ILateBoundCoordinateReferenceSystem name="WGS_1984_EASE-Grid_2.0_Global"><AuthorityCode>EPSG,6933</AuthorityCode></ILateBoundCoordinateReferenceSystem>
Interpretator      .         Бердибекулы М.                : 
Kupol              .         Основной                      : osnovnoi
LATI               .dega     0.6637468873                  : GCS_WGS_1984
LONG               .dega     0.4442061596                  : GCS_WGS_1984
METD               .         GR, NEUT                      : Method
Mud                .                                       : 
Mud_density        .                                       : 
Mud_resistivity    .                                       : 
NGDU               .         НГДУ-2                        : 
ORIGINALWELLNAME   .         1467                          : 
Spud_date          .         1970                          : 1961
Viscosity          .                                       : 
X                  .m        42859.8                       : 46154
Y                  .m        84674.53                      : 85761.93
YEAR               .         2019                          : 
~Parameter Information Block
#_______________________________________________________________________________
#
#PARAMETER_NAME    .UNIT     VALUE                         : DESCRIPTION
#_______________________________________________________________________________
SET                .         LQC_KAZNIPI_Petrel            : 
TLFamily_CALI      .         Caliper                       : 
TLFamily_COLL      .         Net Reservoir Flag            : 
TLFamily_CSAT      .         Fluid Code                    : 
TLFamily_DEPT      .         Measured Depth                : 
TLFamily_GR        .         Russian Gamma Ray             : 
TLFamily_GZ1       .         Gradient 045                  : 
TLFamily_GZ2       .         Gradient 105                  : 
TLFamily_GZ3       .         Gradient 225                  : 
TLFamily_GZ4       .         Gradient 425                  : 
TLFamily_GZ5       .         Gradient 850                  : 
TLFamily_LLS       .         Lateral Log Resistivity       : 
TLFamily_MINV      .         Micro Gradient Resistivity    : 
TLFamily_MNOR      .         Micro Resistivity             : 
TLFamily_NGLD      .         Neutron Far                   : 
TLFamily_OGZ       .         Gradient Inverted 225         : 
TLFamily_PHIE      .         Effective Porosity            : 
TLFamily_PHIEN     .         Effective Porosity            : 
TLFamily_PHIT      .         Porosity                      : 
TLFamily_PRMB      .         Permeability                  : 
TLFamily_PRMB_DGR  .         Permeability                  : 
TLFamily_RT        .         Formation Resistivity         : 
TLFamily_SOIL_ARCHIE .         Oil Saturation                : 
TLFamily_SOIL_DW   .         Oil Saturation                : 
TLFamily_SP        .         Spontaneous Potential         : 
TLFamily_VSH_FIN   .         Shale Volume                  : 
TLFamily_VSH_GR    .         Shale Volume                  : 
TLFamily_VSH_SP    .         Shale Volume                  : 
~Curve Information
#_______________________________________________________________________________
#
#LOGNAME           .UNIT     LOG_ID                        : DESCRIPTION
#_______________________________________________________________________________
DEPT               .M                                      : Колонка глубины 
CALI               .м                                      : Каверномер 
COLL               .unitless                               : Описание 
CSAT               .unitless                               : Описание 
GR                 .uR/h                                   : Гамма каротаж 
GZ1                .Ohmm                                   : А0.4М0.1N 
GZ2                .Ohmm                                   : A1.0M0.1N 
GZ3                .Ohmm                                   : Подошвенный зонд 
GZ4                .Ohmm                                   : A4M0.5N 
GZ5                .Ohmm                                   : A8M1N 
LLS                .Ohmm                                   : Боковой каротаж 
MINV               .Ohmm                                   : Микро-градиент зонд 
MNOR               .Ohmm                                   : Микро-потенциал зонд 
NGLD               .у.е.                                   : Показания зонда НГК-60 аппаратуры ДРСТ-3-90 
OGZ                .Ohmm                                   : Кровельный 
PHIE               .v/v                                    : Описание 
PHIEN              .v/v                                    :  
PHIT               .v/v                                    : Описание 
PRMB               .mD                                     :  
PRMB_DGR           .mD                                     :  
RT                 .ohmm                                   : УЭС пласта 
SOIL_ARCHIE        .v/v                                    :  
SOIL_DW            .v/v                                    :  
SP                 .мВ                                     : Потенциал самополяризации 
VSH_FIN            .v/v                                    : Описание 
VSH_GR             .v/v                                    : Shale volume 
VSH_SP             .v/v                                    : Shale Volume 
~Ascii
# ...
1244.2     0.213      -9999      -9999      7.687      1.64       2.057      1.788      2.346      2.34       1.674      1.864      1.478      1.07       1.703      0.05719418 0.05719418 0.280579   0.03210207 0.764729   1.674      0          0.09374665 16.538     0.6769236  0.7239055  0.6299418 
1244.4     0.214      -9999      -9999      7.611      1.628      2.044      1.788      2.359      2.353      1.646      1.712      1.339      1.082      1.703      0.05940798 0.05940798 0.2763754  0.03528076 0.8626585  1.646      0          0.08658697 16.453     0.657477   0.6891492  0.6258049 
1244.6     0.215      -9999      -9999      7.385      1.628      1.994      1.788      2.397      2.391      1.632      1.649      1.326      1.048      1.703      0.0867957  0.0867957  0.2882856  0.1134553  1.234401   1.632      0          0.2099377  16.453     0.6105755  0.595346   0.6258049 
1244.8     0.216      -9999      -9999      7.209      1.678      1.968      1.84       2.422      2.416      1.591      1.763      1.294      1.055      1.755      0.09492247 0.09492247 0.2858335  0.1604547  1.631719   1.591      0          0.2196096  16.453     0.5785183  0.5312317  0.6258049 
1245       0.217      -9999      -9999      7.31       1.767      1.956      1.84       2.46       2.429      1.562      1.902      1.32       1.048      1.755      0.09076894 0.09076894 0.2882856  0.1344061  1.390271   1.562      0          0.2046125  16.538     0.5985354  0.567129   0.6299418 
1245.2     0.218      -9999      -9999      7.435      1.817      1.956      1.84       2.486      2.442      1.562      1.826      1.446      1.035      1.703      0.08674884 0.08674884 0.2928395  0.1132288  1.140323   1.562      0          0.2006405  16.623     0.6245172  0.614933   0.6341015 
1245.4     0.217      -9999      -9999      7.511      1.88       1.956      1.84       2.498      2.454      1.57       1.775      1.415      1.038      1.703      0.078507   0.078507   0.2917886  0.07967061 1.010872   1.57       0          0.1739857  16.877     0.6463079  0.6459465  0.6466692 
1245.6     0.216      -9999      -9999      7.561      1.792      1.956      1.84       2.498      2.467      1.562      1.858      1.294      1.056      1.703      0.06728811 0.06728811 0.2854832  0.04937386 0.9338298  1.562      0          0.117316   17.047     0.6611972  0.6671981  0.6551964 
1245.8     0.215      -9999      -9999      7.41       1.716      2.044      1.788      2.486      2.479      1.562      1.991      1.288      1.066      1.703      0.07332864 0.07332864 0.2819802  0.06388256 1.18643    1.562      0          0.1336025  17.132     0.6322775  0.6050602  0.6594948 
1246       0.214      -9999      -9999      7.285      1.678      2.082      1.788      2.473      2.492      1.604      1.737      1.206      1.053      1.755      0.08493885 0.08493885 0.2865341  0.104817   1.446484   1.604      0          0.1940009  17.216     0.6108947  0.5580237  0.6637657 
1246.2     0.213      -9999      -9999      7.209      1.678      2.057      1.736      2.473      2.505      1.66       1.997      1.351      1.033      1.755      0.09636553 0.09636553 0.2935401  0.1706402  1.631719   1.66       0          0.2530784  17.216     0.5974987  0.5312317  0.6637657 
1246.4     0.212      -9999      -9999      7.335      1.691      2.057      1.736      2.473      2.492      1.667      2.206      1.288      1.053      1.755      0.08119263 0.08119263 0.2865341  0.08933929 1.336241   1.667      0          0.1974135  17.301     0.6222469  0.5763829  0.6681109 
1246.6     0.211      -9999      -9999      7.41       1.678      1.931      1.736      2.473      2.517      1.653      2.104      1.307      1.076      1.806      0.06768315 0.06768315 0.2784772  0.05021278 1.18643    1.653      0          0.1287299  17.386     0.6387699  0.6050602  0.6724795 
1246.8     0.211      -9999      -9999      7.486      1.678      1.956      1.685      2.473      2.492      1.674      1.927      1.421      1.095      1.806      0.05599237 0.05599237 0.2718215  0.03049808 1.051745   1.674      0          0.06741034 17.386     0.6540276  0.6355758  0.6724795 
1247       0.211      -9999      -9999      7.536      1.729      2.006      1.685      2.473      2.505      1.695      2.098      1.598      1.062      1.806      1          1          0.2833814  9323613800000000.0000000 0.9715877  1.695      0.827857   0.5076196  -9999      -4999.172  0.6564862  -9999     
1247.2     0.211      -9999      -9999      7.435      1.741      2.044      1.633      2.473      2.479      1.722      2.066      1.446      1.07       1.806      1          1          0.280579   9323613800000000.0000000 1.140323   1.722      0.8291289  0.5066158  -9999      -4999.192  0.614933   -9999     
1247.4     0.21       -9999      -9999      7.285      1.754      2.044      1.633      2.473      2.467      1.722      2.345      1.566      1.104      1.858      1          1          0.2686688  9323613800000000.0000000 1.446484   1.722      0.8291289  0.4847439  -9999      -4999.221  0.5580237  -9999     
1247.6     0.21       -9999      -9999      7.159      1.779      2.069      1.53       2.435      2.467      1.75       2.054      1.807      1.107      1.858      1          1          0.2676179  9323613800000000.0000000 1.766338   1.75       0.8304174  0.4868755  -9999      -4999.243  0.5143107  -9999     
1247.8     0.21       -9999      -9999      7.109      1.842      2.145      1.53       2.397      2.442      1.785      1.87       1.699      1.079      1.858      1          1          0.2774263  9323613800000000.0000000 1.912064   1.785      0.831986   0.5098938  -9999      -4999.251  0.4979289  -9999     
1248       0.21       -9999      -9999      7.084      2.019      2.233      1.478      2.371      2.442      1.798      1.845      1.82       1.096      1.806      1          1          0.2714712  9323613800000000.0000000 1.989375   1.798      0.8325571  0.5009565  -9999      -4999.255  0.4899346  -9999     
1248.2     0.21       -9999      -9999      7.059      -9999      2.271      1.427      2.346      2.416      1.778      2.104      1.87       1.111      1.755      1          1          0.2662167  9323613800000000.0000000 2.069814   1.778      0.8316759  0.4882525  -9999      -4999.259  0.4820686  -9999     
1248.4     0.21       -9999      -9999      6.958      -9999      2.246      1.427      2.346      2.391      1.715      2.313      1.623      1.119      1.755      1          1          0.2634143  9323613800000000.0000000 2.429278   1.715      0.828802   0.4733943  -9999      -4999.274  0.4515554  -9999     
1248.6     0.21       -9999      -9999      7.033      -9999      2.259      1.427      2.346      2.366      1.646      2.275      1.497      1.097      1.703      1          1          0.2711209  9323613800000000.0000000 2.15692    1.646      0.825471   0.4777493  -9999      -4999.263  0.474022   -9999     
1248.8     0.21       -9999      -9999      7.134      -9999      2.284      1.427      2.359      2.353      1.66       2.13       1.655      1.074      1.703      1          1          0.2791778  9323613800000000.0000000 1.837759   1.66       0.8261633  0.4949643  -9999      -4999.247  0.5060534  -9999     
1249       0.21       -9999      -9999      7.234      -9999      2.322      1.427      2.359      2.34       1.688      2.066      1.668      1.057      1.652      1          1          0.2851329  9323613800000000.0000000 1.568306   1.688      0.8275224  0.5096305  -9999      -4999.23   0.5398998  -9999     
1249.2     0.21       -9999      -9999      7.335      -9999      2.372      1.427      2.359      2.34       1.653      1.699      1.712      1.072      1.703      1          1          0.2798784  9323613800000000.0000000 1.336241   1.653      0.8258182  0.495163   -9999      -4999.212  0.5763829  -9999     
1249.4     0.21       -9999      -9999      7.435      -9999      -9999      1.427      2.333      2.303      1.743      1.408      2.028      1.084      1.703      1          1          0.2756748  9323613800000000.0000000 1.140323   1.743      0.8300981  0.5008728  -9999      -4999.192  0.614933   -9999     
