~Version
 VERS              .         2.0                           : CWLS LOG ASCII STANDARD - VERSION 2.0
 WRAP              .         NO                            : ONE LINE PER DEPTH STEP
 DLM               .         SPACE                         : DELIMITING CHARACTER(SPACE TAB OR COMMA)
~Well Information
#_______________________________________________________________________________
#
#PARAMETER_NAME    .UNIT     VALUE                         : DESCRIPTION
#_______________________________________________________________________________
STRT               .M        850                           : First reference value
STOP               .M        1262                          : Last reference value
STEP               .M        0.2                           : Step increment
NULL               .         -9999                         : Missing value
COMP               .                                       : Company
WELL               .         1467                          : Well name
FLD                .         Узень                         : Field
LOC                .                                       : Location
CNTY               .                                       : County
STAT               .         500                           : State
CTRY               .                                       : Country
SRVC               .                                       : Service Company
DATE               .         20.03.1970                    : Date
UWI                .                                       : Unique Well ID
Block              .         7                             : 
Cartographic_reference_system .         GCS_WGS_1984                  : ESRI,PE_10_3_1- <?xml version="1.0" encoding="utf-16"?><ILateBoundCoordinateReferenceSystem name="GCS_WGS_1984"><AuthorityCode>EPSG,4326</AuthorityCode></ILateBoundCoordinateReferenceSystem>
Category           .         Нефтяная                      : 
Condition          .         Ликвидированная               : 
DATA               .         20.03.1970                    : 
Date               .         20.03.1970                    : 
EREF               .m        85.5                          : 100.8
Gorizont           .         14                            : 14
HZCS               .GCS_WGS_1984 WGS_1984_EASE-Grid_2.0_Global : ESRI,PE_10_3_1- <?xml version="1.0" encoding="utf-16"?><ILateBoundCoordinateReferenceSystem name="WGS_1984_EASE-Grid_2.0_Global"><AuthorityCode>EPSG,6933</AuthorityCode></ILateBoundCoordinateReferenceSystem>
Interpretator      .         Бердибекулы М.                : 
Kupol              .         Основной                      : osnovnoi
LATI               .dega     0.6637468873                  : GCS_WGS_1984
LONG               .dega     0.4442061596                  : GCS_WGS_1984
METD               .         GR, NEUT                      : Method
Mud                .                                       : 
Mud_density        .                                       : 
Mud_resistivity    .                                       : 
NGDU               .         НГДУ-2                        : 
ORIGINALWELLNAME   .         1467                          : 
Spud_date          .         1970                          : 1961
Viscosity          .                                       : 
X                  .m        42859.8                       : 46154
Y                  .m        84674.53                      : 85761.93
YEAR               .         2019                          : 
~Parameter Information Block
#_______________________________________________________________________________
#
#PARAMETER_NAME    .UNIT     VALUE                         : DESCRIPTION
#_______________________________________________________________________________
SET                .         LQC_KAZNIPI_Petrel            : 
TLFamily_CALI      .         Caliper                       : 
TLFamily_COLL      .         Net Reservoir Flag            : 
TLFamily_CSAT      .         Fluid Code                    : 
TLFamily_DEPT      .         Measured Depth                : 
TLFamily_GR        .         Russian Gamma Ray             : 
TLFamily_GZ1       .         Gradient 045                  : 
TLFamily_GZ2       .         Gradient 105                  : 
TLFamily_GZ3       .         Gradient 225                  : 
TLFamily_GZ4       .         Gradient 425                  : 
TLFamily_GZ5       .         Gradient 850                  : 
TLFamily_LLS       .         Lateral Log Resistivity       : 
TLFamily_MINV      .         Micro Gradient Resistivity    : 
TLFamily_MNOR      .         Micro Resistivity             : 
TLFamily_NGLD      .         Neutron Far                   : 
TLFamily_OGZ       .         Gradient Inverted 225         : 
TLFamily_PHIE      .         Effective Porosity            : 
TLFamily_PHIEN     .         Effective Porosity            : 
TLFamily_PHIT      .         Porosity                      : 
TLFamily_PRMB      .         Permeability                  : 
TLFamily_PRMB_DGR  .         Permeability                  : 
TLFamily_RT        .         Formation Resistivity         : 
TLFamily_SOIL_ARCHIE .         Oil Saturation                : 
TLFamily_SOIL_DW   .         Oil Saturation                : 
TLFamily_SP        .         Spontaneous Potential         : 
TLFamily_VSH_FIN   .         Shale Volume                  : 
TLFamily_VSH_GR    .         Shale Volume                  : 
TLFamily_VSH_SP    .         Shale Volume                  : 
~Curve Information
#_______________________________________________________________________________
#
#LOGNAME           .UNIT     LOG_ID                        : DESCRIPTION
#_______________________________________________________________________________
DEPT               .M                                      : Колонка глубины 
CALI               .м                                      : Каверномер 
COLL               .unitless                               : Описание 
CSAT               .unitless                               : Описание 
GR                 .uR/h                                   : Гамма каротаж 
GZ1                .Ohmm                                   : А0.4М0.1N 
GZ2                .Ohmm                                   : A1.0M0.1N 
GZ3                .Ohmm                                   : Подошвенный зонд 
GZ4                .Ohmm                                   : A4M0.5N 
GZ5                .Ohmm                                   : A8M1N 
LLS                .Ohmm                                   : Боковой каротаж 
MINV               .Ohmm                                   : Микро-градиент зонд 
MNOR               .Ohmm                                   : Микро-потенциал зонд 
NGLD               .у.е.                                   : Показания зонда НГК-60 аппаратуры ДРСТ-3-90 
OGZ                .Ohmm                                   : Кровельный 
PHIE               .v/v                                    : Описание 
PHIEN              .v/v                                    :  
PHIT               .v/v                                    : Описание 
PRMB               .mD                                     :  
PRMB_DGR           .mD                                     :  
RT                 .ohmm                                   : УЭС пласта 
SOIL_ARCHIE        .v/v                                    :  
SOIL_DW            .v/v                                    :  
SP                 .мВ                                     : Потенциал самополяризации 
VSH_FIN            .v/v                                    : Описание 
VSH_GR             .v/v                                    : Shale volume 
VSH_SP             .v/v                                    : Shale Volume 
~Ascii
# ...
1033.6     0.286      -9999      -9999      5.878      1.262      1.653      1.633      2.295      2.644      1.41       0.674      0.902      0.805      1.548      0.198401   0.198401   0.3734085  13.24419   2.786876   1.41       0.2214309  0.4597929  19.252     0.5303258  0.4269311  0.6337206 
1033.8     0.288      -9999      -9999      5.828      1.237      1.703      1.736      2.295      2.656      1.444      0.984      0.959      0.814      1.703      0.1949925  0.1949925  0.3702558  11.45231   3.026409   1.444      0.2183797  0.4597873  19.421     0.5311007  0.4127959  0.6494056 
1034       0.278      -9999      -9999      5.778      1.211      1.678      1.788      2.308      2.656      1.438      0.592      0.972      0.825      1.806      0.1917794  0.1917794  0.3664025  9.985699   3.286531   1.438      0.2054355  0.4516586  19.591     0.5291608  0.3991287  0.6591929 
1034.2     0.267      -9999      -9999      5.727      1.211      1.565      1.84       2.32       2.631      1.423      0.687      0.908      0.835      1.806      0.1881514  0.1881514  0.3628995  8.554199   3.574897   1.423      0.1881229  0.441402   19.845     0.5295396  0.3856543  0.6734248 
1034.4     0.258      -9999      -9999      5.702      1.224      1.489      1.84       2.333      2.593      1.556      0.718      0.864      0.844      1.91       0.1829239  0.1829239  0.3597468  6.844665   3.725363   1.556      0.2021181  0.4570583  20.185     0.535827   0.3792163  0.6924378 
1034.6     0.275      -9999      -9999      5.803      1.274      1.552      1.788      2.333      2.555      1.778      0.63       1.111      0.868      1.961      0.1669124  0.1669124  0.3513396  3.45765    3.153789   1.778      0.1882806  0.4662235  20.524     0.5588703  0.4059048  0.7118357 
1034.8     0.293      -9999      -9999      5.928      1.388      1.779      1.633      2.308      2.53       1.722      0.965      1.288      0.871      1.858      0.1567065  0.1567065  0.3502887  2.237395   2.566301   1.722      0.1294503  0.4435208  20.863     0.5866128  0.4415503  0.7316752 
1035       0.282      -9999      -9999      6.029      1.489      1.779      1.53       2.269      2.505      1.549      0.782      1.047      0.835      1.755      0.1616232  0.1616232  0.3628995  2.75938    2.172559   1.549      0.1093936  0.4327083  21.118     0.6099283  0.4726258  0.7472306 
1035.2     0.263      -9999      -9999      6.23       1.451      1.804      1.478      2.244      2.479      1.459      0.87       0.946      0.859      1.806      0.139312   0.139312   0.3544923  1.065503   1.559607   1.459      0          0.3734372  21.372     0.6520615  0.5411276  0.7629954 
1035.4     0.249      -9999      -9999      6.179      1.338      1.653      1.375      2.231      2.442      1.48       0.775      0.953      0.873      1.858      0.1347769  0.1347769  0.3495881  0.8781189  1.696451   1.48       0          0.3647964  21.626     0.650943   0.5228592  0.7790268 
1035.6     0.24       -9999      -9999      6.104      1.312      1.552      1.272      2.269      2.416      1.618      0.611      0.877      0.85       1.961      0.1452096  0.1452096  0.357645   1.370227   1.919801   1.618      0.0421213  0.4172073  21.796     0.6437435  0.4971085  0.7903786 
1035.8     0.231      -9999      -9999      6.079      1.413      1.703      1.22       2.32       2.404      1.833      0.687      0.965      0.827      2.065      0.1624289  0.1624289  0.3657019  2.855852   2.000605   1.833      0.1805989  0.4819742  20.948     0.6159787  0.4888098  0.7431477 
1036       0.232      -9999      -9999      6.004      1.527      1.893      1.22       2.384      2.429      2.056      0.978      1.326      0.836      2.168      0.1714036  0.1714036  0.3625492  4.187641   2.263998   2.056      0.2591059  0.5180809  20.015     0.5792289  0.464736   0.6937219 
1036.2     0.237      -9999      -9999      5.953      1.615      2.032      1.169      2.435      2.442      2.278      1.313      1.32       0.846      2.065      0.1774918  0.1774918  0.3590462  5.429212   2.462649   2.278      0.3150522  0.5454965  19.167     0.5501648  0.4490466  0.651283  
1036.4     0.242      -9999      -9999      5.803      1.741      2.082      1.22       2.448      2.479      2.383      1.737      1.668      0.86       1.91       0.1795048  0.1795048  0.354142   5.91591    3.153789   2.383      0.3359386  0.5537833  19.167     0.5292038  0.4059048  0.6525028 
1036.6     0.238      -9999      -9999      5.627      1.981      2.082      1.272      2.435      2.505      2.181      2.206      1.68       0.873      1.858      0.1801075  0.1801075  0.3495881  6.069974   4.215837   2.181      0.309773   0.5304659  19.421     0.5135774  0.3605398  0.666615  
1036.8     0.235      -9999      -9999      5.451      2.082      2.095      1.324      2.409      2.505      1.903      1.851      1.794      0.885      1.806      0.1801739  0.1801739  0.3453845  6.08718    5.635531   1.903      0.2644014  0.4936727  19.676     0.5006381  0.320245   0.6810313 
1037       0.231      -9999      -9999      5.627      1.88       2.12       1.272      2.409      2.492      1.75       1.415      1.623      0.884      1.961      0.1729419  0.1729419  0.3457348  4.471591   4.215837   1.75       0.2071006  0.4639153  19.76      0.5236148  0.3605398  0.6866897 
1037.2     0.228      -9999      -9999      5.727      1.703      2.208      1.478      2.422      2.492      1.722      1.009      1.225      0.86       2.065      0.1762565  0.1762565  0.354142   5.150584   3.574897   1.722      0.2141778  0.4713812  19.845     0.5390469  0.3856543  0.6924394 
1037.4     0.236      -9999      -9999      5.853      1.653      2.347      1.53       2.435      2.479      2.021      0.946      1.282      0.854      2.168      0.1710209  0.1710209  0.3562438  4.119839   2.904173   2.021      0.2516566  0.508192   20.015     0.5612815  0.4198041  0.7027589 
1037.6     0.243      -9999      -9999      5.953      1.754      2.498      1.633      2.473      2.492      2.32       1.642      1.604      0.849      2.065      0.1669805  0.1669805  0.3579953  3.467705   2.462649   2.32       0.2838148  0.5382019  20.1       0.5788327  0.4490466  0.7086189 
1037.8     0.24       -9999      -9999      6.054      1.981      2.637      1.685      2.498      2.492      2.153      2.066      1.953      0.868      1.961      0.1533751  0.1533751  0.3513396  1.941053   2.08481    2.153      0.2012742  0.499264   20.27      0.5998924  0.4806497  0.719135  
1038       0.233      -9999      -9999      6.154      2.158      2.448      1.685      2.511      2.492      1.868      1.896      1.661      0.878      1.806      0.1441294  0.1441294  0.3478366  1.30853    1.767854   1.868      0.09873252 0.4464458  20.27      0.6172946  0.5141307  0.7204585 
1038.2     0.23       -9999      -9999      6.154      1.918      2.259      1.788      2.486      2.492      1.709      1.301      1.396      0.886      2.013      0.1403494  0.1403494  0.3450342  1.113701   1.767854   1.709      0.03830762 0.4126073  20.354     0.6202571  0.5141307  0.7263836 
1038.4     0.227      -9999      -9999      6.079      1.804      2.145      1.788      2.473      2.492      1.792      1.199      1.282      0.903      2.065      0.1375789  0.1375789  0.3390791  0.9895851  2.000605   1.792      0.04299884 0.4157589  20.439     0.6106067  0.4888098  0.7324035 
1038.6     0.226      -9999      -9999      6.004      1.767      2.297      1.84       2.448      2.505      1.945      1.427      1.434      0.927      2.219      0.1329222  0.1329222  0.3306719  0.8113356  2.263998   1.945      0.05105793 0.4229936  20.439     0.5992414  0.464736   0.7337467 
1038.8     0.224      -9999      -9999      6.129      1.767      2.385      1.891      2.448      2.505      2.035      1.402      1.427      0.95       2.168      0.1171299  0.1171299  0.322615   0.4137026  1.842261   2.035      0          0.4003026  20.524     0.6226821  0.505548   0.7398161 
