~Version
 VERS              .         2.0                           : CWLS LOG ASCII STANDARD - VERSION 2.0
 WRAP              .         NO                            : ONE LINE PER DEPTH STEP
 DLM               .         SPACE                         : DELIMITING CHARACTER(SPACE TAB OR COMMA)
~Well Information
#_______________________________________________________________________________
#
#PARAMETER_NAME    .UNIT     VALUE                         : DESCRIPTION
#_______________________________________________________________________________
STRT               .M        850                           : First reference value
STOP               .M        1262                          : Last reference value
STEP               .M        0.2                           : Step increment
NULL               .         -9999                         : Missing value
COMP               .                                       : Company
WELL               .         1467                          : Well name
FLD                .         Узень                         : Field
LOC                .                                       : Location
CNTY               .                                       : County
STAT               .         500                           : State
CTRY               .                                       : Country
SRVC               .                                       : Service Company
DATE               .         20.03.1970                    : Date
UWI                .                                       : Unique Well ID
Block              .         7                             : 
Cartographic_reference_system .         GCS_WGS_1984                  : ESRI,PE_10_3_1- <?xml version="1.0" encoding="utf-16"?><ILateBoundCoordinateReferenceSystem name="GCS_WGS_1984"><AuthorityCode>EPSG,4326</AuthorityCode></ILateBoundCoordinateReferenceSystem>
Category           .         Нефтяная                      : 
Condition          .         Ликвидированная               : 
DATA               .         20.03.1970                    : 
Date               .         20.03.1970                    : 
EREF               .m        85.5                          : 100.8
Gorizont           .         14                            : 14
HZCS               .GCS_WGS_1984 WGS_1984_EASE-Grid_2.0_Global : ESRI,PE_10_3_1- <?xml version="1.0" encoding="utf-16"?><ILateBoundCoordinateReferenceSystem name="WGS_1984_EASE-Grid_2.0_Global"><AuthorityCode>EPSG,6933</AuthorityCode></ILateBoundCoordinateReferenceSystem>
Interpretator      .         Бердибекулы М.                : 
Kupol              .         Основной                      : osnovnoi
LATI               .dega     0.6637468873                  : GCS_WGS_1984
LONG               .dega     0.4442061596                  : GCS_WGS_1984
METD               .         GR, NEUT                      : Method
Mud                .                                       : 
Mud_density        .                                       : 
Mud_resistivity    .                                       : 
NGDU               .         НГДУ-2                        : 
ORIGINALWELLNAME   .         1467                          : 
Spud_date          .         1970                          : 1961
Viscosity          .                                       : 
X                  .m        42859.8                       : 46154
Y                  .m        84674.53                      : 85761.93
YEAR               .         2019                          : 
~Parameter Information Block
#_______________________________________________________________________________
#
#PARAMETER_NAME    .UNIT     VALUE                         : DESCRIPTION
#_______________________________________________________________________________
SET                .         LQC_KAZNIPI_Petrel            : 
TLFamily_CALI      .         Caliper                       : 
TLFamily_COLL      .         Net Reservoir Flag            : 
TLFamily_CSAT      .         Fluid Code                    : 
TLFamily_DEPT      .         Measured Depth                : 
TLFamily_GR        .         Russian Gamma Ray             : 
TLFamily_GZ1       .         Gradient 045                  : 
TLFamily_GZ2       .         Gradient 105                  : 
TLFamily_GZ3       .         Gradient 225                  : 
TLFamily_GZ4       .         Gradient 425                  : 
TLFamily_GZ5       .         Gradient 850                  : 
TLFamily_LLS       .         Lateral Log Resistivity       : 
TLFamily_MINV      .         Micro Gradient Resistivity    : 
TLFamily_MNOR      .         Micro Resistivity             : 
TLFamily_NGLD      .         Neutron Far                   : 
TLFamily_OGZ       .         Gradient Inverted 225         : 
TLFamily_PHIE      .         Effective Porosity            : 
TLFamily_PHIEN     .         Effective Porosity            : 
TLFamily_PHIT      .         Porosity                      : 
TLFamily_PRMB      .         Permeability                  : 
TLFamily_PRMB_DGR  .         Permeability                  : 
TLFamily_RT        .         Formation Resistivity         : 
TLFamily_SOIL_ARCHIE .         Oil Saturation                : 
TLFamily_SOIL_DW   .         Oil Saturation                : 
TLFamily_SP        .         Spontaneous Potential         : 
TLFamily_VSH_FIN   .         Shale Volume                  : 
TLFamily_VSH_GR    .         Shale Volume                  : 
TLFamily_VSH_SP    .         Shale Volume                  : 
~Curve Information
#_______________________________________________________________________________
#
#LOGNAME           .UNIT     LOG_ID                        : DESCRIPTION
#_______________________________________________________________________________
DEPT               .M                                      : Колонка глубины 
CALI               .м                                      : Каверномер 
COLL               .unitless                               : Описание 
CSAT               .unitless                               : Описание 
GR                 .uR/h                                   : Гамма каротаж 
GZ1                .Ohmm                                   : А0.4М0.1N 
GZ2                .Ohmm                                   : A1.0M0.1N 
GZ3                .Ohmm                                   : Подошвенный зонд 
GZ4                .Ohmm                                   : A4M0.5N 
GZ5                .Ohmm                                   : A8M1N 
LLS                .Ohmm                                   : Боковой каротаж 
MINV               .Ohmm                                   : Микро-градиент зонд 
MNOR               .Ohmm                                   : Микро-потенциал зонд 
NGLD               .у.е.                                   : Показания зонда НГК-60 аппаратуры ДРСТ-3-90 
OGZ                .Ohmm                                   : Кровельный 
PHIE               .v/v                                    : Описание 
PHIEN              .v/v                                    :  
PHIT               .v/v                                    : Описание 
PRMB               .mD                                     :  
PRMB_DGR           .mD                                     :  
RT                 .ohmm                                   : УЭС пласта 
SOIL_ARCHIE        .v/v                                    :  
SOIL_DW            .v/v                                    :  
SP                 .мВ                                     : Потенциал самополяризации 
VSH_FIN            .v/v                                    : Описание 
VSH_GR             .v/v                                    : Shale volume 
VSH_SP             .v/v                                    : Shale Volume 
~Ascii
# ...
1125.4     0.217      8          2          6.417      4.416      10.915     10.356     8.527      6.334      7.084      2.117      2.927      1.032      7.277      0.1964811  0.1964811  0.2938904  12.20296   3.753784   7.084      0.6318763  0.7206127  4.325      0.2951797  0.3780412  0.2123181 
1125.6     0.217      8          2          6.355      4.58       11.672     10.872     8.653999   6.031      7.119      2.187      3.079      1.015      7.019001   0.2017284  0.2017284  0.2998455  15.26364   4.188477   7.119      0.6410614  0.7275369  5.597      0.2973245  0.3614997  0.2331493 
1125.8     0.217      8          2          6.28       4.871      12.24      11.44      8.285      5.677001   6.285      2.104      3.066      1.033      6.813      0.1959857  0.1959857  0.2935401  11.94785   4.782119   6.285      0.6097546  0.7028695  6.446      0.2956192  0.3424541  0.2487844 
1126       0.217      8          2          6.23       5.249      11.483     12.059     7.56       5.336      4.896      2.237      3.161      1.055      6.605999   0.1850006  0.1850006  0.2858335  7.478546   5.223928   4.896      0.5386245  0.6498733  7.992      0.3055544  0.3303178  0.280791  
1126.2     0.217      -9999      -9999      6.179      4.896      9.653      11.285     6.734      4.994      3.612      2.396      2.579      1.022      6.503      0.1925745  0.1925745  0.2973934  10.33009   5.716647   3.612      0.4861169  0.6082854  9.499      0.3176332  0.3183817  0.3168847 
1126.4     0.217      -9999      -9999      6.054      4.126      8.202      10.459     5.996      4.615      2.987      2.016      2.364      1.006      6.915999   0.1884636  0.1884636  0.3029982  8.668838   7.129884   2.987      0.4275385  0.5702831  12.467     0.3470745  0.290919   0.40323   
1126.6     0.217      -9999      -9999      5.928      3.42       7.256      9.582      5.322      4.274      3.229      2.718      2.453      1.062      7.484      0.1549991  0.1549991  0.2833814  2.080258   8.90822    3.229      0.3456469  0.534924   15.435     0.3890373  0.2656335  0.512441  
1126.8     0.217      -9999      -9999      5.752      3.104      6.372001   8.704      4.966      3.958      3.195      2.446      2.18       1.107      8.258      0.1249691  0.1249691  0.2676179  0.5779478  12.15839   3.195      0.2067197  0.4738201  18.064     0.4322692  0.23395    0.6305884 
1127       0.217      -9999      -9999      5.602      2.94       5.552      7.827      4.826      3.781      2.882      2.104      2.218      1.1        9.394      0.1442417  0.1442417  0.27007    1.314813   15.84913   2.882      0.2651668  0.4786234  16.368     0.3812979  0.2099481  0.5526478 
1127.2     0.217      -9999      -9999      5.451      2.776      4.984001   6.948999   4.737      3.743      2.812      1.864      2.484      1.082      10.839     0.1639386  0.1639386  0.2763754  3.04578    20.69676   2.812      0.3350588  0.5051307  14.926     0.3407176  0.1882727  0.4931624 
1127.4     0.217      1          2          5.3        2.587      4.921      5.658999   4.788      3.794      3.612      1.965      2.174      1.061      12.301     0.1834306  0.1834306  0.2837317  6.9942     27.02709   3.612      0.4638766  0.5891545  13.485     0.3039427  0.1688351  0.4390503 
1127.6     0.217      1          2          5.124      2.625      5.047      5.195001   4.902      3.908      4.688      1.845      2.744      1.029      13.987     0.2059689  0.2059689  0.2949413  18.28948   36.88795   4.688      0.5711646  0.663841   12.043     0.2696134  0.1486972  0.3905295 
1127.8     0.217      1          2          4.949      3.091      5.3        5.091      5.029      4.034      5.66       1.934      2.978      1.069      15.673     0.201602   0.201602   0.2809293  15.18157   50.25766   5.66       0.600058   0.6823932  10.686     0.2403857  0.1310559  0.3497154 
1128       0.217      1          2          4.798      3.571      5.552      5.091      5.157001   4.135      6.389      2.111      2.921      1.07       17.29      0.2098384  0.2098384  0.280579   21.57125   65.62952   6.389      0.6351116  0.7057713  9.244      0.2143652  0.1175255  0.3112051 
1128.2     0.217      1          2          4.697      3.95       5.994      5.091      5.207      4.224      6.563      2.104      3.035      1.073      19.613     0.2160338  0.2160338  0.2795281  28.09495   78.45483   6.563      0.6487001  0.7125746  7.718      0.192407   0.1092642  0.2755498 
1128.4     0.217      1          2          4.622      4.202      6.940001   5.143      5.271      4.299      6.111      2.187      3.016      1.091      18.323     0.2155003  0.2155003  0.2732227  27.4629    89.57446   6.111      0.6359543  0.6978482  6.276      0.1749164  0.1035076  0.2463252 
1128.6     0.217      1          2          4.647      4.264999   7.95       5.091      5.487      4.363      5.382      2.269      3.25       1.064      17.032     0.2288064  0.2288064  0.2826808  48.44041   85.70303   5.382      0.63324    0.6921777  4.834      0.1632557  0.1053919  0.2211195 
1128.8     0.217      1          2          4.672      4.013      8.707      5.04       5.793001   4.476      5.313      2.351      2.826      1.093      17.806     0.2204932  0.2204932  0.2725221  33.98026   81.99888   5.313      0.6189249  0.6785808  3.986      0.1576633  0.1073106  0.2080161 
1129       0.217      6          6          4.672      3.76       9.084999   4.988      6.212      4.652999   7.917      2.256      2.573      1.157      18.323     0.1986894  0.1986894  0.2501029  13.40814   81.99888   7.917      0.6539736  0.7108747  3.732      0.1557984  0.1073106  0.2042863 
1129.2     0.217      6          6          4.697      4.05       10.158     5.091      6.759      4.855      11.632     2.047      4.478      1.208      18.839     0.1811013  0.1811013  0.2322376  6.332769   78.45483   11.632     0.6868468  0.7411122  3.477      0.1549585  0.1092642  0.2006528 
1129.4     0.217      6          6          4.722      5.565      12.681     6.639999   7.268      5.133      21.182     4.491      4.478      1.257      19.355     0.1641877  0.1641877  0.2150729  3.078312   75.06394   21.182     0.7425531  0.7909905  3.223      0.1541976  0.1112533  0.1971419 
1129.6     0.217      6          6          4.748      7.104      17.098     10.201     7.548      5.348      25.87      4.497      4.478      1.276      18.065     0.1575654  0.1575654  0.2084172  2.320877   71.69279   25.87      0.7570515  0.8040399  3.053      0.1540962  0.1133605  0.194832  
1129.8     0.217      6          6          4.722      8.164      20.379     13.607     7.408      5.348      18.057     3.503      3.997      1.231      17.032     0.1736864  0.1736864  0.2241807  4.615849   75.06394   18.057     0.7357929  0.7841598  3.053      0.1530131  0.1112533  0.1947728 
1130       0.217      6          6          4.697      7.647      20.442     13.453     6.835      5.235      13.542     2.693      3.149      1.184      15.742     0.1889619  0.1889619  0.2406448  8.855056   78.45483   13.542     0.7190036  0.7691171  3.732      0.1566148  0.1092642  0.2039654 
1130.2     0.217      1          2          4.722      6.801      18.549     13.298     6.289      5.108      6.355      1.851      2.699      1.139      14.71      0.2029731  0.2029731  0.2564083  16.09579   75.06394   6.355      0.6234438  0.6847562  4.325      0.1619248  0.1112533  0.2125962 
1130.4     0.217      1          2          4.873      5.918      16.088     13.143     5.869      4.868      5.313      1.87       2.826      1.094      13.677     0.2148708  0.2148708  0.2721718  26.73536   57.48233   5.313      0.6102548  0.674826   5.004      0.1736395  0.1240617  0.2232174 
1130.6     0.217      1          2          5.049      5.224      14.132     12.936     5.576001   4.679      5.486      1.889      2.921      1.048      12.645     0.2275305  0.2275305  0.2882856  45.87496   42.11622   5.486      0.6347447  0.6978468  5.258      0.1841063  0.1408631  0.2273494 
