~Version
 VERS              .         2.0                           : CWLS LOG ASCII STANDARD - VERSION 2.0
 WRAP              .         NO                            : ONE LINE PER DEPTH STEP
 DLM               .         SPACE                         : DELIMITING CHARACTER(SPACE TAB OR COMMA)
~Well Information
#_______________________________________________________________________________
#
#PARAMETER_NAME    .UNIT     VALUE                         : DESCRIPTION
#_______________________________________________________________________________
STRT               .M        850                           : First reference value
STOP               .M        1262                          : Last reference value
STEP               .M        0.2                           : Step increment
NULL               .         -9999                         : Missing value
COMP               .                                       : Company
WELL               .         1467                          : Well name
FLD                .         Узень                         : Field
LOC                .                                       : Location
CNTY               .                                       : County
STAT               .         500                           : State
CTRY               .                                       : Country
SRVC               .                                       : Service Company
DATE               .         20.03.1970                    : Date
UWI                .                                       : Unique Well ID
Block              .         7                             : 
Cartographic_reference_system .         GCS_WGS_1984                  : ESRI,PE_10_3_1- <?xml version="1.0" encoding="utf-16"?><ILateBoundCoordinateReferenceSystem name="GCS_WGS_1984"><AuthorityCode>EPSG,4326</AuthorityCode></ILateBoundCoordinateReferenceSystem>
Category           .         Нефтяная                      : 
Condition          .         Ликвидированная               : 
DATA               .         20.03.1970                    : 
Date               .         20.03.1970                    : 
EREF               .m        85.5                          : 100.8
Gorizont           .         14                            : 14
HZCS               .GCS_WGS_1984 WGS_1984_EASE-Grid_2.0_Global : ESRI,PE_10_3_1- <?xml version="1.0" encoding="utf-16"?><ILateBoundCoordinateReferenceSystem name="WGS_1984_EASE-Grid_2.0_Global"><AuthorityCode>EPSG,6933</AuthorityCode></ILateBoundCoordinateReferenceSystem>
Interpretator      .         Бердибекулы М.                : 
Kupol              .         Основной                      : osnovnoi
LATI               .dega     0.6637468873                  : GCS_WGS_1984
LONG               .dega     0.4442061596                  : GCS_WGS_1984
METD               .         GR, NEUT                      : Method
Mud                .                                       : 
Mud_density        .                                       : 
Mud_resistivity    .                                       : 
NGDU               .         НГДУ-2                        : 
ORIGINALWELLNAME   .         1467                          : 
Spud_date          .         1970                          : 1961
Viscosity          .                                       : 
X                  .m        42859.8                       : 46154
Y                  .m        84674.53                      : 85761.93
YEAR               .         2019                          : 
~Parameter Information Block
#_______________________________________________________________________________
#
#PARAMETER_NAME    .UNIT     VALUE                         : DESCRIPTION
#_______________________________________________________________________________
SET                .         LQC_KAZNIPI_Petrel            : 
TLFamily_CALI      .         Caliper                       : 
TLFamily_COLL      .         Net Reservoir Flag            : 
TLFamily_CSAT      .         Fluid Code                    : 
TLFamily_DEPT      .         Measured Depth                : 
TLFamily_GR        .         Russian Gamma Ray             : 
TLFamily_GZ1       .         Gradient 045                  : 
TLFamily_GZ2       .         Gradient 105                  : 
TLFamily_GZ3       .         Gradient 225                  : 
TLFamily_GZ4       .         Gradient 425                  : 
TLFamily_GZ5       .         Gradient 850                  : 
TLFamily_LLS       .         Lateral Log Resistivity       : 
TLFamily_MINV      .         Micro Gradient Resistivity    : 
TLFamily_MNOR      .         Micro Resistivity             : 
TLFamily_NGLD      .         Neutron Far                   : 
TLFamily_OGZ       .         Gradient Inverted 225         : 
TLFamily_PHIE      .         Effective Porosity            : 
TLFamily_PHIEN     .         Effective Porosity            : 
TLFamily_PHIT      .         Porosity                      : 
TLFamily_PRMB      .         Permeability                  : 
TLFamily_PRMB_DGR  .         Permeability                  : 
TLFamily_RT        .         Formation Resistivity         : 
TLFamily_SOIL_ARCHIE .         Oil Saturation                : 
TLFamily_SOIL_DW   .         Oil Saturation                : 
TLFamily_SP        .         Spontaneous Potential         : 
TLFamily_VSH_FIN   .         Shale Volume                  : 
TLFamily_VSH_GR    .         Shale Volume                  : 
TLFamily_VSH_SP    .         Shale Volume                  : 
~Curve Information
#_______________________________________________________________________________
#
#LOGNAME           .UNIT     LOG_ID                        : DESCRIPTION
#_______________________________________________________________________________
DEPT               .M                                      : Колонка глубины 
CALI               .м                                      : Каверномер 
COLL               .unitless                               : Описание 
CSAT               .unitless                               : Описание 
GR                 .uR/h                                   : Гамма каротаж 
GZ1                .Ohmm                                   : А0.4М0.1N 
GZ2                .Ohmm                                   : A1.0M0.1N 
GZ3                .Ohmm                                   : Подошвенный зонд 
GZ4                .Ohmm                                   : A4M0.5N 
GZ5                .Ohmm                                   : A8M1N 
LLS                .Ohmm                                   : Боковой каротаж 
MINV               .Ohmm                                   : Микро-градиент зонд 
MNOR               .Ohmm                                   : Микро-потенциал зонд 
NGLD               .у.е.                                   : Показания зонда НГК-60 аппаратуры ДРСТ-3-90 
OGZ                .Ohmm                                   : Кровельный 
PHIE               .v/v                                    : Описание 
PHIEN              .v/v                                    :  
PHIT               .v/v                                    : Описание 
PRMB               .mD                                     :  
PRMB_DGR           .mD                                     :  
RT                 .ohmm                                   : УЭС пласта 
SOIL_ARCHIE        .v/v                                    :  
SOIL_DW            .v/v                                    :  
SP                 .мВ                                     : Потенциал самополяризации 
VSH_FIN            .v/v                                    : Описание 
VSH_GR             .v/v                                    : Shale volume 
VSH_SP             .v/v                                    : Shale Volume 
~Ascii
# ...
1174       0.218      8          2          6.255      1.527      1.653      2.046      2.117      1.987      1.514      1.794      1.687      1.004      2.168      0.2049378  0.2049378  0.3036988  17.50264   3.664771   1.514      0.2781479  0.4255266  1.866      0.2992758  0.381764   0.2167876 
1174.2     0.219      8          2          6.129      1.375      1.577      2.149      2.091      1.974      1.653      1.712      2.18       0.994      2.529      0.2154243  0.2154243  0.3072018  27.37399   4.564455   1.653      0.3367587  0.4650343  1.187      0.2781137  0.3490308  0.2071967 
1174.4     0.219      8          2          6.004      1.527      1.678      2.304      2.206      2.037      2.007      1.997      2.389      1.012      3.097      0.2158634  0.2158634  0.3008964  27.89151   5.675108   2.007      0.3955584  0.5089891  0.339      0.2576758  0.3193312  0.1960204 
1174.6     0.218      8          2          6.029      1.741      1.981      2.356      2.6        2.252      2.444      2.028      2.668      1.033      3.665      0.2088962  0.2088962  0.2935401  20.72159   5.433222   2.444      0.432956   0.5423669  -0.339     0.2564966  0.3250616  0.1879315 
1174.8     0.215      8          2          6.129      2.044      2.259      2.511      3.16       2.783      2.909      2.066      2.497      1.053      4.129      0.1994832  0.1994832  0.2865341  13.8698    4.564455   2.909      0.4560477  0.5663514  -1.187     0.2637908  0.3490308  0.1785508 
1175       0.215      8          2          6.23       2.448      2.839      2.614      3.745      3.415      3.417      2.13       2.737      1.074      4.439      0.1839005  0.1839005  0.2791778  7.135782   3.827931   3.417      0.4585933  0.57988    0.678      0.2887191  0.3750339  0.2024044 
1175.2     0.215      -9999      -9999      6.38       2.852      3.218      2.666      4.279      3.731      3.979      2.218      2.991      1.071      4.49       0.1730619  0.1730619  0.2802287  4.494537   2.947553   3.979      0.4685424  0.6018162  2.544      0.3247478  0.4172701  0.2322254 
1175.4     0.215      -9999      -9999      6.456      3.356      4.038      2.82       4.724      3.819      4          1.742      2.764      1.059      4.026      0.1638681  0.1638681  0.2844323  3.036633   2.581987   4          0.4440397  0.5976497  5.386      0.3653461  0.440453   0.2902393 
1175.6     0.215      -9999      -9999      6.556      3.823      4.808      2.717      4.686      3.579      3.16       1.237      2.522      1.049      3.665      0.1575962  0.1575962  0.2879353  2.323929   2.16913    3.16       0.3575417  0.5436295  6.446      0.3949668  0.4729307  0.3170029 
1175.8     0.215      -9999      -9999      6.632      3.634      4.303      2.562      4.101      3.377      2.444      0.491      2.212      1.039      3.148      0.1629121  0.1629121  0.2914383  2.915313   1.900106   2.444      0.2958586  0.491567   4.834      0.3894733  0.499206   0.2797407 
1176       0.215      -9999      -9999      6.481      2.852      3.823      2.407      3.554      3.162      1.937      0.415      2.465      1.015      2.632      0.1850038  0.1850038  0.2998455  7.479572   2.471935   1.937      0.2970219  0.4664378  3.223      0.3480052  0.4483571  0.2476534 
1176.2     0.215      -9999      -9999      6.355      2.36       3.394      2.304      3.236      2.897      1.778      0.434      1.63       0.99       2.271      0.2043938  0.2043938  0.308603   17.10123   3.078782   1.778      0.3290405  0.474296   1.696      0.3157854  0.409914   0.2216568 
1176.4     0.215      8          2          6.305      2.082      3.104      2.149      3.147      2.631      2.118      1.032      1.889      0.973      1.961      0.2165475  0.2165475  0.3145581  28.71724   3.359024   2.118      0.4122579  0.5349091  0.085      0.2970019  0.3955886  0.1984152 
1176.6     0.214      8          2          6.167      2.183      3.091      2.046      3.312      2.707      2.896      1.706      2.18       0.959      2.065      0.2264836  0.2264836  0.3194623  43.87155   4.272039   2.896      0.5119576  0.613099   0.509      0.2817538  0.3585954  0.2049122 
1176.8     0.215      8          2          6.054      2.562      3.331      1.84       3.503      2.758      3.806      2.104      2.611      0.966      2.168      0.2210045  0.2210045  0.3170102  34.72943   5.201639   3.806      0.5614359  0.6575232  3.223      0.2909263  0.330895   0.2509577 
1177       0.217      8          2          6.004      3.104      3.785      2.098      3.681      2.897      4.105      1.902      2.839      0.976      2.323      0.2093701  0.2093701  0.3135072  21.14464   5.675108   4.105      0.5563138  0.6605887  5.937      0.3155669  0.3193312  0.3118026 
1177.2     0.218      8          2          5.953      3.584      4.454      2.459      3.618      3.073      3.751      1.908      2.636      0.964      2.477      0.2026014  0.2026014  0.3177108  15.84265   6.202476   3.751      0.5236945  0.6429524  8.651      0.3488163  0.3079523  0.3896804 
1177.4     0.22       -9999      -9999      6.004      3.836      4.858      2.717      3.592      3.301      3.257      2.073      2.661      0.971      2.735      0.1822495  0.1822495  0.3152587  6.650594   5.675108   3.257      0.4419048  0.5982603  11.364     0.4030583  0.3193312  0.4867853 
1177.6     0.222      -9999      -9999      6.205      3.521      4.77       3.027      3.758      3.579      2.757      1.832      2.87       0.997      3.148      0.1407498  0.1407498  0.3061509  1.132886   3.998355   2.757      0.2441929  0.5083477  14.672     0.5012154  0.3684224  0.6340084 
1177.8     0.224      -9999      -9999      6.355      3.041      4.681001   3.336      4.203      3.87       2.299      2.149      2.554      0.991      3.561      0.1403849  0.1403849  0.3082527  1.11539    3.078782   2.299      0.1750706  0.4633503  14.078     0.5086904  0.409914   0.6074668 
1178       0.226      -9999      -9999      6.481      2.688      5.161      3.646      4.661      4.085      2.021      1.035      1.231      0.96       3.768      0.1522542  0.1522542  0.319112   1.850441   2.471935   2.021      0.1834504  0.4568281  13.23      0.5056297  0.4483571  0.5629023 
1178.2     0.228      -9999      -9999      6.732      2.751      4.467      4.007      4.597      4.047      2.299      0.725      1.478      0.937      3.252      0.1521458  0.1521458  0.3271689  1.841906   1.596282   2.299      0.2308943  0.4983767  12.467     0.530373   0.5360159  0.5247303 
1178.4     0.23       -9999      -9999      6.305      2.461      3.798      3.749      4.012      3.718      2.187      0.459      1.155      0.916      2.942      0.1891378  0.1891378  0.3345252  8.921718   3.359024   2.187      0.3486064  0.5338624  11.619     0.4405679  0.3955886  0.4855472 
1178.6     0.23       -9999      -9999      6.38       2.334      3.369      3.44       3.516      3.402      1.93       0.377      1.117      0.916      2.684      0.1910754  0.1910754  0.3345252  9.690318   2.947553   1.93       0.3153554  0.505806   10.856     0.4346963  0.4172701  0.4521226 
1178.8     0.225      -9999      -9999      6.506      2.372      3.104      3.13       3.096      3.086      2.014      1.269      1.339      0.935      2.477      0.1835992  0.1835992  0.3278695  7.044662   2.366572   2.014      0.3051677  0.5024951  10.008     0.4371828  0.456403   0.4179626 
1179       0.22       -9999      -9999      6.606      2.183      2.751      2.82       2.689      2.77       1.972      1.13       1.573      0.954      2.323      0.1761815  0.1761815  0.3212138  5.134139   1.988161   1.972      0.2725989  0.4825758  9.244      0.4394917  0.4900567  0.3889267 
1179.2     0.217      -9999      -9999      6.732      1.981      2.41       2.407      2.422      2.593      1.875      1.579      1.706      0.974      2.168      0.1664587  0.1664587  0.3142078  3.391377   1.596282   1.875      0.217425   0.4500617  8.396      0.4477247  0.5360159  0.3594336 
