~Version
 VERS              .         2.0                           : CWLS LOG ASCII STANDARD - VERSION 2.0
 WRAP              .         NO                            : ONE LINE PER DEPTH STEP
 DLM               .         SPACE                         : DELIMITING CHARACTER(SPACE TAB OR COMMA)
~Well Information
#_______________________________________________________________________________
#
#PARAMETER_NAME    .UNIT     VALUE                         : DESCRIPTION
#_______________________________________________________________________________
STRT               .M        850                           : First reference value
STOP               .M        1262                          : Last reference value
STEP               .M        0.2                           : Step increment
NULL               .         -9999                         : Missing value
COMP               .                                       : Company
WELL               .         1467                          : Well name
FLD                .         Узень                         : Field
LOC                .                                       : Location
CNTY               .                                       : County
STAT               .         500                           : State
CTRY               .                                       : Country
SRVC               .                                       : Service Company
DATE               .         20.03.1970                    : Date
UWI                .                                       : Unique Well ID
Block              .         7                             : 
Cartographic_reference_system .         GCS_WGS_1984                  : ESRI,PE_10_3_1- <?xml version="1.0" encoding="utf-16"?><ILateBoundCoordinateReferenceSystem name="GCS_WGS_1984"><AuthorityCode>EPSG,4326</AuthorityCode></ILateBoundCoordinateReferenceSystem>
Category           .         Нефтяная                      : 
Condition          .         Ликвидированная               : 
DATA               .         20.03.1970                    : 
Date               .         20.03.1970                    : 
EREF               .m        85.5                          : 100.8
Gorizont           .         14                            : 14
HZCS               .GCS_WGS_1984 WGS_1984_EASE-Grid_2.0_Global : ESRI,PE_10_3_1- <?xml version="1.0" encoding="utf-16"?><ILateBoundCoordinateReferenceSystem name="WGS_1984_EASE-Grid_2.0_Global"><AuthorityCode>EPSG,6933</AuthorityCode></ILateBoundCoordinateReferenceSystem>
Interpretator      .         Бердибекулы М.                : 
Kupol              .         Основной                      : osnovnoi
LATI               .dega     0.6637468873                  : GCS_WGS_1984
LONG               .dega     0.4442061596                  : GCS_WGS_1984
METD               .         GR, NEUT                      : Method
Mud                .                                       : 
Mud_density        .                                       : 
Mud_resistivity    .                                       : 
NGDU               .         НГДУ-2                        : 
ORIGINALWELLNAME   .         1467                          : 
Spud_date          .         1970                          : 1961
Viscosity          .                                       : 
X                  .m        42859.8                       : 46154
Y                  .m        84674.53                      : 85761.93
YEAR               .         2019                          : 
~Parameter Information Block
#_______________________________________________________________________________
#
#PARAMETER_NAME    .UNIT     VALUE                         : DESCRIPTION
#_______________________________________________________________________________
SET                .         LQC_KAZNIPI_Petrel            : 
TLFamily_CALI      .         Caliper                       : 
TLFamily_COLL      .         Net Reservoir Flag            : 
TLFamily_CSAT      .         Fluid Code                    : 
TLFamily_DEPT      .         Measured Depth                : 
TLFamily_GR        .         Russian Gamma Ray             : 
TLFamily_GZ1       .         Gradient 045                  : 
TLFamily_GZ2       .         Gradient 105                  : 
TLFamily_GZ3       .         Gradient 225                  : 
TLFamily_GZ4       .         Gradient 425                  : 
TLFamily_GZ5       .         Gradient 850                  : 
TLFamily_LLS       .         Lateral Log Resistivity       : 
TLFamily_MINV      .         Micro Gradient Resistivity    : 
TLFamily_MNOR      .         Micro Resistivity             : 
TLFamily_NGLD      .         Neutron Far                   : 
TLFamily_OGZ       .         Gradient Inverted 225         : 
TLFamily_PHIE      .         Effective Porosity            : 
TLFamily_PHIEN     .         Effective Porosity            : 
TLFamily_PHIT      .         Porosity                      : 
TLFamily_PRMB      .         Permeability                  : 
TLFamily_PRMB_DGR  .         Permeability                  : 
TLFamily_RT        .         Formation Resistivity         : 
TLFamily_SOIL_ARCHIE .         Oil Saturation                : 
TLFamily_SOIL_DW   .         Oil Saturation                : 
TLFamily_SP        .         Spontaneous Potential         : 
TLFamily_VSH_FIN   .         Shale Volume                  : 
TLFamily_VSH_GR    .         Shale Volume                  : 
TLFamily_VSH_SP    .         Shale Volume                  : 
~Curve Information
#_______________________________________________________________________________
#
#LOGNAME           .UNIT     LOG_ID                        : DESCRIPTION
#_______________________________________________________________________________
DEPT               .M                                      : Колонка глубины 
CALI               .м                                      : Каверномер 
COLL               .unitless                               : Описание 
CSAT               .unitless                               : Описание 
GR                 .uR/h                                   : Гамма каротаж 
GZ1                .Ohmm                                   : А0.4М0.1N 
GZ2                .Ohmm                                   : A1.0M0.1N 
GZ3                .Ohmm                                   : Подошвенный зонд 
GZ4                .Ohmm                                   : A4M0.5N 
GZ5                .Ohmm                                   : A8M1N 
LLS                .Ohmm                                   : Боковой каротаж 
MINV               .Ohmm                                   : Микро-градиент зонд 
MNOR               .Ohmm                                   : Микро-потенциал зонд 
NGLD               .у.е.                                   : Показания зонда НГК-60 аппаратуры ДРСТ-3-90 
OGZ                .Ohmm                                   : Кровельный 
PHIE               .v/v                                    : Описание 
PHIEN              .v/v                                    :  
PHIT               .v/v                                    : Описание 
PRMB               .mD                                     :  
PRMB_DGR           .mD                                     :  
RT                 .ohmm                                   : УЭС пласта 
SOIL_ARCHIE        .v/v                                    :  
SOIL_DW            .v/v                                    :  
SP                 .мВ                                     : Потенциал самополяризации 
VSH_FIN            .v/v                                    : Описание 
VSH_GR             .v/v                                    : Shale volume 
VSH_SP             .v/v                                    : Shale Volume 
~Ascii
# ...
1103.8     0.218      1          2          6.481      3.205      5.741      3.904      4.521      2.05       4.861      1.946      2.674      1.008      13.316     0.2085863  0.2085863  0.3022976  20.44945   6.268699   4.861      0.5830068  0.6763172  12.382     0.2839738  0.3066197  0.2613278 
1104       0.218      1          2          6.355      3.331      6.183      4.73       4.991      2.151      5.833      3.377      2.972      1.014      12.645     0.2092107  0.2092107  0.3001958  21.00135   7.69534    5.833      0.6181889  0.7036614  12.637     0.2757125  0.2819926  0.2694323 
1104.2     0.218      1          2          6.28       3.71       6.877      5.504      5.398      2.303      7.709      2.263      2.56       1.019      11.51      0.2064528  0.2064528  0.2984443  18.67091   8.694286   7.709      0.6611269  0.7399239  13.4       0.278762   0.2682832  0.2892407 
1104.4     0.218      1          2          6.154      4.467      8.265      5.762      5.551      2.505      9.34       4.509      4.478      1.029      10.323     0.2036408  0.2036408  0.2949413  16.56074   10.67296   9.34       0.6865906  0.7607269  13.994     0.2766681  0.2467352  0.306601  
1104.6     0.218      1          2          6.305      4.757      9.968      6.433      5.462      2.783      6.98       4.313      4.478      1.039      9.394      0.1924164  0.1924164  0.2914383  10.26069   8.347676   6.98       0.6225017  0.7147177  14.672     0.3000663  0.2727773  0.3273554 
1104.8     0.218      1          2          6.456      4.126      9.274      7.156      5.424      3.061      6.008      2.288      2.497      1.046      8.826      0.1811384  0.1811384  0.2889862  6.342782   6.528994   6.008      0.5731035  0.6832987  15.435     0.3268117  0.301568   0.3520554 
1105       0.218      1          2          6.531      4.126      9.968      7.104      5.678      3.465      6.806      2.06       2.775      1.051      8.465      0.1793323  0.1793323  0.2872347  5.872547   5.778826   6.806      0.5938404  0.7001535  14.757     0.3269771  0.3169783  0.3369759 
1105.2     0.218      1          2          6.632      4.341      10.852     7.104      6.085      4.426      7.675      2.301      2.864      1.06       8.568      0.1756471  0.1756471  0.284082   5.018426   4.902957   7.675      0.6091039  0.7133847  13.909     0.3285908  0.3389823  0.3181993 
1105.4     0.218      1          2          6.594      4.618      11.735     7.053      6.441      5.26       7.813      2.149      2.763      1.062      8.154999   0.1782323  0.1782323  0.2833814  5.603413   5.215724   7.813      0.6172608  0.7171775  13.315     0.3186336  0.3305298  0.3067374 
1105.6     0.218      1          2          6.556      5.148      12.808     7.62       6.721      6.081      8.403      2.085      2.839      1.068      7.742001   0.1789734  0.1789734  0.2812796  5.783346   5.548442   8.403      0.6314495  0.726533   12.806     0.3100189  0.3222882  0.2977496 
1105.8     0.218      1          2          6.657      5.603001   14.132     8.446      6.581      6.701      7.952      2.161      2.921      1.072      7.381      0.1753139  0.1753139  0.2798784  4.94762    4.707488   7.952      0.6149174  0.715685   12.297     0.3168622  0.3446608  0.2890636 
1106       0.218      1          2          6.833      4.934      12.934     9.272      6.174      6.347      6.528      2.168      2.687      1.089      6.967999   0.1655003  0.1655003  0.2739233  3.255558   3.535094   6.528      0.5558221  0.6746981  11.28      0.3285545  0.3874215  0.2696876 
1106.2     0.218      1          2          6.958      4.379      11.293     10.201     5.64       5.892001   5.313      1.896      1.991      1.05       6.554999   0.1734443  0.1734443  0.287585   4.568436   2.884411   5.313      0.5303283  0.6562996  11.195     0.3458809  0.4209761  0.2707858 
1106.4     0.218      1          2          7.109      4.126      10.473     9.736      4.914999   5.222      4.479      1.63       2.199      1.013      6.142      0.1741378  0.1741378  0.3005461  4.705565   2.255994   4.479      0.4929099  0.6360394  12.382     0.3830556  0.4654087  0.3007025 
1106.6     0.218      -9999      -9999      7.31       3.785      9.653      9.22       4.393      4.716      4.688      1.915      2.25       0.977      5.729      0.1705781  0.1705781  0.3131569  4.042765   1.626602   4.688      0.4946378  0.6501534  13.485     0.432057   0.5319134  0.3322005 
1106.8     0.218      -9999      -9999      7.234      3.457      8.896      8.653      4.076      4.211      4.167      1.744      2.212      0.983      5.316      0.1665976  0.1665976  0.3110551  3.411542   1.840748   4.167      0.4548157  0.6239454  14.672     0.4377499  0.5057178  0.369782  
1107       0.218      -9999      -9999      7.109      3.079      7.886      8.188001   3.834      3.958      3.473      1.946      2.187      0.991      5.729      0.1635323  0.1635323  0.3082527  2.993457   2.255994   3.473      0.3964749  0.5827916  15.859     0.4385467  0.4654087  0.4116847 
1107.2     0.218      -9999      -9999      7.033      2.763      6.877      7.62       3.605      3.617      2.987      2.206      1.858      1.014      6.658      0.1515835  0.1515835  0.3001958  1.798261   2.553001   2.987      0.3079826  0.5291318  17.047     0.4503402  0.4424881  0.4581923 
1107.4     0.218      -9999      -9999      7.008      2.587      5.868001   7.053      3.503      3.364      2.848      1.908      2.085      0.992      7.587      0.1520302  0.1520302  0.3079024  1.832846   2.65901    2.848      0.2941448  0.5257828  18.234     0.47234    0.4351979  0.5094821 
1107.6     0.218      -9999      -9999      6.983      2.574      5.174      6.536      3.478      3.238      3.229      2.282      2.307      0.967      8.516      0.1532881  0.1532881  0.3166599  1.933861   2.76942    3.229      0.3392901  0.5636631  19.337     0.4950661  0.4280279  0.5621043 
1107.8     0.218      -9999      -9999      6.908      2.574      4.732      6.02       3.541      3.263      3.473      2.041      2.142      0.979      9.445      0.1424004  0.1424004  0.3124563  1.215513   3.128923   3.473      0.3191792  0.5637588  20.524     0.5153208  0.4072188  0.6234228 
1108       0.218      -9999      -9999      6.807      2.587      4.732      5.556      3.732      3.352      3.473      2.269      2.231      0.986      10.116     0.1498552  0.1498552  0.3100042  1.670471   3.68788    3.473      0.3487733  0.5700061  19.676     0.4853001  0.3807855  0.5898148 
1108.2     0.218      -9999      -9999      6.707      2.612      4.795      5.245999   3.986      3.491      3.473      2.035      2.434      0.965      10.942     0.177649   0.177649   0.3173605  5.465733   4.339623   3.473      0.4384654  0.6031994  17.301     0.4233682  0.3563045  0.490432  
1108.4     0.218      -9999      -9999      6.581      2.726      4.858      5.091      4.393      3.604      3.89       2.079      2.174      0.962      11.716     0.1977336  0.1977336  0.3184114  12.87251   5.327242   3.89       0.5149873  0.6414443  14.842     0.3656904  0.3276868  0.403694  
1108.6     0.218      8          2          6.632      2.94       5.110001   5.297999   4.877      3.718      4.688      2.041      2.585      0.959      12.439     0.2076162  0.2076162  0.3194623  19.62068   4.902957   4.688      0.5741296  0.6803884  12.637     0.3389275  0.3389823  0.3388728 
1108.8     0.218      8          2          6.782      3.281      5.741      5.504      5.398      3.806      5.73       2.263      2.864      0.98       12.129     0.2042221  0.2042221  0.312106   16.97646   3.841009   5.73       0.6068051  0.7049101  10.177     0.3269208  0.3745119  0.2793298 
1109       0.218      8          2          6.958      3.823      6.372001   5.710999   5.691      3.705      6.633      2.269      2.959      0.995      11.561     0.1898787  0.1898787  0.3068515  9.208159   2.884411   6.633      0.6088631  0.7146631  10.516     0.3544629  0.4209761  0.2879497 
