~Version
 VERS              .         2.0                           : CWLS LOG ASCII STANDARD - VERSION 2.0
 WRAP              .         NO                            : ONE LINE PER DEPTH STEP
 DLM               .         SPACE                         : DELIMITING CHARACTER(SPACE TAB OR COMMA)
~Well Information
#_______________________________________________________________________________
#
#PARAMETER_NAME    .UNIT     VALUE                         : DESCRIPTION
#_______________________________________________________________________________
STRT               .M        850                           : First reference value
STOP               .M        1262                          : Last reference value
STEP               .M        0.2                           : Step increment
NULL               .         -9999                         : Missing value
COMP               .                                       : Company
WELL               .         1467                          : Well name
FLD                .         Узень                         : Field
LOC                .                                       : Location
CNTY               .                                       : County
STAT               .         500                           : State
CTRY               .                                       : Country
SRVC               .                                       : Service Company
DATE               .         20.03.1970                    : Date
UWI                .                                       : Unique Well ID
Block              .         7                             : 
Cartographic_reference_system .         GCS_WGS_1984                  : ESRI,PE_10_3_1- <?xml version="1.0" encoding="utf-16"?><ILateBoundCoordinateReferenceSystem name="GCS_WGS_1984"><AuthorityCode>EPSG,4326</AuthorityCode></ILateBoundCoordinateReferenceSystem>
Category           .         Нефтяная                      : 
Condition          .         Ликвидированная               : 
DATA               .         20.03.1970                    : 
Date               .         20.03.1970                    : 
EREF               .m        85.5                          : 100.8
Gorizont           .         14                            : 14
HZCS               .GCS_WGS_1984 WGS_1984_EASE-Grid_2.0_Global : ESRI,PE_10_3_1- <?xml version="1.0" encoding="utf-16"?><ILateBoundCoordinateReferenceSystem name="WGS_1984_EASE-Grid_2.0_Global"><AuthorityCode>EPSG,6933</AuthorityCode></ILateBoundCoordinateReferenceSystem>
Interpretator      .         Бердибекулы М.                : 
Kupol              .         Основной                      : osnovnoi
LATI               .dega     0.6637468873                  : GCS_WGS_1984
LONG               .dega     0.4442061596                  : GCS_WGS_1984
METD               .         GR, NEUT                      : Method
Mud                .                                       : 
Mud_density        .                                       : 
Mud_resistivity    .                                       : 
NGDU               .         НГДУ-2                        : 
ORIGINALWELLNAME   .         1467                          : 
Spud_date          .         1970                          : 1961
Viscosity          .                                       : 
X                  .m        42859.8                       : 46154
Y                  .m        84674.53                      : 85761.93
YEAR               .         2019                          : 
~Parameter Information Block
#_______________________________________________________________________________
#
#PARAMETER_NAME    .UNIT     VALUE                         : DESCRIPTION
#_______________________________________________________________________________
SET                .         LQC_KAZNIPI_Petrel            : 
TLFamily_CALI      .         Caliper                       : 
TLFamily_COLL      .         Net Reservoir Flag            : 
TLFamily_CSAT      .         Fluid Code                    : 
TLFamily_DEPT      .         Measured Depth                : 
TLFamily_GR        .         Russian Gamma Ray             : 
TLFamily_GZ1       .         Gradient 045                  : 
TLFamily_GZ2       .         Gradient 105                  : 
TLFamily_GZ3       .         Gradient 225                  : 
TLFamily_GZ4       .         Gradient 425                  : 
TLFamily_GZ5       .         Gradient 850                  : 
TLFamily_LLS       .         Lateral Log Resistivity       : 
TLFamily_MINV      .         Micro Gradient Resistivity    : 
TLFamily_MNOR      .         Micro Resistivity             : 
TLFamily_NGLD      .         Neutron Far                   : 
TLFamily_OGZ       .         Gradient Inverted 225         : 
TLFamily_PHIE      .         Effective Porosity            : 
TLFamily_PHIEN     .         Effective Porosity            : 
TLFamily_PHIT      .         Porosity                      : 
TLFamily_PRMB      .         Permeability                  : 
TLFamily_PRMB_DGR  .         Permeability                  : 
TLFamily_RT        .         Formation Resistivity         : 
TLFamily_SOIL_ARCHIE .         Oil Saturation                : 
TLFamily_SOIL_DW   .         Oil Saturation                : 
TLFamily_SP        .         Spontaneous Potential         : 
TLFamily_VSH_FIN   .         Shale Volume                  : 
TLFamily_VSH_GR    .         Shale Volume                  : 
TLFamily_VSH_SP    .         Shale Volume                  : 
~Curve Information
#_______________________________________________________________________________
#
#LOGNAME           .UNIT     LOG_ID                        : DESCRIPTION
#_______________________________________________________________________________
DEPT               .M                                      : Колонка глубины 
CALI               .м                                      : Каверномер 
COLL               .unitless                               : Описание 
CSAT               .unitless                               : Описание 
GR                 .uR/h                                   : Гамма каротаж 
GZ1                .Ohmm                                   : А0.4М0.1N 
GZ2                .Ohmm                                   : A1.0M0.1N 
GZ3                .Ohmm                                   : Подошвенный зонд 
GZ4                .Ohmm                                   : A4M0.5N 
GZ5                .Ohmm                                   : A8M1N 
LLS                .Ohmm                                   : Боковой каротаж 
MINV               .Ohmm                                   : Микро-градиент зонд 
MNOR               .Ohmm                                   : Микро-потенциал зонд 
NGLD               .у.е.                                   : Показания зонда НГК-60 аппаратуры ДРСТ-3-90 
OGZ                .Ohmm                                   : Кровельный 
PHIE               .v/v                                    : Описание 
PHIEN              .v/v                                    :  
PHIT               .v/v                                    : Описание 
PRMB               .mD                                     :  
PRMB_DGR           .mD                                     :  
RT                 .ohmm                                   : УЭС пласта 
SOIL_ARCHIE        .v/v                                    :  
SOIL_DW            .v/v                                    :  
SP                 .мВ                                     : Потенциал самополяризации 
VSH_FIN            .v/v                                    : Описание 
VSH_GR             .v/v                                    : Shale volume 
VSH_SP             .v/v                                    : Shale Volume 
~Ascii
# ...
941.8      0.214      -9999      -9999      3.818      -9999      -9999      6.02       -9999      -9999      4.722      -9999      -9999      1.026      3.665      0.1688793  0.1688793  0.2959922  3.760213   16.83848   4.722      0.4919389  0.6378718  25.528     0.3851906  0.2048206  0.5655605 
942        0.214      -9999      -9999      3.994      -9999      -9999      5.607      -9999      -9999      3.959      2.459      -9999      0.998      3.252      0.1715245  0.1715245  0.3058006  4.209275   11.41056   3.959      0.4555538  0.6146099  25.697     0.4068974  0.2400935  0.5737013 
942.2000000000001 0.214      -9999      -9999      4.12       -9999      -9999      5.143      -9999      -9999      3.16       2.44       -9999      0.979      3.458      0.1713983  0.1713983  0.3124563  4.186686   8.636176   3.16       0.3944174  0.5741051  25.952     0.4274485  0.2690189  0.5858781 
942.4      0.214      -9999      -9999      4.245      -9999      -9999      5.091      -9999      -9999      2.639      2.427      -9999      0.963      3.871      0.1709578  0.1709578  0.3180611  4.108771   6.550825   2.639      0.3395112  0.5385065  26.037     0.4457675  0.3011572  0.5903777 
942.6      0.214      -9999      -9999      4.346      -9999      -9999      4.42       -9999      -9999      2.743      2.415      -9999      0.973      4.181      0.1606597  0.1606597  0.3145581  2.648286   5.239803   2.743      0.3153188  0.5331309  26.291     0.4663589  0.3299088  0.602809  
942.8      0.214      -9999      -9999      4.446      -9999      -9999      3.801      -9999      -9999      3.612      2.402      -9999      0.987      4.439      0.1491861  0.1491861  0.3096539  1.623479   4.200438   3.612      0.3581596  0.5773457  26.461     0.4862661  0.3610789  0.6114532 
943        0.214      -9999      -9999      4.321      -9999      -9999      3.904      -9999      -9999      4.341      2.389      -9999      0.993      4.387      0.1526802  0.1526802  0.3075521  1.884371   5.53758    4.341      0.4229636  0.6162515  26.545     0.4693087  0.3225461  0.6160713 
943.2000000000001 0.214      -9999      -9999      4.17       -9999      -9999      4.007      -9999      -9999      3.646      2.377      -9999      0.982      4.335      0.1611814  0.1611814  0.3114054  2.707879   7.732344   3.646      0.4025999  0.5930533  26.8       0.4552242  0.2814409  0.6290075 
943.4      0.214      -9999      -9999      4.069      -9999      -9999      4.162      -9999      -9999      3.056      2.358      -9999      0.998      4.284      0.1588352  0.1588352  0.3058006  2.450031   9.667005   3.056      0.3426646  0.5479692  26.885     0.4453496  0.2569133  0.633786  
943.6      0.214      -9999      -9999      3.994      -9999      -9999      4.214      -9999      -9999      3.205      2.345      -9999      1.013      4.284      0.1555707  0.1555707  0.3005461  2.131592   11.41056   3.205      0.3454537  0.5502863  26.969     0.4393195  0.2400935  0.6385455 
943.8      0.214      -9999      -9999      4.044      -9999      -9999      4.111001   -9999      -9999      3.156      2.332      -9999      0.991      4.232      0.1613443  0.1613443  0.3082527  2.726758   10.21637   3.156      0.3613006  0.560041   26.969     0.4451769  0.2511798  0.639174  
944        0.214      -9999      -9999      4.094      -9999      -9999      4.059      -9999      -9999      3.056      2.434      -9999      0.972      4.129      0.1652873  0.1652873  0.3149084  3.226109   9.147172   3.056      0.3650698  0.562823   27.054     0.4533974  0.2627778  0.644017  
944.2000000000001 0.214      -9999      -9999      4.12       -9999      -9999      4.007      -9999      -9999      2.73       2.883      3.636      0.954      4.232      0.1697587  0.1697587  0.3212138  3.90392    8.636176   2.73       0.3459381  0.5477457  27.139     0.4589549  0.2690189  0.6488908 
944.4      0.214      -9999      -9999      4.044      -9999      -9999      3.904      -9999      -9999      2.896      2.87       3.187      0.953      4.387      0.1722432  0.1722432  0.3215641  4.340304   10.21637   2.896      0.371807   0.5636688  27.224     0.4524875  0.2511798  0.6537953 
944.6      0.214      -9999      -9999      4.12       -9999      -9999      3.904      -9999      -9999      3.494      2.712      2.731      0.963      4.49       0.165691   0.165691   0.3180611  3.28214    8.636176   3.494      0.4050145  0.5940107  27.224     0.4617276  0.2690189  0.6544362 
944.8      0.214      -9999      -9999      4.195      -9999      -9999      3.801      -9999      -9999      3.869      2.725      2.193      0.976      4.335      0.1579216  0.1579216  0.3135072  2.356404   7.316542   3.869      0.4085813  0.6034661  27.224     0.4714714  0.2878653  0.6550776 
945        0.214      -9999      -9999      4.27       -9999      -9999      3.698      -9999      -9999      3.674      2.396      2.503      0.967      4.181      0.1583468  0.1583468  0.3166599  2.399525   6.198559   3.674      0.3954705  0.5959947  27.139     0.4797366  0.3080317  0.6514415 
945.2000000000001 0.214      -9999      -9999      4.346      -9999      -9999      3.853      -9999      -9999      3.791      3.199      2.484      0.957      4.026      0.1588373  0.1588373  0.3201629  2.450245   5.239803   3.791      0.4059009  0.6054329  27.054     0.4888656  0.3299088  0.6478223 
945.4      0.214      -9999      -9999      4.446      -9999      -9999      4.162      -9999      -9999      3.375      1.491      2.339      0.963      3.768      0.1521868  0.1521868  0.3180611  1.84513    4.200438   3.375      0.3487833  0.5731995  26.969     0.5026494  0.3610789  0.6442198 
945.6      0.214      -9999      -9999      4.371      -9999      -9999      4.214      -9999      -9999      2.972      3.497      1.839      0.968      3.613      0.1556116  0.1556116  0.3163096  2.135322   4.958042   2.972      0.3220108  0.5474865  26.8       0.4869635  0.3374394  0.6364876 
945.8      0.214      -9999      -9999      4.396      -9999      -9999      4.059      -9999      -9999      3.09       1.813      2.377      0.957      3.458      0.1587797  0.1587797  0.3201629  2.444235   4.691426   3.09       0.3458695  0.5629019  26.715     0.48904    0.3451421  0.632938  
946        0.22       -9999      -9999      4.522      -9999      -9999      3.904      -9999      -9999      2.917      1.155      1.896      0.93       3.355      0.1626419  0.1626419  0.329621   2.881909   3.550744   2.917      0.3418638  0.5621836  26.545     0.5059973  0.3867234  0.6252712 
946.2000000000001 0.228      -9999      -9999      4.647      -9999      -9999      3.749      -9999      -9999      2.438      1.509      1.44       0.937      3.458      0.1531359  0.1531359  0.3271689  1.921346   2.693357   2.438      0.245511   0.5077213  26.461     0.5273729  0.4329232  0.6218225 
946.4      0.238      -9999      -9999      4.748      -9999      -9999      3.543      -9999      -9999      2.438      2.592      1.446      0.95       3.613      0.1430086  0.1430086  0.322615   1.247453   2.154333   2.438      0.1991834  0.4904592  26.291     0.5442619  0.4742545  0.6142693 
946.6      0.234      -9999      -9999      4.898      -9999      -9999      3.491      -9999      -9999      3.014      2.408      2.028      0.971      3.768      0.1248727  0.1248727  0.3152587  0.575578   1.54626    3.014      0.1841624  0.5112094  26.206     0.5769271  0.54303    0.6108243 
946.8      0.228      -9999      -9999      4.748      -9999      -9999      3.698      -9999      -9999      3.494      1.661      1.718      0.964      3.923      0.1385729  0.1385729  0.3177108  1.03244    2.154333   3.494      0.3047993  0.5651832  26.206     0.5428421  0.4742545  0.6114297 
947        0.223      -9999      -9999      4.496      -9999      -9999      3.698      -9999      -9999      2.966      1.554      1.415      0.937      3.923      0.163854   0.163854   0.3271689  3.034815   3.760839   2.966      0.351198   0.5650544  26.206     0.4948936  0.3777515  0.6120356 
