~Version
 VERS              .         2.0                           : CWLS LOG ASCII STANDARD - VERSION 2.0
 WRAP              .         NO                            : ONE LINE PER DEPTH STEP
 DLM               .         SPACE                         : DELIMITING CHARACTER(SPACE TAB OR COMMA)
~Well Information
#_______________________________________________________________________________
#
#PARAMETER_NAME    .UNIT     VALUE                         : DESCRIPTION
#_______________________________________________________________________________
STRT               .M        850                           : First reference value
STOP               .M        1262                          : Last reference value
STEP               .M        0.2                           : Step increment
NULL               .         -9999                         : Missing value
COMP               .                                       : Company
WELL               .         1467                          : Well name
FLD                .         Узень                         : Field
LOC                .                                       : Location
CNTY               .                                       : County
STAT               .         500                           : State
CTRY               .                                       : Country
SRVC               .                                       : Service Company
DATE               .         20.03.1970                    : Date
UWI                .                                       : Unique Well ID
Block              .         7                             : 
Cartographic_reference_system .         GCS_WGS_1984                  : ESRI,PE_10_3_1- <?xml version="1.0" encoding="utf-16"?><ILateBoundCoordinateReferenceSystem name="GCS_WGS_1984"><AuthorityCode>EPSG,4326</AuthorityCode></ILateBoundCoordinateReferenceSystem>
Category           .         Нефтяная                      : 
Condition          .         Ликвидированная               : 
DATA               .         20.03.1970                    : 
Date               .         20.03.1970                    : 
EREF               .m        85.5                          : 100.8
Gorizont           .         14                            : 14
HZCS               .GCS_WGS_1984 WGS_1984_EASE-Grid_2.0_Global : ESRI,PE_10_3_1- <?xml version="1.0" encoding="utf-16"?><ILateBoundCoordinateReferenceSystem name="WGS_1984_EASE-Grid_2.0_Global"><AuthorityCode>EPSG,6933</AuthorityCode></ILateBoundCoordinateReferenceSystem>
Interpretator      .         Бердибекулы М.                : 
Kupol              .         Основной                      : osnovnoi
LATI               .dega     0.6637468873                  : GCS_WGS_1984
LONG               .dega     0.4442061596                  : GCS_WGS_1984
METD               .         GR, NEUT                      : Method
Mud                .                                       : 
Mud_density        .                                       : 
Mud_resistivity    .                                       : 
NGDU               .         НГДУ-2                        : 
ORIGINALWELLNAME   .         1467                          : 
Spud_date          .         1970                          : 1961
Viscosity          .                                       : 
X                  .m        42859.8                       : 46154
Y                  .m        84674.53                      : 85761.93
YEAR               .         2019                          : 
~Parameter Information Block
#_______________________________________________________________________________
#
#PARAMETER_NAME    .UNIT     VALUE                         : DESCRIPTION
#_______________________________________________________________________________
SET                .         LQC_KAZNIPI_Petrel            : 
TLFamily_CALI      .         Caliper                       : 
TLFamily_COLL      .         Net Reservoir Flag            : 
TLFamily_CSAT      .         Fluid Code                    : 
TLFamily_DEPT      .         Measured Depth                : 
TLFamily_GR        .         Russian Gamma Ray             : 
TLFamily_GZ1       .         Gradient 045                  : 
TLFamily_GZ2       .         Gradient 105                  : 
TLFamily_GZ3       .         Gradient 225                  : 
TLFamily_GZ4       .         Gradient 425                  : 
TLFamily_GZ5       .         Gradient 850                  : 
TLFamily_LLS       .         Lateral Log Resistivity       : 
TLFamily_MINV      .         Micro Gradient Resistivity    : 
TLFamily_MNOR      .         Micro Resistivity             : 
TLFamily_NGLD      .         Neutron Far                   : 
TLFamily_OGZ       .         Gradient Inverted 225         : 
TLFamily_PHIE      .         Effective Porosity            : 
TLFamily_PHIEN     .         Effective Porosity            : 
TLFamily_PHIT      .         Porosity                      : 
TLFamily_PRMB      .         Permeability                  : 
TLFamily_PRMB_DGR  .         Permeability                  : 
TLFamily_RT        .         Formation Resistivity         : 
TLFamily_SOIL_ARCHIE .         Oil Saturation                : 
TLFamily_SOIL_DW   .         Oil Saturation                : 
TLFamily_SP        .         Spontaneous Potential         : 
TLFamily_VSH_FIN   .         Shale Volume                  : 
TLFamily_VSH_GR    .         Shale Volume                  : 
TLFamily_VSH_SP    .         Shale Volume                  : 
~Curve Information
#_______________________________________________________________________________
#
#LOGNAME           .UNIT     LOG_ID                        : DESCRIPTION
#_______________________________________________________________________________
DEPT               .M                                      : Колонка глубины 
CALI               .м                                      : Каверномер 
COLL               .unitless                               : Описание 
CSAT               .unitless                               : Описание 
GR                 .uR/h                                   : Гамма каротаж 
GZ1                .Ohmm                                   : А0.4М0.1N 
GZ2                .Ohmm                                   : A1.0M0.1N 
GZ3                .Ohmm                                   : Подошвенный зонд 
GZ4                .Ohmm                                   : A4M0.5N 
GZ5                .Ohmm                                   : A8M1N 
LLS                .Ohmm                                   : Боковой каротаж 
MINV               .Ohmm                                   : Микро-градиент зонд 
MNOR               .Ohmm                                   : Микро-потенциал зонд 
NGLD               .у.е.                                   : Показания зонда НГК-60 аппаратуры ДРСТ-3-90 
OGZ                .Ohmm                                   : Кровельный 
PHIE               .v/v                                    : Описание 
PHIEN              .v/v                                    :  
PHIT               .v/v                                    : Описание 
PRMB               .mD                                     :  
PRMB_DGR           .mD                                     :  
RT                 .ohmm                                   : УЭС пласта 
SOIL_ARCHIE        .v/v                                    :  
SOIL_DW            .v/v                                    :  
SP                 .мВ                                     : Потенциал самополяризации 
VSH_FIN            .v/v                                    : Описание 
VSH_GR             .v/v                                    : Shale volume 
VSH_SP             .v/v                                    : Shale Volume 
~Ascii
# ...
1222.6     0.212      8          2          7.033      3.003      3.356      2.459      1.532      1.633      2.056      2.193      2.345      1.045      1.703      0.1638456  0.1638456  0.2893365  3.03373    2.15692    2.056      0.2401464  0.4445037  3.562      0.3802754  0.474022   0.2865287 
1222.8     0.212      8          2          7.134      2.94       3.293      2.407      1.557      1.633      2.145      2.484      2.402      1.07       1.703      0.1514231  0.1514231  0.280579   1.785998   1.837759   2.145      0.2021571  0.4283909  3.223      0.3913815  0.5060534  0.2767096 
1223       0.212      8          2          7.26       2.877      3.23       2.304      1.621      1.62       2.09       2.206      2.263      1.11       1.652      0.1248429  0.1248429  0.266567   0.5748451  1.504971   2.09       0.04451986 0.3560242  4.749      0.4294671  0.5490648  0.3098693 
1223.2     0.212      -9999      -9999      7.385      2.864      3.142      2.253      1.71       1.607      2.056      2.13       2.446      1.099      1.652      0.1163887  0.1163887  0.2704203  0.400829   1.234401   2.056      0          0.3392245  5.937      0.4667625  0.595346   0.3381788 
1223.4     0.212      -9999      -9999      7.511      2.839      3.142      2.201      1.875      1.595      1.924      2.408      2.383      1.076      1.6        0.1109739  0.1109739  0.2784772  0.3181741  1.010872   1.924      0          0.3175229  7.124      0.5075856  0.6459465  0.3692248 
1223.6     0.212      -9999      -9999      7.636      2.814      3.18       2.098      2.041      1.582      2.027      2.566      2.313      1.069      1.548      0.09838175 0.09838175 0.2809293  0.1859631  0.8291338  2.027      0          0.3095188  8.396      0.5531744  0.700394   0.4059547 
1223.8     0.212      -9999      -9999      7.511      2.839      3.23       2.098      2.244      1.57       2.056      2.415      2.497      1.091      1.548      0.0988263  0.0988263  0.2732227  0.1895226  1.010872   2.056      0          0.3031105  8.651      0.528474   0.6459465  0.4110015 
1224       0.212      -9999      -9999      7.41       2.94       3.23       1.995      2.498      1.557      1.937      2.636      2.459      1.116      1.497      0.09550384 0.09550384 0.2644652  0.1644829  1.18643    1.937      0          0.2578191  8.99       0.5120041  0.6050602  0.418948  
1224.2     0.212      -9999      -9999      7.335      2.953      3.155      1.995      2.676      1.582      1.833      2.326      2.079      1.12       1.445      0.09701302 0.09701302 0.263064   0.1754182  1.336241   1.833      0          0.2387263  9.414      0.5031848  0.5763829  0.4299867 
1224.4     0.213      -9999      -9999      7.26       2.789      3.054      1.943      2.791      1.595      1.945      2.687      2.288      1.112      1.445      0.1024561  0.1024561  0.2658664  0.2212551  1.504971   1.945      0          0.2802759  9.838      0.4951828  0.5490648  0.4413008 
1224.6     0.213      -9999      -9999      7.184      2.738      2.978      1.943      2.855      1.595      2.084      2.579      2.472      1.103      1.548      0.1059783  0.1059783  0.2690191  0.2571181  1.697695   2.084      0          0.3183265  10.601     0.4940631  0.5227028  0.4654234 
1224.8     0.213      -9999      -9999      7.033      2.776      3.003      1.995      2.893      1.595      2.056      2.636      2.617      1.093      1.652      0.1122255  0.1122255  0.2725221  0.3356192  2.15692    2.056      0          0.3334687  11.534     0.4857472  0.474022   0.4974724 
1225       0.213      -9999      -9999      6.833      2.864      3.054      2.149      2.893      1.607      2.076      2.396      2.592      1.076      1.858      0.1220665  0.1220665  0.2784772  0.5106527  2.961751   2.076      0.02254169 0.3657963  12.467     0.4739719  0.4164521  0.5314916 
1225.2     0.213      -9999      -9999      6.632      2.94       3.104      2.253      2.905      1.62       1.958      2.453      2.256      1.093      2.116      0.1185475  0.1185475  0.2725221  0.4394855  4.073352   1.958      0          0.3307813  13.4       0.4665898  0.3656372  0.5675424 
1225.4     0.213      -9999      -9999      6.456      2.953      3.256      2.407      2.994      1.671      1.93       2.402      2.554      1.113      2.323      0.1124052  0.1124052  0.2655161  0.3382015  5.384445   1.93       0          0.3011054  14.248     0.4639723  0.3262608  0.6016838 
1225.6     0.213      -9999      -9999      6.456      2.89       3.546      2.511      3.287      1.721      2.069      2.193      2.117      1.098      2.477      0.1151427  0.1151427  0.2707706  0.3800837  5.384445   2.069      0          0.3391888  14.672     0.4715998  0.3262608  0.6169388 
1225.8     0.213      -9999      -9999      6.581      2.814      3.823      2.666      3.63       1.797      2.166      3.725      2.377      1.079      2.426      0.1207036  0.1207036  0.2774263  0.4818167  4.416409   2.166      0.03239939 0.3750166  14.333     0.4749172  0.3537617  0.5960728 
1226       0.213      -9999      -9999      6.657      3.091      3.659      2.614      3.961      1.873      2.048      2.807      2.161      1.09       2.065      0.1167556  0.1167556  0.273573   0.4071509  3.915051   2.048      0          0.3434986  13.994     0.4752041  0.3716033  0.5788049 
1226.2     0.213      -9999      -9999      6.707      2.915      3.18       2.459      3.719      1.898      1.778      2.668      1.889      1.111      1.806      0.1063842  0.1063842  0.2662167  0.2616085  3.616673   1.778      0          0.258117   14.163     0.4843409  0.3838291  0.5848527 
1226.4     0.213      -9999      -9999      6.606      2.65       2.902      2.253      3.249      1.873      1.639      2.63       1.63       1.129      1.6        0.1024228  0.1024228  0.2599113  0.2209408  4.244776   1.639      0          0.204494   14.418     0.4772381  0.3595341  0.5949422 
1226.6     0.213      -9999      -9999      6.481      2.41       2.726      2.098      2.905      1.822      1.722      2.32       1.642      1.149      1.497      0.09900679 0.09900679 0.2529053  0.1909871  5.175191   1.722      0          0.2004808  14.587     0.466359   0.3315845  0.6011336 
1226.8     0.213      -9999      -9999      6.355      2.334      2.801      1.891      2.702      1.772      1.827      2.13       1.687      1.129      1.703      0.1079331  0.1079331  0.2599113  0.2794743  6.319556   1.827      0          0.2609177  14.926     0.4605399  0.3056097  0.6154701 
1227       0.213      -9999      -9999      6.305      2.372      2.978      1.736      2.6        1.759      1.833      2.585      1.769      1.109      1.806      0.1358053  0.1358053  0.2669173  0.9174893  6.840933   1.833      0.05566462 0.3348359  12.297     0.3973092  0.2958753  0.4987431 
1227.2     0.213      -9999      -9999      6.406      2.423      2.927      1.736      2.575      1.746      1.848      2.332      1.465      1.094      1.858      0.1503963  0.1503963  0.2721718  1.709476   5.828667   1.848      0.1392756  0.3710394  10.262     0.3690166  0.3158687  0.4221644 
1227.4     0.213      8          3          6.531      2.448      2.738      1.788      2.562      1.759      1.91       2.377      1.592      1.115      1.91       0.1494138  0.1494138  0.2648155  1.639319   4.780767   1.91       0.1476495  0.3693825  8.227      0.3497022  0.3424937  0.3569108 
1227.6     0.213      8          3          6.606      2.41       2.864      1.788      2.524      1.822      1.958      2.636      1.383      1.13       1.703      0.150406   0.150406   0.259561   1.71018    4.244776   1.958      0.1623621  0.3712693  6.191      0.3307728  0.3595341  0.3020115 
1227.8     0.213      8          3          6.682      2.334      3.028      1.788      2.473      1.923      1.813      2.946      2.415      1.111      1.548      0.1615673  0.1615673  0.2662167  2.752813   3.762904   1.813      0.1840563  0.374672   4.156      0.3171194  0.3776668  0.256572  
