~Version
 VERS              .         2.0                           : CWLS LOG ASCII STANDARD - VERSION 2.0
 WRAP              .         NO                            : ONE LINE PER DEPTH STEP
 DLM               .         SPACE                         : DELIMITING CHARACTER(SPACE TAB OR COMMA)
~Well Information
#_______________________________________________________________________________
#
#PARAMETER_NAME    .UNIT     VALUE                         : DESCRIPTION
#_______________________________________________________________________________
STRT               .M        850                           : First reference value
STOP               .M        1262                          : Last reference value
STEP               .M        0.2                           : Step increment
NULL               .         -9999                         : Missing value
COMP               .                                       : Company
WELL               .         1467                          : Well name
FLD                .         Узень                         : Field
LOC                .                                       : Location
CNTY               .                                       : County
STAT               .         500                           : State
CTRY               .                                       : Country
SRVC               .                                       : Service Company
DATE               .         20.03.1970                    : Date
UWI                .                                       : Unique Well ID
Block              .         7                             : 
Cartographic_reference_system .         GCS_WGS_1984                  : ESRI,PE_10_3_1- <?xml version="1.0" encoding="utf-16"?><ILateBoundCoordinateReferenceSystem name="GCS_WGS_1984"><AuthorityCode>EPSG,4326</AuthorityCode></ILateBoundCoordinateReferenceSystem>
Category           .         Нефтяная                      : 
Condition          .         Ликвидированная               : 
DATA               .         20.03.1970                    : 
Date               .         20.03.1970                    : 
EREF               .m        85.5                          : 100.8
Gorizont           .         14                            : 14
HZCS               .GCS_WGS_1984 WGS_1984_EASE-Grid_2.0_Global : ESRI,PE_10_3_1- <?xml version="1.0" encoding="utf-16"?><ILateBoundCoordinateReferenceSystem name="WGS_1984_EASE-Grid_2.0_Global"><AuthorityCode>EPSG,6933</AuthorityCode></ILateBoundCoordinateReferenceSystem>
Interpretator      .         Бердибекулы М.                : 
Kupol              .         Основной                      : osnovnoi
LATI               .dega     0.6637468873                  : GCS_WGS_1984
LONG               .dega     0.4442061596                  : GCS_WGS_1984
METD               .         GR, NEUT                      : Method
Mud                .                                       : 
Mud_density        .                                       : 
Mud_resistivity    .                                       : 
NGDU               .         НГДУ-2                        : 
ORIGINALWELLNAME   .         1467                          : 
Spud_date          .         1970                          : 1961
Viscosity          .                                       : 
X                  .m        42859.8                       : 46154
Y                  .m        84674.53                      : 85761.93
YEAR               .         2019                          : 
~Parameter Information Block
#_______________________________________________________________________________
#
#PARAMETER_NAME    .UNIT     VALUE                         : DESCRIPTION
#_______________________________________________________________________________
SET                .         LQC_KAZNIPI_Petrel            : 
TLFamily_CALI      .         Caliper                       : 
TLFamily_COLL      .         Net Reservoir Flag            : 
TLFamily_CSAT      .         Fluid Code                    : 
TLFamily_DEPT      .         Measured Depth                : 
TLFamily_GR        .         Russian Gamma Ray             : 
TLFamily_GZ1       .         Gradient 045                  : 
TLFamily_GZ2       .         Gradient 105                  : 
TLFamily_GZ3       .         Gradient 225                  : 
TLFamily_GZ4       .         Gradient 425                  : 
TLFamily_GZ5       .         Gradient 850                  : 
TLFamily_LLS       .         Lateral Log Resistivity       : 
TLFamily_MINV      .         Micro Gradient Resistivity    : 
TLFamily_MNOR      .         Micro Resistivity             : 
TLFamily_NGLD      .         Neutron Far                   : 
TLFamily_OGZ       .         Gradient Inverted 225         : 
TLFamily_PHIE      .         Effective Porosity            : 
TLFamily_PHIEN     .         Effective Porosity            : 
TLFamily_PHIT      .         Porosity                      : 
TLFamily_PRMB      .         Permeability                  : 
TLFamily_PRMB_DGR  .         Permeability                  : 
TLFamily_RT        .         Formation Resistivity         : 
TLFamily_SOIL_ARCHIE .         Oil Saturation                : 
TLFamily_SOIL_DW   .         Oil Saturation                : 
TLFamily_SP        .         Spontaneous Potential         : 
TLFamily_VSH_FIN   .         Shale Volume                  : 
TLFamily_VSH_GR    .         Shale Volume                  : 
TLFamily_VSH_SP    .         Shale Volume                  : 
~Curve Information
#_______________________________________________________________________________
#
#LOGNAME           .UNIT     LOG_ID                        : DESCRIPTION
#_______________________________________________________________________________
DEPT               .M                                      : Колонка глубины 
CALI               .м                                      : Каверномер 
COLL               .unitless                               : Описание 
CSAT               .unitless                               : Описание 
GR                 .uR/h                                   : Гамма каротаж 
GZ1                .Ohmm                                   : А0.4М0.1N 
GZ2                .Ohmm                                   : A1.0M0.1N 
GZ3                .Ohmm                                   : Подошвенный зонд 
GZ4                .Ohmm                                   : A4M0.5N 
GZ5                .Ohmm                                   : A8M1N 
LLS                .Ohmm                                   : Боковой каротаж 
MINV               .Ohmm                                   : Микро-градиент зонд 
MNOR               .Ohmm                                   : Микро-потенциал зонд 
NGLD               .у.е.                                   : Показания зонда НГК-60 аппаратуры ДРСТ-3-90 
OGZ                .Ohmm                                   : Кровельный 
PHIE               .v/v                                    : Описание 
PHIEN              .v/v                                    :  
PHIT               .v/v                                    : Описание 
PRMB               .mD                                     :  
PRMB_DGR           .mD                                     :  
RT                 .ohmm                                   : УЭС пласта 
SOIL_ARCHIE        .v/v                                    :  
SOIL_DW            .v/v                                    :  
SP                 .мВ                                     : Потенциал самополяризации 
VSH_FIN            .v/v                                    : Описание 
VSH_GR             .v/v                                    : Shale volume 
VSH_SP             .v/v                                    : Shale Volume 
~Ascii
# ...
1012       0.218      -9999      -9999      3.517      3.685      6.385001   3.801      3.618      2.795      4.202      2.566      2.421      1.207      6.039      0.1465231  0.1465231  0.2325879  1.449175   32.75854   4.202      0.3926969  0.5304357  17.216     0.2608025  0.1560833  0.3655216 
1012.2     0.218      -9999      -9999      3.667      3.344      6.119999   4.317      3.821      2.871      4.167      1.459      4.636      1.171      5.523      0.150643   0.150643   0.2451987  1.727554   23.51223   4.167      0.404857   0.5481813  18.149     0.2865325  0.1787183  0.3943466 
1012.4     0.218      -9999      -9999      3.818      3.823      6.839001   4.885      3.999      2.934      5.313      2.889      4.649      1.15       5.058      0.1490488  0.1490488  0.252555   1.613999   16.83848   5.313      0.4640422  0.6052225  18.997     0.3136552  0.2048206  0.4224897 
1012.6     0.22       -9999      -9999      3.944      4.29       8.139      5.401      4.126      2.947      6.146      2.598      2.794      1.156      4.594      0.1379164  0.1379164  0.2504532  1.00393    12.74434   6.146      0.464437   0.6195863  19.845     0.3410207  0.2294966  0.4525448 
1012.8     0.223      -9999      -9999      4.019      4.164      7.798      5.969      4.076      2.909      4.93       3.339      3.117      1.13       4.129      0.1396226  0.1396226  0.259561   1.07971    10.79697   4.93       0.4123894  0.5863805  20.609     0.3634497  0.2455741  0.4813254 
1013       0.224      -9999      -9999      4.145      4.076      8.227001   6.382      3.91       2.884      4.41       3.377      2.953      1.101      3.716      0.1398846  0.1398846  0.2697197  1.091843   8.171771   4.41       0.3818459  0.5731223  21.372     0.3934397  0.2751598  0.5117196 
1013.2     0.22       -9999      -9999      4.27       3.748      7.369      6.072      3.681      2.846      3.751      2.206      2.054      1.074      3.406      0.1392183  0.1392183  0.2791778  1.061251   6.198559   3.751      0.3302881  0.5459991  22.051     0.4241198  0.3080317  0.5402078 
1013.4     0.219      -9999      -9999      4.069      2.801      6.158      5.762      3.605      2.821      2.57       0.693      1.351      1.053      3.097      0.1519508  0.1519508  0.2865341  1.826649   9.667005   2.57       0.2589533  0.478162   22.475     0.4078283  0.2569133  0.5587432 
1013.6     0.218      -9999      -9999      3.919      2.599      5.35       5.401      4.012      2.821      2.362      2.187      1.94       1.035      3.458      0.1604761  0.1604761  0.2928395  2.627634   13.4686    2.362      0.2648135  0.4741802  22.899     0.4011012  0.2243748  0.5778276 
1013.8     0.218      -9999      -9999      3.718      2.372      5.199      5.607      4.597      2.96       3.195      2.212      2.497      1.046      3.768      0.1619137  0.1619137  0.2889862  2.793782   21.00505   3.195      0.3669164  0.5458401  23.026     0.3850682  0.1871394  0.5829969 
1014       0.223      -9999      -9999      3.919      2.726      5.603001   6.072      5.207      3.137      4.306      1.092      1.934      1.072      4.077      0.1458026  0.1458026  0.2798784  1.40532    13.4686    4.306      0.3970415  0.5843982  23.153     0.4062904  0.2243748  0.5882059 
1014.2     0.23       -9999      -9999      4.145      3.659      6.612      6.485      5.487      3.25       5.555      3.788      3.472      1.014      4.387      0.1565447  0.1565447  0.3001958  2.22201    8.171771   5.555      0.4970867  0.6589899  23.323     0.4353063  0.2751598  0.5954527 
1014.4     0.236      -9999      -9999      4.321      4.29       6.726      6.588      4.902      3.238      5.174      2.491      1.864      0.976      4.129      0.1608369  0.1608369  0.3135072  2.668382   5.53758    5.174      0.4921423  0.6595123  23.492     0.4626372  0.3225461  0.6027283 
1014.6     0.243      -9999      -9999      4.471      3.76       5.614999   5.814      4.139      3.099      3.646      1.921      1.763      0.948      3.716      0.1623711  0.1623711  0.3233156  2.848813   3.974564   3.646      0.4064137  0.6034507  23.577     0.4877107  0.3693213  0.6061003 
1014.8     0.25       -9999      -9999      4.522      3.104      5.174      4.524      3.77       2.96       2.743      1.547      1.522      0.929      3.303      0.1655964  0.1655964  0.3299713  3.268926   3.550744   2.743      0.3331309  0.551914   23.662     0.4981058  0.3867234  0.6094881 
1015       0.257      -9999      -9999      4.547      2.662      4.808      3.956      3.618      2.808      2.326      1.136      1.256      0.906      2.994      0.172302   0.172302   0.3380282  4.351208   3.359805   2.326      0.3039626  0.5278429  23.662     0.5022005  0.3955511  0.6088499 
1015.2     0.264      -9999      -9999      4.597      2.183      4.454      3.44       3.49       2.682      2.292      1.908      1.541      0.928      2.994      0.1603506  0.1603506  0.3303216  2.613602   3.008179   2.292      0.2538526  0.5040476  23.832     0.5150638  0.4138155  0.616312  
1015.4     0.271      -9999      -9999      4.647      1.956      3.886      2.924      3.351      2.618      2.326      1.022      1.37       0.938      3.2        0.1524588  0.1524588  0.3268186  1.866659   2.693357   2.326      0.225693   0.4948269  24.001     0.528363   0.4329232  0.6238028 
1015.6     0.268      -9999      -9999      4.722      2.044      3.483      2.511      3.185      2.543      2.326      1.18       1.168      0.945      3.303      0.1451099  0.1451099  0.3243665  1.36441    2.281803   2.326      0.191649   0.4829283  24.001     0.5432019  0.4632519  0.6231519 
1015.8     0.257      -9999      -9999      4.647      1.842      3.142      2.769      3.045      2.631      2.223      0.579      1.028      0.972      3.406      0.1400838  0.1400838  0.3149084  1.101157   2.693357   2.223      0.1485405  0.4540454  24.086     0.5297716  0.4329232  0.6266201 
1016       0.245      -9999      -9999      4.584      1.666      2.574      3.027      2.969      2.707      1.91       0.668      0.889      0.996      3.871      0.1350511  0.1350511  0.3065012  0.8884476  3.095896   1.91       0.05609018 0.3926966  24.171     0.5195458  0.4089872  0.6301044 
1016.2     0.226      -9999      -9999      4.522      1.476      2.385      3.233      3.172      2.821      1.528      0.585      1.035      1.012      4.49       0.1332281  0.1332281  0.3008964  0.8219887  3.550744   1.528      0          0.3096206  24.171     0.5080858  0.3867234  0.6294482 
1016.4     0.222      -9999      -9999      4.371      1.577      2.751      3.491      3.376      2.909      2.014      1.972      1.839      1.03       4.954999   0.1351628  0.1351628  0.294591   0.8926896  4.958042   2.014      0.07994767 0.3939307  24.171     0.4831159  0.3374394  0.6287923 
1016.6     0.23       -9999      -9999      4.22       1.981      3.293      3.698      3.643      3.036      3.09       2.699      2.244      1.047      5.006      0.1364113  0.1364113  0.2886359  0.9415121  6.923107   3.09       0.253381   0.5061658  24.171     0.4612867  0.2944362  0.6281371 
1016.8     0.237      -9999      -9999      4.145      2.675      3.558      3.646      3.796      3.099      4.237      2.358      2.731      1.071      4.697      0.1319731  0.1319731  0.2802287  0.7791467  8.171771   4.237      0.3373651  0.5650414  24.086     0.4492595  0.2751598  0.6233593 
1017       0.245      -9999      -9999      4.069      3.23       3.584      3.285      3.516      3.023      4.237      3.68       2.946      1.07       4.284      0.1354413  0.1354413  0.280579   0.9033579  9.667005   4.237      0.3521682  0.5696422  24.086     0.4398111  0.2569133  0.6227089 
1017.2     0.248      -9999      -9999      4.145      2.789      3.495      2.924      3.325      2.96       3.16       1.826      2.199      1.037      3.768      0.1440978  0.1440978  0.2921389  1.30677    8.171771   3.16       0.2956332  0.5253217  24.086     0.4486094  0.2751598  0.622059  
