~Version
 VERS              .         2.0                           : CWLS LOG ASCII STANDARD - VERSION 2.0
 WRAP              .         NO                            : ONE LINE PER DEPTH STEP
 DLM               .         SPACE                         : DELIMITING CHARACTER(SPACE TAB OR COMMA)
~Well Information
#_______________________________________________________________________________
#
#PARAMETER_NAME    .UNIT     VALUE                         : DESCRIPTION
#_______________________________________________________________________________
STRT               .M        850                           : First reference value
STOP               .M        1262                          : Last reference value
STEP               .M        0.2                           : Step increment
NULL               .         -9999                         : Missing value
COMP               .                                       : Company
WELL               .         1467                          : Well name
FLD                .         Узень                         : Field
LOC                .                                       : Location
CNTY               .                                       : County
STAT               .         500                           : State
CTRY               .                                       : Country
SRVC               .                                       : Service Company
DATE               .         20.03.1970                    : Date
UWI                .                                       : Unique Well ID
Block              .         7                             : 
Cartographic_reference_system .         GCS_WGS_1984                  : ESRI,PE_10_3_1- <?xml version="1.0" encoding="utf-16"?><ILateBoundCoordinateReferenceSystem name="GCS_WGS_1984"><AuthorityCode>EPSG,4326</AuthorityCode></ILateBoundCoordinateReferenceSystem>
Category           .         Нефтяная                      : 
Condition          .         Ликвидированная               : 
DATA               .         20.03.1970                    : 
Date               .         20.03.1970                    : 
EREF               .m        85.5                          : 100.8
Gorizont           .         14                            : 14
HZCS               .GCS_WGS_1984 WGS_1984_EASE-Grid_2.0_Global : ESRI,PE_10_3_1- <?xml version="1.0" encoding="utf-16"?><ILateBoundCoordinateReferenceSystem name="WGS_1984_EASE-Grid_2.0_Global"><AuthorityCode>EPSG,6933</AuthorityCode></ILateBoundCoordinateReferenceSystem>
Interpretator      .         Бердибекулы М.                : 
Kupol              .         Основной                      : osnovnoi
LATI               .dega     0.6637468873                  : GCS_WGS_1984
LONG               .dega     0.4442061596                  : GCS_WGS_1984
METD               .         GR, NEUT                      : Method
Mud                .                                       : 
Mud_density        .                                       : 
Mud_resistivity    .                                       : 
NGDU               .         НГДУ-2                        : 
ORIGINALWELLNAME   .         1467                          : 
Spud_date          .         1970                          : 1961
Viscosity          .                                       : 
X                  .m        42859.8                       : 46154
Y                  .m        84674.53                      : 85761.93
YEAR               .         2019                          : 
~Parameter Information Block
#_______________________________________________________________________________
#
#PARAMETER_NAME    .UNIT     VALUE                         : DESCRIPTION
#_______________________________________________________________________________
SET                .         LQC_KAZNIPI_Petrel            : 
TLFamily_CALI      .         Caliper                       : 
TLFamily_COLL      .         Net Reservoir Flag            : 
TLFamily_CSAT      .         Fluid Code                    : 
TLFamily_DEPT      .         Measured Depth                : 
TLFamily_GR        .         Russian Gamma Ray             : 
TLFamily_GZ1       .         Gradient 045                  : 
TLFamily_GZ2       .         Gradient 105                  : 
TLFamily_GZ3       .         Gradient 225                  : 
TLFamily_GZ4       .         Gradient 425                  : 
TLFamily_GZ5       .         Gradient 850                  : 
TLFamily_LLS       .         Lateral Log Resistivity       : 
TLFamily_MINV      .         Micro Gradient Resistivity    : 
TLFamily_MNOR      .         Micro Resistivity             : 
TLFamily_NGLD      .         Neutron Far                   : 
TLFamily_OGZ       .         Gradient Inverted 225         : 
TLFamily_PHIE      .         Effective Porosity            : 
TLFamily_PHIEN     .         Effective Porosity            : 
TLFamily_PHIT      .         Porosity                      : 
TLFamily_PRMB      .         Permeability                  : 
TLFamily_PRMB_DGR  .         Permeability                  : 
TLFamily_RT        .         Formation Resistivity         : 
TLFamily_SOIL_ARCHIE .         Oil Saturation                : 
TLFamily_SOIL_DW   .         Oil Saturation                : 
TLFamily_SP        .         Spontaneous Potential         : 
TLFamily_VSH_FIN   .         Shale Volume                  : 
TLFamily_VSH_GR    .         Shale Volume                  : 
TLFamily_VSH_SP    .         Shale Volume                  : 
~Curve Information
#_______________________________________________________________________________
#
#LOGNAME           .UNIT     LOG_ID                        : DESCRIPTION
#_______________________________________________________________________________
DEPT               .M                                      : Колонка глубины 
CALI               .м                                      : Каверномер 
COLL               .unitless                               : Описание 
CSAT               .unitless                               : Описание 
GR                 .uR/h                                   : Гамма каротаж 
GZ1                .Ohmm                                   : А0.4М0.1N 
GZ2                .Ohmm                                   : A1.0M0.1N 
GZ3                .Ohmm                                   : Подошвенный зонд 
GZ4                .Ohmm                                   : A4M0.5N 
GZ5                .Ohmm                                   : A8M1N 
LLS                .Ohmm                                   : Боковой каротаж 
MINV               .Ohmm                                   : Микро-градиент зонд 
MNOR               .Ohmm                                   : Микро-потенциал зонд 
NGLD               .у.е.                                   : Показания зонда НГК-60 аппаратуры ДРСТ-3-90 
OGZ                .Ohmm                                   : Кровельный 
PHIE               .v/v                                    : Описание 
PHIEN              .v/v                                    :  
PHIT               .v/v                                    : Описание 
PRMB               .mD                                     :  
PRMB_DGR           .mD                                     :  
RT                 .ohmm                                   : УЭС пласта 
SOIL_ARCHIE        .v/v                                    :  
SOIL_DW            .v/v                                    :  
SP                 .мВ                                     : Потенциал самополяризации 
VSH_FIN            .v/v                                    : Описание 
VSH_GR             .v/v                                    : Shale volume 
VSH_SP             .v/v                                    : Shale Volume 
~Ascii
# ...
985        0.254      -9999      -9999      5.024      1.817      2.675      2.356      2.931      3.01       2.244      1.161      1.212      0.94       2.787      0.1264606  0.1264606  0.326118   0.615907   1.170297   2.244      0.07328437 0.4481684  23.832     0.6050224  0.6084522  0.6015927 
985.2000000000001 0.253      -9999      -9999      5.074      1.994      2.713      2.304      2.905      3.01       2.383      1.491      1.402      0.955      2.839      0.1165478  0.1165478  0.3208635  0.4035578  1.047819   2.383      0.0326704  0.4428839  23.832     0.6191385  0.6365471  0.6017299 
985.4      0.251      -9999      -9999      5.124      1.968      2.789      2.253      2.88       3.01       2.284      1.016      1.288      0.964      2.89       0.1085227  0.1085227  0.3177108  0.2865905  0.9381582  2.284      0          0.4127802  23.832     0.6339033  0.6659395  0.6018671 
985.6      0.253      -9999      -9999      5.2        1.905      2.801      2.201      2.867      3.023      2.187      1.123      1.288      0.973      2.839      0.0975435  0.0975435  0.3145581  0.1794322  0.7930501  2.187      0          0.3735113  23.832     0.65762    0.7132356  0.6020044 
985.8      0.259      -9999      -9999      5.25       1.994      2.814      2.149      2.88       2.998      2.097      1.092      1.453      0.947      2.839      0.1011946  0.1011946  0.3236659  0.2096658  0.7100521  2.097      0          0.3799292  23.832     0.6741554  0.7461691  0.6021417 
986        0.254      -9999      -9999      5.325      1.83       2.839      2.149      2.918      2.972      2.027      1.275      1.288      0.929      2.839      0.0988523  0.0988523  0.3299713  0.1897328  0.6015546  2.027      0          0.3724439  23.832     0.7003606  0.7984422  0.602279  
986.2000000000001 0.247      -9999      -9999      5.325      1.956      2.864      2.149      2.944      2.972      2.195      0.845      1.18       0.919      2.994      0.1023326  0.1023326  0.3334743  0.2200931  0.6015546  2.195      0          0.4080477  23.832     0.7004293  0.7984422  0.6024164 
986.4      0.254      -9999      -9999      5.25       1.994      2.915      2.201      2.956      2.947      2.305      1.212      1.364      0.914      3.148      0.1126865  0.1126865  0.3352258  0.3422834  0.7100521  2.305      0          0.4429223  23.832     0.6743615  0.7461691  0.6025537 
986.6      0.252      -9999      -9999      5.124      1.905      2.915      2.253      2.969      2.934      2.326      1.478      1.453      0.908      3.252      0.1280035  0.1280035  0.3373276  0.6578     0.9381582  2.326      0.09833523 0.4719005  23.832     0.6343154  0.6659395  0.6026912 
986.8      0.245      -9999      -9999      5.024      2.069      2.915      2.407      2.969      2.922      2.368      1.396      1.37       0.896      3.045      0.1416699  0.1416699  0.3415312  1.178223   1.170297   2.368      0.181483   0.4994698  23.832     0.6056404  0.6084522  0.6028286 
987        0.249      -9999      -9999      4.898      2.069      2.965      2.511      2.956      2.922      2.362      1.263      1.453      0.884      2.839      0.1566454  0.1566454  0.3457348  2.231576   1.54626    2.362      0.2491795  0.5208823  23.832     0.572998   0.54303    0.6029661 
987.2000000000001 0.258      -9999      -9999      4.898      1.981      2.965      2.614      2.931      2.897      2.229      1.516      1.244      0.865      2.684      0.1632785  0.1632785  0.3523905  2.961224   1.54626    2.229      0.2558499  0.5201742  23.832     0.5730668  0.54303    0.6031035 
987.4      0.256      -9999      -9999      4.949      2.196      2.915      2.614      2.893      2.897      2.097      0.82       1.37       0.883      2.632      0.1520745  0.1520745  0.3460851  1.836314   1.381376   2.097      0.1853146  0.4861732  23.916     0.5879108  0.5686173  0.6072043 
987.6      0.254      -9999      -9999      5.024      2.057      2.789      2.614      2.88       2.897      2          1.718      1.383      0.903      2.529      0.138473   0.138473   0.3390791  1.028048   1.170297   2          0.09617933 0.4482795  23.916     0.6078974  0.6084522  0.6073425 
987.8      0.251      -9999      -9999      5.049      1.918      2.877      2.562      2.905      2.897      1.987      0.87       1.092      0.896      2.477      0.1386106  0.1386106  0.3415312  1.034099   1.107367   1.987      0.09419321 0.4492039  23.916     0.614911   0.622341   0.6074809 
988        0.247      -9999      -9999      5.024      2.006      3.016      2.511      2.969      2.884      2.139      0.997      1.282      0.889      2.581      0.1433315  0.1433315  0.3439833  1.264751   1.170297   2.139      0.150145   0.4779764  23.916     0.6080357  0.6084522  0.6076193 
988.2000000000001 0.24       -9999      -9999      4.949      2.069      2.927      2.459      3.045      2.884      2.145      1.041      1.465      0.918      2.735      0.1397227  0.1397227  0.3338246  1.084331   1.381376   2.145      0.1322004  0.4637267  23.916     0.5881875  0.5686173  0.6077577 
988.4      0.233      -9999      -9999      4.873      2.082      2.953      2.459      3.134      2.909      2.187      1.092      1.256      0.935      2.787      0.1399663  0.1399663  0.3278695  1.095655   1.634132   2.187      0.1413648  0.463177   23.916     0.5694036  0.5309111  0.6078961 
988.6      0.231      -9999      -9999      4.748      2.221      3.129      2.459      3.185      2.947      2.41       0.978      1.396      0.943      2.942      0.1464894  0.1464894  0.3250671  1.447096   2.154333   2.41       0.2115197  0.494499   23.916     0.5411445  0.4742545  0.6080346 
988.8      0.236      -9999      -9999      4.798      2.095      3.344      2.511      3.198      2.972      2.667      1.63       1.604      0.959      2.839      0.1372485  0.1372485  0.3194623  0.97574    1.928869   2.667      0.2042309  0.5022606  23.916     0.5521629  0.4961528  0.608173  
989        0.239      -9999      -9999      4.823      2.259      3.293      2.614      3.172      2.998      2.625      1.87       1.775      0.979      2.787      0.1276845  0.1276845  0.3124563  0.6489114  1.825146   2.625      0.1462251  0.4775111  24.001     0.5599145  0.5074785  0.6123505 
989.2000000000001 0.244      -9999      -9999      4.848      2.082      3.066      2.717      3.122      3.023      2.459      1.579      1.617      1.003      2.735      0.117343   0.117343   0.3040491  0.4174787  1.727      2.459      0.05244512 0.4336121  24.001     0.5657762  0.5190626  0.6124898 
989.4      0.25       -9999      -9999      4.823      2.322      3.23       2.769      3.083      3.023      2.48       1.345      1.56       0.977      2.684      0.1283392  0.1283392  0.3131569  0.6672838  1.825146   2.48       0.12705    0.4642196  24.001     0.5600538  0.5074785  0.6126291 
989.6      0.257      -9999      -9999      4.773      2.322      3.306      2.769      3.045      3.023      2.514      1.737      1.655      0.947      2.529      0.1425209  0.1425209  0.3236659  1.221774   2.038487   2.514      0.2082845  0.4986039  24.001     0.5489242  0.48508    0.6127685 
989.8      0.266      -9999      -9999      4.722      2.221      3.142      2.717      3.033      2.998      2.354      1.965      1.617      0.919      2.477      0.1559079  0.1559079  0.3334743  2.162477   2.281803   2.354      0.2448859  0.5082741  24.001     0.5380799  0.4632519  0.6129078 
990        0.255      -9999      -9999      4.697      2.132      2.965      2.666      3.033      2.972      2.195      1.579      1.465      0.898      2.374      0.1649471  0.1649471  0.3408306  3.179643   2.411478   2.195      0.2570712  0.5082607  24.001     0.5329803  0.4529133  0.6130472 
990.2000000000001 0.244      -9999      -9999      4.647      1.918      2.751      2.666      3.033      2.934      2.027      1.218      1.307      0.881      2.271      0.1748448  0.1748448  0.3467857  4.84962    2.693357   2.027      0.2669517  0.5049077  23.916     0.5210331  0.4329232  0.609143  
