~Version
 VERS              .         2.0                           : CWLS LOG ASCII STANDARD - VERSION 2.0
 WRAP              .         NO                            : ONE LINE PER DEPTH STEP
 DLM               .         SPACE                         : DELIMITING CHARACTER(SPACE TAB OR COMMA)
~Well Information
#_______________________________________________________________________________
#
#PARAMETER_NAME    .UNIT     VALUE                         : DESCRIPTION
#_______________________________________________________________________________
STRT               .M        850                           : First reference value
STOP               .M        1262                          : Last reference value
STEP               .M        0.2                           : Step increment
NULL               .         -9999                         : Missing value
COMP               .                                       : Company
WELL               .         1467                          : Well name
FLD                .         Узень                         : Field
LOC                .                                       : Location
CNTY               .                                       : County
STAT               .         500                           : State
CTRY               .                                       : Country
SRVC               .                                       : Service Company
DATE               .         20.03.1970                    : Date
UWI                .                                       : Unique Well ID
Block              .         7                             : 
Cartographic_reference_system .         GCS_WGS_1984                  : ESRI,PE_10_3_1- <?xml version="1.0" encoding="utf-16"?><ILateBoundCoordinateReferenceSystem name="GCS_WGS_1984"><AuthorityCode>EPSG,4326</AuthorityCode></ILateBoundCoordinateReferenceSystem>
Category           .         Нефтяная                      : 
Condition          .         Ликвидированная               : 
DATA               .         20.03.1970                    : 
Date               .         20.03.1970                    : 
EREF               .m        85.5                          : 100.8
Gorizont           .         14                            : 14
HZCS               .GCS_WGS_1984 WGS_1984_EASE-Grid_2.0_Global : ESRI,PE_10_3_1- <?xml version="1.0" encoding="utf-16"?><ILateBoundCoordinateReferenceSystem name="WGS_1984_EASE-Grid_2.0_Global"><AuthorityCode>EPSG,6933</AuthorityCode></ILateBoundCoordinateReferenceSystem>
Interpretator      .         Бердибекулы М.                : 
Kupol              .         Основной                      : osnovnoi
LATI               .dega     0.6637468873                  : GCS_WGS_1984
LONG               .dega     0.4442061596                  : GCS_WGS_1984
METD               .         GR, NEUT                      : Method
Mud                .                                       : 
Mud_density        .                                       : 
Mud_resistivity    .                                       : 
NGDU               .         НГДУ-2                        : 
ORIGINALWELLNAME   .         1467                          : 
Spud_date          .         1970                          : 1961
Viscosity          .                                       : 
X                  .m        42859.8                       : 46154
Y                  .m        84674.53                      : 85761.93
YEAR               .         2019                          : 
~Parameter Information Block
#_______________________________________________________________________________
#
#PARAMETER_NAME    .UNIT     VALUE                         : DESCRIPTION
#_______________________________________________________________________________
SET                .         LQC_KAZNIPI_Petrel            : 
TLFamily_CALI      .         Caliper                       : 
TLFamily_COLL      .         Net Reservoir Flag            : 
TLFamily_CSAT      .         Fluid Code                    : 
TLFamily_DEPT      .         Measured Depth                : 
TLFamily_GR        .         Russian Gamma Ray             : 
TLFamily_GZ1       .         Gradient 045                  : 
TLFamily_GZ2       .         Gradient 105                  : 
TLFamily_GZ3       .         Gradient 225                  : 
TLFamily_GZ4       .         Gradient 425                  : 
TLFamily_GZ5       .         Gradient 850                  : 
TLFamily_LLS       .         Lateral Log Resistivity       : 
TLFamily_MINV      .         Micro Gradient Resistivity    : 
TLFamily_MNOR      .         Micro Resistivity             : 
TLFamily_NGLD      .         Neutron Far                   : 
TLFamily_OGZ       .         Gradient Inverted 225         : 
TLFamily_PHIE      .         Effective Porosity            : 
TLFamily_PHIEN     .         Effective Porosity            : 
TLFamily_PHIT      .         Porosity                      : 
TLFamily_PRMB      .         Permeability                  : 
TLFamily_PRMB_DGR  .         Permeability                  : 
TLFamily_RT        .         Formation Resistivity         : 
TLFamily_SOIL_ARCHIE .         Oil Saturation                : 
TLFamily_SOIL_DW   .         Oil Saturation                : 
TLFamily_SP        .         Spontaneous Potential         : 
TLFamily_VSH_FIN   .         Shale Volume                  : 
TLFamily_VSH_GR    .         Shale Volume                  : 
TLFamily_VSH_SP    .         Shale Volume                  : 
~Curve Information
#_______________________________________________________________________________
#
#LOGNAME           .UNIT     LOG_ID                        : DESCRIPTION
#_______________________________________________________________________________
DEPT               .M                                      : Колонка глубины 
CALI               .м                                      : Каверномер 
COLL               .unitless                               : Описание 
CSAT               .unitless                               : Описание 
GR                 .uR/h                                   : Гамма каротаж 
GZ1                .Ohmm                                   : А0.4М0.1N 
GZ2                .Ohmm                                   : A1.0M0.1N 
GZ3                .Ohmm                                   : Подошвенный зонд 
GZ4                .Ohmm                                   : A4M0.5N 
GZ5                .Ohmm                                   : A8M1N 
LLS                .Ohmm                                   : Боковой каротаж 
MINV               .Ohmm                                   : Микро-градиент зонд 
MNOR               .Ohmm                                   : Микро-потенциал зонд 
NGLD               .у.е.                                   : Показания зонда НГК-60 аппаратуры ДРСТ-3-90 
OGZ                .Ohmm                                   : Кровельный 
PHIE               .v/v                                    : Описание 
PHIEN              .v/v                                    :  
PHIT               .v/v                                    : Описание 
PRMB               .mD                                     :  
PRMB_DGR           .mD                                     :  
RT                 .ohmm                                   : УЭС пласта 
SOIL_ARCHIE        .v/v                                    :  
SOIL_DW            .v/v                                    :  
SP                 .мВ                                     : Потенциал самополяризации 
VSH_FIN            .v/v                                    : Описание 
VSH_GR             .v/v                                    : Shale volume 
VSH_SP             .v/v                                    : Shale Volume 
~Ascii
# ...
1055.2     0.241      -9999      -9999      6.883      1.868      2.637      1.943      2.804      2.606      1.91       0.566      0.965      0.95       2.632      0.07762655 0.07762655 0.322615   0.07673439 0.5312958  1.91       0          0.2906682  22.559     0.7423893  0.8        0.6847786 
1055.4     0.255      -9999      -9999      6.883      1.804      2.612      1.995      2.791      2.606      2.027      0.535      0.953      0.939      2.735      0.08056023 0.08056023 0.3264683  0.08696189 0.5312958  2.027      0          0.3248558  22.644     0.745176   0.8        0.6903518 
1055.6     0.252      -9999      -9999      6.657      1.703      2.461      1.995      2.778      2.593      2.181      0.617      1.244      0.937      2.632      0.09478348 0.09478348 0.3271689  0.1595064  0.7712541  2.181      0          0.3830195  22.559     0.7041982  0.7213983  0.6869982 
1055.8     0.249      -9999      -9999      6.456      1.703      2.36       1.995      2.791      2.581      2.32       0.718      1.478      0.943      2.477      0.1075664  0.1075664  0.3250671  0.2751363  1.074371   2.32       0          0.4242612  22.559     0.6590931  0.630076   0.6881102 
1056       0.244      -9999      -9999      6.255      1.792      2.435      1.995      2.804      2.581      2.187      0.655      1.079      0.934      2.426      0.1251547  0.1251547  0.3282198  0.5825425  1.496615   2.187      0.05350958 0.4412386  22.39      0.6153486  0.5503144  0.6803829 
1056.2     0.245      -9999      -9999      6.054      1.981      2.536      1.995      2.829      2.568      2.069      0.592      0.902      0.925      2.374      0.1425035  0.1425035  0.3313725  1.220865   2.08481    2.069      0.1324044  0.4553963  22.051     0.5723304  0.4806497  0.6640111 
1056.4     0.248      -9999      -9999      5.928      2.12       2.688      1.995      2.829      2.568      2.063      0.579      1.047      0.917      2.323      0.1551116  0.1551116  0.3341749  2.090265   2.566301   2.063      0.1930592  0.4744062  21.626     0.542616   0.4415503  0.6436816 
1056.6     0.251      -9999      -9999      6.054      2.196      2.826      1.995      2.766      2.568      1.945      0.592      0.972      0.904      2.323      0.1571434  0.1571434  0.3387288  2.279472   2.08481    1.945      0.1797941  0.4658696  21.118     0.5502589  0.4806497  0.6198681 
1056.8     0.256      -9999      -9999      6.154      2.17       2.726      1.943      2.587      2.555      1.798      0.585      1.009      0.911      2.323      0.1549254  0.1549254  0.3362767  2.073731   1.767854   1.798      0.1383805  0.4389441  20.354     0.5495493  0.5141307  0.584968  
1057       0.255      -9999      -9999      6.28       2.082      2.599      1.943      2.46       2.555      1.73       0.623      0.896      0.933      2.323      0.1382518  0.1382518  0.3285701  1.018397   1.436167   1.73       0.03118061 0.3944881  20.524     0.576722   0.5596572  0.5937868 
1057.2     0.249      -9999      -9999      6.355      1.943      2.486      1.943      2.435      2.581      1.771      0.56       1.047      0.96       2.477      0.1212181  0.1212181  0.319112   0.4925058  1.269083   1.771      0          0.3604752  20.863     0.5996785  0.588648   0.610709  
1057.4     0.243      -9999      -9999      6.255      1.804      2.385      1.995      2.498      2.631      2.027      0.674      0.934      0.959      2.684      0.1250342  0.1250342  0.3194623  0.5795559  1.496615   2.027      0.01833342 0.4092645  21.202     0.589176   0.5503144  0.6280376 
1057.6     0.236      -9999      -9999      6.129      1.729      2.334      2.046      2.727      2.669      2.639      0.794      1.807      0.945      2.942      0.1343895  0.1343895  0.3243665  0.86373    1.842261   2.639      0.1854822  0.5005573  21.542     0.5756878  0.505548   0.6458277 
1057.8     0.223      -9999      -9999      5.928      1.804      2.461      2.098      2.842      2.72       3.105      1.351      1.623      0.928      3.148      0.1486215  0.1486215  0.3303216  1.58485    2.566301   3.105      0.3086699  0.5614755  21.796     0.5506065  0.4415503  0.6596626 
1058       0.246      -9999      -9999      5.577      2.158      2.814      2.149      2.816      2.758      2.528      0.851      1.275      0.941      2.942      0.1570721  0.1570721  0.3257677  2.272559   4.578189   2.528      0.2744536  0.5199241  22.051     0.5111987  0.3486028  0.6737946 
1058.2     0.243      -9999      -9999      5.426      2.448      3.079      2.356      2.727      2.783      2.153      0.585      1.073      0.954      2.735      0.1557151  0.1557151  0.3212138  2.144766   5.872728   2.153      0.2117383  0.4735031  22.305     0.5015112  0.3148989  0.6881233 
1058.4     0.236      -9999      -9999      5.476      2.435      3.003      2.407      2.638      2.77       2.014      0.636      1.06       0.973      2.684      0.1456134  0.1456134  0.3145581  1.39403    5.407917   2.014      0.1377323  0.4343019  22.475     0.5119535  0.3256818  0.6982252 
1058.6     0.236      -9999      -9999      5.677      2.259      2.852      2.304      2.613      2.77       2.014      0.642      1.32       1.003      2.684      0.1248815  0.1248815  0.3040491  0.575793   3.882163   2.014      0.01431629 0.3881415  22.729     0.5429321  0.3728857  0.7129785 
1058.8     0.241      -9999      -9999      5.878      2.069      2.789      2.304      2.6        2.745      2.118      0.744      1.332      0.987      2.735      0.119853   0.119853   0.3096539  0.4646501  2.786876   2.118      0.002248742 0.4013895  22.899     0.5751543  0.4269311  0.7233776 
1059       0.233      -9999      -9999      5.928      1.994      2.902      2.356      2.638      2.72       2.257      0.636      1.44       0.971      2.787      0.1266372  0.1266372  0.3152587  0.6205625  2.566301   2.257      0.07691541 0.4380259  22.475     0.5715804  0.4415503  0.7016105 
1059.2     0.227      -9999      -9999      5.702      1.994      2.978      2.511      2.715      2.745      2.423      0.826      1.358      0.967      2.839      0.1425539  0.1425539  0.3166599  1.223493   3.725363   2.423      0.19463    0.4822723  21.966     0.527594   0.3792163  0.6759718 
1059.4     0.223      -9999      -9999      5.526      2.069      2.902      2.614      2.816      2.808      3.014      1.655      2.161      0.958      2.839      0.1553949  0.1553949  0.3198126  2.115669   4.979891   3.014      0.3256424  0.5534588  21.626     0.4982356  0.336834   0.6596372 
1059.6     0.22       -9999      -9999      5.426      2.233      2.852      2.511      2.893      2.884      3.667      2.864      2.307      0.974      2.735      0.1553432  0.1553432  0.3142078  2.11101    5.872728   3.667      0.3847523  0.5906697  21.372     0.481408   0.3148989  0.6479172 
1059.8     0.23       -9999      -9999      5.627      2.524      3.23       2.511      2.867      2.833      3.181      1.864      1.921      0.982      2.581      0.146231   0.146231   0.3114054  1.431237   4.215837   3.181      0.306749   0.5477706  21.202     0.5005284  0.3605398  0.6405171 
1060       0.241      -9999      -9999      5.778      2.877      3.609      2.82       2.816      2.783      2.695      1.009      1.541      0.996      2.374      0.1354796  0.1354796  0.3065012  0.9048358  3.286531   2.695      0.1991239  0.4893422  21.117     0.5182471  0.3991287  0.6373655 
1060.2     0.253      -9999      -9999      5.978      2.902      3.722      2.717      2.74       2.707      2.354      0.725      1.206      1.012      2.271      0.1208903  0.1208903  0.3008964  0.4856676  2.363183   2.354      0.05760557 0.4234995  21.033     0.5454732  0.4566702  0.6342761 
1060.4     0.255      -9999      -9999      6.205      2.688      3.584      2.562      2.664      2.644      2.16       0.636      1.136      1.04       2.219      0.1005162  0.1005162  0.291088   0.2036867  1.62525    2.16       0          0.3434205  20.778     0.5774902  0.5320941  0.6228863 
