~Version
 VERS              .         2.0                           : CWLS LOG ASCII STANDARD - VERSION 2.0
 WRAP              .         NO                            : ONE LINE PER DEPTH STEP
 DLM               .         SPACE                         : DELIMITING CHARACTER(SPACE TAB OR COMMA)
~Well Information
#_______________________________________________________________________________
#
#PARAMETER_NAME    .UNIT     VALUE                         : DESCRIPTION
#_______________________________________________________________________________
STRT               .M        850                           : First reference value
STOP               .M        1262                          : Last reference value
STEP               .M        0.2                           : Step increment
NULL               .         -9999                         : Missing value
COMP               .                                       : Company
WELL               .         1467                          : Well name
FLD                .         Узень                         : Field
LOC                .                                       : Location
CNTY               .                                       : County
STAT               .         500                           : State
CTRY               .                                       : Country
SRVC               .                                       : Service Company
DATE               .         20.03.1970                    : Date
UWI                .                                       : Unique Well ID
Block              .         7                             : 
Cartographic_reference_system .         GCS_WGS_1984                  : ESRI,PE_10_3_1- <?xml version="1.0" encoding="utf-16"?><ILateBoundCoordinateReferenceSystem name="GCS_WGS_1984"><AuthorityCode>EPSG,4326</AuthorityCode></ILateBoundCoordinateReferenceSystem>
Category           .         Нефтяная                      : 
Condition          .         Ликвидированная               : 
DATA               .         20.03.1970                    : 
Date               .         20.03.1970                    : 
EREF               .m        85.5                          : 100.8
Gorizont           .         14                            : 14
HZCS               .GCS_WGS_1984 WGS_1984_EASE-Grid_2.0_Global : ESRI,PE_10_3_1- <?xml version="1.0" encoding="utf-16"?><ILateBoundCoordinateReferenceSystem name="WGS_1984_EASE-Grid_2.0_Global"><AuthorityCode>EPSG,6933</AuthorityCode></ILateBoundCoordinateReferenceSystem>
Interpretator      .         Бердибекулы М.                : 
Kupol              .         Основной                      : osnovnoi
LATI               .dega     0.6637468873                  : GCS_WGS_1984
LONG               .dega     0.4442061596                  : GCS_WGS_1984
METD               .         GR, NEUT                      : Method
Mud                .                                       : 
Mud_density        .                                       : 
Mud_resistivity    .                                       : 
NGDU               .         НГДУ-2                        : 
ORIGINALWELLNAME   .         1467                          : 
Spud_date          .         1970                          : 1961
Viscosity          .                                       : 
X                  .m        42859.8                       : 46154
Y                  .m        84674.53                      : 85761.93
YEAR               .         2019                          : 
~Parameter Information Block
#_______________________________________________________________________________
#
#PARAMETER_NAME    .UNIT     VALUE                         : DESCRIPTION
#_______________________________________________________________________________
SET                .         LQC_KAZNIPI_Petrel            : 
TLFamily_CALI      .         Caliper                       : 
TLFamily_COLL      .         Net Reservoir Flag            : 
TLFamily_CSAT      .         Fluid Code                    : 
TLFamily_DEPT      .         Measured Depth                : 
TLFamily_GR        .         Russian Gamma Ray             : 
TLFamily_GZ1       .         Gradient 045                  : 
TLFamily_GZ2       .         Gradient 105                  : 
TLFamily_GZ3       .         Gradient 225                  : 
TLFamily_GZ4       .         Gradient 425                  : 
TLFamily_GZ5       .         Gradient 850                  : 
TLFamily_LLS       .         Lateral Log Resistivity       : 
TLFamily_MINV      .         Micro Gradient Resistivity    : 
TLFamily_MNOR      .         Micro Resistivity             : 
TLFamily_NGLD      .         Neutron Far                   : 
TLFamily_OGZ       .         Gradient Inverted 225         : 
TLFamily_PHIE      .         Effective Porosity            : 
TLFamily_PHIEN     .         Effective Porosity            : 
TLFamily_PHIT      .         Porosity                      : 
TLFamily_PRMB      .         Permeability                  : 
TLFamily_PRMB_DGR  .         Permeability                  : 
TLFamily_RT        .         Formation Resistivity         : 
TLFamily_SOIL_ARCHIE .         Oil Saturation                : 
TLFamily_SOIL_DW   .         Oil Saturation                : 
TLFamily_SP        .         Spontaneous Potential         : 
TLFamily_VSH_FIN   .         Shale Volume                  : 
TLFamily_VSH_GR    .         Shale Volume                  : 
TLFamily_VSH_SP    .         Shale Volume                  : 
~Curve Information
#_______________________________________________________________________________
#
#LOGNAME           .UNIT     LOG_ID                        : DESCRIPTION
#_______________________________________________________________________________
DEPT               .M                                      : Колонка глубины 
CALI               .м                                      : Каверномер 
COLL               .unitless                               : Описание 
CSAT               .unitless                               : Описание 
GR                 .uR/h                                   : Гамма каротаж 
GZ1                .Ohmm                                   : А0.4М0.1N 
GZ2                .Ohmm                                   : A1.0M0.1N 
GZ3                .Ohmm                                   : Подошвенный зонд 
GZ4                .Ohmm                                   : A4M0.5N 
GZ5                .Ohmm                                   : A8M1N 
LLS                .Ohmm                                   : Боковой каротаж 
MINV               .Ohmm                                   : Микро-градиент зонд 
MNOR               .Ohmm                                   : Микро-потенциал зонд 
NGLD               .у.е.                                   : Показания зонда НГК-60 аппаратуры ДРСТ-3-90 
OGZ                .Ohmm                                   : Кровельный 
PHIE               .v/v                                    : Описание 
PHIEN              .v/v                                    :  
PHIT               .v/v                                    : Описание 
PRMB               .mD                                     :  
PRMB_DGR           .mD                                     :  
RT                 .ohmm                                   : УЭС пласта 
SOIL_ARCHIE        .v/v                                    :  
SOIL_DW            .v/v                                    :  
SP                 .мВ                                     : Потенциал самополяризации 
VSH_FIN            .v/v                                    : Описание 
VSH_GR             .v/v                                    : Shale volume 
VSH_SP             .v/v                                    : Shale Volume 
~Ascii
# ...
914.8      0.215      1          3          2.185      -9999      -9999      1.685      -9999      -9999      1.924      -9999      -9999      0.955      1.961      0.27345    0.27345    0.3208635  325.1744   3502.357   1.924      0.4911383  0.5562186  12.297     0.1436771  0.02316507 0.2641892 
915        0.215      1          3          2.185      -9999      -9999      1.633      -9999      -9999      1.819      -9999      -9999      0.945      2.013      0.2767206  0.2767206  0.3243665  373.8472   3502.357   1.819      0.4829414  0.5487166  12.382     0.1443816  0.02316507 0.2655982 
915.2000000000001 0.215      1          3          2.211      -9999      -9999      1.582      -9999      -9999      1.813      -9999      -9999      0.958      2.013      0.2718384  0.2718384  0.3198126  303.5741   3299.639   1.813      0.474048   0.54082    12.467     0.1453764  0.02373597 0.2670167 
915.4      0.215      1          3          2.236      -9999      -9999      1.633      -9999      -9999      1.93       -9999      -9999      0.981      2.065      0.2637462  0.2637462  0.3117557  214.9696   3115.791   1.93       0.475637   0.542541   12.467     0.1454834  0.02429818 0.2666686 
915.6      0.215      1          3          2.286      -9999      -9999      1.685      -9999      -9999      1.875      -9999      -9999      1.001      2.065      0.2563128  0.2563128  0.3047497  156.5641   2778.256   1.875      0.4550736  0.5240283  12.552     0.1467786  0.02546286 0.2680943 
915.8      0.215      1          3          2.336      -9999      -9999      1.736      -9999      -9999      1.785      -9999      -9999      1.025      2.013      0.2474674  0.2474674  0.2963425  107.3629   2477.286   1.785      0.425028   0.4968154  12.637     0.1481064  0.02668336 0.2695295 
916        0.215      1          3          2.361      -9999      -9999      1.736      -9999      -9999      1.806      -9999      -9999      1.048      2.013      0.2390713  0.2390713  0.2882856  75.04803   2339.258   1.806      0.4107236  0.4842525  12.721     0.1491342  0.02731538 0.2709529 
916.2000000000001 0.215      1          3          2.386      -9999      -9999      1.84       -9999      -9999      2.035      -9999      -9999      1.079      2.271      0.2278653  0.2278653  0.2774263  46.53471   2208.921   2.035      0.4190376  0.4930626  12.806     0.1501847  0.02796237 0.2724071 
916.4      0.215      1          3          2.411      -9999      -9999      1.891      -9999      -9999      2.41       -9999      -9999      1.084      2.374      0.2257631  0.2257631  0.2756748  42.54392   2085.844   2.41       0.4590149  0.530628   12.891     0.1512477  0.02862468 0.2738708 
916.6      0.215      1          3          2.437      -9999      -9999      1.891      -9999      -9999      2.278      -9999      -9999      1.062      2.323      0.2328053  0.2328053  0.2833814  57.44827   1965.115   2.278      0.4591877  0.5309733  13.061     0.1532609  0.02933013 0.2771917 
916.8      0.215      1          3          2.462      -9999      -9999      1.788      -9999      -9999      2.084      -9999      -9999      1.055      2.323      0.2352029  0.2352029  0.2858335  63.63369   1855.625   2.084      0.44113    0.5141699  13.061     0.153426   0.03002484 0.2768272 
917        0.215      1          3          2.487      -9999      -9999      1.685      -9999      -9999      2.048      -9999      -9999      1.052      2.323      0.235585   0.235585   0.2868844  64.67901   1752.233   2.048      0.4373373  0.5112911  13.23      0.1554527  0.03073601 0.2801695 
917.2000000000001 0.215      1          3          2.512      -9999      -9999      1.685      -9999      -9999      2.056      -9999      -9999      1.032      2.271      0.2428401  0.2428401  0.2938904  88.13453   1654.603   2.056      0.4530083  0.5251176  13.145     0.1546979  0.03146402 0.2779317 
917.4      0.215      1          3          2.537      -9999      -9999      1.685      -9999      -9999      1.958      -9999      -9999      1.013      2.942      0.2500378  0.2500378  0.3005461  119.8023   1562.413   1.958      0.4543858  0.5255253  12.976     0.1530554  0.03220927 0.2739015 
917.6      0.215      1          3          2.562      -9999      -9999      1.736      -9999      -9999      2.056      -9999      -9999      1.036      3.665      0.2422142  0.2422142  0.2924892  85.8131    1475.359   2.056      0.4517775  0.5232862  12.891     0.1523483  0.03297217 0.2717244 
917.8      0.215      1          3          2.562      -9999      -9999      1.736      -9999      -9999      2.084      -9999      -9999      1.051      4.439      0.2378988  0.2378988  0.2872347  71.38721   1475.359   2.084      0.4466498  0.5178683  12.637     0.1495028  0.03297217 0.2660335 
918        0.215      1          3          2.587      -9999      -9999      1.736      -9999      -9999      2.069      -9999      -9999      1.063      5.161      0.2333352  0.2333352  0.2830311  58.76149   1393.156   2.069      0.435325   0.5079754  12.721     0.1505936  0.03375314 0.267434  
918.2000000000001 0.215      1          3          2.562      -9999      -9999      1.788      -9999      -9999      2.145      -9999      -9999      1.08       5.883999   0.2272729  0.2272729  0.277076   45.3736    1475.359   2.145      0.4319271  0.5053278  12.806     0.1509185  0.03297217 0.2688648 
918.4      0.215      1          3          2.537      -9999      -9999      1.84       -9999      -9999      2.195      -9999      -9999      1.062      6.605999   0.232868   0.232868   0.2833814  57.60218   1562.413   2.195      0.4498149  0.5222423  13.061     0.1530708  0.03220927 0.2739322 
918.6      0.215      1          3          2.487      -9999      -9999      1.891      -9999      -9999      2.097      -9999      -9999      1.038      7.329      0.2409738  0.2409738  0.2917886  81.39136   1752.233   2.097      0.4543995  0.5262882  13.23      0.1539841  0.03073601 0.2772322 
918.8      0.215      1          3          2.487      -9999      -9999      1.891      -9999      -9999      1.93       -9999      -9999      1.048      8.154999   0.2366029  0.2366029  0.2882856  67.54871   1752.233   1.93       0.4236165  0.498901   13.485     0.1566144  0.03073601 0.2824928 
919        0.215      1          3          2.437      -9999      -9999      1.891      -9999      -9999      1.875      -9999      -9999      1.071      8.877      0.2278939  0.2278939  0.2802287  46.59149   1965.115   1.875      0.3963447  0.4749616  13.739     0.1585902  0.02933013 0.2878503 
919.2000000000001 0.215      1          3          2.411      -9999      -9999      1.943      -9999      -9999      1.987      -9999      -9999      1.09       9.6        0.220447   0.220447   0.273573   33.91334   2085.844   1.987      0.3953113  0.4755377  13.994     0.160988   0.02862468 0.2933513 
919.4      0.215      1          3          2.386      -9999      -9999      1.84       -9999      -9999      2.056      -9999      -9999      1.099      10.323     0.2164796  0.2164796  0.2704203  28.63424   2208.921   2.056      0.3954333  0.4769574  14.248     0.1634566  0.02796237 0.2989509 
919.6      0.215      1          3          2.311      -9999      -9999      1.685      -9999      -9999      1.966      -9999      -9999      1.081      11.097     0.2218105  0.2218105  0.2767257  35.94396   2623.458   1.966      0.3955437  0.4775881  14.587     0.1664099  0.02606597 0.3067537 
919.8      0.215      1          3          2.361      -9999      -9999      1.685      -9999      -9999      1.896      -9999      -9999      1.067      11.819     0.2258828  0.2258828  0.2816299  42.76181   2339.258   1.896      0.3948376  0.4774331  14.757     0.1689305  0.02731538 0.3105456 
920        0.215      6          6          2.411      -9999      -9999      1.685      -9999      -9999      2.021      -9999      -9999      1.086      12.542     0.218381   0.218381   0.2749742  31.053     2085.844   2.021      0.3951666  0.4794457  14.926     0.1714947  0.02862468 0.3143647 
