~Version
 VERS              .         2.0                           : CWLS LOG ASCII STANDARD - VERSION 2.0
 WRAP              .         NO                            : ONE LINE PER DEPTH STEP
 DLM               .         SPACE                         : DELIMITING CHARACTER(SPACE TAB OR COMMA)
~Well Information
#_______________________________________________________________________________
#
#PARAMETER_NAME    .UNIT     VALUE                         : DESCRIPTION
#_______________________________________________________________________________
STRT               .M        850                           : First reference value
STOP               .M        1262                          : Last reference value
STEP               .M        0.2                           : Step increment
NULL               .         -9999                         : Missing value
COMP               .                                       : Company
WELL               .         1467                          : Well name
FLD                .         Узень                         : Field
LOC                .                                       : Location
CNTY               .                                       : County
STAT               .         500                           : State
CTRY               .                                       : Country
SRVC               .                                       : Service Company
DATE               .         20.03.1970                    : Date
UWI                .                                       : Unique Well ID
Block              .         7                             : 
Cartographic_reference_system .         GCS_WGS_1984                  : ESRI,PE_10_3_1- <?xml version="1.0" encoding="utf-16"?><ILateBoundCoordinateReferenceSystem name="GCS_WGS_1984"><AuthorityCode>EPSG,4326</AuthorityCode></ILateBoundCoordinateReferenceSystem>
Category           .         Нефтяная                      : 
Condition          .         Ликвидированная               : 
DATA               .         20.03.1970                    : 
Date               .         20.03.1970                    : 
EREF               .m        85.5                          : 100.8
Gorizont           .         14                            : 14
HZCS               .GCS_WGS_1984 WGS_1984_EASE-Grid_2.0_Global : ESRI,PE_10_3_1- <?xml version="1.0" encoding="utf-16"?><ILateBoundCoordinateReferenceSystem name="WGS_1984_EASE-Grid_2.0_Global"><AuthorityCode>EPSG,6933</AuthorityCode></ILateBoundCoordinateReferenceSystem>
Interpretator      .         Бердибекулы М.                : 
Kupol              .         Основной                      : osnovnoi
LATI               .dega     0.6637468873                  : GCS_WGS_1984
LONG               .dega     0.4442061596                  : GCS_WGS_1984
METD               .         GR, NEUT                      : Method
Mud                .                                       : 
Mud_density        .                                       : 
Mud_resistivity    .                                       : 
NGDU               .         НГДУ-2                        : 
ORIGINALWELLNAME   .         1467                          : 
Spud_date          .         1970                          : 1961
Viscosity          .                                       : 
X                  .m        42859.8                       : 46154
Y                  .m        84674.53                      : 85761.93
YEAR               .         2019                          : 
~Parameter Information Block
#_______________________________________________________________________________
#
#PARAMETER_NAME    .UNIT     VALUE                         : DESCRIPTION
#_______________________________________________________________________________
SET                .         LQC_KAZNIPI_Petrel            : 
TLFamily_CALI      .         Caliper                       : 
TLFamily_COLL      .         Net Reservoir Flag            : 
TLFamily_CSAT      .         Fluid Code                    : 
TLFamily_DEPT      .         Measured Depth                : 
TLFamily_GR        .         Russian Gamma Ray             : 
TLFamily_GZ1       .         Gradient 045                  : 
TLFamily_GZ2       .         Gradient 105                  : 
TLFamily_GZ3       .         Gradient 225                  : 
TLFamily_GZ4       .         Gradient 425                  : 
TLFamily_GZ5       .         Gradient 850                  : 
TLFamily_LLS       .         Lateral Log Resistivity       : 
TLFamily_MINV      .         Micro Gradient Resistivity    : 
TLFamily_MNOR      .         Micro Resistivity             : 
TLFamily_NGLD      .         Neutron Far                   : 
TLFamily_OGZ       .         Gradient Inverted 225         : 
TLFamily_PHIE      .         Effective Porosity            : 
TLFamily_PHIEN     .         Effective Porosity            : 
TLFamily_PHIT      .         Porosity                      : 
TLFamily_PRMB      .         Permeability                  : 
TLFamily_PRMB_DGR  .         Permeability                  : 
TLFamily_RT        .         Formation Resistivity         : 
TLFamily_SOIL_ARCHIE .         Oil Saturation                : 
TLFamily_SOIL_DW   .         Oil Saturation                : 
TLFamily_SP        .         Spontaneous Potential         : 
TLFamily_VSH_FIN   .         Shale Volume                  : 
TLFamily_VSH_GR    .         Shale Volume                  : 
TLFamily_VSH_SP    .         Shale Volume                  : 
~Curve Information
#_______________________________________________________________________________
#
#LOGNAME           .UNIT     LOG_ID                        : DESCRIPTION
#_______________________________________________________________________________
DEPT               .M                                      : Колонка глубины 
CALI               .м                                      : Каверномер 
COLL               .unitless                               : Описание 
CSAT               .unitless                               : Описание 
GR                 .uR/h                                   : Гамма каротаж 
GZ1                .Ohmm                                   : А0.4М0.1N 
GZ2                .Ohmm                                   : A1.0M0.1N 
GZ3                .Ohmm                                   : Подошвенный зонд 
GZ4                .Ohmm                                   : A4M0.5N 
GZ5                .Ohmm                                   : A8M1N 
LLS                .Ohmm                                   : Боковой каротаж 
MINV               .Ohmm                                   : Микро-градиент зонд 
MNOR               .Ohmm                                   : Микро-потенциал зонд 
NGLD               .у.е.                                   : Показания зонда НГК-60 аппаратуры ДРСТ-3-90 
OGZ                .Ohmm                                   : Кровельный 
PHIE               .v/v                                    : Описание 
PHIEN              .v/v                                    :  
PHIT               .v/v                                    : Описание 
PRMB               .mD                                     :  
PRMB_DGR           .mD                                     :  
RT                 .ohmm                                   : УЭС пласта 
SOIL_ARCHIE        .v/v                                    :  
SOIL_DW            .v/v                                    :  
SP                 .мВ                                     : Потенциал самополяризации 
VSH_FIN            .v/v                                    : Описание 
VSH_GR             .v/v                                    : Shale volume 
VSH_SP             .v/v                                    : Shale Volume 
~Ascii
# ...
1082.2     0.234      -9999      -9999      5.225      4.264999   7.355999   4.007      4.203      3.731      5.694      1.984      2.313      1.085      3.51       0.09405131 0.09405131 0.2753245  0.1546025  2.69909    5.694      0.2252259  0.5708429  21.796     0.5493127  0.4325475  0.6660779 
1082.4     0.24       -9999      -9999      5.376      3.975      6.625      3.801      3.923      3.554      3.987      2.908      3.06       1.061      3.2        0.09401599 0.09401599 0.2837317  0.1543698  2.03363    3.987      0.0838943  0.4970688  21.796     0.5748961  0.4855528  0.6642395 
1082.6     0.247      -9999      -9999      5.501      3.584      5.817      3.646      3.656      3.326      2.861      1.56       2.047      1.066      2.942      0.0838061  0.0838061  0.2819802  0.09987354 1.608778   2.861      0          0.3802365  21.881     0.6005276  0.534312   0.6667432 
1082.8     0.239      -9999      -9999      5.627      3.054      5.451      3.801      3.465      3.212      2.618      0.851      1.32       1.07       2.684      0.07378097 0.07378097 0.280579   0.06512693 1.270299   2.618      0          0.3224434  21.881     0.6266606  0.5884178  0.6649034 
1083       0.23       -9999      -9999      5.677      2.688      5.502      4.059      3.389      3.137      3.111      0.763      1.339      1.026      2.529      0.08499243 0.08499243 0.2959922  0.1050568  1.156633   3.111      0          0.4273232  21.966     0.6393932  0.6113772  0.6674091 
1083.2     0.234      -9999      -9999      5.702      2.675      5.047      4.214      3.427      3.124      3.132      0.611      1.244      0.994      2.426      0.09455666 0.09455666 0.3072018  0.1579708  1.103673   3.132      0          0.4626099  21.966     0.6443792  0.6231908  0.6655677 
1083.4     0.241      -9999      -9999      5.752      2.776      4.997      4.369      3.44       3.048      3.021      0.75       1.491      0.973      2.323      0.09820394 0.09820394 0.3145581  0.1845582  1.004917   3.021      0          0.4681679  21.966     0.6556187  0.6475067  0.6637306 
1083.6     0.248      -9999      -9999      5.828      2.953      4.77       4.472      3.389      3.01       2.889      0.68       1.516      0.95       2.271      0.1008743  0.1008743  0.322615   0.2068213  0.8714659  2.889      0          0.4700108  21.881     0.6719415  0.6862967  0.6575862 
1083.8     0.254      -9999      -9999      5.828      2.688      4.252      4.42       3.262      2.96       2.431      0.769      1.465      0.92       2.168      0.1123893  0.1123893  0.333124   0.3379726  0.8714659  2.431      0.01087115 0.4548166  21.796     0.6688929  0.6862967  0.6514891 
1084       0.262      -9999      -9999      5.727      2.461      3.697      4.317      3.147      2.922      2.145      0.712      1.142      0.933      2.219      0.1172593  0.1172593  0.3285701  0.4159914  1.053138   2.145      0          0.4229822  21.711     0.6403358  0.6352325  0.6454391 
1084.2     0.258      -9999      -9999      5.577      2.208      3.42       4.111001   3.096      2.884      1.993      0.617      0.953      0.954      2.219      0.122947   0.122947   0.3212138  0.5301938  1.395135   1.993      0          0.4027186  21.542     0.6008085  0.5663208  0.6352962 
1084.4     0.247      -9999      -9999      5.652      2.044      3.445      3.956      3.02       2.871      2.076      0.592      0.845      0.933      2.219      0.1264407  0.1264407  0.3285701  0.615385   1.212134   2.076      0.03868674 0.4289865  21.372     0.6125132  0.5997877  0.6252388 
1084.6     0.252      -9999      -9999      5.727      1.943      3.293      3.749      3.007      2.859      2.181      0.617      0.851      0.928      2.219      0.1233082  0.1233082  0.3303216  0.5384251  1.053138   2.181      0.03993994 0.4397921  21.287     0.6273133  0.6352325  0.6193941 
1084.8     0.256      -9999      -9999      5.853      1.905      3.016      3.595      3.007      2.846      2.097      0.636      0.972      0.923      2.219      0.1160626  0.1160626  0.3320731  0.3952924  0.8315629  2.097      0          0.4183322  21.118     0.6545774  0.6995578  0.6095969 
1085       0.263      -9999      -9999      5.953      1.868      2.7        3.388      3.045      2.821      2.014      0.623      0.959      0.91       2.271      0.1130356  0.1130356  0.336627   0.347418   0.6894051  2.014      0          0.4062936  20.948     0.6775495  0.7552146  0.5998845 
1085.2     0.259      -9999      -9999      6.003      1.88       2.549      3.182      3.071      2.808      2          0.592      0.883      0.896      2.323      0.1152969  0.1152969  0.3415312  0.3825922  0.6277178  2          0          0.4138578  20.694     0.6855585  0.784682   0.586435  
1085.4     0.257      -9999      -9999      6.054      1.905      2.7        3.027      3.122      2.795      2.021      0.585      0.82       0.891      2.323      0.1154342  0.1154342  0.3432827  0.3848391  0.5704791  2.021      0          0.4190984  20.609     0.6904501  0.8        0.5809001 
1085.6     0.263      -9999      -9999      5.978      1.88       2.738      2.872      3.185      2.783      2.048      0.585      0.826      0.913      2.426      0.1142472  0.1142472  0.3355761  0.3658413  0.6578384  2.048      0          0.4122098  20.439     0.6706938  0.7698075  0.5715801 
1085.8     0.257      -9999      -9999      5.903      1.893      2.625      2.769      3.274      2.77       2.084      0.585      0.858      0.937      2.477      0.1138207  0.1138207  0.3271689  0.3592471  0.7571555  2.084      0          0.4068167  20.354     0.6465098  0.7268535  0.566166  
1086       0.248      -9999      -9999      5.903      1.905      2.536      2.666      3.312      2.77       2.126      0.573      0.864      0.927      2.529      0.1157014  0.1157014  0.3306719  0.3892497  0.7571555  2.126      0          0.4200905  20.609     0.6514258  0.7268535  0.5759981 
1086.2     0.252      -9999      -9999      6.029      1.994      2.587      2.511      3.351      2.77       2.153      0.573      0.807      0.906      2.529      0.1093496  0.1093496  0.3380282  0.2968779  0.5978538  2.153      0          0.420788   20.863     0.6929654  0.8        0.5859309 
1086.4     0.259      -9999      -9999      6.104      2.196      2.763      2.356      3.363      2.783      2.153      0.573      0.845      0.892      2.529      0.1132344  0.1132344  0.3429324  0.3503756  0.5194326  2.153      0          0.4330657  21.033     0.6960545  0.8        0.592109  
1086.6     0.246      -9999      -9999      6.029      2.17       2.776      2.356      3.338      2.783      2.132      0.598      0.934      0.912      2.581      0.1052076  0.1052076  0.3359264  0.2488046  0.5978538  2.132      0          0.4078266  21.202     0.6991478  0.8        0.5982956 
1086.8     0.242      -9999      -9999      5.953      2.032      2.738      2.304      3.262      2.77       2.097      0.63       0.997      0.921      2.632      0.1077438  0.1077438  0.3327737  0.2772269  0.6894051  2.097      0          0.4040156  21.457     0.6819087  0.7552146  0.6086027 
1087       0.255      -9999      -9999      5.878      1.943      2.852      2.304      3.185      2.77       2.084      0.661      1.022      0.934      2.684      0.1077492  0.1077492  0.3282198  0.2772899  0.793488   2.084      0          0.3967258  21.796     0.6680928  0.713075   0.6231106 
1087.2     0.258      -9999      -9999      5.803      1.968      2.991      2.356      3.134      2.745      2.084      0.668      1.022      0.918      2.735      0.1188451  0.1188451  0.3338246  0.4451003  0.9132837  2.084      0          0.4233198  21.966     0.651453   0.6732869  0.6296192 
1087.4     0.252      -9999      -9999      5.752      1.981      2.726      2.304      3.083      2.732      2.076      0.63       1.028      0.902      2.839      0.1276284  0.1276284  0.3394294  0.6473606  1.004917   2.076      0.04648297 0.4426478  22.135     0.6418211  0.6475067  0.6361355 
