~Version
 VERS              .         2.0                           : CWLS LOG ASCII STANDARD - VERSION 2.0
 WRAP              .         NO                            : ONE LINE PER DEPTH STEP
 DLM               .         SPACE                         : DELIMITING CHARACTER(SPACE TAB OR COMMA)
~Well Information
#_______________________________________________________________________________
#
#PARAMETER_NAME    .UNIT     VALUE                         : DESCRIPTION
#_______________________________________________________________________________
STRT               .M        850                           : First reference value
STOP               .M        1262                          : Last reference value
STEP               .M        0.2                           : Step increment
NULL               .         -9999                         : Missing value
COMP               .                                       : Company
WELL               .         1467                          : Well name
FLD                .         Узень                         : Field
LOC                .                                       : Location
CNTY               .                                       : County
STAT               .         500                           : State
CTRY               .                                       : Country
SRVC               .                                       : Service Company
DATE               .         20.03.1970                    : Date
UWI                .                                       : Unique Well ID
Block              .         7                             : 
Cartographic_reference_system .         GCS_WGS_1984                  : ESRI,PE_10_3_1- <?xml version="1.0" encoding="utf-16"?><ILateBoundCoordinateReferenceSystem name="GCS_WGS_1984"><AuthorityCode>EPSG,4326</AuthorityCode></ILateBoundCoordinateReferenceSystem>
Category           .         Нефтяная                      : 
Condition          .         Ликвидированная               : 
DATA               .         20.03.1970                    : 
Date               .         20.03.1970                    : 
EREF               .m        85.5                          : 100.8
Gorizont           .         14                            : 14
HZCS               .GCS_WGS_1984 WGS_1984_EASE-Grid_2.0_Global : ESRI,PE_10_3_1- <?xml version="1.0" encoding="utf-16"?><ILateBoundCoordinateReferenceSystem name="WGS_1984_EASE-Grid_2.0_Global"><AuthorityCode>EPSG,6933</AuthorityCode></ILateBoundCoordinateReferenceSystem>
Interpretator      .         Бердибекулы М.                : 
Kupol              .         Основной                      : osnovnoi
LATI               .dega     0.6637468873                  : GCS_WGS_1984
LONG               .dega     0.4442061596                  : GCS_WGS_1984
METD               .         GR, NEUT                      : Method
Mud                .                                       : 
Mud_density        .                                       : 
Mud_resistivity    .                                       : 
NGDU               .         НГДУ-2                        : 
ORIGINALWELLNAME   .         1467                          : 
Spud_date          .         1970                          : 1961
Viscosity          .                                       : 
X                  .m        42859.8                       : 46154
Y                  .m        84674.53                      : 85761.93
YEAR               .         2019                          : 
~Parameter Information Block
#_______________________________________________________________________________
#
#PARAMETER_NAME    .UNIT     VALUE                         : DESCRIPTION
#_______________________________________________________________________________
SET                .         LQC_KAZNIPI_Petrel            : 
TLFamily_CALI      .         Caliper                       : 
TLFamily_COLL      .         Net Reservoir Flag            : 
TLFamily_CSAT      .         Fluid Code                    : 
TLFamily_DEPT      .         Measured Depth                : 
TLFamily_GR        .         Russian Gamma Ray             : 
TLFamily_GZ1       .         Gradient 045                  : 
TLFamily_GZ2       .         Gradient 105                  : 
TLFamily_GZ3       .         Gradient 225                  : 
TLFamily_GZ4       .         Gradient 425                  : 
TLFamily_GZ5       .         Gradient 850                  : 
TLFamily_LLS       .         Lateral Log Resistivity       : 
TLFamily_MINV      .         Micro Gradient Resistivity    : 
TLFamily_MNOR      .         Micro Resistivity             : 
TLFamily_NGLD      .         Neutron Far                   : 
TLFamily_OGZ       .         Gradient Inverted 225         : 
TLFamily_PHIE      .         Effective Porosity            : 
TLFamily_PHIEN     .         Effective Porosity            : 
TLFamily_PHIT      .         Porosity                      : 
TLFamily_PRMB      .         Permeability                  : 
TLFamily_PRMB_DGR  .         Permeability                  : 
TLFamily_RT        .         Formation Resistivity         : 
TLFamily_SOIL_ARCHIE .         Oil Saturation                : 
TLFamily_SOIL_DW   .         Oil Saturation                : 
TLFamily_SP        .         Spontaneous Potential         : 
TLFamily_VSH_FIN   .         Shale Volume                  : 
TLFamily_VSH_GR    .         Shale Volume                  : 
TLFamily_VSH_SP    .         Shale Volume                  : 
~Curve Information
#_______________________________________________________________________________
#
#LOGNAME           .UNIT     LOG_ID                        : DESCRIPTION
#_______________________________________________________________________________
DEPT               .M                                      : Колонка глубины 
CALI               .м                                      : Каверномер 
COLL               .unitless                               : Описание 
CSAT               .unitless                               : Описание 
GR                 .uR/h                                   : Гамма каротаж 
GZ1                .Ohmm                                   : А0.4М0.1N 
GZ2                .Ohmm                                   : A1.0M0.1N 
GZ3                .Ohmm                                   : Подошвенный зонд 
GZ4                .Ohmm                                   : A4M0.5N 
GZ5                .Ohmm                                   : A8M1N 
LLS                .Ohmm                                   : Боковой каротаж 
MINV               .Ohmm                                   : Микро-градиент зонд 
MNOR               .Ohmm                                   : Микро-потенциал зонд 
NGLD               .у.е.                                   : Показания зонда НГК-60 аппаратуры ДРСТ-3-90 
OGZ                .Ohmm                                   : Кровельный 
PHIE               .v/v                                    : Описание 
PHIEN              .v/v                                    :  
PHIT               .v/v                                    : Описание 
PRMB               .mD                                     :  
PRMB_DGR           .mD                                     :  
RT                 .ohmm                                   : УЭС пласта 
SOIL_ARCHIE        .v/v                                    :  
SOIL_DW            .v/v                                    :  
SP                 .мВ                                     : Потенциал самополяризации 
VSH_FIN            .v/v                                    : Описание 
VSH_GR             .v/v                                    : Shale volume 
VSH_SP             .v/v                                    : Shale Volume 
~Ascii
# ...
1195.6     0.213      -9999      -9999      6.606      2.511      2.637      2.046      2.638      2.303      2.014      2.282      2.25       1.072      2.477      0.09503124 0.09503124 0.2798784  0.1612008  1.988161   2.014      0          0.2970945  9.075      0.5601429  0.4900567  0.630229  
1195.8     0.213      -9999      -9999      6.631      2.498      2.587      1.943      2.613      2.277      1.93       1.864      2.136      1.06       2.735      0.09548598 0.09548598 0.284082   0.1643577  1.90342    1.93       0          0.2900755  9.414      0.5715032  0.498851   0.6441553 
1196       0.213      -9999      -9999      6.657      2.284      2.498      1.891      2.587      2.252      1.771      2.035      2.326      1.113      2.942      0.07722697 0.07722697 0.2655161  0.07543777 1.819118   1.771      0          0.1669472  9.244      0.5705731  0.5081645  0.6329817 
1196.2     0.213      -9999      -9999      6.406      2.12       2.423      1.788      2.613      2.239      1.646      1.718      2.301      1.103      3.148      0.1008921  0.1008921  0.2690191  0.206978   2.817008   1.646      0          0.2191649  8.481      0.5094758  0.4250605  0.5938911 
1196.4     0.213      -9999      -9999      6.481      2.132      2.536      1.685      2.664      2.227      1.854      2.168      2.022      1.076      3.2        0.1144456  0.1144456  0.2784772  0.3689499  2.471935   1.854      0          0.3125919  7.463      0.4970656  0.4483571  0.5457741 
1196.6     0.213      -9999      -9999      6.657      2.385      2.637      1.582      2.664      2.214      2.16       2.028      1.756      1.056      3.252      0.1183919  0.1183919  0.2854832  0.436579   1.819118   2.16       0.01468291 0.3808475  6.53       0.5063373  0.5081645  0.5045102 
1196.8     0.213      -9999      -9999      6.807      2.562      2.461      1.53       2.613      2.214      2.063      1.668      1.902      1.094      3.303      0.1024996  0.1024996  0.2721718  0.2216658  1.400743   2.063      0          0.3116428  5.513      0.5141583  0.5653939  0.4629227 
1197       0.213      -9999      -9999      6.807      2.549      2.372      1.427      2.549      2.189      1.848      2.117      2.326      1.123      3.561      0.09820041 0.09820041 0.2620131  0.1845304  1.400743   1.848      0          0.2431922  4.58       0.4964021  0.5653939  0.4274102 
1197.2     0.213      -9999      -9999      6.682      2.574      2.498      1.375      2.448      2.189      1.91       2.364      2.649      1.143      4.026      0.1050104  0.1050104  0.2550071  0.2467203  1.741581   1.91       0          0.260959   3.562      0.4545355  0.5172837  0.3917874 
1197.4     0.213      -9999      -9999      6.581      2.587      2.726      1.324      2.397      2.214      1.93       2.351      2.522      1.094      4.645      0.1330772  0.1330772  0.2721718  0.8167143  2.076676   1.93       0.06180543 0.354413   2.629      0.4214989  0.4814175  0.3615803 
1197.6     0.213      -9999      -9999      6.481      2.486      2.612      1.324      2.346      2.303      1.903      2.377      2.554      1.102      5.523      0.1406971  0.1406971  0.2693694  1.130343   2.471935   1.903      0.100289   0.3597139  1.611      0.389916   0.4483571  0.3314749 
1197.8     0.213      -9999      -9999      6.255      2.41       2.536      1.324      2.308      2.378      1.882      2.383      2.541      1.119      6.297      0.1509282  0.1509282  0.2634143  1.748697   3.664771   1.882      0.1492277  0.3652313  0.424      0.340867   0.381764   0.2999701 
1198       0.213      1          2          6.029      2.448      2.688      1.324      2.308      2.467      2.048      2.187      2.434      1.146      6.865      0.1560588  0.1560588  0.2539562  2.176436   5.433222   2.048      0.2057776  0.3863328  -0.933     0.2966587  0.3250616  0.2682558 
1198.2     0.213      1          2          5.803      2.587      2.864      1.324      2.46       2.555      2.362      2.06       2.294      1.127      6.503      0.1752418  0.1752418  0.2606119  4.932441   8.055032   2.362      0.3285413  0.4632486  -2.29      0.2586972  0.2767812  0.2406132 
1198.4     0.213      1          2          5.702      2.801      3.155      1.53       2.727      2.656      2.806      2.054      2.389      1.173      6.142      0.1657908  0.1657908  0.2444981  3.296146   9.604883   2.806      0.3500426  0.4768937  -3.477     0.2385069  0.2575905  0.2194234 
1198.6     0.213      1          2          5.803      3.104      3.42       1.84       2.893      2.808      3.236      1.788      2.199      1.186      5.729      0.160531   0.160531   0.2399442  2.633795   8.055032   3.236      0.374795   0.5008916  -4.41      0.240646   0.2767812  0.2045109 
1198.8     0.213      1          2          5.863      3.432      3.874      2.098      3.007      2.947      3.535      1.56       2.301      1.178      5.368      0.163177   0.163177   0.2427466  2.948443   7.255486   3.535      0.4086728  0.5288967  -5.173     0.2411199  0.288852   0.1933878 
1199       0.213      1          2          5.928      3.685      4.492      2.253      3.033      3.086      3.514      2.003      2.617      1.169      5.006      0.1652388  0.1652388  0.2458993  3.21945    6.478613   3.514      0.4134665  0.5334824  -5.682     0.2444257  0.3025234  0.186328  
1199.2     0.213      1          2          6.029      3.584      4.757      2.304      3.007      3.225      3.285      2.066      2.642      1.159      4.748001   0.1661086  0.1661086  0.2494023  3.341125   5.433222   3.285      0.3973841  0.5225315  -6.191     0.252405   0.3250616  0.1797484 
1199.4     0.213      1          2          6.129      3.546      5.009      2.407      2.969      3.352      3.077      2.117      2.668      1.135      4.594      0.1711261  0.1711261  0.2578095  4.138371   4.564455   3.077      0.3944988  0.5220801  -6.446     0.2626768  0.3490308  0.1763229 
1199.6     0.213      8          2          6.23       3.533      5.211      2.562      2.944      3.604      3.09       1.991      2.478      1.162      5.265      0.1553851  0.1553851  0.2483514  2.114789   3.827931   3.09       0.3427134  0.4928386  -5.343     0.2817162  0.3750339  0.1883985 
1199.8     0.213      8          2          6.179      3.47       4.934      2.872      3.007      4.363      2.882      2.05       2.544      1.177      6.297      0.1504561  0.1504561  0.2430969  1.713838   4.183646   2.882      0.3015267  0.4611404  -4.41      0.2807297  0.36167    0.1997894 
1200       0.213      8          2          6.079      3.331      4.808      3.543      3.414      5.412      2.625      2.111      2.611      1.165      7.432001   0.1573017  0.1573017  0.2473005  2.29492    4.979929   2.625      0.2979707  0.4511034  -3.732     0.2727236  0.3368331  0.2086142 
1200.2     0.213      8          2          5.953      3.117      4.694      4.317      4.254001   6.447999   2.473      2.035      2.623      1.191      7.639      0.1513934  0.1513934  0.2381927  1.783739   6.202476   2.473      0.2535641  0.4126811  -3.053     0.2630281  0.3079523  0.218104  
1200.4     0.213      8          2          5.828      2.953      6.006      5.04       5.386      7.497      3.349      2.104      2.326      1.211      6.761      0.1470364  0.1470364  0.2311867  1.481249   7.711702   3.349      0.3358894  0.4801492  -2.375     0.2550011  0.2817482  0.2282539 
1200.6     0.213      6          6          5.702      3.457      6.435      5.814      6.263      8.394      3.854      2.066      2.554      1.229      5.934999   0.1471163  0.1471163  0.2248813  1.486308   9.604883   3.854      0.3785426  0.5075147  -3.223     0.2356516  0.2575905  0.2137126 
1200.8     0.213      6          6          5.752      5.451      8.327999   6.536      6.607      8.799001   9.271      2.111      2.522      1.249      5.161      0.1502623  0.1502623  0.2178753  1.699735   16.43979   9.271      0.5958731  0.6792961  -3.901     0.2048878  0.2068346  0.202941  
