~Version
 VERS              .         2.0                           : CWLS LOG ASCII STANDARD - VERSION 2.0
 WRAP              .         NO                            : ONE LINE PER DEPTH STEP
 DLM               .         SPACE                         : DELIMITING CHARACTER(SPACE TAB OR COMMA)
~Well Information
#_______________________________________________________________________________
#
#PARAMETER_NAME    .UNIT     VALUE                         : DESCRIPTION
#_______________________________________________________________________________
STRT               .M        890                           : First reference value
STOP               .M        1237                          : Last reference value
STEP               .M        0.2                           : Step increment
NULL               .         -9999                         : Missing value
COMP               .                                       : Company
WELL               .         1477                          : Well name
FLD                .         УЗЕНЬ                         : Field
LOC                .                                       : Location
CNTY               .                                       : County
STAT               .                                       : State
CTRY               .                                       : Country
SRVC               .                                       : Service Company
DATE               .         16.01.70                      : Date
UWI                .                                       : Unique Well ID
API                .                                       : 
Block              .         7                             : 
Category           .         Нефтяная                      : 
Condition          .         В работе                      : 
Date               .         28.01.1970                    : 
EREF               .m        90.8                          : 100.8
Gorizont           .         14                            : 14
Interpretator      .         Ким С.В.                      : 
Kupol              .         основной                      : osnovnoi
Mud                .         0                             : 
Mud_density        .         0                             : 
Mud_resistivity    .         0                             : 
NGDU               .         НГДУ-2                        : 
ORIGINALWELLNAME   .         1477                          : 
Spud_date          .         1970                          : 1961
Viscosity          .         0                             : 
X                  .m        42082.6                       : 46154
Y                  .m        84466.93                      : 85761.93
YEAR               .         2019                          : 
~Parameter Information Block
#_______________________________________________________________________________
#
#PARAMETER_NAME    .UNIT     VALUE                         : DESCRIPTION
#_______________________________________________________________________________
SET                .         LQC_KAZNIPI_Petrel            : 
TLFamily_CALI      .         Caliper                       : 
TLFamily_COLL      .         Net Reservoir Flag            : 
TLFamily_CSAT      .         Fluid Code                    : 
TLFamily_DEPT      .         Measured Depth                : 
TLFamily_GR        .         Russian Gamma Ray             : 
TLFamily_GZ3       .         Gradient 225                  : 
TLFamily_LLS       .         Lateral Log Resistivity       : 
TLFamily_MINV      .         Micro Gradient Resistivity    : 
TLFamily_MNOR      .         Micro Resistivity             : 
TLFamily_NGLD      .         Neutron Gamma                 : 
TLFamily_OGZ       .         Gradient Inverted 225         : 
TLFamily_PHIE      .         Effective Porosity            : 
TLFamily_PHIEN     .         Effective Porosity            : 
TLFamily_PHIT      .         Porosity                      : 
TLFamily_PRMB      .         Permeability                  : 
TLFamily_PRMB_DGR  .         Permeability                  : 
TLFamily_RT        .         Formation Resistivity         : 
TLFamily_SOIL_ARCHIE .         Oil Saturation                : 
TLFamily_SOIL_DW   .         Oil Saturation                : 
TLFamily_SP        .         Spontaneous Potential         : 
TLFamily_VSH_FIN   .         Shale Volume                  : 
TLFamily_VSH_GR    .         Shale Volume                  : 
TLFamily_VSH_SP    .         Shale Volume                  : 
~Curve Information
#_______________________________________________________________________________
#
#LOGNAME           .UNIT     LOG_ID                        : DESCRIPTION
#_______________________________________________________________________________
DEPT               .M                                      : Колонка глубины 
CALI               .м                                      : Каверномер 
COLL               .unitless                               : Описание 
CSAT               .unitless                               : Описание 
GR                 .uR/h                                   : Гамма каротаж 
GZ3                .Ohmm                                   :  
LLS                .Ohmm                                   : Боковой каротаж 
MINV               .Ohmm                                   : Микро-градиент зонд 
MNOR               .Ohmm                                   : Микро-потенциал зонд 
NGLD               .у.е.                                   : Показания зонда НГК-60 аппаратуры ДРСТ-3-90 
OGZ                .Ohmm                                   :  
PHIE               .v/v                                    : Описание 
PHIEN              .v/v                                    :  
PHIT               .v/v                                    : Описание 
PRMB               .mD                                     :  
PRMB_DGR           .mD                                     :  
RT                 .ohmm                                   : УЭС пласта 
SOIL_ARCHIE        .v/v                                    :  
SOIL_DW            .v/v                                    :  
SP                 .мВ                                     : Потенциал самополяризации 
VSH_FIN            .v/v                                    : Описание 
VSH_GR             .v/v                                    : Shale volume 
VSH_SP             .v/v                                    : Shale Volume 
~Ascii
# ...
978.4      0.259      -9999      -9999      5.285      3.481      3.273      2.918      2.616      1.026      2.108      0.1520012  0.1520012  0.2817154  1.830578   84.56107   3.273      0.3386345  0.5328414  77.682     0.3930735  0.1059708  0.6801761 
978.6      0.267      -9999      -9999      5.268      3.278000000000001 2.718      2.503      2.413      1.012      1.956      0.153128   0.153128   0.2839148  1.920705   86.14449   2.718      0.2830059  0.4912534  77.851     0.3963236  0.1051711  0.687476  
978.8      0.276      -9999      -9999      5.243      3.125      2.214      1.834      1.816      0.984      1.981      0.1559252  0.1559252  0.2883136  2.16407    88.52715   2.214      0.2229184  0.4455057  78.105     0.4011769  0.1040059  0.698348  
979        0.281      -9999      -9999      5.454      3.151      2.146      0.885      1.139      0.957      2.134      0.156948   0.156948   0.2925553  2.260554   70.31881   2.146      0.2159365  0.4432022  78.317     0.4109313  0.1142597  0.707603  
979.2000000000001 0.279      -9999      -9999      5.564      3.405      2.21       0.564      0.855      0.943      2.286      0.1572479  0.1572479  0.2947547  2.289658   62.36432   2.21       0.2279596  0.4542305  78.444     0.4166873  0.1200002  0.7133744 
979.4      0.271      -9999      -9999      5.78       3.405      2.295      0.547      1.024      0.932      2.286      0.156317   0.156317   0.2964828  2.200532   49.26762   2.295      0.2375795  0.4651049  78.528     0.4247449  0.132125   0.7173649 
979.6      0.262      -9999      -9999      5.835      3.532      2.316      0.623      1.046      0.923      2.413      0.1568155  0.1568155  0.2978967  2.247819   46.39744   2.316      0.2429338  0.4697383  78.571     0.4275188  0.1354033  0.7196344 
979.8      0.257      -9999      -9999      5.7        3.405      2.269      0.661      1.067      0.911      2.388      0.1599308  0.1599308  0.2997819  2.567225   53.76234   2.269      0.2485993  0.4704067  78.571     0.4237913  0.1274977  0.7200849 
980        0.258      -9999      -9999      5.573      3.303      2.079      0.661      0.97       0.901      2.261      0.1640612  0.1640612  0.3013529  3.061747   61.75479   2.079      0.2343162  0.453964   78.359     0.4160355  0.1204824  0.7115886 
980.2000000000001 0.258      -9999      -9999      5.505      3.201000000000001 1.939      0.635      0.91       0.89       2.108      0.167771   0.167771   0.303081   3.586613   66.51195   1.939      0.2241116  0.4414787  78.147     0.4100302  0.1168863  0.7031743 
980.4      0.26       -9999      -9999      5.59       3.201000000000001 1.994      0.703      0.923      0.885      2.108      0.1708953  0.1708953  0.3038665  4.097828   60.61966   1.994      0.2464365  0.4540801  77.682     0.402943   0.1213986  0.6844874 
980.6      0.264      -9999      -9999      5.7        3.074      1.969      0.724      0.953      0.887      1.93       0.1728721  0.1728721  0.3035523  4.458294   53.76234   1.969      0.2495168  0.4527729  77.174     0.3960006  0.1274977  0.6645035 
980.8      0.27       -9999      -9999      5.886      2.922      1.842      0.767      0.931      0.894      1.93       0.1742529  0.1742529  0.3024526  4.728739   43.88561   1.842      0.2310118  0.4347645  76.496     0.3884838  0.1385158  0.6384519 
981        0.276      -9999      -9999      6.013      2.744      1.533      0.712      0.732      0.897      1.981      0.1745074  0.1745074  0.3019813  4.780339   38.20583   1.533      0.1628751  0.3801873  76.158     0.3862845  0.1465811  0.6259879 
981.2000000000001 0.275      -9999      -9999      6.03       2.566      1.376      0.69       0.576      0.903      2.057      0.1741038  0.1741038  0.3010387  4.698746   37.50354   1.376      0.1175588  0.3439448  76.031     0.3846514  0.1476957  0.621607  
981.4      0.27       -9999      -9999      6.081      2.566      1.241      0.673      0.555      0.905      2.057      0.172374   0.172374   0.3007245  4.364584   35.47322   1.241      0.06565471 0.3060049  76.158     0.3889409  0.1510908  0.6267909 
981.6      0.266      -9999      -9999      6.25       2.363      1.219      0.703      0.584      0.912      2.159      0.1681989  0.1681989  0.2996248  3.652659   29.49863   1.219      0.03744132 0.2913839  76.327     0.3982604  0.162909   0.6336117 
981.8      0.267      -9999      -9999      6.259      2.135      1.406      0.826      0.834      0.917      2.261      0.1656287  0.1656287  0.2988393  3.273437   29.21032   1.406      0.08764067 0.3351177  76.581     0.4036684  0.1635637  0.6437731 
982        0.271      -9999      -9999      5.916      1.982      1.977      1.486      1.3        0.927      2.388      0.1664552  0.1664552  0.2972683  3.390875   42.47208   1.977      0.2258551  0.4386018  76.793     0.3964034  0.14038    0.6524268 
982.2000000000001 0.27       -9999      -9999      5.548      1.804      2.489      2.143      1.82       0.95       2.489      0.1654545  0.1654545  0.293655   3.249208   63.46288   2.489      0.3014973  0.4947443  76.92      0.3884862  0.1191476  0.6578249 
982.4      0.266      -9999      -9999      5.387      1.804      3.014      2.638      1.892      0.969      2.489      0.1629339  0.1629339  0.2906701  2.918023   75.65308   3.014      0.3529012  0.5351972  77.047     0.3870795  0.1108987  0.6632603 
982.6      0.26       -9999      -9999      5.395      1.779      3.281      2.24       1.609      0.982      2.337      0.1599232  0.1599232  0.2886278  2.566399   74.99547   3.281      0.3679859  0.5493049  77.174     0.3900138  0.1112948  0.6687329 
982.8      0.26       -9999      -9999      5.607      2.008      3.238      1.605      1.253      0.974      2.134      0.1578936  0.1578936  0.2898846  2.353587   59.50539   3.238      0.3569473  0.5452439  77.385     0.3999728  0.1223217  0.6776238 
983        0.261      -9999      -9999      5.818      2.211      2.705      1.114      0.986      0.964      1.93       0.1562673  0.1562673  0.2914556  2.195872   47.26625   2.705      0.2939805  0.5020764  77.555     0.4096616  0.1343814  0.6849418 
983.2000000000001 0.267      -9999      -9999      5.988      2.287      2.125      0.953      0.775      0.951      1.905      0.1556374  0.1556374  0.2934979  2.137664   39.26255   2.125      0.206536   0.4397253  77.682     0.4177592  0.1449571  0.6905614 
983.4      0.27       -9999      -9999      6.038      2.287      1.791      1.038      0.741      0.944      1.905      0.1558419  0.1558419  0.2945976  2.156397   37.17754   1.791      0.141225   0.3914185  77.724     0.4204717  0.1482232  0.6927202 
983.6      0.274      -9999      -9999      6.131      2.287      1.723      0.983      0.825      0.943      1.981      0.1551766  0.1551766  0.2947547  2.096068   33.58944   1.723      0.1222191  0.3786941  77.682     0.4229639  0.1544951  0.6914327 
983.8      0.279      -9999      -9999      6.115      2.262      1.617      0.94       0.876      0.939      2.057      0.1567714  0.1567714  0.2953831  2.243594   34.1811    1.617      0.103689   0.3620307  77.555     0.4200355  0.1533975  0.6866736 
984        0.284      -9999      -9999      6.149      2.236      1.511      0.906      0.825      0.932      2.057      0.1591125  0.1591125  0.2964828  2.479176   32.93604   1.511      0.08658171 0.3453227  77.301     0.4162737  0.1557393  0.6768081 
984.2000000000001 0.284      -9999      -9999      6.174      2.135      1.41       0.936      0.796      0.92       2.007      0.1620421  0.1620421  0.298368   2.809123   32.04959   1.41       0.07131632 0.3296907  77.089     0.4131088  0.1574841  0.6687335 
984.4      0.281      -9999      -9999      6.259      2.135      1.405      1.173      0.893      0.914      2.007      0.1633006  0.1633006  0.2993106  2.964024   29.21032   1.405      0.07601397 0.3318143  76.877     0.4121515  0.1635637  0.6607392 
984.6      0.279      -9999      -9999      6.234      2.135      1.575      1.414      0.965      0.916      2.007      0.1640417  0.1640417  0.2989964  3.059203   30.01822   1.575      0.1276811  0.3696219  76.75      0.4089536  0.1617516  0.6561556 
