~Version
 VERS              .         2.0                           : CWLS LOG ASCII STANDARD - VERSION 2.0
 WRAP              .         NO                            : ONE LINE PER DEPTH STEP
 DLM               .         SPACE                         : DELIMITING CHARACTER(SPACE TAB OR COMMA)
~Well Information
#_______________________________________________________________________________
#
#PARAMETER_NAME    .UNIT     VALUE                         : DESCRIPTION
#_______________________________________________________________________________
STRT               .M        890                           : First reference value
STOP               .M        1237                          : Last reference value
STEP               .M        0.2                           : Step increment
NULL               .         -9999                         : Missing value
COMP               .                                       : Company
WELL               .         1477                          : Well name
FLD                .         УЗЕНЬ                         : Field
LOC                .                                       : Location
CNTY               .                                       : County
STAT               .                                       : State
CTRY               .                                       : Country
SRVC               .                                       : Service Company
DATE               .         16.01.70                      : Date
UWI                .                                       : Unique Well ID
API                .                                       : 
Block              .         7                             : 
Category           .         Нефтяная                      : 
Condition          .         В работе                      : 
Date               .         28.01.1970                    : 
EREF               .m        90.8                          : 100.8
Gorizont           .         14                            : 14
Interpretator      .         Ким С.В.                      : 
Kupol              .         основной                      : osnovnoi
Mud                .         0                             : 
Mud_density        .         0                             : 
Mud_resistivity    .         0                             : 
NGDU               .         НГДУ-2                        : 
ORIGINALWELLNAME   .         1477                          : 
Spud_date          .         1970                          : 1961
Viscosity          .         0                             : 
X                  .m        42082.6                       : 46154
Y                  .m        84466.93                      : 85761.93
YEAR               .         2019                          : 
~Parameter Information Block
#_______________________________________________________________________________
#
#PARAMETER_NAME    .UNIT     VALUE                         : DESCRIPTION
#_______________________________________________________________________________
SET                .         LQC_KAZNIPI_Petrel            : 
TLFamily_CALI      .         Caliper                       : 
TLFamily_COLL      .         Net Reservoir Flag            : 
TLFamily_CSAT      .         Fluid Code                    : 
TLFamily_DEPT      .         Measured Depth                : 
TLFamily_GR        .         Russian Gamma Ray             : 
TLFamily_GZ3       .         Gradient 225                  : 
TLFamily_LLS       .         Lateral Log Resistivity       : 
TLFamily_MINV      .         Micro Gradient Resistivity    : 
TLFamily_MNOR      .         Micro Resistivity             : 
TLFamily_NGLD      .         Neutron Gamma                 : 
TLFamily_OGZ       .         Gradient Inverted 225         : 
TLFamily_PHIE      .         Effective Porosity            : 
TLFamily_PHIEN     .         Effective Porosity            : 
TLFamily_PHIT      .         Porosity                      : 
TLFamily_PRMB      .         Permeability                  : 
TLFamily_PRMB_DGR  .         Permeability                  : 
TLFamily_RT        .         Formation Resistivity         : 
TLFamily_SOIL_ARCHIE .         Oil Saturation                : 
TLFamily_SOIL_DW   .         Oil Saturation                : 
TLFamily_SP        .         Spontaneous Potential         : 
TLFamily_VSH_FIN   .         Shale Volume                  : 
TLFamily_VSH_GR    .         Shale Volume                  : 
TLFamily_VSH_SP    .         Shale Volume                  : 
~Curve Information
#_______________________________________________________________________________
#
#LOGNAME           .UNIT     LOG_ID                        : DESCRIPTION
#_______________________________________________________________________________
DEPT               .M                                      : Колонка глубины 
CALI               .м                                      : Каверномер 
COLL               .unitless                               : Описание 
CSAT               .unitless                               : Описание 
GR                 .uR/h                                   : Гамма каротаж 
GZ3                .Ohmm                                   :  
LLS                .Ohmm                                   : Боковой каротаж 
MINV               .Ohmm                                   : Микро-градиент зонд 
MNOR               .Ohmm                                   : Микро-потенциал зонд 
NGLD               .у.е.                                   : Показания зонда НГК-60 аппаратуры ДРСТ-3-90 
OGZ                .Ohmm                                   :  
PHIE               .v/v                                    : Описание 
PHIEN              .v/v                                    :  
PHIT               .v/v                                    : Описание 
PRMB               .mD                                     :  
PRMB_DGR           .mD                                     :  
RT                 .ohmm                                   : УЭС пласта 
SOIL_ARCHIE        .v/v                                    :  
SOIL_DW            .v/v                                    :  
SP                 .мВ                                     : Потенциал самополяризации 
VSH_FIN            .v/v                                    : Описание 
VSH_GR             .v/v                                    : Shale volume 
VSH_SP             .v/v                                    : Shale Volume 
~Ascii
# ...
1144       0.238      1          2          7.656      3.053      4.953      1.177      1.905      1.165      7.620000000000001 0.2199389  0.2199389  0.2598785  33.18644   14.79699   4.953      0.605305   0.6574904  34.756     0.121029   0.2159203  0.121029  
1144.2     0.238      1          2          7.512      5.211999999999999 3.662      1.042      1.714      1.163      7.366      0.2201809  0.2201809  0.2601927  33.53065   19.05379   3.662      0.5456508  0.6021283  34.883     0.121248   0.19474    0.1212483 
1144.4     0.237      1          2          7.622      5.211999999999999 3.471      1.071      1.736      1.177      7.366      0.2168377  0.2168377  0.2579933  29.07487   15.70725   3.471      0.527835   0.5866511  36.788     0.124714   0.2107204  0.1247144 
1144.6     0.237      1          2          7.732      6.989999999999999 3.958      1.241      1.744      1.204      8.127999999999998 0.2110813  0.2110813  0.2537516  22.7455    12.94849   3.958      0.5455219  0.6047184  38.693     0.129304   0.2280121  0.1293044 
1144.8     0.237      1          2          7.825      6.989999999999999 5.207      1.668      1.787      1.231      8.127999999999998 0.2043976  0.2043976  0.2495099  17.10398   10.9977    5.207      0.5890501  0.6472351  40.958     0.136704   0.2437339  0.1367042 
1145       0.236      6          6          7.859      8.641      6.604      2.231      2.151      1.255      9.144      0.1995164  0.1995164  0.2457395  13.88948   10.36035   6.604      0.6246     0.680752   41.783     0.14007    0.2497485  0.1400699 
1145.2     0.236      6          6          7.804      8.006      8.001      2.794      2.515      1.268      7.873999999999999 0.1993881  0.1993881  0.2436972  13.81368   11.41078   8.001      0.6567342  0.7084776  40.259     0.13427    0.2400917  0.1342702 
1145.4     0.236      6          6          7.487      8.006      9.271      2.515      2.866      1.281      7.873999999999999 0.1998139  0.1998139  0.2416549  14.06681   19.90881   9.271      0.6802584  0.7281062  37.656     0.126791   0.1912805  0.1267905 
1145.6     0.235      6          6          7.131      6.228      9.906      1.931      2.887      1.282      6.984999999999999 0.2007052  0.2007052  0.2414978  14.61184   37.19761   9.906      0.691245   0.7373616  36.153     0.123614   0.1481906  0.123614  
1145.8     0.235      6          6          7.004      6.228      9.673      1.3        2.671      1.283      6.984999999999999 0.2012721  0.2012721  0.2413407  14.96944   46.48999   9.673      0.6885431  0.7344348  34.883     0.12142    0.1352931  0.12142   
1146       0.235      6          6          6.877      4.577      7.239      1.292      2.248      1.284      5.842      0.2017271  0.2017271  0.2411836  15.26279   58.10376   7.239      0.643864   0.6931968  33.613     0.119565   0.1235181  0.1195647 
1146.2     0.234      6          6          7.012      5.085000000000001 4.805      1.283      1.824      1.288      3.81       0.2011591  0.2011591  0.2405552  14.8975    45.84152   4.805      0.5672826  0.6224067  33.465     0.119382   0.1360714  0.1193821 
1146.4     0.234      -9999      -9999      7.148      5.085000000000001 2.942      1.126      1.477      1.239      3.81       0.2083389  0.2083389  0.2482531  20.23489   36.10371   2.942      0.4716569  0.5331123  34.544     0.120952   0.1500078  0.1209524 
1146.6     0.234      -9999      -9999      7.427      6.482      2.646      0.932      1.317      1.19       2.794      0.2138232  0.2138232  0.255951   25.56714   22.12069   2.646      0.4571263  0.5215738  37.931     0.12766    0.1832264  0.1276596 
1146.8     0.235      -9999      -9999      7.605      6.482      2.37       0.94       1.266      1.126      2.794      0.215517   0.215517   0.2660054  27.48252   16.18318   2.37       0.4322404  0.5072498  44.238     0.152995   0.2081676  0.1529947 
1147       0.235      -9999      -9999      7.783      6.228      2.498      1.203      1.461      1.114      2.032      0.2015151  0.2015151  0.2678906  15.12537   11.83938   2.498      0.4127083  0.508353   50.123     0.201138   0.2365038  0.2011385 
1147.2     0.235      -9999      -9999      7.774      6.736      2.625      1.465      1.655      1.105      2.159      0.1956749  0.1956749  0.2693045  11.79049   12.02795   2.625      0.4113305  0.5159893  51.985     0.22312    0.2349827  0.2231197 
1147.4     0.236      1          2          7.766      6.736      3.175      1.571      1.808      1.116      2.159      0.2045593  0.2045593  0.2675764  17.22233   12.1981    3.175      0.4820258  0.5663314  49.107     0.190961   0.2336387  0.1909606 
1147.6     0.236      1          2          7.715      7.752      3.62       1.617      1.875      1.127      2.286      0.2123616  0.2123616  0.2658483  24.02203   13.34082   3.62       0.5285694  0.5986775  45.614     0.162081   0.2252499  0.1620811 
1147.8     0.237      1          2          7.656      7.752      4.339      1.579      1.973      1.129      2.286      0.2121592  0.2121592  0.2655341  23.81563   14.79699   4.339      0.5666327  0.6330351  45.551     0.161742   0.2159203  0.1617417 
1148       0.237      1          2          7.647      7.243999999999999 4.487      1.605      1.736      1.131      2.413      0.2071538  0.2071538  0.2652199  19.23748   15.03269   4.487      0.5644363  0.6352504  47.413     0.175958   0.2145314  0.1759582 
1148.2     0.238      1          2          7.643      4.831      4.635      1.63       1.499      1.125      1.651      0.1953584  0.1953584  0.2661625  11.63238   15.13863   4.635      0.5485463  0.6329967  51.223     0.214558   0.2139171  0.2145578 
1148.4     0.239      1          2          7.639      4.831      3.788      1.609      1.181      1.127      1.651      0.1772803  0.1772803  0.2658483  5.38045    15.24533   3.788      0.4599067  0.5771903  55.033     0.268388   0.2133044  0.2683877 
1148.6     0.241      1          2          7.664      3.815      3.069      1.478      1.131      1.13       1.27       0.1530945  0.1530945  0.265377   1.91796    14.59059   3.069      0.3225988  0.5011817  58.843     0.34025    0.2171623  0.3402498 
1148.8     0.244      -9999      -9999      7.69       3.815      2.18       1.292      1.131      1.131      1.27       0.1431506  0.1431506  0.2652199  1.25503    13.93948   2.18       0.1567562  0.3920685  60.156     0.369907   0.2212484  0.3699071 
1149       0.246      -9999      -9999      7.85       2.926      1.99       1.355      1.075      1.133      0.762      0.1211461  0.1211461  0.2649057  0.4909968  10.52538   1.99       0          0.3211281  62.738     0.435635   0.2481421  0.4356354 
1149.2     0.25       -9999      -9999      8.282      1.656      1.799      1.419      1.02       1.109      0.483      0.0867834  0.0867834  0.2686761  0.1133959  4.929626   1.799      0          0.2023875  66.506     0.55119    0.3382323  0.5511903 
1149.4     0.255      -9999      -9999      8.714      1.656      1.778      1.52       0.956      1.089      0.483      0.04325813 0.04325813 0.2718181  0.01771755 2.308819   1.778      0          0.01929837 70.273     0.692606   0.4610308  0.6926056 
1149.6     0.26       -9999      -9999      8.909      1.91       1.778      1.503      0.999      1.085      0.457      0.0102483  0.0102483  0.2724465  0.004334923 1.639423   1.778      0          0          72.602     0.79454    0.5302109  0.79454   
1149.8     0.261      -9999      -9999      8.723      1.91       1.757      1.495      1.003      1.119      0.457      0.01006975 0.01006975 0.2671051  0.004302038 2.27262    1.757      0          0          72.242     0.778895   0.4640153  0.7788945 
1150       0.259      -9999      -9999      8.57       2.672      1.77       1.546      0.982      1.125      7.873999999999999 0.01914199 0.01914199 0.2661625  0.006334525 2.97302    1.77       0          0          71.543     0.748547   0.4158069  0.7485466 
1150.2     0.257      -9999      -9999      8.68       6.736      1.782      1.597      0.961      1.125      5.258      0.02615746 0.02615746 0.2661625  0.008543928 2.450848   1.782      0          0          71.035     0.727288   0.4499283  0.7272882 
