~Version
 VERS              .         2.0                           : CWLS LOG ASCII STANDARD - VERSION 2.0
 WRAP              .         NO                            : ONE LINE PER DEPTH STEP
 DLM               .         SPACE                         : DELIMITING CHARACTER(SPACE TAB OR COMMA)
~Well Information
#_______________________________________________________________________________
#
#PARAMETER_NAME    .UNIT     VALUE                         : DESCRIPTION
#_______________________________________________________________________________
STRT               .M        890                           : First reference value
STOP               .M        1237                          : Last reference value
STEP               .M        0.2                           : Step increment
NULL               .         -9999                         : Missing value
COMP               .                                       : Company
WELL               .         1477                          : Well name
FLD                .         УЗЕНЬ                         : Field
LOC                .                                       : Location
CNTY               .                                       : County
STAT               .                                       : State
CTRY               .                                       : Country
SRVC               .                                       : Service Company
DATE               .         16.01.70                      : Date
UWI                .                                       : Unique Well ID
API                .                                       : 
Block              .         7                             : 
Category           .         Нефтяная                      : 
Condition          .         В работе                      : 
Date               .         28.01.1970                    : 
EREF               .m        90.8                          : 100.8
Gorizont           .         14                            : 14
Interpretator      .         Ким С.В.                      : 
Kupol              .         основной                      : osnovnoi
Mud                .         0                             : 
Mud_density        .         0                             : 
Mud_resistivity    .         0                             : 
NGDU               .         НГДУ-2                        : 
ORIGINALWELLNAME   .         1477                          : 
Spud_date          .         1970                          : 1961
Viscosity          .         0                             : 
X                  .m        42082.6                       : 46154
Y                  .m        84466.93                      : 85761.93
YEAR               .         2019                          : 
~Parameter Information Block
#_______________________________________________________________________________
#
#PARAMETER_NAME    .UNIT     VALUE                         : DESCRIPTION
#_______________________________________________________________________________
SET                .         LQC_KAZNIPI_Petrel            : 
TLFamily_CALI      .         Caliper                       : 
TLFamily_COLL      .         Net Reservoir Flag            : 
TLFamily_CSAT      .         Fluid Code                    : 
TLFamily_DEPT      .         Measured Depth                : 
TLFamily_GR        .         Russian Gamma Ray             : 
TLFamily_GZ3       .         Gradient 225                  : 
TLFamily_LLS       .         Lateral Log Resistivity       : 
TLFamily_MINV      .         Micro Gradient Resistivity    : 
TLFamily_MNOR      .         Micro Resistivity             : 
TLFamily_NGLD      .         Neutron Gamma                 : 
TLFamily_OGZ       .         Gradient Inverted 225         : 
TLFamily_PHIE      .         Effective Porosity            : 
TLFamily_PHIEN     .         Effective Porosity            : 
TLFamily_PHIT      .         Porosity                      : 
TLFamily_PRMB      .         Permeability                  : 
TLFamily_PRMB_DGR  .         Permeability                  : 
TLFamily_RT        .         Formation Resistivity         : 
TLFamily_SOIL_ARCHIE .         Oil Saturation                : 
TLFamily_SOIL_DW   .         Oil Saturation                : 
TLFamily_SP        .         Spontaneous Potential         : 
TLFamily_VSH_FIN   .         Shale Volume                  : 
TLFamily_VSH_GR    .         Shale Volume                  : 
TLFamily_VSH_SP    .         Shale Volume                  : 
~Curve Information
#_______________________________________________________________________________
#
#LOGNAME           .UNIT     LOG_ID                        : DESCRIPTION
#_______________________________________________________________________________
DEPT               .M                                      : Колонка глубины 
CALI               .м                                      : Каверномер 
COLL               .unitless                               : Описание 
CSAT               .unitless                               : Описание 
GR                 .uR/h                                   : Гамма каротаж 
GZ3                .Ohmm                                   :  
LLS                .Ohmm                                   : Боковой каротаж 
MINV               .Ohmm                                   : Микро-градиент зонд 
MNOR               .Ohmm                                   : Микро-потенциал зонд 
NGLD               .у.е.                                   : Показания зонда НГК-60 аппаратуры ДРСТ-3-90 
OGZ                .Ohmm                                   :  
PHIE               .v/v                                    : Описание 
PHIEN              .v/v                                    :  
PHIT               .v/v                                    : Описание 
PRMB               .mD                                     :  
PRMB_DGR           .mD                                     :  
RT                 .ohmm                                   : УЭС пласта 
SOIL_ARCHIE        .v/v                                    :  
SOIL_DW            .v/v                                    :  
SP                 .мВ                                     : Потенциал самополяризации 
VSH_FIN            .v/v                                    : Описание 
VSH_GR             .v/v                                    : Shale volume 
VSH_SP             .v/v                                    : Shale Volume 
~Ascii
# ...
1048.8     0.274      -9999      -9999      8.198      1.779      2.045      2.104      1.409      0.963      2.083      0.1161439  0.1161439  0.2916127  0.396666   2.428275   2.045      0          0.3597614  73.152     0.5317236  0.4516314  0.6118159 
1049       0.272      -9999      -9999      8.299      1.855      2.041      2.113      1.316      0.967      2.083      0.1118835  0.1118835  0.2909843  0.3307596  2.163546   2.041      0          0.3495301  73.152     0.5427296  0.4734288  0.6120303 
1049.2     0.266      -9999      -9999      8.155      1.931      2.036      2.122      1.223      0.97       2.21       0.1164539  0.1164539  0.290513   0.4019448  2.550595   2.036      0          0.3574247  73.152     0.5274519  0.4426586  0.6122452 
1049.4     0.263      -9999      -9999      8.011      1.931      2.028      2.168      1.181      0.974      2.21       0.1205371  0.1205371  0.2898846  0.4784076  3.006885   2.028      0          0.3633402  73.152     0.5131742  0.4138882  0.6124601 
1049.6     0.262      -9999      -9999      7.69       1.881      2.061      2.139      1.131      0.972      2.235      0.1303169  0.1303169  0.2901988  0.7260114  4.339577   2.061      0.06044702 0.3868856  73.152     0.4844905  0.356306   0.6126751 
1049.8     0.265      -9999      -9999      7.613      1.881      2.108      1.906      1.355      0.97       2.235      0.1324134  0.1324134  0.290513   0.7939193  4.738783   2.108      0.08316934 0.3977861  73.194     0.4790895  0.3437295  0.6144496 
1050       0.269      -9999      -9999      7.596      2.135      2.18       1.867      1.482      0.973      2.21       0.1315731  0.1315731  0.2900417  0.7659692  4.831755   2.18       0.09248744 0.4057943  73.321     0.4802079  0.3410133  0.6194023 
1050.2     0.267      -9999      -9999      7.605      2.008      2.252      1.829      1.608      0.981      2.159      0.1292568  0.1292568  0.2887849  0.6939162  4.78231    2.252      0.0922864  0.4098649  73.448     0.4834186  0.3424486  0.6243886 
1050.4     0.264      -9999      -9999      7.613      2.008      2.193      2.024      1.46       0.988      2.159      0.1271174  0.1271174  0.2876852  0.6334037  4.738783   2.193      0.06744969 0.3967987  73.575     0.4865691  0.3437295  0.6294088 
1050.6     0.262      -9999      -9999      7.63       1.957      2.074      2.053      1.46       0.984      2.159      0.1269882  0.1269882  0.2883136  0.6299241  4.6476     2.074      0.04186432 0.3803484  73.618     0.4888647  0.3464674  0.631262  
1050.8     0.264      -9999      -9999      7.444      1.957      1.926      1.952      1.333      0.981      2.159      0.1319123  0.1319123  0.2887849  0.7771301  5.748458   1.926      0.04032257 0.3667226  73.66      0.4753715  0.3176611  0.633082  
1051       0.266      -9999      -9999      7.3        1.906      1.842      1.969      1.3        0.973      2.159      0.1373357  0.1373357  0.2900417  0.9793732  6.776829   1.842      0.05382104 0.3639471  73.533     0.4627455  0.297015   0.6284761 
1051.2     0.268      -9999      -9999      7.139      1.931      1.757      1.986      1.266      0.969      2.235      0.1422667  0.1422667  0.2906701  1.208599   8.145921   1.757      0.06187927 0.3582967  73.406     0.4497073  0.2755161  0.6238986 
1051.4     0.27       -9999      -9999      7.308      1.931      1.795      2.236      1.427      0.978      2.235      0.1389118  0.1389118  0.2892562  1.04747    6.715149   1.795      0.05174607 0.3573828  73.11      0.4555891  0.2981259  0.6130522 
1051.6     0.275      -9999      -9999      7.478      1.982      1.888      2.337      1.494      1.021      2.286      0.1290958  0.1290958  0.2825009  0.6891679  5.529362   1.888      0.01292522 0.3462563  72.94      0.464864   0.3227418  0.6069863 
1051.8     0.276      -9999      -9999      7.698      1.982      1.913      2.371      1.685      1.063      2.286      0.118488   0.118488   0.2759027  0.4383726  4.30008    1.913      0          0.3194147  72.644     0.4770142  0.3576387  0.5963898 
1052       0.278      -9999      -9999      7.732      2.033      1.829      2.515      1.617      1.095      2.337      0.1129896  0.1129896  0.2708755  0.3467368  4.136189   1.829      0          0.2833854  72.559     0.478442   0.3633588  0.5935254 
1052.2     0.276      -9999      -9999      7.63       1.982      1.744      2.659      1.549      1.099      2.235      0.1156131  0.1156131  0.2702471  0.3877864  4.6476     1.744      0          0.2712463  72.475     0.468588   0.3464674  0.5907086 
1052.4     0.276      -9999      -9999      7.478      1.982      1.858      2.579      1.609      1.101      2.235      0.1181721  0.1181721  0.2699329  0.4325068  5.529362   1.858      0          0.2991563  72.644     0.4598811  0.3227418  0.5970204 
1052.6     0.273      -9999      -9999      7.326      1.957      1.99       2.286      1.858      1.096      2.057      0.1218068  0.1218068  0.2707184  0.5050271  6.578415   1.99       0          0.3316346  72.771     0.4512474  0.3006409  0.601854  
1052.8     0.269      -9999      -9999      7.394      1.957      2.29       1.931      2.078      1.091      2.057      0.1194167  0.1194167  0.2715039  0.4560836  6.08652    2.29       0.03508448 0.3734578  73.025     0.4608704  0.3103346  0.6114063 
1053       0.265      -9999      -9999      7.478      1.957      2.091      2.299      1.846      1.083      1.88       0.1159786  0.1159786  0.2727607  0.3938795  5.529362   2.091      0          0.3391002  73.448     0.4750973  0.3227418  0.6274527 
1053.2     0.267      -9999      -9999      7.614      2.058      1.892      2.667      1.613      1.078      2.057      0.1105624  0.1105624  0.2735462  0.3126379  4.733371   1.892      0          0.2942007  73.872     0.4938904  0.34389    0.6438908 
1053.4     0.27       -9999      -9999      7.546      2.058      1.659      2.769      1.647      1.081      2.057      0.1099237  0.1099237  0.2730749  0.3042369  5.115909   1.659      0          0.2438446  74.168     0.4943976  0.3331481  0.655647  
1053.6     0.273      -9999      -9999      7.478      2.135      1.795      2.439      1.884      1.066      1.93       0.1139597  0.1139597  0.2754314  0.3613833  5.529362   1.795      0          0.2864693  74.168     0.4893082  0.3227418  0.6558746 
1053.8     0.271      -9999      -9999      7.478      2.135      1.956      2.266      1.799      1.052      1.93       0.1166712  0.1166712  0.2776308  0.405687   5.529362   1.956      0          0.3257466  74.083     0.4877564  0.3227418  0.6527711 
1054       0.27       -9999      -9999      7.596      2.185      1.867      2.312      1.74       1.023      1.88       0.120338   0.120338   0.2821867  0.4743626  4.831755   1.867      0          0.3246694  73.745     0.4904505  0.3410133  0.6398877 
1054.2     0.271      -9999      -9999      7.698      2.363      1.778      2.358      1.681      1.015      1.702      0.1209485  0.1209485  0.2834435  0.4868743  4.30008    1.778      0          0.3111988  73.406     0.4924092  0.3576387  0.6271797 
1054.4     0.274      -9999      -9999      7.757      2.363      1.66       2.028      1.812      1.009      1.702      0.1228195  0.1228195  0.2843861  0.5273195  4.01968    1.66       0          0.2926584  72.983     0.4895957  0.367623   0.6115684 
1054.6     0.28       -9999      -9999      7.817      2.389      1.655      1.808      1.68       1.024      1.575      0.1197394  0.1197394  0.2820296  0.4624041  3.753273   1.655      0          0.2811435  72.813     0.4917886  0.3780623  0.6055148 
1054.8     0.283      -9999      -9999      7.791      2.389      1.643      1.567      1.723      1.039      1.575      0.1203862  0.1203862  0.2796731  0.4753374  3.866476   1.643      0          0.276142   72.432     0.4826877  0.3735027  0.5918726 
1055       0.287      -9999      -9999      7.69       2.363      1.52       1.541      1.549      1.05       1.524      0.1241913  0.1241913  0.277945   0.5590899  4.339577   1.52       0          0.2531923  71.967     0.4659204  0.356306   0.5755348 
