~Version
 VERS              .         2.0                           : CWLS LOG ASCII STANDARD - VERSION 2.0
 WRAP              .         NO                            : ONE LINE PER DEPTH STEP
 DLM               .         SPACE                         : DELIMITING CHARACTER(SPACE TAB OR COMMA)
~Well Information
#_______________________________________________________________________________
#
#PARAMETER_NAME    .UNIT     VALUE                         : DESCRIPTION
#_______________________________________________________________________________
STRT               .M        890                           : First reference value
STOP               .M        1237                          : Last reference value
STEP               .M        0.2                           : Step increment
NULL               .         -9999                         : Missing value
COMP               .                                       : Company
WELL               .         1477                          : Well name
FLD                .         УЗЕНЬ                         : Field
LOC                .                                       : Location
CNTY               .                                       : County
STAT               .                                       : State
CTRY               .                                       : Country
SRVC               .                                       : Service Company
DATE               .         16.01.70                      : Date
UWI                .                                       : Unique Well ID
API                .                                       : 
Block              .         7                             : 
Category           .         Нефтяная                      : 
Condition          .         В работе                      : 
Date               .         28.01.1970                    : 
EREF               .m        90.8                          : 100.8
Gorizont           .         14                            : 14
Interpretator      .         Ким С.В.                      : 
Kupol              .         основной                      : osnovnoi
Mud                .         0                             : 
Mud_density        .         0                             : 
Mud_resistivity    .         0                             : 
NGDU               .         НГДУ-2                        : 
ORIGINALWELLNAME   .         1477                          : 
Spud_date          .         1970                          : 1961
Viscosity          .         0                             : 
X                  .m        42082.6                       : 46154
Y                  .m        84466.93                      : 85761.93
YEAR               .         2019                          : 
~Parameter Information Block
#_______________________________________________________________________________
#
#PARAMETER_NAME    .UNIT     VALUE                         : DESCRIPTION
#_______________________________________________________________________________
SET                .         LQC_KAZNIPI_Petrel            : 
TLFamily_CALI      .         Caliper                       : 
TLFamily_COLL      .         Net Reservoir Flag            : 
TLFamily_CSAT      .         Fluid Code                    : 
TLFamily_DEPT      .         Measured Depth                : 
TLFamily_GR        .         Russian Gamma Ray             : 
TLFamily_GZ3       .         Gradient 225                  : 
TLFamily_LLS       .         Lateral Log Resistivity       : 
TLFamily_MINV      .         Micro Gradient Resistivity    : 
TLFamily_MNOR      .         Micro Resistivity             : 
TLFamily_NGLD      .         Neutron Gamma                 : 
TLFamily_OGZ       .         Gradient Inverted 225         : 
TLFamily_PHIE      .         Effective Porosity            : 
TLFamily_PHIEN     .         Effective Porosity            : 
TLFamily_PHIT      .         Porosity                      : 
TLFamily_PRMB      .         Permeability                  : 
TLFamily_PRMB_DGR  .         Permeability                  : 
TLFamily_RT        .         Formation Resistivity         : 
TLFamily_SOIL_ARCHIE .         Oil Saturation                : 
TLFamily_SOIL_DW   .         Oil Saturation                : 
TLFamily_SP        .         Spontaneous Potential         : 
TLFamily_VSH_FIN   .         Shale Volume                  : 
TLFamily_VSH_GR    .         Shale Volume                  : 
TLFamily_VSH_SP    .         Shale Volume                  : 
~Curve Information
#_______________________________________________________________________________
#
#LOGNAME           .UNIT     LOG_ID                        : DESCRIPTION
#_______________________________________________________________________________
DEPT               .M                                      : Колонка глубины 
CALI               .м                                      : Каверномер 
COLL               .unitless                               : Описание 
CSAT               .unitless                               : Описание 
GR                 .uR/h                                   : Гамма каротаж 
GZ3                .Ohmm                                   :  
LLS                .Ohmm                                   : Боковой каротаж 
MINV               .Ohmm                                   : Микро-градиент зонд 
MNOR               .Ohmm                                   : Микро-потенциал зонд 
NGLD               .у.е.                                   : Показания зонда НГК-60 аппаратуры ДРСТ-3-90 
OGZ                .Ohmm                                   :  
PHIE               .v/v                                    : Описание 
PHIEN              .v/v                                    :  
PHIT               .v/v                                    : Описание 
PRMB               .mD                                     :  
PRMB_DGR           .mD                                     :  
RT                 .ohmm                                   : УЭС пласта 
SOIL_ARCHIE        .v/v                                    :  
SOIL_DW            .v/v                                    :  
SP                 .мВ                                     : Потенциал самополяризации 
VSH_FIN            .v/v                                    : Описание 
VSH_GR             .v/v                                    : Shale volume 
VSH_SP             .v/v                                    : Shale Volume 
~Ascii
# ...
1004       0.259      -9999      -9999      4.489      3.151      1.515      1.156      1.079      1.092      2.083      0.1847648  0.1847648  0.2713468  7.403733   201.5767   1.515      0.1990729  0.3505491  69.596     0.2623697  0.07432491 0.4504144 
1004.2     0.255      -9999      -9999      4.947      3.151      1.583      1.156      0.914      1.04       2.21       0.1877039  0.1877039  0.279516   8.392465   122.2835   1.583      0.2261167  0.3797087  70.104     0.2782185  0.09115328 0.4652837 
1004.4     0.253      -9999      -9999      5.404      3.151      1.596      1.359      1.037      1.002      2.21       0.1873273  0.1873273  0.2854858  8.258756   74.2625    1.596      0.2277316  0.3894259  70.697     0.2974499  0.111742   0.4831579 
1004.6     0.255      -9999      -9999      5.912      3.049      1.604      1.605      0.999      0.966      2.362      0.185031   0.185031   0.2911414  7.488257   42.65787   1.604      0.2212202  0.3949931  71.332     0.3215467  0.14013    0.5029634 
1004.8     0.259      -9999      -9999      5.996      2.947      1.643      1.893      1.05       0.945      2.388      0.1824673  0.1824673  0.2944405  6.712667   38.92126   1.643      0.2205357  0.4028717  72.263     0.3393128  0.1454748  0.5331507 
1005       0.261      -9999      -9999      5.929      2.719      1.727      1.969      1.126      0.924      2.286      0.1812305  0.1812305  0.2977396  6.367763   41.87376   1.727      0.2340385  0.4198625  73.194     0.3530578  0.1411956  0.5649201 
1005.2     0.256      -9999      -9999      5.861      2.516      1.85       2.003      1.261      0.908      2.311      0.1806909  0.1806909  0.3002532  6.222895   45.09943   1.85       0.2564443  0.4416316  73.829     0.3623099  0.1369812  0.5876386 
1005.4     0.251      -9999      -9999      5.911      2.516      2.002      1.867      1.253      0.9        2.311      0.1778179  0.1778179  0.30151    5.505251   42.70447   2.002      0.2734192  0.4611555  74.422     0.3748245  0.1400675  0.6095815 
1005.6     0.246      -9999      -9999      6.131      2.363      1.926      1.727      1.088      0.9        2.388      0.1722357  0.1722357  0.30151    4.338914   33.58944   1.926      0.2392605  0.4436247  74.93      0.3917403  0.1544951  0.6289855 
1005.8     0.248      -9999      -9999      6.208      2.16       1.808      1.613      1.041      0.908      2.388      0.1657125  0.1657125  0.3002532  3.285152   30.88218   1.808      0.1895523  0.4154687  75.607     0.4076991  0.1598883  0.6555099 
1006       0.252      -9999      -9999      6.248      2.033      1.685      1.503      1.122      0.926      2.261      0.1595655  0.1595655  0.2974254  2.527544   29.56308   1.685      0.134272   0.3819307  76.031     0.4177572  0.1627639  0.6727505 
1006.2     0.259      -9999      -9999      6.284      2.058      1.698      1.406      1.312      0.935      2.108      0.1565237  0.1565237  0.2960115  2.220017   28.42413   1.698      0.1228063  0.3778575  76.2       0.4226904  0.1653961  0.6799847 
1006.4     0.266      -9999      -9999      6.199      2.058      1.854      1.232      1.299      0.939      2.108      0.1568387  0.1568387  0.2953831  2.250044   31.18701   1.854      0.1597234  0.4043004  76.2       0.4198315  0.1592483  0.6804147 
1006.6     0.278      -9999      -9999      6.106      2.109      1.863      1.211      1.164      0.943      2.007      0.157206   0.157206   0.2947547  2.28557    34.51847   1.863      0.1633371  0.4055106  76.2       0.4168142  0.1527835  0.680845  
1006.8     0.286      -9999      -9999      5.996      2.16       1.879      1.275      1.071      0.945      2.083      0.1577456  0.1577456  0.2944405  2.338784   38.92126   1.879      0.1691712  0.4084535  76.242     0.4142268  0.1454748  0.6829789 
1007       0.29       -9999      -9999      5.861      2.211      1.854      1.271      1.033      0.955      2.311      0.156934   0.156934   0.2928695  2.259206   45.09943   1.854      0.1601677  0.4013287  76.327     0.4119259  0.1369812  0.6868706 
1007.2     0.291      -9999      -9999      5.827      2.236      1.922      1.237      1.046      0.961      2.616      0.1556861  0.1556861  0.2919269  2.142111   46.80429   1.922      0.1684827  0.4090194  76.412     0.412851   0.1349214  0.6907805 
1007.4     0.292      -9999      -9999      5.903      2.236      1.943      1.253      1.164      0.961      2.616      0.1539855  0.1539855  0.2919269  1.992247   43.07894   1.943      0.1647604  0.4097017  76.539     0.4180042  0.1395691  0.6964394 
1007.6     0.292      -9999      -9999      6.132      2.287      1.93       1.224      1.181      0.954      2.921      0.151383   0.151383   0.2930266  1.782945   33.5528    1.93       0.1495933  0.4051555  76.708     0.4292232  0.154564   0.7038823 
1007.8     0.287      -9999      -9999      6.301      2.338      1.884      1.287      1.261      0.958      3.174999999999999 0.146931   0.146931   0.2923982  1.474606   27.90166   1.884      0.1172583  0.3901566  76.962     0.4408098  0.1666538  0.7149658 
1008       0.282      -9999      -9999      6.327      2.389      1.969      1.415      1.037      0.971      3.099      0.1424198  0.1424198  0.2903559  1.216519   27.12108   1.969      0.1115449  0.3936707  77.258     0.4482911  0.1685959  0.7279863 
1008.2     0.276      -9999      -9999      6.217      2.312      2.028      1.707      0.944      0.987      2.794      0.1396573  0.1396573  0.2878423  1.081311   30.58034   2.028      0.1086927  0.3948245  77.47      0.4490454  0.1605309  0.7375599 
1008.4     0.275      -9999      -9999      6.2        2.312      2.1        1.982      1.016      1.004      2.794      0.135287   0.135287   0.2851716  0.8974331  31.15299   2.1        0.09854674 0.3945633  77.724     0.4541957  0.1593193  0.7490721 
1008.6     0.274      -9999      -9999      6.149      2.211      2.193      2.041      1.227      1.014      2.642      0.1324187  0.1324187  0.2836006  0.7940959  32.93604   2.193      0.100051   0.4006569  77.978     0.4581271  0.1557393  0.7605147 
1008.8     0.277      -9999      -9999      6.022      2.135      2.231      2.21       1.338      1.036      2.591      0.1275223  0.1275223  0.2801444  0.6444371  37.83242   2.231      0.07749611 0.3926608  78.359     0.4624912  0.1471701  0.7778122 
1009       0.284      -9999      -9999      5.785      2.084      2.269      2.308      1.346      1.054      2.565      0.1242225  0.1242225  0.2773166  0.5598341  48.99953   2.269      0.06363993 0.3879489  78.74      0.4639216  0.1324197  0.7954236 
1009.2     0.29       -9999      -9999      5.712      2.109      2.193      2.422      1.372      1.078      2.413      0.1203963  0.1203963  0.2735462  0.4755427  53.06288   2.193      0.02226836 0.3646914  78.994     0.4640906  0.1281813  0.8       
1009.4     0.291      -9999      -9999      5.632      2.109      2.303      2.384      1.579      1.1        2.413      0.1176808  0.1176808  0.27009    0.4235375  57.90382   2.303      0.02529246 0.3697522  79.036     0.4618461  0.1236921  0.8       
1009.6     0.29       -9999      -9999      5.548      2.338      2.498      2.435      1.778      1.108      2.261      0.1181154  0.1181154  0.2688332  0.4314604  63.46288   2.498      0.06477551 0.3939082  78.698     0.4567207  0.1191476  0.7942939 
1009.8     0.288      -9999      -9999      5.446      2.998      2.658      2.401      1.854      1.117      2.184      0.1225862  0.1225862  0.2674193  0.5220968  70.93542   2.658      0.1205514  0.4186366  78.02      0.4388883  0.1138531  0.7639235 
1010       0.289      -9999      -9999      5.217      4.116      2.658      2.676      2.099      1.153      2.438      0.1259923  0.1259923  0.2617637  0.6037269  91.07504   2.658      0.1412951  0.4169472  77.004     0.4114286  0.1028078  0.7200493 
1010.2     0.283      -9999      -9999      4.946      4.446      2.595      2.858      2.226      1.176      2.718      0.1295031  0.1295031  0.2581504  0.7012461  122.417    2.595      0.1521159  0.411057   76.242     0.3898402  0.09111267 0.6885677 
