~Version
 VERS              .         2.0                           : CWLS LOG ASCII STANDARD - VERSION 2.0
 WRAP              .         NO                            : ONE LINE PER DEPTH STEP
 DLM               .         SPACE                         : DELIMITING CHARACTER(SPACE TAB OR COMMA)
~Well Information
#_______________________________________________________________________________
#
#PARAMETER_NAME    .UNIT     VALUE                         : DESCRIPTION
#_______________________________________________________________________________
STRT               .M        890                           : First reference value
STOP               .M        1237                          : Last reference value
STEP               .M        0.2                           : Step increment
NULL               .         -9999                         : Missing value
COMP               .                                       : Company
WELL               .         1477                          : Well name
FLD                .         УЗЕНЬ                         : Field
LOC                .                                       : Location
CNTY               .                                       : County
STAT               .                                       : State
CTRY               .                                       : Country
SRVC               .                                       : Service Company
DATE               .         16.01.70                      : Date
UWI                .                                       : Unique Well ID
API                .                                       : 
Block              .         7                             : 
Category           .         Нефтяная                      : 
Condition          .         В работе                      : 
Date               .         28.01.1970                    : 
EREF               .m        90.8                          : 100.8
Gorizont           .         14                            : 14
Interpretator      .         Ким С.В.                      : 
Kupol              .         основной                      : osnovnoi
Mud                .         0                             : 
Mud_density        .         0                             : 
Mud_resistivity    .         0                             : 
NGDU               .         НГДУ-2                        : 
ORIGINALWELLNAME   .         1477                          : 
Spud_date          .         1970                          : 1961
Viscosity          .         0                             : 
X                  .m        42082.6                       : 46154
Y                  .m        84466.93                      : 85761.93
YEAR               .         2019                          : 
~Parameter Information Block
#_______________________________________________________________________________
#
#PARAMETER_NAME    .UNIT     VALUE                         : DESCRIPTION
#_______________________________________________________________________________
SET                .         LQC_KAZNIPI_Petrel            : 
TLFamily_CALI      .         Caliper                       : 
TLFamily_COLL      .         Net Reservoir Flag            : 
TLFamily_CSAT      .         Fluid Code                    : 
TLFamily_DEPT      .         Measured Depth                : 
TLFamily_GR        .         Russian Gamma Ray             : 
TLFamily_GZ3       .         Gradient 225                  : 
TLFamily_LLS       .         Lateral Log Resistivity       : 
TLFamily_MINV      .         Micro Gradient Resistivity    : 
TLFamily_MNOR      .         Micro Resistivity             : 
TLFamily_NGLD      .         Neutron Gamma                 : 
TLFamily_OGZ       .         Gradient Inverted 225         : 
TLFamily_PHIE      .         Effective Porosity            : 
TLFamily_PHIEN     .         Effective Porosity            : 
TLFamily_PHIT      .         Porosity                      : 
TLFamily_PRMB      .         Permeability                  : 
TLFamily_PRMB_DGR  .         Permeability                  : 
TLFamily_RT        .         Formation Resistivity         : 
TLFamily_SOIL_ARCHIE .         Oil Saturation                : 
TLFamily_SOIL_DW   .         Oil Saturation                : 
TLFamily_SP        .         Spontaneous Potential         : 
TLFamily_VSH_FIN   .         Shale Volume                  : 
TLFamily_VSH_GR    .         Shale Volume                  : 
TLFamily_VSH_SP    .         Shale Volume                  : 
~Curve Information
#_______________________________________________________________________________
#
#LOGNAME           .UNIT     LOG_ID                        : DESCRIPTION
#_______________________________________________________________________________
DEPT               .M                                      : Колонка глубины 
CALI               .м                                      : Каверномер 
COLL               .unitless                               : Описание 
CSAT               .unitless                               : Описание 
GR                 .uR/h                                   : Гамма каротаж 
GZ3                .Ohmm                                   :  
LLS                .Ohmm                                   : Боковой каротаж 
MINV               .Ohmm                                   : Микро-градиент зонд 
MNOR               .Ohmm                                   : Микро-потенциал зонд 
NGLD               .у.е.                                   : Показания зонда НГК-60 аппаратуры ДРСТ-3-90 
OGZ                .Ohmm                                   :  
PHIE               .v/v                                    : Описание 
PHIEN              .v/v                                    :  
PHIT               .v/v                                    : Описание 
PRMB               .mD                                     :  
PRMB_DGR           .mD                                     :  
RT                 .ohmm                                   : УЭС пласта 
SOIL_ARCHIE        .v/v                                    :  
SOIL_DW            .v/v                                    :  
SP                 .мВ                                     : Потенциал самополяризации 
VSH_FIN            .v/v                                    : Описание 
VSH_GR             .v/v                                    : Shale volume 
VSH_SP             .v/v                                    : Shale Volume 
~Ascii
# ...
959.2000000000001 0.264      -9999      -9999      5.2        3.1        3.653      2.566      2.075      1.088      2.946      0.1343198  0.1343198  0.2719752  0.8611659  92.78052   3.653      0.3004286  0.5260088  79.079     0.4171375  0.1020319  0.7322432 
959.4      0.269      -9999      -9999      5.09       3.1        3.34       2.481      2.612      1.091      2.946      0.1343557  0.1343557  0.2715039  0.8624859  104.6145   3.34       0.2705647  0.5038171  79.121     0.4156005  0.09715104 0.73405   
959.6      0.268      -9999      -9999      4.786      3.201000000000001 3.247      2.075      2.252      1.082      2.794      0.1378005  0.1378005  0.2729178  0.9989832  145.7723   3.247      0.2769538  0.5032253  79.121     0.4094463  0.08484251 0.73405   
959.8      0.267      -9999      -9999      4.659      3.328      3.022      2.109      1.88       1.073      2.972      0.139686   0.139686   0.2743317  1.082633   167.4432   3.022      0.2609718  0.4893788  79.163     0.4080174  0.08017425 0.7358606 
960        0.262      -9999      -9999      4.574      3.481      2.959      2.079      1.744      1.065      2.896      0.141128   0.141128   0.2755885  1.151307   183.7189   2.959      0.2602759  0.4874544  79.206     0.407456   0.0771942  0.7377179 
960.2000000000001 0.266      -9999      -9999      4.574      3.557      2.62       2.346      1.774      1.06       2.997      0.1416136  0.1416136  0.276374   1.175397   183.7189   2.62       0.2191489  0.4569754  79.248     0.408365   0.0771942  0.7395357 
960.4      0.267      -9999      -9999      4.549      3.557      2.794      2.223      1.998      1.047      2.997      0.1440969  0.1440969  0.2784163  1.30672    188.8004   2.794      0.253743   0.4800336  79.206     0.4070284  0.07633898 0.7377179 
960.6      0.264      -9999      -9999      4.54       3.430000000000001 2.955      1.994      1.99       1.041      3.048      0.1450899  0.1450899  0.2793589  1.36325    190.6639   2.955      0.2774414  0.4967835  79.206     0.4068757  0.07603343 0.7377179 
960.8      0.262      -9999      -9999      4.532      3.303      3.095      2.088      2.011      1.03       2.921      0.1468627  0.1468627  0.281087   1.470318   192.3357   3.095      0.3004065  0.5124514  79.206     0.4067404  0.07576285 0.7377179 
961        0.262      -9999      -9999      4.752      3.151      2.735      1.969      1.884      1.02       2.769      0.1468461  0.1468461  0.282658   1.469278   151.2828   2.735      0.258537   0.4830993  79.248     0.4115512  0.08356673 0.7395357 
961.2000000000001 0.264      -9999      -9999      4.98       2.998      2.595      2.13       1.947      1.01       2.692      0.1469425  0.1469425  0.284229   1.475331   117.9579   2.595      0.2404614  0.4712719  79.248     0.4160197  0.09250364 0.7395357 
961.4      0.267      -9999      -9999      5.073      2.998      2.43       1.969      1.744      1.008      2.692      0.1463103  0.1463103  0.2845432  1.436085   106.5735   2.43       0.2137344  0.453074   79.29      0.4188875  0.09641783 0.7413572 
961.6      0.27       -9999      -9999      4.963      2.846      2.498      2.024      1.676      1.006      2.819      0.1470772  0.1470772  0.2848574  1.483833   120.1668   2.498      0.2273778  0.4620238  79.333     0.4175157  0.09180551 0.7432258 
961.8      0.27       -9999      -9999      4.811      2.719      2.426      1.905      1.63       1.006      2.921      0.1477675  0.1477675  0.2848574  1.528168   141.8489   2.426      0.219889   0.4550884  79.375     0.4154238  0.085793   0.7450546 
962        0.267      -9999      -9999      4.794      2.592      2.468      1.977      1.655      1.016      2.87       0.1463034  0.1463034  0.2832864  1.435659   144.5051   2.468      0.2194065  0.4558162  79.375     0.4151001  0.08514553 0.7450546 
962.2000000000001 0.265      -9999      -9999      4.76       2.77       2.396      1.994      1.511      1.05       2.921      0.1411732  0.1411732  0.277945   1.15353    149.9677   2.396      0.1834921  0.4334506  79.375     0.4144599  0.0838652  0.7450546 
962.4      0.263      -9999      -9999      4.756      2.77       2.235      1.948      1.198      1.086      2.921      0.1352399  0.1352399  0.2722894  0.8956321  150.6238   2.235      0.1242553  0.3960373  79.417     0.4153014  0.08371583 0.7468871 
962.6      0.264      -9999      -9999      4.752      2.998      2.168      1.906      1.376      1.105      3.073      0.1319695  0.1319695  0.2693045  0.7790269  151.2828   2.168      0.09251412 0.3767738  79.46      0.4161668  0.08356673 0.7487669 
962.8      0.267      -9999      -9999      4.714      3.227      2.32       1.8        1.448      1.095      3.277      0.1334684  0.1334684  0.2708755  0.8304561  157.6884   2.32       0.1295216  0.4022844  79.502     0.4163851  0.08216356 0.7506067 
963        0.273      -9999      -9999      4.701      3.1        2.9        2.168      1.952      1.085      3.174999999999999 0.1351177  0.1351177  0.2724465  0.8909751  159.9415   2.9        0.2244028  0.4697921  79.502     0.4161479  0.08168896 0.7506067 
963.2000000000001 0.275      -9999      -9999      4.709      2.947      3.319      2.342      2.129      1.078      2.946      0.1361693  0.1361693  0.2735462  0.9318448  158.5512   3.319      0.2768962  0.5070858  79.502     0.4162937  0.08198069 0.7506067 
963.4      0.274      -9999      -9999      4.777      2.947      3.213      2.46       2.172      1.072      2.946      0.1366957  0.1366957  0.2744888  0.9530025  147.2111   3.213      0.2682611  0.5008215  79.502     0.4175548  0.08450293 0.7506067 
963.6      0.275      -9999      -9999      4.887      2.744      2.781      2.278      1.82       1.071      2.769      0.1361523  0.1361523  0.2746459  0.9311705  130.5585   2.781      0.2142396  0.4628179  79.502     0.4196776  0.08874837 0.7506067 
963.8      0.278      -9999      -9999      4.946      2.592      2.366      2.037      1.431      1.071      2.667      0.135458   0.135458   0.2746459  0.9040017  122.417    2.366      0.1485489  0.4164665  79.544     0.4217815  0.09111267 0.7524502 
964        0.282      -9999      -9999      4.955      2.719      2.354      1.944      1.456      1.06       2.769      0.1368137  0.1368137  0.276374   0.9578102  121.2206   2.354      0.1538852  0.4194598  79.587     0.4229101  0.09147882 0.7543414 
964.2000000000001 0.281      -9999      -9999      4.959      2.795      2.468      1.914      1.592      1.033      2.946      0.140723   0.140723   0.2806157  1.131593   120.6925   2.468      0.1925149  0.4443651  79.629     0.4239171  0.09164203 0.7561923 
964.4      0.272      -9999      -9999      5.048      2.795      2.569      2.041      1.816      1.012      2.946      0.1434104  0.1434104  0.2839148  1.269014   109.5212   2.569      0.2205196  0.463221   79.629     0.4257709  0.09534963 0.7561923 
964.6      0.265      -9999      -9999      5.107      2.77       2.603      2.164      1.685      1.004      2.896      0.1442481  0.1442481  0.2851716  1.315171   102.6916   2.603      0.2292336  0.4693761  79.629     0.427041   0.0978898  0.7561923 
964.8      0.264      -9999      -9999      5.116      2.77       2.561      2.071      1.672      1.011      2.87       0.1433888  0.1433888  0.2840719  1.267848   101.6878   2.561      0.2192757  0.4625349  79.587     0.4263123  0.0982832  0.7543414 
965        0.27       -9999      -9999      5.065      2.82       2.544      1.965      1.511      1.016      3.023      0.1432798  0.1432798  0.2832864  1.261964   107.508    2.544      0.2163126  0.4596651  79.544     0.4242625  0.09607472 0.7524502 
965.2000000000001 0.273      -9999      -9999      5.082      2.897      2.497      1.833      1.532      1.024      3.048      0.1422066  0.1422066  0.2820296  1.205506   105.5319   2.497      0.2042311  0.4515244  79.502     0.423706   0.0968053  0.7506067 
965.4      0.27       -9999      -9999      5.158      2.897      2.646      2.007      1.723      1.026      3.048      0.1413422  0.1413422  0.2817154  1.161872   97.13211   2.646      0.2214593  0.4655727  79.502     0.4253734  0.10014    0.7506067 
