~Version
 VERS              .         2.0                           : CWLS LOG ASCII STANDARD - VERSION 2.0
 WRAP              .         NO                            : ONE LINE PER DEPTH STEP
 DLM               .         SPACE                         : DELIMITING CHARACTER(SPACE TAB OR COMMA)
~Well Information
#_______________________________________________________________________________
#
#PARAMETER_NAME    .UNIT     VALUE                         : DESCRIPTION
#_______________________________________________________________________________
STRT               .M        890                           : First reference value
STOP               .M        1237                          : Last reference value
STEP               .M        0.2                           : Step increment
NULL               .         -9999                         : Missing value
COMP               .                                       : Company
WELL               .         1477                          : Well name
FLD                .         УЗЕНЬ                         : Field
LOC                .                                       : Location
CNTY               .                                       : County
STAT               .                                       : State
CTRY               .                                       : Country
SRVC               .                                       : Service Company
DATE               .         16.01.70                      : Date
UWI                .                                       : Unique Well ID
API                .                                       : 
Block              .         7                             : 
Category           .         Нефтяная                      : 
Condition          .         В работе                      : 
Date               .         28.01.1970                    : 
EREF               .m        90.8                          : 100.8
Gorizont           .         14                            : 14
Interpretator      .         Ким С.В.                      : 
Kupol              .         основной                      : osnovnoi
Mud                .         0                             : 
Mud_density        .         0                             : 
Mud_resistivity    .         0                             : 
NGDU               .         НГДУ-2                        : 
ORIGINALWELLNAME   .         1477                          : 
Spud_date          .         1970                          : 1961
Viscosity          .         0                             : 
X                  .m        42082.6                       : 46154
Y                  .m        84466.93                      : 85761.93
YEAR               .         2019                          : 
~Parameter Information Block
#_______________________________________________________________________________
#
#PARAMETER_NAME    .UNIT     VALUE                         : DESCRIPTION
#_______________________________________________________________________________
SET                .         LQC_KAZNIPI_Petrel            : 
TLFamily_CALI      .         Caliper                       : 
TLFamily_COLL      .         Net Reservoir Flag            : 
TLFamily_CSAT      .         Fluid Code                    : 
TLFamily_DEPT      .         Measured Depth                : 
TLFamily_GR        .         Russian Gamma Ray             : 
TLFamily_GZ3       .         Gradient 225                  : 
TLFamily_LLS       .         Lateral Log Resistivity       : 
TLFamily_MINV      .         Micro Gradient Resistivity    : 
TLFamily_MNOR      .         Micro Resistivity             : 
TLFamily_NGLD      .         Neutron Gamma                 : 
TLFamily_OGZ       .         Gradient Inverted 225         : 
TLFamily_PHIE      .         Effective Porosity            : 
TLFamily_PHIEN     .         Effective Porosity            : 
TLFamily_PHIT      .         Porosity                      : 
TLFamily_PRMB      .         Permeability                  : 
TLFamily_PRMB_DGR  .         Permeability                  : 
TLFamily_RT        .         Formation Resistivity         : 
TLFamily_SOIL_ARCHIE .         Oil Saturation                : 
TLFamily_SOIL_DW   .         Oil Saturation                : 
TLFamily_SP        .         Spontaneous Potential         : 
TLFamily_VSH_FIN   .         Shale Volume                  : 
TLFamily_VSH_GR    .         Shale Volume                  : 
TLFamily_VSH_SP    .         Shale Volume                  : 
~Curve Information
#_______________________________________________________________________________
#
#LOGNAME           .UNIT     LOG_ID                        : DESCRIPTION
#_______________________________________________________________________________
DEPT               .M                                      : Колонка глубины 
CALI               .м                                      : Каверномер 
COLL               .unitless                               : Описание 
CSAT               .unitless                               : Описание 
GR                 .uR/h                                   : Гамма каротаж 
GZ3                .Ohmm                                   :  
LLS                .Ohmm                                   : Боковой каротаж 
MINV               .Ohmm                                   : Микро-градиент зонд 
MNOR               .Ohmm                                   : Микро-потенциал зонд 
NGLD               .у.е.                                   : Показания зонда НГК-60 аппаратуры ДРСТ-3-90 
OGZ                .Ohmm                                   :  
PHIE               .v/v                                    : Описание 
PHIEN              .v/v                                    :  
PHIT               .v/v                                    : Описание 
PRMB               .mD                                     :  
PRMB_DGR           .mD                                     :  
RT                 .ohmm                                   : УЭС пласта 
SOIL_ARCHIE        .v/v                                    :  
SOIL_DW            .v/v                                    :  
SP                 .мВ                                     : Потенциал самополяризации 
VSH_FIN            .v/v                                    : Описание 
VSH_GR             .v/v                                    : Shale volume 
VSH_SP             .v/v                                    : Shale Volume 
~Ascii
# ...
1188.8     0.255      -9999      -9999      8.079      1.169      1.27       1.986      1.803      1.033      1.6        0.128911   0.128911   0.2806157  0.6837574  3.267159   1.27       0          0.2094576  56.727     0.4597113  0.4000933  0.5193294 
1189       0.254      -9999      -9999      8.062      1.373      1.418      1.969      1.604      1.024      1.499      0.1250845  0.1250845  0.2820296  0.5807988  3.376943   1.418      0          0.2456361  57.743     0.4755913  0.3947302  0.5564525 
1189.2     0.254      -9999      -9999      7.901      1.652      1.566      1.952      1.405      1.015      1.321      0.1278105  0.1278105  0.2834435  0.652406   4.618026   1.566      0          0.2901971  58.759     0.4716153  0.3473717  0.5958588 
1189.4     0.255      -9999      -9999      7.791      1.652      1.617      1.419      1.244      1.007      1.321      0.1301427  0.1301427  0.2847003  0.7206381  5.719127   1.617      0          0.3081522  59.267     0.4683563  0.3183253  0.6183872 
1189.6     0.257      -9999      -9999      7.681      1.373      1.596      1.249      1.067      0.994      1.346      0.1346167  0.1346167  0.2867426  0.8721412  7.082761   1.596      0          0.315553   59.478     0.4609874  0.2917078  0.630267  
1189.8     0.26       -9999      -9999      7.74       1.373      1.592      1.224      0.94       0.991      1.346      0.1283331  0.1283331  0.2872139  0.6671125  6.315229   1.592      0          0.3028579  60.071     0.4814569  0.3056952  0.6572186 
1190       0.263      -9999      -9999      7.766      1.271      1.528      1.326      1.071      0.991      1.397      0.1186435  0.1186435  0.2872139  0.4412895  6.003954   1.528      0          0.2672293  61.256     0.5108194  0.3120702  0.7095686 
1190.2     0.269      -9999      -9999      7.816      1.627      1.465      1.427      1.202      0.99       1.803      0.1075162  0.1075162  0.287371   0.2745483  5.447813   1.465      0          0.2245188  62.442     0.5450146  0.3247059  0.7653232 
1190.4     0.28       -9999      -9999      7.952      1.627      1.393      1.508      1.194      0.989      1.803      0.09584368 0.09584368 0.2875281  0.1668843  4.182123   1.393      0          0.1719853  63.627     0.5808619  0.3617238  0.8       
1190.6     0.282      -9999      -9999      8.088      1.982      1.401      1.63       1.105      0.99       2.057      0.08888228 0.08888228 0.287371   0.1240148  3.210493   1.401      0          0.1523413  64.389     0.601481   0.4029619  0.8       
1190.8     0.276      -9999      -9999      8.164      1.982      1.406      1.486      1.016      0.995      2.057      0.08396201 0.08396201 0.2865855  0.1005398  2.769527   1.406      0          0.1358796  65.193     0.6140106  0.4280211  0.8       
1191       0.265      -9999      -9999      8.13       2.262      1.414      1.452      1.262      1.002      2.032      0.08474294 0.08474294 0.2854858  0.1039448  2.95877    1.414      0          0.1387957  65.617     0.6083117  0.4166234  0.8       
1191.2     0.253      -9999      -9999      8.02       1.982      1.422      1.418      1.507      1.013      1.753      0.08876292 0.08876292 0.2837577  0.1233851  3.664241   1.422      0          0.1511871  64.939     0.5908933  0.3817865  0.8       
1191.4     0.239      -9999      -9999      8.011      1.982      1.676      1.736      1.622      1.025      1.753      0.08732623 0.08732623 0.2818725  0.1160517  3.728925   1.676      0          0.2103249  64.22      0.5895342  0.3790683  0.8       
1191.6     0.237      -9999      -9999      8.003      1.754      1.918      1.821      1.49       1.045      1.803      0.0861158  0.0861158  0.2787305  0.1102127  3.787368   1.918      0          0.2528025  62.78      0.5836809  0.3766688  0.790693  
1191.8     0.239      -9999      -9999      8.156      1.754      2.04       1.876      1.338      1.054      1.803      0.0840124  0.0840124  0.2773166  0.1007561  2.812934   2.04       0          0.2669312  61.807     0.5857703  0.4253117  0.7462289 
1192       0.243      -9999      -9999      8.24       1.601      1.757      1.83       1.308      1.057      2.261      0.08570822 0.08570822 0.2768453  0.1083134  2.389122   1.757      0          0.2145483  60.833     0.5792032  0.4546391  0.7037674 
1192.2     0.246      -9999      -9999      8.316      1.601      1.473      1.783      1.278      1.045      2.972      0.0816194  0.0816194  0.2787305  0.09098031 2.060969   1.473      0          0.1318222  61.045     0.5973064  0.4829124  0.7117004 
1192.4     0.249      -9999      -9999      8.164      1.601      1.295      1.804      1.223      1.033      2.972      0.08946077 0.08946077 0.2806157  0.1271126  2.769527   1.295      0          0.1064014  61.51      0.5792574  0.4280211  0.7304935 
1192.6     0.25       -9999      -9999      8.011      1.601      1.283      1.842      1.177      1.037      3.250999999999999 0.1038423  0.1038423  0.2799873  0.2347308  6.661864   1.283      0          0.1468092  62.399     0.5337726  0.2990974  0.7684479 
1192.8     0.25       -9999      -9999      7.799      1.601      1.27       1.821      1.223      1.047      3.250999999999999 0.1041837  0.1041837  0.2784163  0.2381737  9.755906   1.27       0          0.1403736  63.542     0.5279774  0.2559548  0.8       
1193       0.249      -9999      -9999      7.732      1.55       1.24       1.698      1.427      1.058      3.531      0.1044844  0.1044844  0.2766882  0.2412472  11.00591   1.24       0          0.1274735  64.685     0.5218298  0.2436596  0.8       
1193.2     0.25       -9999      -9999      7.63       1.398      1.211      1.575      1.63       1.075      4.089      0.1047166  0.1047166  0.2740175  0.2436483  13.22318   1.211      0          0.1123171  65.278     0.513033   0.226066   0.8       
1193.4     0.25       -9999      -9999      7.47       1.398      1.676      1.512      1.795      1.092      4.089      0.1061831  0.1061831  0.2713468  0.259374   17.63484   1.676      0          0.2445496  64.77      0.5004961  0.2009922  0.8       
1193.6     0.251      -9999      -9999      7.309      1.322      2.172      1.512      1.85       1.111      3.81       0.1181069  0.1181069  0.2683619  0.4313056  23.56071   2.172      0.0151765  0.3575715  61.68      0.4553181  0.1785681  0.7320681 
1193.8     0.247      1          2          7.131      1.322      2.963      1.474      1.952      1.116      3.81       0.1414106  0.1414106  0.2675764  1.165268   32.45562   2.963      0.2722977  0.4858003  58.589     0.3823205  0.1566766  0.6079645 
1194       0.243      1          2          7.08       1.246      3.302      1.47       1.981      1.129      3.353      0.1721617  0.1721617  0.2655341  4.325233   35.57502   3.302      0.4172929  0.547744   52.451     0.2829468  0.1509141  0.4149795 
1194.2     0.239      1          2          6.911      1.322      3.641      1.465      2.011      1.143      3.048      0.1862536  0.1862536  0.2633347  7.889082   48.21854   3.641      0.4802743  0.5809907  49.022     0.2335791  0.1332913  0.333867  
1194.4     0.239      1          2          6.665      1.322      3.916      1.452      2.011      1.156      3.048      0.2071126  0.2071126  0.2612924  19.20373   75.06814   3.916      0.5420873  0.6117815  41.91      0.1641813  0.1112508  0.2171118 
1194.6     0.24       1          2          6.42       1.728      4.148      1.406      2.028      1.17       3.48       0.2119936  0.2119936  0.259093   23.64794   116.6584   4.148      0.5632407  0.624673   39.709     0.1427255  0.09292305 0.192528  
1194.8     0.24       1          2          6.445      1.728      5.037      1.452      1.994      1.18       3.48       0.2134286  0.2134286  0.257522   25.14045   111.5268   5.037      0.6036162  0.6591864  37.507     0.1336165  0.09464572 0.1725872 
1195       0.239      1          2          6.598      3.227      4.932      1.588      1.837      1.188      4.140000000000001 0.2061718  0.2061718  0.2562652  18.44842   84.6865    4.932      0.5874336  0.6494978  40.259     0.1517983  0.1059067  0.19769   
