~Version
 VERS              .         2.0                           : CWLS LOG ASCII STANDARD - VERSION 2.0
 WRAP              .         NO                            : ONE LINE PER DEPTH STEP
 DLM               .         SPACE                         : DELIMITING CHARACTER(SPACE TAB OR COMMA)
~Well Information
#_______________________________________________________________________________
#
#PARAMETER_NAME    .UNIT     VALUE                         : DESCRIPTION
#_______________________________________________________________________________
STRT               .M        890                           : First reference value
STOP               .M        1237                          : Last reference value
STEP               .M        0.2                           : Step increment
NULL               .         -9999                         : Missing value
COMP               .                                       : Company
WELL               .         1477                          : Well name
FLD                .         УЗЕНЬ                         : Field
LOC                .                                       : Location
CNTY               .                                       : County
STAT               .                                       : State
CTRY               .                                       : Country
SRVC               .                                       : Service Company
DATE               .         16.01.70                      : Date
UWI                .                                       : Unique Well ID
API                .                                       : 
Block              .         7                             : 
Category           .         Нефтяная                      : 
Condition          .         В работе                      : 
Date               .         28.01.1970                    : 
EREF               .m        90.8                          : 100.8
Gorizont           .         14                            : 14
Interpretator      .         Ким С.В.                      : 
Kupol              .         основной                      : osnovnoi
Mud                .         0                             : 
Mud_density        .         0                             : 
Mud_resistivity    .         0                             : 
NGDU               .         НГДУ-2                        : 
ORIGINALWELLNAME   .         1477                          : 
Spud_date          .         1970                          : 1961
Viscosity          .         0                             : 
X                  .m        42082.6                       : 46154
Y                  .m        84466.93                      : 85761.93
YEAR               .         2019                          : 
~Parameter Information Block
#_______________________________________________________________________________
#
#PARAMETER_NAME    .UNIT     VALUE                         : DESCRIPTION
#_______________________________________________________________________________
SET                .         LQC_KAZNIPI_Petrel            : 
TLFamily_CALI      .         Caliper                       : 
TLFamily_COLL      .         Net Reservoir Flag            : 
TLFamily_CSAT      .         Fluid Code                    : 
TLFamily_DEPT      .         Measured Depth                : 
TLFamily_GR        .         Russian Gamma Ray             : 
TLFamily_GZ3       .         Gradient 225                  : 
TLFamily_LLS       .         Lateral Log Resistivity       : 
TLFamily_MINV      .         Micro Gradient Resistivity    : 
TLFamily_MNOR      .         Micro Resistivity             : 
TLFamily_NGLD      .         Neutron Gamma                 : 
TLFamily_OGZ       .         Gradient Inverted 225         : 
TLFamily_PHIE      .         Effective Porosity            : 
TLFamily_PHIEN     .         Effective Porosity            : 
TLFamily_PHIT      .         Porosity                      : 
TLFamily_PRMB      .         Permeability                  : 
TLFamily_PRMB_DGR  .         Permeability                  : 
TLFamily_RT        .         Formation Resistivity         : 
TLFamily_SOIL_ARCHIE .         Oil Saturation                : 
TLFamily_SOIL_DW   .         Oil Saturation                : 
TLFamily_SP        .         Spontaneous Potential         : 
TLFamily_VSH_FIN   .         Shale Volume                  : 
TLFamily_VSH_GR    .         Shale Volume                  : 
TLFamily_VSH_SP    .         Shale Volume                  : 
~Curve Information
#_______________________________________________________________________________
#
#LOGNAME           .UNIT     LOG_ID                        : DESCRIPTION
#_______________________________________________________________________________
DEPT               .M                                      : Колонка глубины 
CALI               .м                                      : Каверномер 
COLL               .unitless                               : Описание 
CSAT               .unitless                               : Описание 
GR                 .uR/h                                   : Гамма каротаж 
GZ3                .Ohmm                                   :  
LLS                .Ohmm                                   : Боковой каротаж 
MINV               .Ohmm                                   : Микро-градиент зонд 
MNOR               .Ohmm                                   : Микро-потенциал зонд 
NGLD               .у.е.                                   : Показания зонда НГК-60 аппаратуры ДРСТ-3-90 
OGZ                .Ohmm                                   :  
PHIE               .v/v                                    : Описание 
PHIEN              .v/v                                    :  
PHIT               .v/v                                    : Описание 
PRMB               .mD                                     :  
PRMB_DGR           .mD                                     :  
RT                 .ohmm                                   : УЭС пласта 
SOIL_ARCHIE        .v/v                                    :  
SOIL_DW            .v/v                                    :  
SP                 .мВ                                     : Потенциал самополяризации 
VSH_FIN            .v/v                                    : Описание 
VSH_GR             .v/v                                    : Shale volume 
VSH_SP             .v/v                                    : Shale Volume 
~Ascii
# ...
1074.4     0.264      -9999      -9999      7.478      2.668      2.65       2.473      2.621      1.067      2.515      0.1291822  0.1291822  0.2752743  0.691712   5.529362   2.65       0.1586032  0.4393616  71.035     0.4427034  0.3227418  0.562665  
1074.6     0.267      -9999      -9999      7.495      2.617      2.557      2.532      1.964      1.073      2.464      0.1275375  0.1275375  0.2743317  0.6448562  5.422967   2.557      0.1347771  0.4252604  71.078     0.4448308  0.3253125  0.5643492 
1074.8     0.274      -9999      -9999      7.431      2.617      2.506      2.379      1.38       1.066      2.464      0.1299438  0.1299438  0.2754314  0.7145494  5.834502   2.506      0.1406621  0.4249652  71.12      0.4408715  0.3157398  0.5660033 
1075       0.274      -9999      -9999      7.63       2.566      2.451      2.193      1.541      1.059      2.362      0.1261802  0.1261802  0.2765311  0.6085854  4.6476     2.451      0.1091518  0.4135172  71.078     0.4556088  0.3464674  0.5647501 
1075.2     0.274      -9999      -9999      7.774      2.16       2.396      2.007      1.702      1.058      2.083      0.1225756  0.1225756  0.2766882  0.5218611  3.942332   2.396      0.07659557 0.400561   71.035     0.467008   0.3705512  0.5634648 
1075.4     0.267      -9999      -9999      7.884      2.16       2.265      2.007      1.605      1.068      2.083      0.118472   0.118472   0.2751172  0.4380736  3.476595   2.265      0.02336907 0.3733757  70.908     0.4746824  0.3900703  0.5592945 
1075.6     0.264      -9999      -9999      7.928      1.931      2.231      1.982      1.418      1.082      1.93       0.115379   0.115379   0.2729178  0.3839338  3.306087   2.231      0          0.3591802  70.824     0.4773904  0.3981629  0.5566179 
1075.8     0.262      -9999      -9999      7.978      1.931      2.299      2.041      1.909      1.1        1.93       0.1116809  0.1116809  0.27009    0.3279138  3.122457   2.299      0          0.3569002  70.697     0.4800275  0.407563   0.552492  
1076       0.271      -9999      -9999      8.071      1.804      2.252      1.948      1.922      1.106      2.032      0.1074874  0.1074874  0.2691474  0.2742119  2.8076     2.252      0          0.3396212  70.739     0.4898787  0.4256414  0.554116  
1076.2     0.279      -9999      -9999      8.223      2.16       2.205      1.855      1.935      1.098      2.565      0.1033127  0.1033127  0.2704042  0.2294883  2.359876   2.205      0          0.3250211  70.781     0.5063378  0.4569314  0.5557441 
1076.4     0.289      -9999      -9999      8.249      2.16       1.934      1.842      1.287      1.082      2.565      0.104156   0.104156   0.2729178  0.2378918  2.290783   1.934      0          0.2856305  70.908     0.5113994  0.4625095  0.5602893 
1076.6     0.29       -9999      -9999      8.155      2.363      1.812      2.007      1.304      1.084      2.87       0.1068403  0.1068403  0.2726036  0.2667468  2.550595   1.812      0          0.2681632  70.951     0.5023131  0.4426586  0.5619676 
1076.8     0.29       -9999      -9999      7.935      2.363      1.757      2.015      1.338      1.086      2.87       0.1128957  0.1128957  0.2722894  0.3453503  3.279744   1.757      0          0.2710321  71.078     0.4830113  0.3994657  0.5665569 
1077       0.287      -9999      -9999      7.715      2.541      1.858      1.943      1.317      1.09       2.845      0.1172018  0.1172018  0.271661   0.4149735  4.217336   1.858      0          0.299821   71.332     0.468058   0.3604875  0.5756287 
1077.2     0.285      -9999      -9999      7.474      2.312      1.96       1.871      1.295      1.105      2.438      0.1196553  0.1196553  0.2693045  0.4607487  5.554698   1.96       0          0.3198083  71.586     0.4534825  0.3221399  0.5848251 
1077.4     0.283      -9999      -9999      7.351      2.312      2.074      2.316      1.299      1.105      2.438      0.1210824  0.1210824  0.2693045  0.4896626  6.393112   2.074      0.00128722 0.3416924  71.84      0.449158   0.3041689  0.5941471 
1077.6     0.281      -9999      -9999      7.436      2.135      2.155      2.676      1.342      1.116      2.413      0.1167868  0.1167868  0.2675764  0.4076931  5.801256   2.155      0          0.3427707  71.924     0.4569381  0.3164773  0.5973988 
1077.8     0.28       -9999      -9999      7.52       2.135      2.337      2.659      1.388      1.121      2.413      0.1131156  0.1131156  0.2667909  0.3486054  5.270211   2.337      0          0.3601863  72.051     0.4656826  0.3291302  0.602235  
1078       0.277      -9999      -9999      7.579      1.906      2.333      2.291      1.342      1.125      2.591      0.1104225  0.1104225  0.2661625  0.3107778  4.92655    2.333      0          0.3529707  72.136     0.4719395  0.3383185  0.6055605 
1078.2     0.274      -9999      -9999      7.63       2.008      2.329      1.923      1.296      1.103      2.54       0.1119828  0.1119828  0.2696187  0.3321624  4.6476     2.329      0          0.3609816  72.221     0.4776846  0.3464674  0.6089019 
1078.4     0.272      -9999      -9999      7.673      2.008      2.13       2.46       1.283      1.085      2.54       0.1133605  0.1133605  0.2724465  0.3522654  4.424716   2.13       0          0.3391682  72.263     0.4820787  0.3534904  0.610667  
1078.6     0.272      -9999      -9999      7.52       2.109      2.036      2.989      1.321      1.068      2.362      0.1200153  0.1200153  0.2751172  0.4678775  5.270211   2.036      0          0.3422419  72.263     0.4700058  0.3291302  0.6108815 
1078.8     0.276      -9999      -9999      7.444      2.109      2.066      2.828      1.338      1.064      2.362      0.1227568  0.1227568  0.2757456  0.5259105  5.748458   2.066      0.01137125 0.3534351  72.221     0.4636024  0.3176611  0.6095437 
1079       0.277      -9999      -9999      7.368      1.881      2.201      2.155      1.549      1.059      2.388      0.1263648  0.1263648  0.2765311  0.6133949  6.270097   2.201      0.06421441 0.3814452  72.051     0.4550495  0.3065917  0.6035072 
1079.2     0.279      -9999      -9999      7.469      2.109      2.337      1.482      1.761      1.059      3.48       0.1249049  0.1249049  0.2765311  0.5763683  5.586531   2.337      0.0809215  0.3970873  71.882     0.4594733  0.321389   0.5975575 
1079.4     0.279      -9999      -9999      7.453      2.109      2.172      1.719      1.715      1.059      3.48       0.126528   0.126528   0.2765311  0.6176788  5.689629   2.172      0.05942967 0.3776317  71.67      0.454555   0.3189982  0.5901118 
1079.6     0.28       -9999      -9999      7.216      2.617      1.994      1.939      1.435      1.065      3.785      0.1315591  0.1315591  0.2755885  0.7655103  7.459686   1.994      0.05361413 0.3585961  71.586     0.4364528  0.2855967  0.5873089 
1079.8     0.279      -9999      -9999      6.978      2.617      1.909      2.582      1.241      1.067      3.785      0.1369118  0.1369118  0.2752743  0.9618257  9.791594   1.909      0.06704351 0.3539289  71.459     0.4192804  0.2555734  0.5829873 
1080       0.274      -9999      -9999      6.741      2.541      2.315      3.129      1.583      1.078      3.505      0.1403077  0.1403077  0.2735462  1.111725   12.83779   2.315      0.1657517  0.4165686  71.332     0.403753   0.228813   0.578693  
1080.2     0.268      -9999      -9999      6.682      2.389      2.722      3.675      1.926      1.089      3.277      0.140309   0.140309   0.2718181  1.111788   13.73331   2.722      0.2268119  0.459859   71.205     0.3985123  0.2225987  0.5744259 
1080.4     0.269      -9999      -9999      6.639      2.389      3.065      3.138      2.146      1.11       3.277      0.1381974  0.1381974  0.268519   1.016035   14.42509   3.065      0.2589727  0.4841354  71.12      0.394914   0.2181762  0.5716519 
1080.6     0.275      -9999      -9999      6.529      2.719      3.094      2.477      2.108      1.118      3.048      0.1387085  0.1387085  0.2672622  1.038428   16.35754   3.094      0.2646086  0.4858163  71.12      0.3895566  0.2072586  0.5718545 
