~Version
 VERS              .         2.0                           : CWLS LOG ASCII STANDARD - VERSION 2.0
 WRAP              .         NO                            : ONE LINE PER DEPTH STEP
 DLM               .         SPACE                         : DELIMITING CHARACTER(SPACE TAB OR COMMA)
~Well Information
#_______________________________________________________________________________
#
#PARAMETER_NAME    .UNIT     VALUE                         : DESCRIPTION
#_______________________________________________________________________________
STRT               .M        890                           : First reference value
STOP               .M        1237                          : Last reference value
STEP               .M        0.2                           : Step increment
NULL               .         -9999                         : Missing value
COMP               .                                       : Company
WELL               .         1477                          : Well name
FLD                .         УЗЕНЬ                         : Field
LOC                .                                       : Location
CNTY               .                                       : County
STAT               .                                       : State
CTRY               .                                       : Country
SRVC               .                                       : Service Company
DATE               .         16.01.70                      : Date
UWI                .                                       : Unique Well ID
API                .                                       : 
Block              .         7                             : 
Category           .         Нефтяная                      : 
Condition          .         В работе                      : 
Date               .         28.01.1970                    : 
EREF               .m        90.8                          : 100.8
Gorizont           .         14                            : 14
Interpretator      .         Ким С.В.                      : 
Kupol              .         основной                      : osnovnoi
Mud                .         0                             : 
Mud_density        .         0                             : 
Mud_resistivity    .         0                             : 
NGDU               .         НГДУ-2                        : 
ORIGINALWELLNAME   .         1477                          : 
Spud_date          .         1970                          : 1961
Viscosity          .         0                             : 
X                  .m        42082.6                       : 46154
Y                  .m        84466.93                      : 85761.93
YEAR               .         2019                          : 
~Parameter Information Block
#_______________________________________________________________________________
#
#PARAMETER_NAME    .UNIT     VALUE                         : DESCRIPTION
#_______________________________________________________________________________
SET                .         LQC_KAZNIPI_Petrel            : 
TLFamily_CALI      .         Caliper                       : 
TLFamily_COLL      .         Net Reservoir Flag            : 
TLFamily_CSAT      .         Fluid Code                    : 
TLFamily_DEPT      .         Measured Depth                : 
TLFamily_GR        .         Russian Gamma Ray             : 
TLFamily_GZ3       .         Gradient 225                  : 
TLFamily_LLS       .         Lateral Log Resistivity       : 
TLFamily_MINV      .         Micro Gradient Resistivity    : 
TLFamily_MNOR      .         Micro Resistivity             : 
TLFamily_NGLD      .         Neutron Gamma                 : 
TLFamily_OGZ       .         Gradient Inverted 225         : 
TLFamily_PHIE      .         Effective Porosity            : 
TLFamily_PHIEN     .         Effective Porosity            : 
TLFamily_PHIT      .         Porosity                      : 
TLFamily_PRMB      .         Permeability                  : 
TLFamily_PRMB_DGR  .         Permeability                  : 
TLFamily_RT        .         Formation Resistivity         : 
TLFamily_SOIL_ARCHIE .         Oil Saturation                : 
TLFamily_SOIL_DW   .         Oil Saturation                : 
TLFamily_SP        .         Spontaneous Potential         : 
TLFamily_VSH_FIN   .         Shale Volume                  : 
TLFamily_VSH_GR    .         Shale Volume                  : 
TLFamily_VSH_SP    .         Shale Volume                  : 
~Curve Information
#_______________________________________________________________________________
#
#LOGNAME           .UNIT     LOG_ID                        : DESCRIPTION
#_______________________________________________________________________________
DEPT               .M                                      : Колонка глубины 
CALI               .м                                      : Каверномер 
COLL               .unitless                               : Описание 
CSAT               .unitless                               : Описание 
GR                 .uR/h                                   : Гамма каротаж 
GZ3                .Ohmm                                   :  
LLS                .Ohmm                                   : Боковой каротаж 
MINV               .Ohmm                                   : Микро-градиент зонд 
MNOR               .Ohmm                                   : Микро-потенциал зонд 
NGLD               .у.е.                                   : Показания зонда НГК-60 аппаратуры ДРСТ-3-90 
OGZ                .Ohmm                                   :  
PHIE               .v/v                                    : Описание 
PHIEN              .v/v                                    :  
PHIT               .v/v                                    : Описание 
PRMB               .mD                                     :  
PRMB_DGR           .mD                                     :  
RT                 .ohmm                                   : УЭС пласта 
SOIL_ARCHIE        .v/v                                    :  
SOIL_DW            .v/v                                    :  
SP                 .мВ                                     : Потенциал самополяризации 
VSH_FIN            .v/v                                    : Описание 
VSH_GR             .v/v                                    : Shale volume 
VSH_SP             .v/v                                    : Shale Volume 
~Ascii
# ...
1029.6     0.273      -9999      -9999      7.495      2.084      1.668      0.656      1.067      0.883      1.397      0.1800257  0.1800257  0.3041807  6.048821   5.422967   1.668      0.2169056  0.41567    67.903     0.3762273  0.3253125  0.4271421 
1029.8     0.267      -9999      -9999      7.732      2.084      1.685      0.555      1.206      0.875      1.397      0.1732703  0.1732703  0.3054375  4.534657   4.136189   1.685      0.1942239  0.4111975  68.284     0.4005067  0.3633588  0.4376546 
1030       0.265      -9999      -9999      7.808      2.008      1.545      0.576      1.046      0.873      1.346      0.16866    0.16866    0.3057517  3.7252     3.792076   1.545      0.1408027  0.3789169  68.876     0.4154295  0.3764777  0.4543813 
1030.2     0.263      -9999      -9999      7.885      1.881      1.405      0.598      0.885      0.877      1.473      0.1628964  0.1628964  0.3051233  2.91336    3.472623   1.405      0.07401725 0.3389551  69.469     0.4309907  0.3902524  0.471729  
1030.4     0.263      -9999      -9999      8.206      1.881      1.261      0.691      0.741      0.889      1.473      0.1476428  0.1476428  0.3032381  1.520063   2.406174   1.261      0          0.2724741  70.062     0.4715008  0.4533208  0.4896808 
1030.6     0.261      -9999      -9999      8.469      1.855      1.215      0.758      0.745      0.9        1.473      0.1350496  0.1350496  0.30151    0.8883929  1.781497   1.215      0          0.2306869  70.273     0.5044253  0.5125192  0.4963314 
1030.8     0.26       -9999      -9999      8.579      1.855      1.143      0.771      0.779      0.922      1.473      0.1251477  0.1251477  0.2980538  0.5823671  1.571034   1.143      0          0.1781496  70.654     0.5239579  0.5395169  0.508399  
1031       0.265      -9999      -9999      8.325      1.804      1.16       0.699      0.868      0.938      1.524      0.1296429  0.1296429  0.2955402  0.705439   2.1002     1.16       0          0.1904766  71.205     0.502719   0.4792084  0.5262297 
1031.2     0.271      -9999      -9999      8.071      1.754      1.177      0.627      0.957      0.955      1.803      0.1327835  0.1327835  0.2928695  0.8065493  2.8076     1.177      0          0.1989641  71.755     0.4851091  0.4256414  0.5445767 
1031.4     0.279      -9999      -9999      7.994      1.754      1.257      0.644      0.982      0.965      1.803      0.1352834  0.1352834  0.2912985  0.8972957  3.065878   1.257      0          0.227713   71.459     0.4727729  0.4106176  0.5349283 
1031.6     0.281      -9999      -9999      8.02       1.804      1.296      0.678      0.948      0.974      1.956      0.136635   0.136635   0.2898846  0.9505388  2.976111   1.296      0          0.2399817  70.781     0.4643927  0.4156305  0.513155  
1031.8     0.28       -9999      -9999      8.079      1.804      1.406      0.615      0.956      0.989      1.956      0.1379335  0.1379335  0.2875281  1.004666   2.782044   1.406      0          0.2692446  69.681     0.4533169  0.4272336  0.4794001 
1032       0.28       -9999      -9999      8.164      1.931      1.372      0.61       0.956      0.995      1.727      0.139377   0.139377   0.2865855  1.068461   2.524494   1.372      0          0.2616773  68.58      0.4460863  0.4445217  0.4476508 
1032.2     0.281      -9999      -9999      8.248      1.779      1.338      0.606      0.956      0.987      1.321      0.1426148  0.1426148  0.2878423  1.226679   2.293401   1.338      0          0.2608967  67.479     0.4400832  0.4622939  0.4178726 
1032.4     0.282      -9999      -9999      8.062      1.779      1.592      0.707      1.105      0.977      1.321      0.1539101  0.1539101  0.2894133  1.985849   2.836628   1.592      0.08250952 0.3442891  66.675     0.4106158  0.4238575  0.3973741 
1032.6     0.28       -9999      -9999      7.825      1.627      1.951      0.716      1.295      0.967      1.346      0.1633032  0.1633032  0.2909843  2.964354   3.719111   1.951      0.2079522  0.4231807  66.548     0.3869123  0.3794764  0.3943483 
1032.8     0.278      -9999      -9999      7.512      1.627      2.044      0.711      1.135      0.972      1.346      0.1713514  0.1713514  0.2901988  4.178329   5.318619   2.044      0.2568708  0.4461978  66.463     0.3601435  0.3279037  0.3923834 
1033       0.279      -9999      -9999      7.622      1.728      1.655      0.656      0.902      0.974      1.422      0.1676428  0.1676428  0.2898846  3.567048   4.690287   1.655      0.1636956  0.3787618  66.59      0.3704298  0.3451763  0.3956833 
1033.2     0.28       -9999      -9999      7.732      1.703      1.266      0.601      0.669      0.98       1.321      0.163151   0.163151   0.288942   2.945172   4.136189   1.266      0.02894733 0.2806117  66.717     0.3811848  0.3633588  0.3990108 
1033.4     0.28       -9999      -9999      7.96       1.703      1.13       0.585      0.808      0.989      1.321      0.1542722  0.1542722  0.2875281  2.016759   3.187359   1.13       0          0.219312   66.887     0.4038057  0.4041537  0.4034576 
1033.6     0.278      -9999      -9999      8.003      1.525      1.118      0.61       0.83       0.998      1.27       0.1511287  0.1511287  0.2861142  1.763717   3.034502   1.118      0          0.2064259  66.971     0.4090469  0.412346   0.4057477 
1033.8     0.275      -9999      -9999      8.087      1.525      1.13       0.708      0.868      0.995      1.27       0.1479548  0.1479548  0.2865855  1.540422   2.756727   1.13       0          0.2049216  67.183     0.4200931  0.4288316  0.4113546 
1034       0.278      -9999      -9999      8.13       1.576      1.092      0.767      0.864      0.988      1.27       0.1461304  0.1461304  0.2876852  1.425107   2.624521   1.092      0          0.189226   67.522     0.428954   0.4375241  0.4203839 
1034.2     0.281      -9999      -9999      8.172      1.728      1.054      0.826      0.859      0.983      1.346      0.1439703  0.1439703  0.2884707  1.299682   2.501515   1.054      0          0.1713858  67.86      0.43788    0.4461845  0.4295756 
1034.4     0.287      -9999      -9999      8.206      1.728      1.025      0.906      0.931      0.976      1.346      0.1423399  0.1423399  0.2895704  1.212379   2.406174   1.025      0          0.1580447  68.199     0.446153   0.4533208  0.4389852 
1034.6     0.289      -9999      -9999      8.24       1.601      1.058      1          1.025      0.97       1.397      0.1414797  0.1414797  0.290513   1.168708   2.314468   1.058      0          0.1710218  68.326     0.4516159  0.4605711  0.4426608 
1034.8     0.293      -9999      -9999      8.367      1.601      1.096      1.051      1.389      0.961      1.397      0.1370531  0.1370531  0.2919269  0.9676405  2.001768   1.096      0          0.1780891  68.58      0.4693145  0.4886938  0.4499352 
1035       0.295      -9999      -9999      8.519      1.474      1.16       0.936      1.317      0.962      1.448      0.1291473  0.1291473  0.2917698  0.6906841  1.682547   1.16       0          0.1827646  68.961     0.4927954  0.5246192  0.4609717 
1035.2     0.297      -9999      -9999      8.672      1.398      1.224      0.822      1.245      0.969      1.473      0.1197787  0.1197787  0.2906701  0.4631797  1.412618   1.224      0          0.1800039  69.342     0.5178528  0.5634483  0.4722574 
1035.4     0.294      -9999      -9999      8.68       1.398      1.249      0.703      0.982      0.976      1.473      0.1166362  0.1166362  0.2895704  0.4050818  1.39976    1.249      0          0.1783581  69.681     0.5240431  0.5655559  0.4825304 
1035.6     0.292      -9999      -9999      8.63       1.474      1.215      0.657      1.063      0.982      1.473      0.1173989  0.1173989  0.2886278  0.4184761  1.48208    1.215      0          0.1671945  69.765     0.5188754  0.5525118  0.485239  
1035.8     0.29       -9999      -9999      8.664      1.474      1.194      0.64       1.151      0.976      1.473      0.1160019  0.1160019  0.2895704  0.3942714  1.425593   1.194      0          0.1579788  69.935     0.525965   0.5613485  0.4905815 
