~Version
 VERS              .         2.0                           : CWLS LOG ASCII STANDARD - VERSION 2.0
 WRAP              .         NO                            : ONE LINE PER DEPTH STEP
 DLM               .         SPACE                         : DELIMITING CHARACTER(SPACE TAB OR COMMA)
~Well Information
#_______________________________________________________________________________
#
#PARAMETER_NAME    .UNIT     VALUE                         : DESCRIPTION
#_______________________________________________________________________________
STRT               .M        890                           : First reference value
STOP               .M        1237                          : Last reference value
STEP               .M        0.2                           : Step increment
NULL               .         -9999                         : Missing value
COMP               .                                       : Company
WELL               .         1477                          : Well name
FLD                .         УЗЕНЬ                         : Field
LOC                .                                       : Location
CNTY               .                                       : County
STAT               .                                       : State
CTRY               .                                       : Country
SRVC               .                                       : Service Company
DATE               .         16.01.70                      : Date
UWI                .                                       : Unique Well ID
API                .                                       : 
Block              .         7                             : 
Category           .         Нефтяная                      : 
Condition          .         В работе                      : 
Date               .         28.01.1970                    : 
EREF               .m        90.8                          : 100.8
Gorizont           .         14                            : 14
Interpretator      .         Ким С.В.                      : 
Kupol              .         основной                      : osnovnoi
Mud                .         0                             : 
Mud_density        .         0                             : 
Mud_resistivity    .         0                             : 
NGDU               .         НГДУ-2                        : 
ORIGINALWELLNAME   .         1477                          : 
Spud_date          .         1970                          : 1961
Viscosity          .         0                             : 
X                  .m        42082.6                       : 46154
Y                  .m        84466.93                      : 85761.93
YEAR               .         2019                          : 
~Parameter Information Block
#_______________________________________________________________________________
#
#PARAMETER_NAME    .UNIT     VALUE                         : DESCRIPTION
#_______________________________________________________________________________
SET                .         LQC_KAZNIPI_Petrel            : 
TLFamily_CALI      .         Caliper                       : 
TLFamily_COLL      .         Net Reservoir Flag            : 
TLFamily_CSAT      .         Fluid Code                    : 
TLFamily_DEPT      .         Measured Depth                : 
TLFamily_GR        .         Russian Gamma Ray             : 
TLFamily_GZ3       .         Gradient 225                  : 
TLFamily_LLS       .         Lateral Log Resistivity       : 
TLFamily_MINV      .         Micro Gradient Resistivity    : 
TLFamily_MNOR      .         Micro Resistivity             : 
TLFamily_NGLD      .         Neutron Gamma                 : 
TLFamily_OGZ       .         Gradient Inverted 225         : 
TLFamily_PHIE      .         Effective Porosity            : 
TLFamily_PHIEN     .         Effective Porosity            : 
TLFamily_PHIT      .         Porosity                      : 
TLFamily_PRMB      .         Permeability                  : 
TLFamily_PRMB_DGR  .         Permeability                  : 
TLFamily_RT        .         Formation Resistivity         : 
TLFamily_SOIL_ARCHIE .         Oil Saturation                : 
TLFamily_SOIL_DW   .         Oil Saturation                : 
TLFamily_SP        .         Spontaneous Potential         : 
TLFamily_VSH_FIN   .         Shale Volume                  : 
TLFamily_VSH_GR    .         Shale Volume                  : 
TLFamily_VSH_SP    .         Shale Volume                  : 
~Curve Information
#_______________________________________________________________________________
#
#LOGNAME           .UNIT     LOG_ID                        : DESCRIPTION
#_______________________________________________________________________________
DEPT               .M                                      : Колонка глубины 
CALI               .м                                      : Каверномер 
COLL               .unitless                               : Описание 
CSAT               .unitless                               : Описание 
GR                 .uR/h                                   : Гамма каротаж 
GZ3                .Ohmm                                   :  
LLS                .Ohmm                                   : Боковой каротаж 
MINV               .Ohmm                                   : Микро-градиент зонд 
MNOR               .Ohmm                                   : Микро-потенциал зонд 
NGLD               .у.е.                                   : Показания зонда НГК-60 аппаратуры ДРСТ-3-90 
OGZ                .Ohmm                                   :  
PHIE               .v/v                                    : Описание 
PHIEN              .v/v                                    :  
PHIT               .v/v                                    : Описание 
PRMB               .mD                                     :  
PRMB_DGR           .mD                                     :  
RT                 .ohmm                                   : УЭС пласта 
SOIL_ARCHIE        .v/v                                    :  
SOIL_DW            .v/v                                    :  
SP                 .мВ                                     : Потенциал самополяризации 
VSH_FIN            .v/v                                    : Описание 
VSH_GR             .v/v                                    : Shale volume 
VSH_SP             .v/v                                    : Shale Volume 
~Ascii
# ...
934        0.259      -9999      -9999      4.633      7.498      4.382      2.566      2.493      1.265      6.579      0.1181589  0.1181589  0.2441685  0.4322621  172.2624   4.382      0.281811   0.5141792  77.936     0.3818474  0.07925069 0.684444  
934.2000000000001 0.26       -9999      -9999      4.582      8.768000000000001 3.514      2.803      2.62       1.253      5.867      0.119483   0.119483   0.2460537  0.457375   182.1219   3.514      0.2111177  0.4623507  78.063     0.3835477  0.07746988 0.6896254 
934.4      0.259      -9999      -9999      4.32       8.768000000000001 4.36       2.879      2.527      1.246      5.867      0.121131   0.121131   0.2471534  0.4906805  242.4034   4.36       0.2955216  0.5211643  78.19      0.3818859  0.06893305 0.6948388 
934.6      0.256      -9999      -9999      4.151      9.148999999999999 5.355      2.401      2.222      1.252      5.436000000000001 0.1198606  0.1198606  0.2462108  0.4648015  291.4993   5.355      0.3544005  0.565164   78.359     0.3828793  0.06393231 0.7018264 
934.8      0.254      -9999      -9999      4.083      8.386999999999999 5.905      2.329      2.333      1.254      5.333999999999999 0.1181106  0.1181106  0.2458966  0.4313729  313.9544   5.905      0.3754008  0.5832512  78.613     0.3872303  0.06202407 0.7124366 
935        0.254      -9999      -9999      4.053      7.879      6.307      2.291      2.561      1.253      5.41       0.1172268  0.1172268  0.2460537  0.4154162  324.4034   6.307      0.390435   0.5957577  78.782     0.3903844  0.0612004  0.7195685 
935.2000000000001 0.254      -9999      -9999      4.024      8.006      6.519      2.74       2.803      1.249      5.461      0.1173894  0.1173894  0.2466821  0.4183067  334.8344   6.519      0.400543   0.6032224  78.867     0.391796   0.06041459 0.7231774 
935.4      0.256      -9999      -9999      4.007      8.006      6.244      2.587      2.392      1.247      5.461      0.1183743  0.1183743  0.2469963  0.4362523  341.1046   6.244      0.3927305  0.5961837  78.782     0.3897636  0.05995864 0.7195685 
935.6      0.256      -9999      -9999      3.981      8.386999999999999 5.08       2.591      2.367      1.249      5.182      0.1196418  0.1196418  0.2466821  0.4604844  350.9218   5.08       0.3371757  0.5537658  78.571     0.3849705  0.05926795 0.7106732 
935.8      0.256      -9999      -9999      4.015      8.26       4.529      2.443      2.35       1.239      4.699000000000001 0.1231043  0.1231043  0.2482531  0.5337633  338.1395   4.529      0.3176531  0.5343596  78.274     0.3792388  0.06017277 0.6983048 
936        0.256      -9999      -9999      4.117      7.625000000000001 4.635      2.295      2.494      1.23       4.75       0.1257787  0.1257787  0.249667   0.5982521  302.5186   4.635      0.3375378  0.5450944  78.02      0.3754191  0.06297097 0.6878673 
936.2000000000001 0.255      -9999      -9999      4.193      6.989999999999999 4.974      1.948      2.426      1.23       5.131      0.1262739  0.1262739  0.249667   0.6110211  278.4399   4.974      0.3613114  0.561534   77.893     0.3739186  0.06514015 0.6826971 
936.4      0.255      -9999      -9999      4.337      6.989999999999999 4.403      2.113      2.324      1.24       5.131      0.1242715  0.1242715  0.248096   0.5610065  237.9478   4.403      0.3142181  0.529269   77.851     0.3752257  0.06945723 0.6809942 
936.6      0.255      -9999      -9999      4.447      6.482      4.297      2.354      2.523      1.247      5.283000000000001 0.1228764  0.1228764  0.2469963  0.5286004  211.031    4.297      0.2994765  0.520116   77.809     0.3761209  0.07294676 0.6792949 
936.8      0.256      -9999      -9999      4.591      6.989999999999999 3.894      2.464      2.349      1.24       5.893      0.1237441  0.1237441  0.248096   0.5485283  180.3418   3.894      0.270826   0.4986292  77.724     0.3768239  0.07778122 0.6758667 
937        0.256      -9999      -9999      4.692      6.989999999999999 3.556      2.054      2.129      1.251      6.730999999999999 0.1231015  0.1231015  0.2463679  0.5336989  161.5202   3.556      0.2356265  0.4720239  77.47      0.3735346  0.08136198 0.6657072 
937.2000000000001 0.257      -9999      -9999      4.625      6.482      3.027      1.762      1.685      1.264      6.655      0.1228372  0.1228372  0.2443256  0.5277163  173.7728   3.027      0.1740699  0.4243311  77.258     0.3681467  0.07896867 0.6573248 
937.4      0.257      -9999      -9999      4.464      6.482      3.81       1.923      2.096      1.281      6.655      0.1232437  0.1232437  0.2416549  0.5369468  207.1519   3.81       0.2607214  0.484063   76.92      0.3588217  0.07350149 0.6441419 
937.6      0.256      -9999      -9999      4.354      5.719999999999999 4.297      1.982      1.986      1.284      6.198      0.1254974  0.1254974  0.2411836  0.5911194  233.5739   4.297      0.3122363  0.5169961  76.581     0.3505641  0.06998542 0.6311428 
937.8      0.256      -9999      -9999      4.252      5.719999999999999 4.995      1.91       2.257      1.295      5.842      0.1274285  0.1274285  0.2394555  0.6418632  261.0767   4.995      0.3676062  0.5527034  76.073     0.3394758  0.06687552 0.6120762 
938        0.255      -9999      -9999      4.134      6.482      4.636      1.986      1.905      1.297      5.309      0.1309945  0.1309945  0.2391413  0.7472982  296.958    4.636      0.3606358  0.5403241  75.523     0.3277175  0.06344981 0.5919853 
938.2000000000001 0.254      -9999      -9999      4.074      7.371      4.805      2.324      2.147      1.288      5.333999999999999 0.1349262  0.1349262  0.2405552  0.8837297  317.0534   4.805      0.3872754  0.5552944  75.142     0.3200877  0.06177581 0.5783997 
938.4      0.254      -9999      -9999      4.074      7.371      4.572      2.714      2.197      1.277      5.333999999999999 0.138371   0.138371   0.2422833  1.023585   317.0534   4.572      0.3864362  0.5505714  74.845     0.3148859  0.06177581 0.567996  
938.6      0.253      -9999      -9999      4.108      6.989999999999999 4.191      2.553      2.409      1.26       5.080000000000001 0.140886   0.140886   0.244954   1.139487   305.5047   4.191      0.370814   0.5369997  74.845     0.3153574  0.06271891 0.567996  
938.8      0.253      -9999      -9999      4.159      6.101      4.318      2.596      2.54       1.245      4.877      0.1422739  0.1422739  0.2473105  1.208971   288.9655   4.318      0.3848413  0.5482466  74.972     0.3182927  0.06416064 0.5724248 
939        0.253      -9999      -9999      4.379      6.228      4.254      2.511      2.637      1.235      5.461      0.1415237  0.1415237  0.2488815  1.1709     227.2874   4.254      0.3776564  0.5456489  75.184     0.3253267  0.07076946 0.579884  
939.2000000000001 0.254      -9999      -9999      4.514      6.609000000000001 4.382      2.507      2.713      1.23       5.994000000000001 0.1408413  0.1408413  0.249667   1.137313   196.1513   4.382      0.383665   0.5523325  75.311     0.329775   0.07515757 0.5843924 
939.4      0.254      -9999      -9999      4.557      6.609000000000001 3.98       2.536      2.904      1.226      5.994000000000001 0.1412297  0.1412297  0.2502954  1.156314   187.1591   3.98       0.3567421  0.5314918  75.311     0.330502   0.07661162 0.5843924 
939.6      0.255      -9999      -9999      4.455      6.863000000000001 4.636      2.625      2.836      1.233      5.333999999999999 0.1411902  0.1411902  0.2491957  1.154363   209.1967   4.636      0.4010404  0.5646964  75.226     0.3272895  0.07320728 0.5813717 
939.8      0.255      -9999      -9999      4.303      6.228      4.974      2.583      2.57       1.24       4.597      0.1423578  0.1423578  0.248096   1.213305   246.9427   4.974      0.4246388  0.5799927  74.972     0.3204188  0.0684128  0.5724248 
940        0.255      -9999      -9999      4.142      6.482      4.742      2.596      2.68       1.239      4.166      0.145474   0.145474   0.2482531  1.385767   294.3765   4.742      0.4225898  0.5736858  74.591     0.3114517  0.06367642 0.559227  
