~Version
 VERS              .         2.0                           : CWLS LOG ASCII STANDARD - VERSION 2.0
 WRAP              .         NO                            : ONE LINE PER DEPTH STEP
 DLM               .         SPACE                         : DELIMITING CHARACTER(SPACE TAB OR COMMA)
~Well Information
#_______________________________________________________________________________
#
#PARAMETER_NAME    .UNIT     VALUE                         : DESCRIPTION
#_______________________________________________________________________________
STRT               .M        890                           : First reference value
STOP               .M        1237                          : Last reference value
STEP               .M        0.2                           : Step increment
NULL               .         -9999                         : Missing value
COMP               .                                       : Company
WELL               .         1477                          : Well name
FLD                .         УЗЕНЬ                         : Field
LOC                .                                       : Location
CNTY               .                                       : County
STAT               .                                       : State
CTRY               .                                       : Country
SRVC               .                                       : Service Company
DATE               .         16.01.70                      : Date
UWI                .                                       : Unique Well ID
API                .                                       : 
Block              .         7                             : 
Category           .         Нефтяная                      : 
Condition          .         В работе                      : 
Date               .         28.01.1970                    : 
EREF               .m        90.8                          : 100.8
Gorizont           .         14                            : 14
Interpretator      .         Ким С.В.                      : 
Kupol              .         основной                      : osnovnoi
Mud                .         0                             : 
Mud_density        .         0                             : 
Mud_resistivity    .         0                             : 
NGDU               .         НГДУ-2                        : 
ORIGINALWELLNAME   .         1477                          : 
Spud_date          .         1970                          : 1961
Viscosity          .         0                             : 
X                  .m        42082.6                       : 46154
Y                  .m        84466.93                      : 85761.93
YEAR               .         2019                          : 
~Parameter Information Block
#_______________________________________________________________________________
#
#PARAMETER_NAME    .UNIT     VALUE                         : DESCRIPTION
#_______________________________________________________________________________
SET                .         LQC_KAZNIPI_Petrel            : 
TLFamily_CALI      .         Caliper                       : 
TLFamily_COLL      .         Net Reservoir Flag            : 
TLFamily_CSAT      .         Fluid Code                    : 
TLFamily_DEPT      .         Measured Depth                : 
TLFamily_GR        .         Russian Gamma Ray             : 
TLFamily_GZ3       .         Gradient 225                  : 
TLFamily_LLS       .         Lateral Log Resistivity       : 
TLFamily_MINV      .         Micro Gradient Resistivity    : 
TLFamily_MNOR      .         Micro Resistivity             : 
TLFamily_NGLD      .         Neutron Gamma                 : 
TLFamily_OGZ       .         Gradient Inverted 225         : 
TLFamily_PHIE      .         Effective Porosity            : 
TLFamily_PHIEN     .         Effective Porosity            : 
TLFamily_PHIT      .         Porosity                      : 
TLFamily_PRMB      .         Permeability                  : 
TLFamily_PRMB_DGR  .         Permeability                  : 
TLFamily_RT        .         Formation Resistivity         : 
TLFamily_SOIL_ARCHIE .         Oil Saturation                : 
TLFamily_SOIL_DW   .         Oil Saturation                : 
TLFamily_SP        .         Spontaneous Potential         : 
TLFamily_VSH_FIN   .         Shale Volume                  : 
TLFamily_VSH_GR    .         Shale Volume                  : 
TLFamily_VSH_SP    .         Shale Volume                  : 
~Curve Information
#_______________________________________________________________________________
#
#LOGNAME           .UNIT     LOG_ID                        : DESCRIPTION
#_______________________________________________________________________________
DEPT               .M                                      : Колонка глубины 
CALI               .м                                      : Каверномер 
COLL               .unitless                               : Описание 
CSAT               .unitless                               : Описание 
GR                 .uR/h                                   : Гамма каротаж 
GZ3                .Ohmm                                   :  
LLS                .Ohmm                                   : Боковой каротаж 
MINV               .Ohmm                                   : Микро-градиент зонд 
MNOR               .Ohmm                                   : Микро-потенциал зонд 
NGLD               .у.е.                                   : Показания зонда НГК-60 аппаратуры ДРСТ-3-90 
OGZ                .Ohmm                                   :  
PHIE               .v/v                                    : Описание 
PHIEN              .v/v                                    :  
PHIT               .v/v                                    : Описание 
PRMB               .mD                                     :  
PRMB_DGR           .mD                                     :  
RT                 .ohmm                                   : УЭС пласта 
SOIL_ARCHIE        .v/v                                    :  
SOIL_DW            .v/v                                    :  
SP                 .мВ                                     : Потенциал самополяризации 
VSH_FIN            .v/v                                    : Описание 
VSH_GR             .v/v                                    : Shale volume 
VSH_SP             .v/v                                    : Shale Volume 
~Ascii
# ...
1119.2     0.243      1          2          7.152      14.61      7.98       1.973      2.422      1.198      7.747000000000001 0.2097981  0.2097981  0.2546942  21.53417   35.851     7.98       0.671212   0.721494   36.83      0.1360488  0.1504386  0.1216589 
1119.4     0.243      1          2          7.147      14.61      7.197      1.838      2.358      1.171      7.747000000000001 0.2140553  0.2140553  0.2589359  25.82152   36.16715   7.197      0.6608713  0.7119745  37.084     0.1360018  0.1499003  0.1221032 
1119.6     0.243      1          2          7.168      14.483     7.027      1.795      2.341      1.161      7.112      0.215175   0.215175   0.2605069  27.08452   34.85783   7.027      0.6586005  0.7101672  37.338     0.1373694  0.1521744  0.1225644 
1119.8     0.243      1          2          7.19       14.483     6.689      1.859      2.337      1.159      7.112      0.2149462  0.2149462  0.2608211  26.82147   33.53699   6.689      0.6502871  0.7030077  37.804     0.1390149  0.1545937  0.1234362 
1120       0.242      1          2          7.465      13.086     6.35       2.066      2.29       1.157      7.239      0.2095749  0.2095749  0.2611353  21.33014   20.69291   6.35       0.6336609  0.6921253  38.185     0.1562436  0.188287   0.1242002 
1120.2     0.242      1          2          7.808      10.292     6.011      2.274      2.243      1.154      9.525      0.2012511  0.2012511  0.2616066  14.95602   11.33091   6.011      0.6106016  0.6784716  38.566     0.1828955  0.2407812  0.1250098 
1120.4     0.241      1          2          7.855      10.292     5.313      2.185      2.248      1.151      9.525      0.2003265  0.2003265  0.2620779  14.37778   10.43337   5.313      0.5857223  0.6577025  38.65      0.1871253  0.2490332  0.1252173 
1120.6     0.241      1          2          7.885      8.641      4.783      1.994      2.311      1.142      9.017      0.2008718  0.2008718  0.2634918  14.71607   9.898015   4.783      0.5658096  0.6407725  38.566     0.1897575  0.2544478  0.1250671 
1120.8     0.24       8          2          7.969      8.641      3.81       1.8        2.358      1.142      9.017      0.198305   0.198305   0.2634918  13.19011   8.540702   3.81       0.5114642  0.5953429  38.439     0.1975356  0.2702429  0.1248284 
1121       0.24       8          2          8.02       7.625000000000001 3.344      1.8        2.252      1.142      7.747000000000001 0.1967399  0.1967399  0.2634918  12.3384    7.809134   3.344      0.4770244  0.5666392  38.142     0.2022784  0.2803074  0.1242494 
1121.2     0.24       8          2          8.181      6.863000000000001 2.879      1.8        2.146      1.142      7.747000000000001 0.1911721  0.1911721  0.2634918  9.730363   5.886159   2.879      0.4247533  0.5273519  37.846     0.2191506  0.3146054  0.1236959 
1121.4     0.24       8          2          8.154      6.863000000000001 3.006      1.757      2.091      1.151      7.747000000000001 0.190841   0.190841   0.2620779  9.593941   6.171922   3.006      0.4354371  0.5356507  37.55      0.2158693  0.3085738  0.1231647 
1121.6     0.24       8          2          8.13       6.609000000000001 3.154      1.711      2.125      1.161      9.651999999999999 0.1901476  0.1901476  0.2605069  9.314356   6.437569   3.154      0.4462746  0.5443907  37.507     0.21321    0.3033095  0.1231105 
1121.8     0.24       8          2          7.918      6.609000000000001 3.619      1.685      2.134      1.165      9.651999999999999 0.196559   0.196559   0.2598785  12.24356   9.340792   3.619      0.4956602  0.5798993  37.55      0.1918772  0.2605398  0.1232146 
1122       0.24       1          2          7.597      6.609000000000001 4.678      1.668      2.184      1.169      9.651999999999999 0.2045753  0.2045753  0.2592501  17.23411   16.41209   4.678      0.568189   0.6361154  38.142     0.1656812  0.206977   0.1243853 
1122.2     0.241      1          2          7.258      7.116999999999999 5.736      1.651      2.235      1.166      7.366      0.2122039  0.2122039  0.2597214  23.86105   29.76258   5.736      0.6199046  0.6767511  38.735     0.1439924  0.1623175  0.1256673 
1122.4     0.241      1          2          7.004      7.116999999999999 6.519      1.825      2.298      1.158      7.366      0.217722   0.217722   0.2609782  30.19244   46.48999   6.519      0.6499705  0.7008933  39.243     0.1310793  0.1352931  0.1268655 
1122.6     0.241      1          2          6.873      7.498      6.562      2.036      2.286      1.15       6.857999999999999 0.2209747  0.2209747  0.262235   34.68536   58.51325   6.562      0.6555266  0.7045621  39.243     0.1250311  0.1231644  0.1268978 
1122.8     0.241      1          2          6.75       7.498      6.477      2.341      2.311      1.15       6.857999999999999 0.2227014  0.2227014  0.262235   37.33597   72.61874   6.477      0.6557541  0.7036107  39.201     0.1197989  0.112768   0.1268298 
1123       0.241      1          2          6.708      7.879      6.16       2.32       2.489      1.152      6.857999999999999 0.2229338  0.2229338  0.2619208  37.70792   78.17643   6.16       0.6478717  0.6960052  39.201     0.1181425  0.1094229  0.1268621 
1123.2     0.24       1          2          6.745      7.752      5.842      2.299      2.667      1.154      6.35       0.2221289  0.2221289  0.2616066  36.43541   73.25909   5.842      0.6378645  0.6871452  39.201     0.1196295  0.1123645  0.1268944 
1123.4     0.24       1          2          6.784      7.752      5.567      2.058      2.684      1.151      6.35       0.2219494  0.2219494  0.2620779  36.15765   68.41036   5.567      0.6293165  0.6797329  39.497     0.1216014  0.1155507  0.127652  
1123.6     0.241      1          2          6.928      8.26       5.482      1.931      2.561      1.141      6.096      0.2212746  0.2212746  0.2636489  35.13181   53.12682   5.482      0.6256388  0.6779522  39.888     0.128407   0.1281182  0.1286957 
1123.8     0.241      1          2          6.952      8.26       5.418      1.817      2.48       1.124      6.096      0.2233854  0.2233854  0.2663196  38.44125   50.93454   5.418      0.6266699  0.6792248  40.301     0.1301037  0.1303419  0.1298654 
1124       0.242      1          2          6.976      9.021999999999999 5.08       1.834      2.332      1.119      5.715      0.2228186  0.2228186  0.2671051  37.52316   48.83275   5.08       0.6143604  0.6689306  42.122     0.1342015  0.1326041  0.1357989 
1124.2     0.242      1          2          7.029      8.132999999999999 4.741      1.851      2.184      1.114      7.239      0.2214988  0.2214988  0.2678906  35.4694    44.49342   4.741      0.5995911  0.657017   43.942     0.1405811  0.13774    0.1434223 
1124.4     0.243      1          2          7.173      8.132999999999999 3.788      1.821      2.053      1.131      7.239      0.214043   0.214043   0.2652199  25.808     34.55317   3.788      0.5416582  0.6084426  46.482     0.1550814  0.1527208  0.157442  
1124.6     0.242      1          2          7.266      7.243999999999999 3.196      1.787      2.113      1.148      9.017      0.2084897  0.2084897  0.2625492  20.36545   29.34744   3.196      0.4921146  0.5664416  47.498     0.1638165  0.1632512  0.1643819 
1124.8     0.242      -9999      -9999      7.452      7.243999999999999 2.603      1.787      2.159      1.141      9.017      0.2019746  0.2019746  0.2636489  15.42474   21.17068   2.603      0.4250885  0.5143329  50.25      0.1868917  0.1865402  0.1872433 
1125       0.241      -9999      -9999      7.669      6.101      4.212      2.041      2.316      1.109      9.906000000000001 0.191416   0.191416   0.2686761  9.832122   14.46306   4.212      0.5193515  0.6138799  55.457     0.2341214  0.2179422  0.2503007 
1125.2     0.241      -9999      -9999      7.893      6.609000000000001 5.82       2.295      2.473      1.103      8.636000000000001 0.1704036  0.1704036  0.2696187  4.012795   9.759951   5.82       0.5430072  0.6562605  60.664     0.3006516  0.2559114  0.3453919 
