~Version
 VERS              .         2.0                           : CWLS LOG ASCII STANDARD - VERSION 2.0
 WRAP              .         NO                            : ONE LINE PER DEPTH STEP
 DLM               .         SPACE                         : DELIMITING CHARACTER(SPACE TAB OR COMMA)
~Well Information
#_______________________________________________________________________________
#
#PARAMETER_NAME    .UNIT     VALUE                         : DESCRIPTION
#_______________________________________________________________________________
STRT               .M        890                           : First reference value
STOP               .M        1237                          : Last reference value
STEP               .M        0.2                           : Step increment
NULL               .         -9999                         : Missing value
COMP               .                                       : Company
WELL               .         1477                          : Well name
FLD                .         УЗЕНЬ                         : Field
LOC                .                                       : Location
CNTY               .                                       : County
STAT               .                                       : State
CTRY               .                                       : Country
SRVC               .                                       : Service Company
DATE               .         16.01.70                      : Date
UWI                .                                       : Unique Well ID
API                .                                       : 
Block              .         7                             : 
Category           .         Нефтяная                      : 
Condition          .         В работе                      : 
Date               .         28.01.1970                    : 
EREF               .m        90.8                          : 100.8
Gorizont           .         14                            : 14
Interpretator      .         Ким С.В.                      : 
Kupol              .         основной                      : osnovnoi
Mud                .         0                             : 
Mud_density        .         0                             : 
Mud_resistivity    .         0                             : 
NGDU               .         НГДУ-2                        : 
ORIGINALWELLNAME   .         1477                          : 
Spud_date          .         1970                          : 1961
Viscosity          .         0                             : 
X                  .m        42082.6                       : 46154
Y                  .m        84466.93                      : 85761.93
YEAR               .         2019                          : 
~Parameter Information Block
#_______________________________________________________________________________
#
#PARAMETER_NAME    .UNIT     VALUE                         : DESCRIPTION
#_______________________________________________________________________________
SET                .         LQC_KAZNIPI_Petrel            : 
TLFamily_CALI      .         Caliper                       : 
TLFamily_COLL      .         Net Reservoir Flag            : 
TLFamily_CSAT      .         Fluid Code                    : 
TLFamily_DEPT      .         Measured Depth                : 
TLFamily_GR        .         Russian Gamma Ray             : 
TLFamily_GZ3       .         Gradient 225                  : 
TLFamily_LLS       .         Lateral Log Resistivity       : 
TLFamily_MINV      .         Micro Gradient Resistivity    : 
TLFamily_MNOR      .         Micro Resistivity             : 
TLFamily_NGLD      .         Neutron Gamma                 : 
TLFamily_OGZ       .         Gradient Inverted 225         : 
TLFamily_PHIE      .         Effective Porosity            : 
TLFamily_PHIEN     .         Effective Porosity            : 
TLFamily_PHIT      .         Porosity                      : 
TLFamily_PRMB      .         Permeability                  : 
TLFamily_PRMB_DGR  .         Permeability                  : 
TLFamily_RT        .         Formation Resistivity         : 
TLFamily_SOIL_ARCHIE .         Oil Saturation                : 
TLFamily_SOIL_DW   .         Oil Saturation                : 
TLFamily_SP        .         Spontaneous Potential         : 
TLFamily_VSH_FIN   .         Shale Volume                  : 
TLFamily_VSH_GR    .         Shale Volume                  : 
TLFamily_VSH_SP    .         Shale Volume                  : 
~Curve Information
#_______________________________________________________________________________
#
#LOGNAME           .UNIT     LOG_ID                        : DESCRIPTION
#_______________________________________________________________________________
DEPT               .M                                      : Колонка глубины 
CALI               .м                                      : Каверномер 
COLL               .unitless                               : Описание 
CSAT               .unitless                               : Описание 
GR                 .uR/h                                   : Гамма каротаж 
GZ3                .Ohmm                                   :  
LLS                .Ohmm                                   : Боковой каротаж 
MINV               .Ohmm                                   : Микро-градиент зонд 
MNOR               .Ohmm                                   : Микро-потенциал зонд 
NGLD               .у.е.                                   : Показания зонда НГК-60 аппаратуры ДРСТ-3-90 
OGZ                .Ohmm                                   :  
PHIE               .v/v                                    : Описание 
PHIEN              .v/v                                    :  
PHIT               .v/v                                    : Описание 
PRMB               .mD                                     :  
PRMB_DGR           .mD                                     :  
RT                 .ohmm                                   : УЭС пласта 
SOIL_ARCHIE        .v/v                                    :  
SOIL_DW            .v/v                                    :  
SP                 .мВ                                     : Потенциал самополяризации 
VSH_FIN            .v/v                                    : Описание 
VSH_GR             .v/v                                    : Shale volume 
VSH_SP             .v/v                                    : Shale Volume 
~Ascii
# ...
1163.2     0.246      1          2          6.843      2.49       5.524      1.69       2.616      1.294      3.454      0.1781489  0.1781489  0.2396126  5.583524   47.84548   5.524      0.5557268  0.6338348  51.689     0.1862535  0.1337147  0.2387924 
1163.4     0.247      1          2          6.902      2.49       4.254      1.639      2.616      1.268      3.454      0.1866199  0.1866199  0.2436972  8.013312   42.91027   4.254      0.5176974  0.5947865  49.064     0.1729614  0.1397929  0.2061299 
1163.6     0.249      1          2          6.971      2.77       3.873      1.778      2.934      1.235      3.200000000000001 0.1924628  0.1924628  0.2488815  10.28101   37.78052   3.873      0.5093395  0.5858755  47.964     0.1709658  0.1472526  0.1946789 
1163.8     0.252      1          2          7.063      2.77       3.471      1.821      2.663      1.213      3.200000000000001 0.197175   0.197175   0.2523377  12.5695    31.88186   3.471      0.4942158  0.5704282  45.974     0.1671596  0.1578218  0.1764973 
1164       0.252      1          2          7.25       2.592      3.196      1.673      2.201      1.187      2.769      0.1996341  0.1996341  0.2564223  13.95936   22.57832   3.196      0.4798852  0.5587786  44.111     0.1720855  0.1817008  0.1624703 
1164.2     0.249      1          2          7.478      2.566      2.921      1.525      1.74       1.18       1.321      0.1970056  0.1970056  0.257522   12.47902   14.82463   2.921      0.4511559  0.5370444  42.249     0.1833829  0.2157557  0.15101   
1164.4     0.244      1          2          7.639      2.566      2.54       1.465      1.842      1.173      1.321      0.1937583  0.1937583  0.2586217  10.86504   11.01455   2.54       0.4054079  0.5012973  41.952     0.1965559  0.2435815  0.1495302 
1164.6     0.241      1          2          7.8        2.998      2.413      1.457      1.816      1.17       1.194      0.1883849  0.1883849  0.259093   8.639787   8.183697   2.413      0.3758189  0.482844   42.63      0.214267   0.274996   0.153538  
1164.8     0.239      1          2          7.977      2.998      2.201      1.478      1.761      1.165      1.194      0.1810901  0.1810901  0.2598785  6.329751   5.903514   2.201      0.325488   0.4505318  44.111     0.2387526  0.3142273  0.1632779 
1165       0.24       -9999      -9999      8.037      2.82       2.117      1.791      1.833      1.159      1.499      0.1753681  0.1753681  0.2608211  4.959069   5.284819   2.117      0.2935774  0.4334751  47.202     0.2589485  0.3287584  0.1891387 
1165.2     0.241      -9999      -9999      8.215      3.887      2.032      2.104      1.905      1.157      1.676      0.1621484  0.1621484  0.2611353  2.821892   3.805306   2.032      0.2289874  0.403376   50.292     0.2999602  0.3759428  0.2239777 
1165.4     0.243      -9999      -9999      8.299      3.887      2.176      2.062      2.21       1.171      1.676      0.1484143  0.1484143  0.2589359  1.570911   3.258941   2.176      0.1935368  0.3995427  53.382     0.3349138  0.4005049  0.2693227 
1165.6     0.243      -9999      -9999      8.384      4.471      2.32       1.736      2.413      1.185      2.159      0.1395178  0.1395178  0.2567365  1.074897   2.785876   2.32       0.1741388  0.4009657  54.187     0.3552081  0.4269936  0.2834226 
1165.8     0.243      -9999      -9999      8.325      4.471      2.417      1.347      2.252      1.189      2.159      0.1366797  0.1366797  0.2561081  0.952351   3.106286   2.417      0.1752288  0.407461   55.88      0.3619044  0.408428   0.3153807 
1166       0.242      -9999      -9999      8.312      3.557      2.299      1.169      2.066      1.184      2.337      0.1302951  0.1302951  0.2568936  0.7253363  3.181695   2.299      0.1197036  0.3821335  58.081     0.3836318  0.4044472  0.3628164 
1166.2     0.243      -9999      -9999      8.299      2.338      2.18       0.991      1.879      1.176      1.803      0.1231599  0.1231599  0.2581504  0.5350292  3.258941   2.18       0.05209851 0.353492   60.283     0.4090622  0.4005049  0.4176196 
1166.4     0.244      -9999      -9999      8.265      2.338      2.057      1.106      1.875      1.173      1.803      0.1192456  0.1192456  0.2586217  0.4527688  3.46994    2.057      0          0.3269473  61.595     0.4223517  0.3903756  0.4543279 
1166.6     0.247      -9999      -9999      8.223      1.982      2.007      1.334      1.693      1.17       1.854      0.1215871  0.1215871  0.259093   0.5003172  3.749552   2.007      0.003503991 0.3244057  61.595     0.4166847  0.3782155  0.4551539 
1166.8     0.249      -9999      -9999      8.181      1.982      1.952      1.533      1.481      1.172      1.854      0.1299504  0.1299504  0.2587788  0.7147502  4.051686   1.952      0.04725551 0.3317668  60.071     0.3903891  0.3664344  0.414344  
1167       0.251      1          2          8.088      2.084      2.193      1.537      1.553      1.176      2.108      0.1470375  0.1470375  0.2581504  1.481323   4.810175   2.193      0.1899275  0.3985505  56.515     0.3367057  0.3416372  0.3317742 
1167.2     0.25       1          2          8.028      2.643      2.434      1.541      1.625      1.178      2.21       0.1599551  0.1599551  0.2578362  2.569887   5.373313   2.434      0.2831568  0.4476895  52.959     0.2966095  0.3265367  0.2666823 
1167.4     0.248      1          2          8.02       2.643      2.811      1.63       1.757      1.181      2.21       0.1642735  0.1642735  0.2573649  3.089593   5.453211   2.811      0.345364   0.4910374  51.139     0.2820952  0.3245745  0.2396159 
1167.6     0.247      1          2          7.969      2.592      2.942      1.685      1.786      1.184      1.981      0.1652586  0.1652586  0.2568936  3.222175   5.99131    2.942      0.3625365  0.5031695  51.35      0.2776817  0.3123389  0.2430245 
1167.8     0.245      1          2          7.918      2.592      3.12       1.609      1.833      1.185      1.981      0.1662628  0.1662628  0.2567365  3.363166   6.582491   3.12       0.3831321  0.5185669  51.647     0.2741628  0.3005648  0.2477607 
1168       0.246      1          2          7.728      2.109      2.929      1.512      1.858      1.181      1.702      0.1760004  0.1760004  0.2573649  5.094635   9.346448   2.929      0.3953031  0.5152875  50.546     0.246559   0.2604754  0.2326426 
1168.2     0.248      1          2          7.656      1.525      2.739      1.414      1.884      1.186      1.422      0.1797678  0.1797678  0.2565794  5.982643   10.67441   2.739      0.3873746  0.502233   49.445     0.2327626  0.2467216  0.2188036 
1168.4     0.25       1          2          7.712      1.525      2.426      1.452      1.829      1.185      1.422      0.180945   0.180945   0.2567365  6.290683   9.6265     2.426      0.3551527  0.4727136  47.964     0.2296713  0.2573542  0.2019885 
1168.6     0.25       1          2          7.766      1.627      2.349      1.457      1.765      1.185      1.422      0.1796555  0.1796555  0.2567365  5.954073   8.713558   2.349      0.3412277  0.4625512  47.667     0.2335787  0.2680408  0.1991167 
1168.8     0.25       1          2          7.876      1.627      2.387      1.575      1.812      1.15       1.422      0.1811323  0.1811323  0.262235   6.341134   7.112908   2.387      0.3508151  0.4752108  47.752     0.2457659  0.2912024  0.2003294 
1169       0.248      1          2          7.901      1.957      2.392      1.605      1.753      1.116      1.448      0.180749   0.180749   0.2675764  6.238317   6.792244   2.392      0.3502546  0.4814832  50.165     0.2631134  0.2967395  0.2294873 
1169.2     0.247      1          2          7.834      1.982      2.396      1.635      1.693      1.111      1.448      0.1780502  0.1780502  0.2683619  5.560061   7.686057   2.396      0.3422013  0.4796041  52.578     0.2736719  0.2821316  0.2652121 
1169.4     0.246      1          2          7.783      1.982      2.163      1.211      1.575      1.106      1.448      0.1715729  0.1715729  0.2691474  4.217986   8.444472   2.163      0.2872138  0.4448952  55.584     0.2956802  0.2714961  0.3198643 
