~Version
 VERS              .         2.0                           : CWLS LOG ASCII STANDARD - VERSION 2.0
 WRAP              .         NO                            : ONE LINE PER DEPTH STEP
 DLM               .         SPACE                         : DELIMITING CHARACTER(SPACE TAB OR COMMA)
~Well Information
#_______________________________________________________________________________
#
#PARAMETER_NAME    .UNIT     VALUE                         : DESCRIPTION
#_______________________________________________________________________________
STRT               .M        890                           : First reference value
STOP               .M        1237                          : Last reference value
STEP               .M        0.2                           : Step increment
NULL               .         -9999                         : Missing value
COMP               .                                       : Company
WELL               .         1477                          : Well name
FLD                .         УЗЕНЬ                         : Field
LOC                .                                       : Location
CNTY               .                                       : County
STAT               .                                       : State
CTRY               .                                       : Country
SRVC               .                                       : Service Company
DATE               .         16.01.70                      : Date
UWI                .                                       : Unique Well ID
API                .                                       : 
Block              .         7                             : 
Category           .         Нефтяная                      : 
Condition          .         В работе                      : 
Date               .         28.01.1970                    : 
EREF               .m        90.8                          : 100.8
Gorizont           .         14                            : 14
Interpretator      .         Ким С.В.                      : 
Kupol              .         основной                      : osnovnoi
Mud                .         0                             : 
Mud_density        .         0                             : 
Mud_resistivity    .         0                             : 
NGDU               .         НГДУ-2                        : 
ORIGINALWELLNAME   .         1477                          : 
Spud_date          .         1970                          : 1961
Viscosity          .         0                             : 
X                  .m        42082.6                       : 46154
Y                  .m        84466.93                      : 85761.93
YEAR               .         2019                          : 
~Parameter Information Block
#_______________________________________________________________________________
#
#PARAMETER_NAME    .UNIT     VALUE                         : DESCRIPTION
#_______________________________________________________________________________
SET                .         LQC_KAZNIPI_Petrel            : 
TLFamily_CALI      .         Caliper                       : 
TLFamily_COLL      .         Net Reservoir Flag            : 
TLFamily_CSAT      .         Fluid Code                    : 
TLFamily_DEPT      .         Measured Depth                : 
TLFamily_GR        .         Russian Gamma Ray             : 
TLFamily_GZ3       .         Gradient 225                  : 
TLFamily_LLS       .         Lateral Log Resistivity       : 
TLFamily_MINV      .         Micro Gradient Resistivity    : 
TLFamily_MNOR      .         Micro Resistivity             : 
TLFamily_NGLD      .         Neutron Gamma                 : 
TLFamily_OGZ       .         Gradient Inverted 225         : 
TLFamily_PHIE      .         Effective Porosity            : 
TLFamily_PHIEN     .         Effective Porosity            : 
TLFamily_PHIT      .         Porosity                      : 
TLFamily_PRMB      .         Permeability                  : 
TLFamily_PRMB_DGR  .         Permeability                  : 
TLFamily_RT        .         Formation Resistivity         : 
TLFamily_SOIL_ARCHIE .         Oil Saturation                : 
TLFamily_SOIL_DW   .         Oil Saturation                : 
TLFamily_SP        .         Spontaneous Potential         : 
TLFamily_VSH_FIN   .         Shale Volume                  : 
TLFamily_VSH_GR    .         Shale Volume                  : 
TLFamily_VSH_SP    .         Shale Volume                  : 
~Curve Information
#_______________________________________________________________________________
#
#LOGNAME           .UNIT     LOG_ID                        : DESCRIPTION
#_______________________________________________________________________________
DEPT               .M                                      : Колонка глубины 
CALI               .м                                      : Каверномер 
COLL               .unitless                               : Описание 
CSAT               .unitless                               : Описание 
GR                 .uR/h                                   : Гамма каротаж 
GZ3                .Ohmm                                   :  
LLS                .Ohmm                                   : Боковой каротаж 
MINV               .Ohmm                                   : Микро-градиент зонд 
MNOR               .Ohmm                                   : Микро-потенциал зонд 
NGLD               .у.е.                                   : Показания зонда НГК-60 аппаратуры ДРСТ-3-90 
OGZ                .Ohmm                                   :  
PHIE               .v/v                                    : Описание 
PHIEN              .v/v                                    :  
PHIT               .v/v                                    : Описание 
PRMB               .mD                                     :  
PRMB_DGR           .mD                                     :  
RT                 .ohmm                                   : УЭС пласта 
SOIL_ARCHIE        .v/v                                    :  
SOIL_DW            .v/v                                    :  
SP                 .мВ                                     : Потенциал самополяризации 
VSH_FIN            .v/v                                    : Описание 
VSH_GR             .v/v                                    : Shale volume 
VSH_SP             .v/v                                    : Shale Volume 
~Ascii
# ...
1093.6     0.264      -9999      -9999      7.165      2.033      2.155      2.016      1.389      1.046      3.15       0.1177637  0.1177637  0.2785734  0.4250382  7.907418   2.155      0          0.3612032  73.999     0.487302   0.2788795  0.6957245 
1093.8     0.266      -9999      -9999      6.944      2.033      2.222      2.1        1.401      1.054      3.15       0.1201102  0.1201102  0.2773166  0.4697746  10.17958   2.222      0.02626142 0.3737006  74.126     0.4763831  0.2515501  0.7012162 
1094       0.265      -9999      -9999      6.86       2.033      2.286      2.164      1.405      1.053      3.048      0.1197818  0.1197818  0.2774737  0.4632419  11.2053    2.286      0.03685705 0.3821229  74.422     0.4778542  0.2418797  0.7138287 
1094.2     0.265      -9999      -9999      6.953      2.008      2.35       2.227      1.409      1.053      3.327      0.1159     0.1159     0.2774737  0.3925608  10.07541   2.35       0.02158139 0.3831372  74.718     0.4896173  0.2526089  0.7266258 
1094.4     0.268      -9999      -9999      7.224      2.008      2.367      2.304      1.452      1.052      3.327      0.1079879  0.1079879  0.2776308  0.2801276  7.39179    2.367      0          0.3695542  75.057     0.5140694  0.286665   0.7414738 
1094.6     0.269      -9999      -9999      7.495      2.185      2.345      2.409      1.443      1.054      3.607      0.1003425  0.1003425  0.2773166  0.2021833  5.422967   2.345      0          0.3493125  75.184     0.536285   0.3253125  0.7472576 
1094.8     0.271      -9999      -9999      7.622      2.185      2.349      2.452      1.494      1.064      3.607      0.09453364 0.09453364 0.2757456  0.1578158  4.690287   2.349      0          0.3336863  75.311     0.5491272  0.3451763  0.7530779 
1095       0.269      -9999      -9999      7.656      2.262      2.366      2.502      1.537      1.077      3.886000000000001 0.09092029 0.09092029 0.2737033  0.1352765  4.511524   2.366      0          0.3237953  75.396     0.5538879  0.350697   0.7570788 
1095.2     0.268      -9999      -9999      7.461      2.084      2.383      2.553      1.579      1.089      4.089      0.09902043 0.09902043 0.2718181  0.1910982  7.420828   2.383      0          0.3430368  75.48      0.5236293  0.2862064  0.7610521 
1095.4     0.269      -9999      -9999      7.283      2.084      2.43       2.756      1.693      1.107      4.089      0.1017677  0.1017677  0.2689903  0.214854   10.69669   2.43       0          0.3513704  75.607     0.506735   0.2465115  0.7669585 
1095.6     0.271      -9999      -9999      7.105      2.16       2.485      2.845      1.825      1.121      3.327      0.10485    0.10485    0.2667909  0.2450381  15.41866   2.485      0          0.3620903  75.65      0.4907301  0.212322   0.7691382 
1095.8     0.272      -9999      -9999      7.021      2.16       2.587      2.841      1.846      1.152      3.327      0.1020102  0.1020102  0.2619208  0.2170874  18.32251   2.587      0          0.3610864  75.692     0.4845776  0.197877   0.7712781 
1096       0.27       -9999      -9999      6.885      2.439      2.714      2.574      1.723      1.184      2.565      0.1013967  0.1013967  0.2568936  0.2114809  24.22773   2.714      0          0.3670674  75.565     0.4712027  0.1765441  0.7658613 
1096.2     0.268      -9999      -9999      6.767      2.414      2.841      2.308      1.6        1.215      2.286      0.1001604  0.1001604  0.2520235  0.2006189  30.87328   2.841      0          0.37099    75.438     0.4601912  0.1599071  0.7604752 
1096.4     0.268      -9999      -9999      6.742      2.414      2.697      2.058      1.545      1.232      2.286      0.09922606 0.09922606 0.2493528  0.1927816  32.50019   2.697      0          0.3478048  75.269     0.4549295  0.1565888  0.7532701 
1096.6     0.274      -9999      -9999      6.716      2.312      2.472      1.982      1.502      1.232      2.642      0.1000531  0.1000531  0.2493528  0.1997031  34.28316   2.472      0          0.3208207  75.226     0.4524232  0.1532108  0.7516357 
1096.8     0.28       -9999      -9999      6.72       2.312      2.223      2.058      1.435      1.235      2.642      0.1006744  0.1006744  0.2488815  0.2050654  34.00265   2.223      0          0.2845444  75.057     0.4491124  0.1537257  0.7444991 
1097       0.282      -9999      -9999      6.725      2.211      2.129      2.668      1.38       1.242      3.226      0.1035762  0.1035762  0.2477818  0.2320817  33.6552    2.129      0          0.274452   74.464     0.4369866  0.1543718  0.7196015 
1097.2     0.279      -9999      -9999      6.775      3.176000000000001 2.036      3.277      1.325      1.248      4.394      0.1055312  0.1055312  0.2468392  0.2522625  30.37008   2.036      0          0.26139    73.872     0.4282059  0.1609837  0.6954281 
1097.4     0.274      -9999      -9999      6.818      3.176000000000001 2.455      3.738      1.833      1.267      4.394      0.1065677  0.1065677  0.2438543  0.2636634  27.80259   2.455      0          0.3246514  73.11      0.4160201  0.166896   0.6651442 
1097.6     0.274      -9999      -9999      6.767      4.243      2.942      3.743      2.37       1.281      4.978000000000001 0.1073662  0.1073662  0.2416549  0.272798   30.87328   2.942      0.05883519 0.381283   72.813     0.4069353  0.1599071  0.6539636 
1097.8     0.272      6          6          6.716      4.243      4.318      3.743      3.056      1.305      4.978000000000001 0.1083853  0.1083853  0.2378845  0.2849161  34.28316   4.318      0.2203595  0.4860685  72.221     0.3924218  0.1532108  0.6316329 
1098       0.264      6          6          6.572      5.284      6.794      3.353      3.332      1.335      5.563      0.1093196  0.1093196  0.2331715  0.2964984  46.08358   6.794      0.3744289  0.5864862  71.761     0.3753088  0.1357791  0.6148384 
1098.2     0.256      6          6          6.471      5.538      9.271      2.964      3.607      1.365      4.039000000000001 0.1092069  0.1092069  0.2284585  0.2950767  56.70874   9.271      0.4588524  0.6413566  71.289     0.3613684  0.1247499  0.5979869 
1098.4     0.258      6          6          6.504      5.538      8.382      2.477      2.976      1.347      4.039000000000001 0.1168264  0.1168264  0.2312863  0.4083814  52.99198   8.382      0.4650062  0.6352103  70.358     0.3468482  0.1282513  0.5654452 
1098.6     0.26       6          6          6.953      3.938      5.905      2.376      2.218      1.309      2.946      0.1186942  0.1186942  0.2372561  0.4422448  21.06924   5.905      0.3780764  0.5747473  69.342     0.3592784  0.1869064  0.5316505 
1098.8     0.264      6          6          7.402      3.938      3.048      2.312      1.511      1.258      2.946      0.1145716  0.1145716  0.2452682  0.370939   8.376981   3.048      0.1252519  0.4122672  68.961     0.3960502  0.2723872  0.5197132 
1099       0.266      -9999      -9999      7.952      2.338      2.561      2.117      1.511      1.213      2.21       0.09983027 0.09983027 0.2523377  0.1978139  2.706587   2.561      0          0.3372295  68.072     0.4621437  0.4320578  0.4922296 
1099.2     0.266      -9999      -9999      8.189      2.693      2.074      1.923      1.511      1.168      1.092      0.09158164 0.09158164 0.2594072  0.1391464  1.663373   2.074      0          0.2539078  67.987     0.5085623  0.5270802  0.4900445 
1099.4     0.256      -9999      -9999      8.375      2.693      2.201      1.427      1.82       1.133      1.092      0.08275019 0.08275019 0.2649057  0.09547557 1.135156   2.201      0          0.2602836  67.903     0.5519864  0.6160743  0.4878986 
1099.6     0.246      -9999      -9999      8.358      3.989      2.434      1.165      2.18       1.13       2.184      0.07957508 0.07957508 0.265377   0.08338377 1.175498   2.434      0          0.2881348  68.876     0.5630361  0.6073517  0.5187206 
1099.8     0.239      -9999      -9999      8.341      3.989      2.879      0.885      2.184      1.135      2.184      0.07717146 0.07717146 0.2645915  0.07525939 1.217273   2.879      0          0.3374595  69.427     0.5679395  0.5987525  0.5371265 
