~Version
 VERS              .         2.0                           : CWLS LOG ASCII STANDARD - VERSION 2.0
 WRAP              .         NO                            : ONE LINE PER DEPTH STEP
 DLM               .         SPACE                         : DELIMITING CHARACTER(SPACE TAB OR COMMA)
~Well Information
#_______________________________________________________________________________
#
#PARAMETER_NAME    .UNIT     VALUE                         : DESCRIPTION
#_______________________________________________________________________________
STRT               .M        890                           : First reference value
STOP               .M        1237                          : Last reference value
STEP               .M        0.2                           : Step increment
NULL               .         -9999                         : Missing value
COMP               .                                       : Company
WELL               .         1477                          : Well name
FLD                .         УЗЕНЬ                         : Field
LOC                .                                       : Location
CNTY               .                                       : County
STAT               .                                       : State
CTRY               .                                       : Country
SRVC               .                                       : Service Company
DATE               .         16.01.70                      : Date
UWI                .                                       : Unique Well ID
API                .                                       : 
Block              .         7                             : 
Category           .         Нефтяная                      : 
Condition          .         В работе                      : 
Date               .         28.01.1970                    : 
EREF               .m        90.8                          : 100.8
Gorizont           .         14                            : 14
Interpretator      .         Ким С.В.                      : 
Kupol              .         основной                      : osnovnoi
Mud                .         0                             : 
Mud_density        .         0                             : 
Mud_resistivity    .         0                             : 
NGDU               .         НГДУ-2                        : 
ORIGINALWELLNAME   .         1477                          : 
Spud_date          .         1970                          : 1961
Viscosity          .         0                             : 
X                  .m        42082.6                       : 46154
Y                  .m        84466.93                      : 85761.93
YEAR               .         2019                          : 
~Parameter Information Block
#_______________________________________________________________________________
#
#PARAMETER_NAME    .UNIT     VALUE                         : DESCRIPTION
#_______________________________________________________________________________
SET                .         LQC_KAZNIPI_Petrel            : 
TLFamily_CALI      .         Caliper                       : 
TLFamily_COLL      .         Net Reservoir Flag            : 
TLFamily_CSAT      .         Fluid Code                    : 
TLFamily_DEPT      .         Measured Depth                : 
TLFamily_GR        .         Russian Gamma Ray             : 
TLFamily_GZ3       .         Gradient 225                  : 
TLFamily_LLS       .         Lateral Log Resistivity       : 
TLFamily_MINV      .         Micro Gradient Resistivity    : 
TLFamily_MNOR      .         Micro Resistivity             : 
TLFamily_NGLD      .         Neutron Gamma                 : 
TLFamily_OGZ       .         Gradient Inverted 225         : 
TLFamily_PHIE      .         Effective Porosity            : 
TLFamily_PHIEN     .         Effective Porosity            : 
TLFamily_PHIT      .         Porosity                      : 
TLFamily_PRMB      .         Permeability                  : 
TLFamily_PRMB_DGR  .         Permeability                  : 
TLFamily_RT        .         Formation Resistivity         : 
TLFamily_SOIL_ARCHIE .         Oil Saturation                : 
TLFamily_SOIL_DW   .         Oil Saturation                : 
TLFamily_SP        .         Spontaneous Potential         : 
TLFamily_VSH_FIN   .         Shale Volume                  : 
TLFamily_VSH_GR    .         Shale Volume                  : 
TLFamily_VSH_SP    .         Shale Volume                  : 
~Curve Information
#_______________________________________________________________________________
#
#LOGNAME           .UNIT     LOG_ID                        : DESCRIPTION
#_______________________________________________________________________________
DEPT               .M                                      : Колонка глубины 
CALI               .м                                      : Каверномер 
COLL               .unitless                               : Описание 
CSAT               .unitless                               : Описание 
GR                 .uR/h                                   : Гамма каротаж 
GZ3                .Ohmm                                   :  
LLS                .Ohmm                                   : Боковой каротаж 
MINV               .Ohmm                                   : Микро-градиент зонд 
MNOR               .Ohmm                                   : Микро-потенциал зонд 
NGLD               .у.е.                                   : Показания зонда НГК-60 аппаратуры ДРСТ-3-90 
OGZ                .Ohmm                                   :  
PHIE               .v/v                                    : Описание 
PHIEN              .v/v                                    :  
PHIT               .v/v                                    : Описание 
PRMB               .mD                                     :  
PRMB_DGR           .mD                                     :  
RT                 .ohmm                                   : УЭС пласта 
SOIL_ARCHIE        .v/v                                    :  
SOIL_DW            .v/v                                    :  
SP                 .мВ                                     : Потенциал самополяризации 
VSH_FIN            .v/v                                    : Описание 
VSH_GR             .v/v                                    : Shale volume 
VSH_SP             .v/v                                    : Shale Volume 
~Ascii
# ...
1208       0.247      -9999      -9999      9.163      1.322      1.168      1.452      1.621      1.161      1.727      0.07262582 0.07262582 0.2605069  0.06199612 1.049548   1.168      0          0          57.065     0.5693366  0.6361188  0.5025544 
1208.2     0.247      -9999      -9999      9.213      1.195      1.16       1.436      1.66       1.184      1.956      0.06375566 0.06375566 0.2568936  0.04246856 0.9613338  1.16       0          0          57.362     0.5852665  0.6593366  0.5111964 
1208.4     0.246      -9999      -9999      9.129      1.195      1.206      1.512      1.647      1.19       1.956      0.06817946 0.06817946 0.255951   0.05128697 1.114113   1.206      0          0          57.573     0.5690047  0.6207994  0.5172099 
1208.6     0.246      -9999      -9999      8.807      1.169      1.232      1.55       1.579      1.195      2.159      0.08498301 0.08498301 0.2551655  0.1050146  1.960974   1.232      0          0.007577741 58.251     0.5157045  0.4928198  0.5385892 
1208.8     0.246      -9999      -9999      8.485      1.169      1.261      1.58       1.536      1.19       2.159      0.09372123 0.09372123 0.255951   0.1524413  3.451558   1.261      0          0.05425241 59.817     0.4916053  0.3912232  0.5919875 
1209       0.245      -9999      -9999      8.291      1.119      1.253      1.592      1.6        1.181      2.108      0.09397143 0.09397143 0.2573649  0.1540767  4.852329   1.253      0          0.05549024 61.383     0.4951317  0.3404221  0.6498414 
1209.2     0.245      -9999      -9999      8.282      1.017      1.245      1.605      1.664      1.181      1.6        0.08489207 0.08489207 0.2573649  0.1046081  4.929626   1.245      0          0.01791998 62.823     0.5226449  0.3382323  0.7070575 
1209.4     0.246      -9999      -9999      8.232      1.017      1.291      2.32       1.753      1.195      1.6        0.08246483 0.08246483 0.2551655  0.09432064 5.381968   1.291      0          0.02036382 63.161     0.5233353  0.3263221  0.7203486 
1209.6     0.246      -9999      -9999      7.952      1.068      1.351      3.015      1.803      1.209      1.448      0.08872468 0.08872468 0.2529661  0.123184   8.799475   1.351      0          0.06124794 63.373     0.4977013  0.2669691  0.7284335 
1209.8     0.247      -9999      -9999      7.673      1.068      1.376      3.709      1.964      1.226      1.448      0.1014731  0.1014731  0.2502954  0.2121714  14.36183   1.376      0          0.1077709  62.315     0.4509766  0.2185681  0.683385  
1210       0.247      6          6          7.334      1.525      2.896      3.59       2.574      1.239      1.803      0.1142685  0.1142685  0.2482531  0.3661739  26.04451   2.896      0.1144226  0.4086826  61.256     0.406014   0.1714076  0.6406205 
1210.2     0.248      6          6          7.233      3.176000000000001 4.415      3.472      3.183      1.258      3.378      0.123196   0.123196   0.2452682  0.5358551  31.09814   4.415      0.3194891  0.531242   59.648     0.3699157  0.159434   0.5803974 
1210.4     0.248      6          6          7.004      3.176000000000001 6.689      2.731      3.268      1.269      3.378      0.1294676  0.1294676  0.2435401  0.7001836  46.48999   6.689      0.4637292  0.6248618  58.97      0.3456742  0.1352931  0.5560554 
1210.6     0.247      6          6          7.012      4.014      7.408      2.108      2.853      1.28       4.166      0.1348593  0.1348593  0.241812   0.8812104  45.84152   7.408      0.5066627  0.6477097  57.658     0.3240991  0.1360714  0.5121268 
1210.8     0.246      6          6          7.021      4.014      7.07       1.507      2.133      1.268      4.166      0.1437449  0.1437449  0.2436972  1.287248   45.12282   7.07       0.5229917  0.6500868  56.261     0.3028857  0.1369522  0.4688193 
1211       0.246      6          6          7.435      3.1        4.932      1.609      1.935      1.251      3.607      0.1451938  0.1451938  0.2463679  1.3693     21.81213   4.932      0.4400831  0.5854503  54.864     0.3065883  0.1842804  0.4288962 
1211.2     0.244      -9999      -9999      7.715      2.033      2.794      1.711      1.736      1.223      2.413      0.1474866  0.1474866  0.2507667  1.509971   13.34082   2.794      0.2788767  0.4584451  53.806     0.3129698  0.2252499  0.4006898 
1211.4     0.243      -9999      -9999      8.07       2.033      1.63       1.715      1.893      1.193      2.413      0.1427447  0.1427447  0.2554797  1.23349    7.152791   1.63       0.04457495 0.289668   53.509     0.3416213  0.2905382  0.3927045 
1211.6     0.242      -9999      -9999      8.087      1.601      1.545      1.639      1.943      1.163      1.803      0.149167   0.149167   0.2601927  1.622158   6.942439   1.545      0.05710176 0.2909008  52.959     0.3364415  0.2941011  0.3787818 
1211.8     0.242      -9999      -9999      8.104      1.601      1.441      1.686      1.897      1.147      1.803      0.1528163  0.1528163  0.2627063  1.895341   6.738269   1.441      0.04605254 0.2769994  52.536     0.3329999  0.2977078  0.368292  
1212       0.243      -9999      -9999      8.172      1.195      1.327      1.686      1.871      1.15       1.194      0.1507969  0.1507969  0.262235   1.738932   5.979911   1.327      0          0.2417509  52.32      0.3376912  0.3125819  0.3628005 
1212.2     0.244      -9999      -9999      8.299      1.728      1.213      1.686      1.846      1.155      1.245      0.1459572  0.1459572  0.2614495  1.41462    4.784651   1.213      0          0.1951065  52.112     0.3499766  0.3423801  0.3575731 
1212.4     0.245      -9999      -9999      8.375      1.728      1.219      1.635      1.888      1.159      1.245      0.140975   0.140975   0.2608211  1.143817   4.186932   1.219      0          0.1848033  52.451     0.3631701  0.3615541  0.364786  
1212.6     0.246      1          2          8.172      2.135      1.321      1.706      1.859      1.163      1.27       0.1465542  0.1465542  0.2601927  1.451102   5.979911   1.321      0          0.227719   52.959     0.344359   0.3125819  0.3761361 
1212.8     0.246      1          2          7.969      2.135      1.342      1.74       1.77       1.162      1.27       0.1503829  0.1503829  0.2603498  1.708497   8.540702   1.342      0          0.2418937  53.806     0.333233   0.2702429  0.3962232 
1213       0.245      1          2          7.779      2.033      1.359      1.668      1.778      1.158      1.321      0.1562566  0.1562566  0.2609782  2.194873   11.92282   1.359      0.03829081 0.2592041  53.933     0.3173382  0.2358265  0.3988498 
1213.2     0.245      1          2          7.74       1.677      1.376      1.597      1.786      1.158      1.346      0.1568934  0.1568934  0.2609782  2.255301   12.76788   1.376      0.04726561 0.2649986  54.06      0.3154085  0.2293237  0.4014933 
1213.4     0.245      1          2          7.782      1.677      1.355      1.512      1.808      1.133      1.346      0.160808   0.160808   0.2649057  2.665092   11.86018   1.355      0.0607432  0.2731554  53.806     0.3154476  0.2363343  0.3945608 
1213.6     0.246      1          2          7.825      1.5        1.236      1.461      1.761      1.108      1.346      0.1637818  0.1637818  0.2688332  3.025477   10.9977    1.236      0.03486792 0.2511784  53.763     0.3183376  0.2437339  0.3929413 
1213.8     0.247      1          2          7.935      1.5        1.126      1.486      1.766      1.085      1.346      0.1636651  0.1636651  0.2724465  3.01046    9.066099   1.126      0          0.2214576  53.89      0.3296406  0.2637348  0.3955464 
1214       0.247      1          2          8.003      1.347      1.194      1.465      1.808      1.089      1.346      0.1562724  0.1562724  0.2718181  2.196348   8.045747   1.194      0          0.2287475  54.991     0.3501386  0.2769116  0.4233656 
1214.2     0.248      1          2          8.164      1.068      1.262      1.444      1.85       1.097      1.295      0.1445277  0.1445277  0.2705613  1.330953   6.064507   1.262      0          0.2240673  56.092     0.3819198  0.310794   0.4530456 
