~Version
 VERS              .         2.0                           : CWLS LOG ASCII STANDARD - VERSION 2.0
 WRAP              .         NO                            : ONE LINE PER DEPTH STEP
 DLM               .         SPACE                         : DELIMITING CHARACTER(SPACE TAB OR COMMA)
~Well Information
#_______________________________________________________________________________
#
#PARAMETER_NAME    .UNIT     VALUE                         : DESCRIPTION
#_______________________________________________________________________________
STRT               .M        890                           : First reference value
STOP               .M        1237                          : Last reference value
STEP               .M        0.2                           : Step increment
NULL               .         -9999                         : Missing value
COMP               .                                       : Company
WELL               .         1477                          : Well name
FLD                .         УЗЕНЬ                         : Field
LOC                .                                       : Location
CNTY               .                                       : County
STAT               .                                       : State
CTRY               .                                       : Country
SRVC               .                                       : Service Company
DATE               .         16.01.70                      : Date
UWI                .                                       : Unique Well ID
API                .                                       : 
Block              .         7                             : 
Category           .         Нефтяная                      : 
Condition          .         В работе                      : 
Date               .         28.01.1970                    : 
EREF               .m        90.8                          : 100.8
Gorizont           .         14                            : 14
Interpretator      .         Ким С.В.                      : 
Kupol              .         основной                      : osnovnoi
Mud                .         0                             : 
Mud_density        .         0                             : 
Mud_resistivity    .         0                             : 
NGDU               .         НГДУ-2                        : 
ORIGINALWELLNAME   .         1477                          : 
Spud_date          .         1970                          : 1961
Viscosity          .         0                             : 
X                  .m        42082.6                       : 46154
Y                  .m        84466.93                      : 85761.93
YEAR               .         2019                          : 
~Parameter Information Block
#_______________________________________________________________________________
#
#PARAMETER_NAME    .UNIT     VALUE                         : DESCRIPTION
#_______________________________________________________________________________
SET                .         LQC_KAZNIPI_Petrel            : 
TLFamily_CALI      .         Caliper                       : 
TLFamily_COLL      .         Net Reservoir Flag            : 
TLFamily_CSAT      .         Fluid Code                    : 
TLFamily_DEPT      .         Measured Depth                : 
TLFamily_GR        .         Russian Gamma Ray             : 
TLFamily_GZ3       .         Gradient 225                  : 
TLFamily_LLS       .         Lateral Log Resistivity       : 
TLFamily_MINV      .         Micro Gradient Resistivity    : 
TLFamily_MNOR      .         Micro Resistivity             : 
TLFamily_NGLD      .         Neutron Gamma                 : 
TLFamily_OGZ       .         Gradient Inverted 225         : 
TLFamily_PHIE      .         Effective Porosity            : 
TLFamily_PHIEN     .         Effective Porosity            : 
TLFamily_PHIT      .         Porosity                      : 
TLFamily_PRMB      .         Permeability                  : 
TLFamily_PRMB_DGR  .         Permeability                  : 
TLFamily_RT        .         Formation Resistivity         : 
TLFamily_SOIL_ARCHIE .         Oil Saturation                : 
TLFamily_SOIL_DW   .         Oil Saturation                : 
TLFamily_SP        .         Spontaneous Potential         : 
TLFamily_VSH_FIN   .         Shale Volume                  : 
TLFamily_VSH_GR    .         Shale Volume                  : 
TLFamily_VSH_SP    .         Shale Volume                  : 
~Curve Information
#_______________________________________________________________________________
#
#LOGNAME           .UNIT     LOG_ID                        : DESCRIPTION
#_______________________________________________________________________________
DEPT               .M                                      : Колонка глубины 
CALI               .м                                      : Каверномер 
COLL               .unitless                               : Описание 
CSAT               .unitless                               : Описание 
GR                 .uR/h                                   : Гамма каротаж 
GZ3                .Ohmm                                   :  
LLS                .Ohmm                                   : Боковой каротаж 
MINV               .Ohmm                                   : Микро-градиент зонд 
MNOR               .Ohmm                                   : Микро-потенциал зонд 
NGLD               .у.е.                                   : Показания зонда НГК-60 аппаратуры ДРСТ-3-90 
OGZ                .Ohmm                                   :  
PHIE               .v/v                                    : Описание 
PHIEN              .v/v                                    :  
PHIT               .v/v                                    : Описание 
PRMB               .mD                                     :  
PRMB_DGR           .mD                                     :  
RT                 .ohmm                                   : УЭС пласта 
SOIL_ARCHIE        .v/v                                    :  
SOIL_DW            .v/v                                    :  
SP                 .мВ                                     : Потенциал самополяризации 
VSH_FIN            .v/v                                    : Описание 
VSH_GR             .v/v                                    : Shale volume 
VSH_SP             .v/v                                    : Shale Volume 
~Ascii
# ...
915.2000000000001 0.247      1          3          2.22       1.144      1.727      1.618      1.663      1.148      1.295      0.2370286  0.2370286  0.2625492  68.78638   2397.997   1.727      0.3937098  0.4414635  45.593     0.07733522 0.02704016 0.1276303 
915.4      0.248      1          3          2.296      1.144      1.702      1.634      1.778      1.128      1.295      0.2400342  0.2400342  0.2656912  78.19395   2207.13    1.702      0.3962097  0.4441977  45.551     0.0777486  0.02797163 0.1275256 
915.6      0.247      1          3          2.373      1.169      1.799      1.728      1.757      1.131      1.295      0.2394017  0.2394017  0.2652199  76.11305   2029.24    1.799      0.4103584  0.4582285  45.551     0.07823682 0.02894808 0.1275256 
915.8      0.244      1          3          2.449      1.322      1.952      1.736      1.723      1.146      1.321      0.2368807  0.2368807  0.2628634  68.35392   1867.724   1.952      0.4272598  0.4748576  45.551     0.07873542 0.02994527 0.1275256 
916        0.242      1          3          2.508      1.5        1.99       1.647      1.6        1.168      1.397      0.2332582  0.2332582  0.2594072  58.56882   1751.254   1.99       0.4247489  0.4724748  45.635     0.07923932 0.03074302 0.1277356 
916.2000000000001 0.241      1          3          2.601      1.652      2.006      1.474      1.473      1.184      1.499      0.2305121  0.2305121  0.2568936  52.09557   1582.235   2.006      0.4209648  0.4689631  45.678     0.07994403 0.03204388 0.1278442 
916.4      0.242      1          3          2.61       1.652      2.095      1.592      1.672      1.197      1.499      0.228395   0.228395   0.2548513  47.59779   1566.771   2.095      0.4280633  0.4759218  45.805     0.08017073 0.03217265 0.1281688 
916.6      0.244      1          3          2.677      1.855      2.019      1.694      1.799      1.204      1.499      0.2270615  0.2270615  0.2537516  44.96643   1456.298   2.019      0.4150842  0.463484   45.974     0.08087902 0.03314772 0.1286103 
916.8      0.246      1          3          2.779      1.83       2.091      1.863      1.973      1.198      1.499      0.2276178  0.2276178  0.2546942  46.04592   1302.887   2.091      0.4258481  0.4744695  46.27      0.08204985 0.03468917 0.1294105 
917        0.248      1          3          2.838      1.677      2.205      1.961      1.96       1.202      1.676      0.2266985  0.2266985  0.2540658  44.27562   1221.64    2.205      0.4379968  0.4866229  46.567     0.08293113 0.03561331 0.1302489 
917.2000000000001 0.247      1          3          2.931      1.5        2.523      2.164      2.134      1.212      1.854      0.2247769  0.2247769  0.2524948  40.79169   1103.736   2.523      0.4685007  0.5166017  46.778     0.0839936  0.03712025 0.1308669 
917.4      0.244      1          3          2.965      1.5        2.54       2.151      2.113      1.228      1.854      0.2220642  0.2220642  0.2499812  36.33503   1063.532   2.54       0.4645402  0.5129328  46.99      0.08459702 0.03768694 0.1315071 
917.6      0.243      1          3          3.067      1.347      2.383      1.914      1.96       1.227      2.007      0.2218456  0.2218456  0.2501383  35.99784   951.4963   2.383      0.4477922  0.4971131  47.159     0.08573551 0.03943948 0.1320315 
917.8      0.244      1          3          3.084      1.423      2.223      1.698      1.769      1.219      1.829      0.2229189  0.2229189  0.2513951  37.68394   934.0062   2.223      0.4318782  0.4818918  47.413     0.08629164 0.0397394  0.1328439 
918        0.245      1          3          3.109      1.677      2.193      1.609      1.689      1.215      1.651      0.2234049  0.2234049  0.2520235  38.47332   908.8681   2.193      0.4293279  0.4795898  47.54      0.08672288 0.04018459 0.1332612 
918.2000000000001 0.244      1          3          3.092      1.627      2.167      1.609      1.613      1.216      1.727      0.2232511  0.2232511  0.2518664  38.22174   925.8873   2.167      0.4257807  0.476136   47.625     0.08671299 0.03988132 0.1335446 
918.4      0.243      1          3          3.084      1.627      2.193      1.651      1.71       1.216      1.727      0.2232512  0.2232512  0.2518664  38.22191   934.0062   2.193      0.4289857  0.4792508  47.667     0.08671269 0.0397394  0.133686  
918.6      0.241      1          3          3.114      1.347      2.252      1.579      1.702      1.196      1.88       0.226281   0.226281   0.2550084  43.4941    903.9222   2.252      0.4426375  0.492684   47.71      0.08705288 0.04027423 0.1338315 
918.8      0.241      1          3          3.143      1.246      2.21       1.465      1.71       1.187      1.854      0.2275848  0.2275848  0.2564223  45.98126   875.7626   2.21       0.4404985  0.4907569  47.752     0.08738631 0.04079808 0.1339746 
919        0.242      1          3          3.092      1.423      2.176      1.359      1.596      1.179      1.829      0.2289929  0.2289929  0.2576791  48.82719   925.8873   2.176      0.4394324  0.4895761  47.752     0.08692794 0.03988132 0.1339746 
919.2000000000001 0.243      1          3          3.075      1.601      2.129      1.389      1.625      1.181      1.956      0.2287283  0.2287283  0.2573649  48.2794    943.2252   2.129      0.4330884  0.4833569  47.752     0.08677744 0.03958034 0.1339746 
919.4      0.244      1          3          3.185      1.601      2.18       1.461      1.642      1.176      1.956      0.229162   0.229162   0.2581504  49.18067   836.5274   2.18       0.4402754  0.4907385  47.794     0.08784363 0.04156886 0.1341184 
919.6      0.245      1          3          3.27       1.576      2.15       1.495      1.803      1.169      1.88       0.2299484  0.2299484  0.2592501  50.85822   762.4192   2.15       0.4383023  0.4891929  47.879     0.08879288 0.04317361 0.1344122 
919.8      0.245      1          3          3.414      1.525      2.21       1.647      1.825      1.174      1.803      0.2286173  0.2286173  0.2584646  48.05138   651.5444   2.21       0.4427     0.4940446  48.006     0.09044623 0.04603488 0.1348576 
920        0.244      1          3          3.448      1.576      2.298      1.618      1.88       1.167      1.956      0.2295263  0.2295263  0.2595643  49.95071   627.8118   2.298      0.4547062  0.5058702  48.133     0.09102429 0.04673767 0.1353109 
920.2000000000001 0.242      1          3          3.541      1.652      2.413      1.554      1.778      1.153      2.235      0.2313486  0.2313486  0.2617637  53.98771   567.22     2.413      0.4707175  0.5217322  48.218     0.09216705 0.04871533 0.1356188 
920.4      0.241      1          3          3.541      1.652      2.37       1.364      1.786      1.13       2.235      0.2349111  0.2349111  0.265377   62.84652   567.22     2.37       0.4732897  0.5243034  48.302     0.09232096 0.04871533 0.1359266 
920.6      0.24       1          3          3.456      1.754      2.328      1.558      1.82       1.116      2.311      0.2373313  0.2373313  0.2675764  69.68031   622.3544   2.328      0.4735724  0.5243828  48.429     0.09165168 0.0469046  0.1363988 
920.8      0.24       1          3          3.372      1.855      2.26       1.656      1.833      1.108      2.235      0.2387661  0.2387661  0.2688332  74.07723   682.1033   2.26       0.4689927  0.5198126  48.599     0.09111251 0.04518129 0.1370437 
921        0.24       1          3          3.304      1.754      2.218      1.66       1.795      1.108      2.642      0.238853   0.238853   0.2688332  74.35254   734.648    2.218      0.4644676  0.515363   48.81      0.09084895 0.04383272 0.1378652 
921.2000000000001 0.241      1          3          3.287      1.601      2.15       1.461      1.693      1.12       3.581      0.236939   0.236939   0.266948   68.52399   748.4047   2.15       0.4527636  0.5040686  48.937     0.09093644 0.04350192 0.138371  
921.4      0.241      1          3          3.236      1.601      2.167      1.448      1.655      1.135      3.581      0.2346298  0.2346298  0.2645915  62.09711   791.2401   2.167      0.4501119  0.5014207  49.107     0.090793   0.0425244  0.1390616 
