~Version
 VERS              .         2.0                           : CWLS LOG ASCII STANDARD - VERSION 2.0
 WRAP              .         NO                            : ONE LINE PER DEPTH STEP
 DLM               .         SPACE                         : DELIMITING CHARACTER(SPACE TAB OR COMMA)
~Well Information
#_______________________________________________________________________________
#
#PARAMETER_NAME    .UNIT     VALUE                         : DESCRIPTION
#_______________________________________________________________________________
STRT               .M        890                           : First reference value
STOP               .M        1237                          : Last reference value
STEP               .M        0.2                           : Step increment
NULL               .         -9999                         : Missing value
COMP               .                                       : Company
WELL               .         1477                          : Well name
FLD                .         УЗЕНЬ                         : Field
LOC                .                                       : Location
CNTY               .                                       : County
STAT               .                                       : State
CTRY               .                                       : Country
SRVC               .                                       : Service Company
DATE               .         16.01.70                      : Date
UWI                .                                       : Unique Well ID
API                .                                       : 
Block              .         7                             : 
Category           .         Нефтяная                      : 
Condition          .         В работе                      : 
Date               .         28.01.1970                    : 
EREF               .m        90.8                          : 100.8
Gorizont           .         14                            : 14
Interpretator      .         Ким С.В.                      : 
Kupol              .         основной                      : osnovnoi
Mud                .         0                             : 
Mud_density        .         0                             : 
Mud_resistivity    .         0                             : 
NGDU               .         НГДУ-2                        : 
ORIGINALWELLNAME   .         1477                          : 
Spud_date          .         1970                          : 1961
Viscosity          .         0                             : 
X                  .m        42082.6                       : 46154
Y                  .m        84466.93                      : 85761.93
YEAR               .         2019                          : 
~Parameter Information Block
#_______________________________________________________________________________
#
#PARAMETER_NAME    .UNIT     VALUE                         : DESCRIPTION
#_______________________________________________________________________________
SET                .         LQC_KAZNIPI_Petrel            : 
TLFamily_CALI      .         Caliper                       : 
TLFamily_COLL      .         Net Reservoir Flag            : 
TLFamily_CSAT      .         Fluid Code                    : 
TLFamily_DEPT      .         Measured Depth                : 
TLFamily_GR        .         Russian Gamma Ray             : 
TLFamily_GZ3       .         Gradient 225                  : 
TLFamily_LLS       .         Lateral Log Resistivity       : 
TLFamily_MINV      .         Micro Gradient Resistivity    : 
TLFamily_MNOR      .         Micro Resistivity             : 
TLFamily_NGLD      .         Neutron Gamma                 : 
TLFamily_OGZ       .         Gradient Inverted 225         : 
TLFamily_PHIE      .         Effective Porosity            : 
TLFamily_PHIEN     .         Effective Porosity            : 
TLFamily_PHIT      .         Porosity                      : 
TLFamily_PRMB      .         Permeability                  : 
TLFamily_PRMB_DGR  .         Permeability                  : 
TLFamily_RT        .         Formation Resistivity         : 
TLFamily_SOIL_ARCHIE .         Oil Saturation                : 
TLFamily_SOIL_DW   .         Oil Saturation                : 
TLFamily_SP        .         Spontaneous Potential         : 
TLFamily_VSH_FIN   .         Shale Volume                  : 
TLFamily_VSH_GR    .         Shale Volume                  : 
TLFamily_VSH_SP    .         Shale Volume                  : 
~Curve Information
#_______________________________________________________________________________
#
#LOGNAME           .UNIT     LOG_ID                        : DESCRIPTION
#_______________________________________________________________________________
DEPT               .M                                      : Колонка глубины 
CALI               .м                                      : Каверномер 
COLL               .unitless                               : Описание 
CSAT               .unitless                               : Описание 
GR                 .uR/h                                   : Гамма каротаж 
GZ3                .Ohmm                                   :  
LLS                .Ohmm                                   : Боковой каротаж 
MINV               .Ohmm                                   : Микро-градиент зонд 
MNOR               .Ohmm                                   : Микро-потенциал зонд 
NGLD               .у.е.                                   : Показания зонда НГК-60 аппаратуры ДРСТ-3-90 
OGZ                .Ohmm                                   :  
PHIE               .v/v                                    : Описание 
PHIEN              .v/v                                    :  
PHIT               .v/v                                    : Описание 
PRMB               .mD                                     :  
PRMB_DGR           .mD                                     :  
RT                 .ohmm                                   : УЭС пласта 
SOIL_ARCHIE        .v/v                                    :  
SOIL_DW            .v/v                                    :  
SP                 .мВ                                     : Потенциал самополяризации 
VSH_FIN            .v/v                                    : Описание 
VSH_GR             .v/v                                    : Shale volume 
VSH_SP             .v/v                                    : Shale Volume 
~Ascii
# ...
1233.6     0.246      1          3          7.326      1.246      -9999      -9999      -9999      1.141      1.067      0.2110598  0.2110598  0.2636489  22.72471   19.62406   -9999      -9999      -9999      31.623     0.1593608  0.192409   0.1263126 
1233.8     0.246      1          3          7.342      1.246      -9999      -9999      -9999      1.132      1.067      0.2121366  0.2121366  0.2650628  23.79262   19.05318   -9999      -9999      -9999      31.496     0.1603825  0.1947425  0.1260225 
1234       0.246      1          3          7.376      1.119      -9999      -9999      -9999      1.123      1.168      0.2102693  0.2102693  0.2664767  21.97132   17.89458   -9999      -9999      -9999      36.11      0.1703254  0.1997957  0.140855  
1234.2     0.246      1          3          7.596      1.195      -9999      -9999      -9999      1.105      1.118      0.2027137  0.2027137  0.2693045  15.91871   11.92407   -9999      -9999      -9999      40.725     0.2017902  0.2358164  0.1677641 
1234.4     0.246      1          3          7.817      1.195      -9999      -9999      -9999      1.086      1.118      0.1889943  0.1889943  0.2722894  8.867311   7.930979   -9999      -9999      -9999      46.524     0.2524093  0.2785409  0.2262776 
1234.6     0.246      1          3          8.054      1.322      -9999      -9999      -9999      1.062      0.991      0.1798908  0.1798908  0.2760598  6.014108   5.121617   -9999      -9999      -9999      48.218     0.2914214  0.3329965  0.2498462 
1234.8     0.246      1          3          8.087      1.322      -9999      -9999      -9999      1.054      0.991      0.173007   0.173007   0.2773166  4.484027   4.819062   -9999      -9999      -9999      50.715     0.3160895  0.3413798  0.2907993 
1235       0.246      1          3          8.087      1.449      -9999      -9999      -9999      1.046      0.914      0.1674932  0.1674932  0.2785734  3.544367   4.819062   -9999      -9999      -9999      52.832     0.3366066  0.3413798  0.3318335 
1235.2     0.246      -9999      -9999      8.138      1.449      -9999      -9999      -9999      1.033      1.118      0.1595193  0.1595193  0.2806157  2.522563   4.386257   -9999      -9999      -9999      54.949     0.3669589  0.3547527  0.379165  
1235.4     0.246      -9999      -9999      8.189      1.449      -9999      -9999      -9999      1.021      1.118      0.1516921  0.1516921  0.2825009  1.80661    3.992313   -9999      -9999      -9999      56.727     0.3963902  0.3686498  0.4241305 
1235.6     0.246      -9999      -9999      8.452      1.347      -9999      -9999      -9999      0.993      1.143      0.1406843  0.1406843  0.2868997  1.129726   2.457369   -9999      -9999      -9999      57.192     0.4430769  0.4494404  0.4367134 
1235.8     0.246      -9999      -9999      8.629      1.347      -9999      -9999      -9999      0.976      1.143      0.128238   0.128238   0.2895704  0.6644118  1.772685   -9999      -9999      -9999      58.166     0.488886   0.5135581  0.4642138 
1236       0.246      -9999      -9999      8.782      1.246      -9999      -9999      -9999      0.96       1.422      0.1136485  0.1136485  0.292084   0.3566182  1.336673   -9999      -9999      -9999      59.521     0.5407137  0.576307   0.5051205 
1236.2     0.246      -9999      -9999      8.799      1.093      -9999      -9999      -9999      0.989      1.651      0.1005954  0.1005954  0.2875281  0.2043756  1.295395   -9999      -9999      -9999      60.875     0.5664627  0.5837362  0.5491892 
1236.4     0.246      -9999      -9999      8.816      1.093      -9999      -9999      -9999      1.018      1.651      0.08697361 0.08697361 0.2829722  0.1143195  1.255391   -9999      -9999      -9999      62.23      0.5939351  0.5912613  0.5966091 
1236.6     0.246      -9999      -9999      8.883      1.068      -9999      -9999      -9999      1.063      1.397      0.07177404 0.07177404 0.2759027  0.05978434 1.1094     -9999      -9999      -9999      62.738     0.6185717  0.621875   0.6152684 
1236.8     0.246      -9999      -9999      8.896      1.068      -9999      -9999      -9999      1.08       1.397      0.06031438 0.06031438 0.273232   0.03667133 1.083106   -9999      -9999      -9999      63.966     0.6452049  0.6279959  0.6624139 
1237       0.246      -9999      -9999      8.909      -9999      -9999      -9999      -9999      1.088      -9999      0.0485933  0.0485933  0.2719752  0.02224456 1.057434   -9999      -9999      -9999      65.363     0.6769148  0.6341774  0.7196522 
