~Version
 VERS              .         2.0                           : CWLS LOG ASCII STANDARD - VERSION 2.0
 WRAP              .         NO                            : ONE LINE PER DEPTH STEP
 DLM               .         SPACE                         : DELIMITING CHARACTER(SPACE TAB OR COMMA)
~Well Information
#_______________________________________________________________________________
#
#PARAMETER_NAME    .UNIT     VALUE                         : DESCRIPTION
#_______________________________________________________________________________
STRT               .M        890                           : First reference value
STOP               .M        1237                          : Last reference value
STEP               .M        0.2                           : Step increment
NULL               .         -9999                         : Missing value
COMP               .                                       : Company
WELL               .         1477                          : Well name
FLD                .         УЗЕНЬ                         : Field
LOC                .                                       : Location
CNTY               .                                       : County
STAT               .                                       : State
CTRY               .                                       : Country
SRVC               .                                       : Service Company
DATE               .         16.01.70                      : Date
UWI                .                                       : Unique Well ID
API                .                                       : 
Block              .         7                             : 
Category           .         Нефтяная                      : 
Condition          .         В работе                      : 
Date               .         28.01.1970                    : 
EREF               .m        90.8                          : 100.8
Gorizont           .         14                            : 14
Interpretator      .         Ким С.В.                      : 
Kupol              .         основной                      : osnovnoi
Mud                .         0                             : 
Mud_density        .         0                             : 
Mud_resistivity    .         0                             : 
NGDU               .         НГДУ-2                        : 
ORIGINALWELLNAME   .         1477                          : 
Spud_date          .         1970                          : 1961
Viscosity          .         0                             : 
X                  .m        42082.6                       : 46154
Y                  .m        84466.93                      : 85761.93
YEAR               .         2019                          : 
~Parameter Information Block
#_______________________________________________________________________________
#
#PARAMETER_NAME    .UNIT     VALUE                         : DESCRIPTION
#_______________________________________________________________________________
SET                .         LQC_KAZNIPI_Petrel            : 
TLFamily_CALI      .         Caliper                       : 
TLFamily_COLL      .         Net Reservoir Flag            : 
TLFamily_CSAT      .         Fluid Code                    : 
TLFamily_DEPT      .         Measured Depth                : 
TLFamily_GR        .         Russian Gamma Ray             : 
TLFamily_GZ3       .         Gradient 225                  : 
TLFamily_LLS       .         Lateral Log Resistivity       : 
TLFamily_MINV      .         Micro Gradient Resistivity    : 
TLFamily_MNOR      .         Micro Resistivity             : 
TLFamily_NGLD      .         Neutron Gamma                 : 
TLFamily_OGZ       .         Gradient Inverted 225         : 
TLFamily_PHIE      .         Effective Porosity            : 
TLFamily_PHIEN     .         Effective Porosity            : 
TLFamily_PHIT      .         Porosity                      : 
TLFamily_PRMB      .         Permeability                  : 
TLFamily_PRMB_DGR  .         Permeability                  : 
TLFamily_RT        .         Formation Resistivity         : 
TLFamily_SOIL_ARCHIE .         Oil Saturation                : 
TLFamily_SOIL_DW   .         Oil Saturation                : 
TLFamily_SP        .         Spontaneous Potential         : 
TLFamily_VSH_FIN   .         Shale Volume                  : 
TLFamily_VSH_GR    .         Shale Volume                  : 
TLFamily_VSH_SP    .         Shale Volume                  : 
~Curve Information
#_______________________________________________________________________________
#
#LOGNAME           .UNIT     LOG_ID                        : DESCRIPTION
#_______________________________________________________________________________
DEPT               .M                                      : Колонка глубины 
CALI               .м                                      : Каверномер 
COLL               .unitless                               : Описание 
CSAT               .unitless                               : Описание 
GR                 .uR/h                                   : Гамма каротаж 
GZ3                .Ohmm                                   :  
LLS                .Ohmm                                   : Боковой каротаж 
MINV               .Ohmm                                   : Микро-градиент зонд 
MNOR               .Ohmm                                   : Микро-потенциал зонд 
NGLD               .у.е.                                   : Показания зонда НГК-60 аппаратуры ДРСТ-3-90 
OGZ                .Ohmm                                   :  
PHIE               .v/v                                    : Описание 
PHIEN              .v/v                                    :  
PHIT               .v/v                                    : Описание 
PRMB               .mD                                     :  
PRMB_DGR           .mD                                     :  
RT                 .ohmm                                   : УЭС пласта 
SOIL_ARCHIE        .v/v                                    :  
SOIL_DW            .v/v                                    :  
SP                 .мВ                                     : Потенциал самополяризации 
VSH_FIN            .v/v                                    : Описание 
VSH_GR             .v/v                                    : Shale volume 
VSH_SP             .v/v                                    : Shale Volume 
~Ascii
890.0      0.277      -9999      -9999      8.088      3.176000000000001 2.917      1.778      1.554      1.034      3.378      -9999      -9999      -9999      -9999      -9999      2.917      -9999      -9999      73.702     -9999      0.2413464  0.8       
890.2000000000001 0.277      -9999      -9999      8.088      3.278000000000001 2.917      1.778      1.554      1.034      3.607      -9999      -9999      -9999      -9999      -9999      2.917      -9999      -9999      73.702     -9999      0.2413464  0.8       
890.4      0.277      -9999      -9999      8.088      3.278000000000001 2.815      1.469      1.452      1.034      3.607      -9999      -9999      -9999      -9999      -9999      2.815      -9999      -9999      73.66      -9999      0.2413464  0.8       
890.6      0.277      -9999      -9999      8.536      3.658999999999999 2.684      1.393      1.41       1.029      4.039000000000001 -9999      -9999      -9999      -9999      -9999      2.684      -9999      -9999      73.618     -9999      0.3256077  0.8       
890.8      0.277      -9999      -9999      8.68       4.014      2.692      1.444      1.816      1.024      4.724000000000001 -9999      -9999      -9999      -9999      -9999      2.692      -9999      -9999      73.575     -9999      0.358507   0.8       
891        0.277      -9999      -9999      8.74       3.786      3.023      1.237      1.638      1.016      4.444999999999999 -9999      -9999      -9999      -9999      -9999      3.023      -9999      -9999      73.533     -9999      0.3731774  0.8       
891.2000000000001 0.277      -9999      -9999      8.511      3.481      3.404      1          1.469      1.021      4.166      -9999      -9999      -9999      -9999      -9999      3.404      -9999      -9999      73.533     -9999      0.3202115  0.8       
891.4      0.277      -9999      -9999      8.401      3.481      3.742      0.835      1.033      1.025      4.166      -9999      -9999      -9999      -9999      -9999      3.742      -9999      -9999      73.533     -9999      0.2975118  0.8       
891.6      0.277      -9999      -9999      8.358      3.227      3.607      1.029      1.198      1.028      4.039000000000001 -9999      -9999      -9999      -9999      -9999      3.607      -9999      -9999      73.575     -9999      0.2890822  0.8       
891.8      0.277      -9999      -9999      8.35       3.328      3.366      1.355      1.482      1.026      3.988      -9999      -9999      -9999      -9999      -9999      3.366      -9999      -9999      73.66      -9999      0.2875405  0.8       
892        0.277      -9999      -9999      8.46       4.039999999999999 3.09       1.262      1.431      1.045      3.861      -9999      -9999      -9999      -9999      -9999      3.09       -9999      -9999      73.745     -9999      0.3094795  0.8       
892.2000000000001 0.277      -9999      -9999      8.553      4.597999999999999 3.048      1.173      1.397      1.08       4.469999999999999 -9999      -9999      -9999      -9999      -9999      3.048      -9999      -9999      73.787     -9999      0.3293288  0.8       
892.4      0.271      -9999      -9999      8.435      4.597999999999999 3.386      1.397      1.622      1.093      4.469999999999999 -9999      -9999      -9999      -9999      -9999      3.386      -9999      -9999      73.787     -9999      0.3043508  0.8       
892.6      0.271      -9999      -9999      8.198      4.979000000000001 3.81       2.168      1.63       1.105      4.267      -9999      -9999      -9999      -9999      -9999      3.81       -9999      -9999      73.787     -9999      0.2597608  0.8       
892.8      0.274      -9999      -9999      8.028      4.674999999999999 4.297      2.591      1.863      1.119      3.988      -9999      -9999      -9999      -9999      -9999      4.297      -9999      -9999      73.745     -9999      0.2318584  0.8       
893        0.279      -9999      -9999      7.868      4.319      4.17       2.523      1.558      1.132      3.81       -9999      -9999      -9999      -9999      -9999      4.17       -9999      -9999      73.618     -9999      0.2083411  0.8       
893.2000000000001 0.282      -9999      -9999      7.851      4.421      3.895      2.13       1.621      1.133      3.505      -9999      -9999      -9999      -9999      -9999      3.895      -9999      -9999      73.491     -9999      0.205987   0.8       
893.4      0.273      -9999      -9999      7.639      4.421      3.556      1.689      1.337      1.114      3.505      -9999      -9999      -9999      -9999      -9999      3.556      -9999      -9999      73.321     -9999      0.1787708  0.8       
893.6      0.268      -9999      -9999      7.622      4.522      3.302      1.402      1.181      1.094      3.556000000000001 -9999      -9999      -9999      -9999      -9999      3.302      -9999      -9999      73.11      -9999      0.1767509  0.8       
893.8      0.261      -9999      -9999      7.664      4.319      3.027      1.08       1.507      1.073      4.089      -9999      -9999      -9999      -9999      -9999      3.027      -9999      -9999      72.813     -9999      0.1817833  0.8       
894        0.262      -9999      -9999      7.893      4.014      2.879      1.076      1.643      1.06       4.064      -9999      -9999      -9999      -9999      -9999      2.879      -9999      -9999      72.517     -9999      0.211852   0.8       
894.2000000000001 0.259      -9999      -9999      8.012      4.039999999999999 2.984      0.966      1.812      1.048      3.962      -9999      -9999      -9999      -9999      -9999      2.984      -9999      -9999      72.348     -9999      0.2293919  0.8       
894.4      0.259      -9999      -9999      8.054      4.039999999999999 3.175      1.072      1.38       1.035      3.962      -9999      -9999      -9999      -9999      -9999      3.175      -9999      -9999      72.178     -9999      0.2359231  0.8       
894.6      0.266      -9999      -9999      8.045      3.862000000000001 3.069      1.22       1.363      1.037      4.242      -9999      -9999      -9999      -9999      -9999      3.069      -9999      -9999      72.094     -9999      0.2345081  0.8       
894.8      0.274      -9999      -9999      8.062      3.633      2.9        1.271      1.219      1.042      4.902      -9999      -9999      -9999      -9999      -9999      2.9        -9999      -9999      71.924     -9999      0.2371882  0.8       
895        0.274      -9999      -9999      8.18       3.354      2.688      1.597      1.55       1.043      5.004      -9999      -9999      -9999      -9999      -9999      2.688      -9999      -9999      71.797     -9999      0.2566541  0.8       
895.2000000000001 0.27       -9999      -9999      8.29       3.049      2.646      1.957      1.778      1.039      4.978000000000001 -9999      -9999      -9999      -9999      -9999      2.646      -9999      -9999      71.67      -9999      0.2762365  0.8       
895.4      0.264      -9999      -9999      8.324      3.049      2.858      1.978      1.829      1.042      4.978000000000001 -9999      -9999      -9999      -9999      -9999      2.858      -9999      -9999      71.628     -9999      0.2825864  0.8       
895.6      0.27       -9999      -9999      8.316      2.795      2.879      1.74       1.571      1.055      4.953      -9999      -9999      -9999      -9999      -9999      2.879      -9999      -9999      71.713     -9999      0.2810793  0.8       
895.8      0.281      -9999      -9999      8.24       2.871      2.858      1.825      1.541      1.083      5.461      -9999      -9999      -9999      -9999      -9999      2.858      -9999      -9999      71.967     -9999      0.2671567  0.8       
896        0.283      -9999      -9999      8.062      3.811      2.815      2.18       1.664      1.115      6.35       -9999      -9999      -9999      -9999      -9999      2.815      -9999      -9999      72.432     -9999      0.2371882  0.8       
