~Version
 VERS              .         2.0                           : CWLS LOG ASCII STANDARD - VERSION 2.0
 WRAP              .         NO                            : ONE LINE PER DEPTH STEP
 DLM               .         SPACE                         : DELIMITING CHARACTER(SPACE TAB OR COMMA)
~Well Information
#_______________________________________________________________________________
#
#PARAMETER_NAME    .UNIT     VALUE                         : DESCRIPTION
#_______________________________________________________________________________
STRT               .M        900                           : First reference value
STOP               .M        1308.8                        : Last reference value
STEP               .M        0.2                           : Step increment
NULL               .         -9999                         : Missing value
COMP               .                                       : Company
WELL               .         1478                          : Well name
FLD                .         Узень                         : Field
LOC                .                                       : Location
CNTY               .                                       : County
STAT               .                                       : State
CTRY               .                                       : Country
SRVC               .                                       : Service Company
DATE               .                                       : Date
UWI                .                                       : Unique Well ID
Block              .         7                             : 
Category           .         Нефтяная                      : 
Condition          .         Ликвидированная               : 
Date               .         08.06.1967                    : 
EREF               .m        86.7                          : 100.8
Gorizont           .         15                            : 14
Interpretator      .         Бекбулатова А.А.              : 
Kupol              .         Основной                      : osnovnoi
Mud                .         0                             : 
Mud_density        .         0                             : 
Mud_resistivity    .         0                             : 
NGDU               .         НГДУ-2                        : 
ORIGINALWELLNAME   .         1478                          : 
Spud_date          .         1967                          : 1961
Viscosity          .         0                             : 
X                  .m        42259.4                       : 46154
Y                  .m        85033.9                       : 85761.93
YEAR               .         2018                          : 
Исправ_15гор       .         Исправ.15гор                  : 
~Parameter Information Block
#_______________________________________________________________________________
#
#PARAMETER_NAME    .UNIT     VALUE                         : DESCRIPTION
#_______________________________________________________________________________
SET                .         LQC_KAZNIPI_Petrel            : 
TLFamily_CALI      .         Caliper                       : 
TLFamily_COLL      .         Net Reservoir Flag            : 
TLFamily_CSAT      .         Fluid Code                    : 
TLFamily_DEPT      .         Measured Depth                : 
TLFamily_GR        .         Russian Gamma Ray             : 
TLFamily_MINV      .         Micro Gradient Resistivity    : 
TLFamily_MNOR      .         Micro Resistivity             : 
TLFamily_NGLD      .         Neutron Gamma                 : 
TLFamily_PHIE      .         Effective Porosity            : 
TLFamily_PHIEN     .         Effective Porosity            : 
TLFamily_PHIT      .         Porosity                      : 
TLFamily_PRMB      .         Permeability                  : 
TLFamily_PRMB_DGR  .         Permeability                  : 
TLFamily_RT        .         Formation Resistivity         : 
TLFamily_SOIL_ARCHIE .         Oil Saturation                : 
TLFamily_SOIL_DW   .         Oil Saturation                : 
TLFamily_SP        .         Spontaneous Potential         : 
TLFamily_VSH_FIN   .         Shale Volume                  : 
TLFamily_VSH_GR    .         Shale Volume                  : 
TLFamily_VSH_SP    .         Shale Volume                  : 
~Curve Information
#_______________________________________________________________________________
#
#LOGNAME           .UNIT     LOG_ID                        : DESCRIPTION
#_______________________________________________________________________________
DEPT               .M                                      : Колонка глубины 
CALI               .м                                      : Каверномер 
COLL               .unitless                               : Описание 
CSAT               .unitless                               : Описание 
GR                 .uR/h                                   : Гамма каротаж 
MINV               .Ohmm                                   : Микро-градиент зонд 
MNOR               .Ohmm                                   : Микро-потенциал зонд 
NGLD               .у.е.                                   : Показания зонда НГК-60 аппаратуры ДРСТ-3-90 
PHIE               .д.ед.                                  : Описание 
PHIEN              .д.ед.                                  :  
PHIT               .д.ед.                                  : Описание 
PRMB               .mD                                     :  
PRMB_DGR           .mD                                     :  
RT                 .ohmm                                   : УЭС пласта 
SOIL_ARCHIE        .д.ед.                                  :  
SOIL_DW            .д.ед.                                  :  
SP                 .мВ                                     : Потенциал самополяризации 
VSH_FIN            .д.ед.                                  : Описание 
VSH_GR             .д.ед.                                  : Shale volume 
VSH_SP             .д.ед.                                  : Shale Volume 
~Ascii
# ...
1092.4     0.242      -9999      -9999      10.605     3.594      3.191      0.876      0.1283403  0.1283403  0.3201456  0.6673173  1.80426    2.94       0.1940476  0.5147703  34.631     0.5812281  0.5098691  0.6525871 
1092.6     0.247      -9999      -9999      10.681     5.322      4.668      0.869      0.1302436  0.1302436  0.3229764  0.7237435  1.697346   2.858      0.1936821  0.5132211  34.492     0.5840389  0.5227466  0.6453313 
1092.8     0.248      -9999      -9999      10.853     4.191      2.505      0.869      0.1260208  0.1260208  0.3229764  0.6044629  1.478197   2.731      0.1523111  0.496046   34.4       0.596835   0.553104   0.6405661 
1093       0.253      -9999      -9999      10.929     3.645      2.715      0.87       0.1233115  0.1233115  0.322572   0.5384998  1.390604   2.567      0.110638   0.4756956  34.4       0.6038198  0.5670735  0.6405661 
1093.2     0.247      -9999      -9999      10.588     4.115      3.02       0.875      0.1311962  0.1311962  0.32055    0.753756   1.829081   2.391      0.1288171  0.4666674  34.4       0.5737993  0.5070325  0.6405661 
1093.4     0.235      -9999      -9999      10.47      4.166      2.829      0.87       0.1379626  0.1379626  0.322572   1.005913   2.011045   2.243      0.140769   0.4615878  34.215     0.5594224  0.487772   0.6310728 
1093.6     0.249      -9999      -9999      10.276     4.306      3.782      0.854      0.1528487  0.1528487  0.3290424  1.897956   2.350387   2.082      0.1861726  0.4688058  33.799     0.5339205  0.4576838  0.6101571 
1093.8     0.261      -9999      -9999      10.487     3.315      2.886      0.825      0.1625072  0.1625072  0.34077    2.8654     1.983753   2.105      0.2324327  0.4949455  33.384     0.5401904  0.4905011  0.5898798 
1094       0.272      -9999      -9999      10.668     2.464      1.943      0.795      0.1725806  0.1725806  0.352902   4.403202   1.715173   2.135      0.2764246  0.5203692  33.015     0.5464286  0.5205211  0.5723361 
1094.2     0.283      -9999      -9999      10.63      1.6        1.534      0.777      0.1834044  0.1834044  0.3601812  6.986394   1.768366   2.175      0.3197131  0.5415766  32.691     0.5356871  0.5140698  0.5573044 
1094.4     0.269      -9999      -9999      10.458     0.864      1.181      0.776      0.1895035  0.1895035  0.3605856  9.061955   2.030536   2.232      0.3468002  0.5534732  32.553     0.5184307  0.4858548  0.5510066 
1094.6     0.256      -9999      -9999      10.378     1.677      2.067      0.791      0.1805614  0.1805614  0.3545196  6.188618   2.165386   2.303      0.3286525  0.5474222  33.199     0.527146   0.4732645  0.5810274 
1094.8     0.245      -9999      -9999      10.449     3.023      2.753      0.8        0.1710245  0.1710245  0.35088    4.120467   2.045276   2.401      0.309792   0.5445349  33.707     0.5450167  0.4844218  0.6056116 
1095       0.252      -9999      -9999      10.836     4.204      3.296      0.812      0.1557201  0.1557201  0.3460272  2.145223   1.498532   2.401      0.2510728  0.5239839  33.661     0.5766882  0.5500268  0.6033496 
1095.2     0.256      -9999      -9999      10.866     3.683      2.82       0.822      0.1507781  0.1507781  0.3419832  1.737539   1.462831   2.35       0.2219383  0.5094129  33.661     0.5794093  0.555469   0.6033496 
1095.4     0.253      -9999      -9999      11.064     3.95       3.105      0.84       0.1380883  0.1380883  0.334704   1.011319   1.247615   2.293      0.1502867  0.4799434  33.569     0.5958052  0.5927632  0.5988472 
1095.6     0.253      -9999      -9999      10.761     3.658      3.001      0.85       0.1421863  0.1421863  0.33066    1.204461   1.591643   2.367      0.183911   0.4897198  33.707     0.5711325  0.5366533  0.6056116 
1095.8     0.256      -9999      -9999      10.542     3.721      2.629      0.852      0.1463834  0.1463834  0.3298512  1.440571   1.897972   2.455      0.2178424  0.5035778  33.846     0.5559629  0.4994352  0.6124905 
1096       0.255      -9999      -9999      10.298     3.671      3.115      0.845      0.1574363  0.1574363  0.332682   2.308127   2.309192   2.543      0.2779227  0.5279479  33.615     0.5310476  0.4610004  0.6010948 
1096.2     0.252      -9999      -9999      10.108     3.734      3.229      0.84       0.1673677  0.1673677  0.334704   3.525451   2.690181   2.567      0.3183981  0.5427245  33.199     0.5070796  0.4331317  0.5810274 
1096.4     0.236      -9999      -9999      10.184     3.493      2.934      0.846      0.1656414  0.1656414  0.3322776  3.275212   2.530772   2.493      0.3027095  0.5320435  32.876     0.504958   0.4440711  0.565845  
1096.6     0.234      -9999      -9999      10.083     3.175      4.972      0.856      0.1643385  0.1643385  0.3282336  3.098178   2.744782   2.483      0.2965716  0.5261175  32.83      0.4966517  0.4295925  0.5637109 
1096.8     0.247      -9999      -9999      10.142     4.547      2.782      0.852      0.1635104  0.1635104  0.3298512  2.990664   2.617661   2.462      0.2906481  0.5246183  32.968     0.504063   0.437992   0.5701341 
1097       0.254      -9999      -9999      10.171     2.87       2.372      0.847      0.1637633  0.1637633  0.3318732  3.02309    2.557354   2.442      0.2888854  0.5247526  33.107     0.509424   0.4421804  0.5766677 
1097.2     0.267      -9999      -9999      10.087     2.21       2.42       0.842      0.1659541  0.1659541  0.3338952  3.319176   2.735973   2.413      0.2931169  0.5261136  33.338     0.5089124  0.4301568  0.587668  
1097.4     0.247      -9999      -9999      9.952      4.458      3.829      0.85       0.1646965  0.1646965  0.33066    3.145847   3.049544   2.387      0.2847916  0.5192713  33.476     0.5029196  0.4115143  0.5943249 
1097.6     0.239      -9999      -9999      9.995      4.598      3.296      0.857      0.1594117  0.1594117  0.3278292  2.511011   2.945949   2.36       0.2602457  0.5078488  33.661     0.5103562  0.4173629  0.6033496 
1097.8     0.236      -9999      -9999      9.969      4.788      5.163      0.87       0.1536163  0.1536163  0.322572   1.961124   3.00816    2.506      0.2572178  0.5107434  33.799     0.5119869  0.4138167  0.6101571 
1098       0.232      -9999      -9999      9.751      6.922      4.953      0.879      0.1539282  0.1539282  0.3189324  1.987384   3.584229   2.648      0.2774604  0.5210551  33.892     0.5000127  0.385244   0.6147814 
1098.2     0.228      -9999      -9999      9.309      6.454      4.75       0.886      0.1593015  0.1593015  0.3161016  2.499241   5.113052   2.827      0.3199321  0.5399967  33.938     0.4751519  0.3332241  0.6170797 
1098.4     0.231      -9999      -9999      9.33       5.957      4.534      0.887      0.158896   0.158896   0.3156972  2.456394   5.027475   2.987      0.3358037  0.5516943  33.892     0.475155   0.3355286  0.6147814 
1098.6     0.241      -9999      -9999      9.696      5.423      5.706      0.883      0.1538257  0.1538257  0.3173148  1.978715   3.746226   3.083      0.3268433  0.5546164  33.846     0.4954215  0.3783525  0.6124905 
1098.8     0.252      -9999      -9999      10.264     8.916      6.592      0.868      0.1470989  0.1470989  0.3233808  1.485205   2.373167   3.143      0.3064121  0.556603   33.846     0.5341877  0.4558848  0.6124905 
1099       0.251      -9999      -9999      10.335     6.008      3.277      0.847      0.1530607  0.1530607  0.3318732  1.915197   2.241532   3.167      0.3323889  0.5718203  33.938     0.5418561  0.4666325  0.6170797 
1099.2     0.247      -9999      -9999      10.281     4.318      3.906      0.842      0.1571924  0.1571924  0.3338952  2.284246   2.34096    3.167      0.3476984  0.577708   33.846     0.535463   0.4584354  0.6124905 
1099.4     0.24       -9999      -9999      9.767      4.547      3.782      0.846      0.1654064  0.1654064  0.3322776  3.242541   3.53843    3.139      0.3733974  0.5827389  34.077     0.5056704  0.3872723  0.6240684 
1099.6     0.246      -9999      -9999      9.624      4.115      3.163      0.85       0.1663344  0.1663344  0.33066    3.373452   3.969416   3.058      0.3687463  0.576888   34.123     0.4979564  0.3695168  0.626396  
