~Version
 VERS              .         2.0                           : CWLS LOG ASCII STANDARD - VERSION 2.0
 WRAP              .         NO                            : ONE LINE PER DEPTH STEP
 DLM               .         SPACE                         : DELIMITING CHARACTER(SPACE TAB OR COMMA)
~Well Information
#_______________________________________________________________________________
#
#PARAMETER_NAME    .UNIT     VALUE                         : DESCRIPTION
#_______________________________________________________________________________
STRT               .M        900                           : First reference value
STOP               .M        1308.8                        : Last reference value
STEP               .M        0.2                           : Step increment
NULL               .         -9999                         : Missing value
COMP               .                                       : Company
WELL               .         1478                          : Well name
FLD                .         Узень                         : Field
LOC                .                                       : Location
CNTY               .                                       : County
STAT               .                                       : State
CTRY               .                                       : Country
SRVC               .                                       : Service Company
DATE               .                                       : Date
UWI                .                                       : Unique Well ID
Block              .         7                             : 
Category           .         Нефтяная                      : 
Condition          .         Ликвидированная               : 
Date               .         08.06.1967                    : 
EREF               .m        86.7                          : 100.8
Gorizont           .         15                            : 14
Interpretator      .         Бекбулатова А.А.              : 
Kupol              .         Основной                      : osnovnoi
Mud                .         0                             : 
Mud_density        .         0                             : 
Mud_resistivity    .         0                             : 
NGDU               .         НГДУ-2                        : 
ORIGINALWELLNAME   .         1478                          : 
Spud_date          .         1967                          : 1961
Viscosity          .         0                             : 
X                  .m        42259.4                       : 46154
Y                  .m        85033.9                       : 85761.93
YEAR               .         2018                          : 
Исправ_15гор       .         Исправ.15гор                  : 
~Parameter Information Block
#_______________________________________________________________________________
#
#PARAMETER_NAME    .UNIT     VALUE                         : DESCRIPTION
#_______________________________________________________________________________
SET                .         LQC_KAZNIPI_Petrel            : 
TLFamily_CALI      .         Caliper                       : 
TLFamily_COLL      .         Net Reservoir Flag            : 
TLFamily_CSAT      .         Fluid Code                    : 
TLFamily_DEPT      .         Measured Depth                : 
TLFamily_GR        .         Russian Gamma Ray             : 
TLFamily_MINV      .         Micro Gradient Resistivity    : 
TLFamily_MNOR      .         Micro Resistivity             : 
TLFamily_NGLD      .         Neutron Gamma                 : 
TLFamily_PHIE      .         Effective Porosity            : 
TLFamily_PHIEN     .         Effective Porosity            : 
TLFamily_PHIT      .         Porosity                      : 
TLFamily_PRMB      .         Permeability                  : 
TLFamily_PRMB_DGR  .         Permeability                  : 
TLFamily_RT        .         Formation Resistivity         : 
TLFamily_SOIL_ARCHIE .         Oil Saturation                : 
TLFamily_SOIL_DW   .         Oil Saturation                : 
TLFamily_SP        .         Spontaneous Potential         : 
TLFamily_VSH_FIN   .         Shale Volume                  : 
TLFamily_VSH_GR    .         Shale Volume                  : 
TLFamily_VSH_SP    .         Shale Volume                  : 
~Curve Information
#_______________________________________________________________________________
#
#LOGNAME           .UNIT     LOG_ID                        : DESCRIPTION
#_______________________________________________________________________________
DEPT               .M                                      : Колонка глубины 
CALI               .м                                      : Каверномер 
COLL               .unitless                               : Описание 
CSAT               .unitless                               : Описание 
GR                 .uR/h                                   : Гамма каротаж 
MINV               .Ohmm                                   : Микро-градиент зонд 
MNOR               .Ohmm                                   : Микро-потенциал зонд 
NGLD               .у.е.                                   : Показания зонда НГК-60 аппаратуры ДРСТ-3-90 
PHIE               .д.ед.                                  : Описание 
PHIEN              .д.ед.                                  :  
PHIT               .д.ед.                                  : Описание 
PRMB               .mD                                     :  
PRMB_DGR           .mD                                     :  
RT                 .ohmm                                   : УЭС пласта 
SOIL_ARCHIE        .д.ед.                                  :  
SOIL_DW            .д.ед.                                  :  
SP                 .мВ                                     : Потенциал самополяризации 
VSH_FIN            .д.ед.                                  : Описание 
VSH_GR             .д.ед.                                  : Shale volume 
VSH_SP             .д.ед.                                  : Shale Volume 
~Ascii
# ...
929.6      -9999      1          3          6.077      -9999      -9999      0.965      0.2312936  0.2312936  0.284154   53.86132   30.74319   -9999      -9999      -9999      -9999      0.160183   0.1601831  -9999     
929.8      -9999      1          3          6.258      -9999      -9999      0.964      0.2279116  0.2279116  0.2845584  46.62659   25.95204   -9999      -9999      -9999      -9999      0.171657   0.1716567  -9999     
930        -9999      1          3          6.384      -9999      -9999      0.959      0.2271388  0.2271388  0.2865804  45.1149    23.06493   -9999      -9999      -9999      -9999      0.180126   0.1801256  -9999     
930.2000000000001 -9999      1          3          6.506      -9999      -9999      0.953      0.2267282  0.2267282  0.2890068  44.3317    20.57589   -9999      -9999      -9999      -9999      0.188723   0.1887235  -9999     
930.4      -9999      1          3          6.46       -9999      -9999      0.944      0.2314529  0.2314529  0.2926464  54.22836   21.48116   -9999      -9999      -9999      -9999      0.185435   0.1854345  -9999     
930.6      -9999      1          3          6.548      -9999      -9999      0.948      0.2277424  0.2277424  0.2910288  46.29133   19.78269   -9999      -9999      -9999      -9999      0.191777   0.1917775  -9999     
930.8      -9999      1          3          6.443      -9999      -9999      0.967      0.2225483  0.2225483  0.2833452  37.09306   21.82571   -9999      -9999      -9999      -9999      0.184233   0.1842335  -9999     
931        -9999      1          3          6.468      -9999      -9999      0.971      0.2203469  0.2203469  0.2817276  33.76897   21.32091   -9999      -9999      -9999      -9999      0.186002   0.1860024  -9999     
931.2000000000001 -9999      1          3          6.342      -9999      -9999      0.95       0.2317252  0.2317252  0.29022    54.86192   23.98973   -9999      -9999      -9999      -9999      0.177257   0.1772572  -9999     
931.4      -9999      1          3          6.431      -9999      -9999      0.93       0.237789   0.237789   0.298308   71.05368   22.07223   -9999      -9999      -9999      -9999      0.183391   0.1833905  -9999     
931.6      -9999      1          3          6.514      -9999      -9999      0.921      0.2394779  0.2394779  0.3019476  76.36079   20.42238   -9999      -9999      -9999      -9999      0.189302   0.1893015  -9999     
931.8      -9999      1          3          6.801      -9999      -9999      0.932      0.2277874  0.2277874  0.2974992  46.38023   15.61132   -9999      -9999      -9999      -9999      0.211248   0.2112482  -9999     
932        -9999      1          3          7.297      -9999      -9999      0.94       0.2100008  0.2100008  0.294264   21.72114   9.813268   -9999      -9999      -9999      -9999      0.255343   0.2553428  -9999     
932.2000000000001 -9999      1          3          7.39       -9999      -9999      0.945      0.2049299  0.2049299  0.292242   17.49676   8.995156   -9999      -9999      -9999      -9999      0.264582   0.2645822  -9999     
932.4      -9999      1          3          7.63       -9999      -9999      0.942      0.1977552  0.1977552  0.2934552  12.88441   7.185343   -9999      -9999      -9999      -9999      0.29       0.2900001  -9999     
932.6      -9999      1          3          7.449      -9999      -9999      0.938      0.2057695  0.2057695  0.2950728  18.13463   8.51187    -9999      -9999      -9999      -9999      0.270616   0.2706163  -9999     
932.8      -9999      1          3          7.293      -9999      -9999      0.93       0.2141735  0.2141735  0.298308   25.95202   9.850071   -9999      -9999      -9999      -9999      0.254953   0.2549527  -9999     
933        -9999      1          3          7.066      -9999      -9999      0.929      0.2215699  0.2215699  0.2987124  35.57713   12.18193   -9999      -9999      -9999      -9999      0.233765   0.2337653  -9999     
933.2000000000001 -9999      1          3          7.108      -9999      -9999      0.924      0.2223435  0.2223435  0.3007344  36.77054   11.71232   -9999      -9999      -9999      -9999      0.237548   0.2375481  -9999     
933.4      -9999      1          3          7.226      -9999      -9999      0.93       0.2163007  0.2163007  0.298308   28.41657   10.48758   -9999      -9999      -9999      -9999      0.248507   0.2485068  -9999     
933.6      -9999      1          3          7.461      -9999      -9999      0.936      0.2061678  0.2061678  0.2958816  18.44531   8.416799   -9999      -9999      -9999      -9999      0.27186    0.2718603  -9999     
933.8      -9999      1          3          7.272      -9999      -9999      0.939      0.2112065  0.2112065  0.2946684  22.86725   10.04561   -9999      -9999      -9999      -9999      0.252915   0.2529146  -9999     
934        -9999      1          3          7.428      -9999      -9999      0.928      0.2105273  0.2105273  0.2991168  22.21441   8.680834   -9999      -9999      -9999      -9999      0.268453   0.268453   -9999     
934.2000000000001 -9999      1          3          7.318      -9999      -9999      0.918      0.2182188  0.2182188  0.3031608  30.83896   9.622257   -9999      -9999      -9999      -9999      0.2574     0.2574005  -9999     
934.4      -9999      1          3          7.423      -9999      -9999      0.918      0.2147406  0.2147406  0.3031608  26.58735   8.721556   -9999      -9999      -9999      -9999      0.26794    0.2679404  -9999     
934.6      -9999      1          3          7.242      -9999      -9999      0.928      0.2166066  0.2166066  0.2991168  28.78973   10.33169   -9999      -9999      -9999      -9999      0.250031   0.2500312  -9999     
934.8      -9999      1          3          7.461      -9999      -9999      0.941      0.2041458  0.2041458  0.2938596  16.9213    8.416799   -9999      -9999      -9999      -9999      0.27186    0.2718603  -9999     
935        -9999      1          3          7.478      -9999      -9999      0.954      0.1983035  0.1983035  0.2886024  13.18925   8.283925   -9999      -9999      -9999      -9999      0.273633   0.2736325  -9999     
935.2000000000001 -9999      1          3          7.979      -9999      -9999      0.976      0.1703495  0.1703495  0.2797056  4.003546   5.182956   -9999      -9999      -9999      -9999      0.331382   0.3313816  -9999     
935.4      -9999      1          3          7.642      -9999      -9999      0.979      0.1823525  0.1823525  0.2784924  6.67989    7.105088   -9999      -9999      -9999      -9999      0.291333   0.2913332  -9999     
935.6      -9999      1          3          7.36       -9999      -9999      0.975      0.1937932  0.1937932  0.28011    10.88124   9.251323   -9999      -9999      -9999      -9999      0.261566   0.2615658  -9999     
935.8      -9999      1          3          6.792      -9999      -9999      0.956      0.218321   0.218321   0.2877936  30.9737    15.74339   -9999      -9999      -9999      -9999      0.210523   0.2105227  -9999     
936        -9999      1          3          6.762      -9999      -9999      0.959      0.2178998  0.2178998  0.2865804  30.42225   16.19173   -9999      -9999      -9999      -9999      0.208123   0.2081226  -9999     
936.2000000000001 -9999      1          3          6.847      -9999      -9999      0.966      0.2128012  0.2128012  0.2837496  24.47673   14.95342   -9999      -9999      -9999      -9999      0.214995   0.214995   -9999     
936.4      -9999      1          3          6.927      -9999      -9999      0.982      0.2041281  0.2041281  0.2772792  16.90853   13.87459   -9999      -9999      -9999      -9999      0.22167    0.2216703  -9999     
936.6      -9999      1          3          6.99       -9999      -9999      0.985      0.2011319  0.2011319  0.276066   14.88021   13.08008   -9999      -9999      -9999      -9999      0.227073   0.2270727  -9999     
936.8      -9999      1          3          7.07       -9999      -9999      0.997      0.1939526  0.1939526  0.2712132  10.95547   12.13641   -9999      -9999      -9999      -9999      0.234123   0.234123   -9999     
