~Version
 VERS              .         2.0                           : CWLS LOG ASCII STANDARD - VERSION 2.0
 WRAP              .         NO                            : ONE LINE PER DEPTH STEP
 DLM               .         SPACE                         : DELIMITING CHARACTER(SPACE TAB OR COMMA)
~Well Information
#_______________________________________________________________________________
#
#PARAMETER_NAME    .UNIT     VALUE                         : DESCRIPTION
#_______________________________________________________________________________
STRT               .M        900                           : First reference value
STOP               .M        1308.8                        : Last reference value
STEP               .M        0.2                           : Step increment
NULL               .         -9999                         : Missing value
COMP               .                                       : Company
WELL               .         1478                          : Well name
FLD                .         Узень                         : Field
LOC                .                                       : Location
CNTY               .                                       : County
STAT               .                                       : State
CTRY               .                                       : Country
SRVC               .                                       : Service Company
DATE               .                                       : Date
UWI                .                                       : Unique Well ID
Block              .         7                             : 
Category           .         Нефтяная                      : 
Condition          .         Ликвидированная               : 
Date               .         08.06.1967                    : 
EREF               .m        86.7                          : 100.8
Gorizont           .         15                            : 14
Interpretator      .         Бекбулатова А.А.              : 
Kupol              .         Основной                      : osnovnoi
Mud                .         0                             : 
Mud_density        .         0                             : 
Mud_resistivity    .         0                             : 
NGDU               .         НГДУ-2                        : 
ORIGINALWELLNAME   .         1478                          : 
Spud_date          .         1967                          : 1961
Viscosity          .         0                             : 
X                  .m        42259.4                       : 46154
Y                  .m        85033.9                       : 85761.93
YEAR               .         2018                          : 
Исправ_15гор       .         Исправ.15гор                  : 
~Parameter Information Block
#_______________________________________________________________________________
#
#PARAMETER_NAME    .UNIT     VALUE                         : DESCRIPTION
#_______________________________________________________________________________
SET                .         LQC_KAZNIPI_Petrel            : 
TLFamily_CALI      .         Caliper                       : 
TLFamily_COLL      .         Net Reservoir Flag            : 
TLFamily_CSAT      .         Fluid Code                    : 
TLFamily_DEPT      .         Measured Depth                : 
TLFamily_GR        .         Russian Gamma Ray             : 
TLFamily_MINV      .         Micro Gradient Resistivity    : 
TLFamily_MNOR      .         Micro Resistivity             : 
TLFamily_NGLD      .         Neutron Gamma                 : 
TLFamily_PHIE      .         Effective Porosity            : 
TLFamily_PHIEN     .         Effective Porosity            : 
TLFamily_PHIT      .         Porosity                      : 
TLFamily_PRMB      .         Permeability                  : 
TLFamily_PRMB_DGR  .         Permeability                  : 
TLFamily_RT        .         Formation Resistivity         : 
TLFamily_SOIL_ARCHIE .         Oil Saturation                : 
TLFamily_SOIL_DW   .         Oil Saturation                : 
TLFamily_SP        .         Spontaneous Potential         : 
TLFamily_VSH_FIN   .         Shale Volume                  : 
TLFamily_VSH_GR    .         Shale Volume                  : 
TLFamily_VSH_SP    .         Shale Volume                  : 
~Curve Information
#_______________________________________________________________________________
#
#LOGNAME           .UNIT     LOG_ID                        : DESCRIPTION
#_______________________________________________________________________________
DEPT               .M                                      : Колонка глубины 
CALI               .м                                      : Каверномер 
COLL               .unitless                               : Описание 
CSAT               .unitless                               : Описание 
GR                 .uR/h                                   : Гамма каротаж 
MINV               .Ohmm                                   : Микро-градиент зонд 
MNOR               .Ohmm                                   : Микро-потенциал зонд 
NGLD               .у.е.                                   : Показания зонда НГК-60 аппаратуры ДРСТ-3-90 
PHIE               .д.ед.                                  : Описание 
PHIEN              .д.ед.                                  :  
PHIT               .д.ед.                                  : Описание 
PRMB               .mD                                     :  
PRMB_DGR           .mD                                     :  
RT                 .ohmm                                   : УЭС пласта 
SOIL_ARCHIE        .д.ед.                                  :  
SOIL_DW            .д.ед.                                  :  
SP                 .мВ                                     : Потенциал самополяризации 
VSH_FIN            .д.ед.                                  : Описание 
VSH_GR             .д.ед.                                  : Shale volume 
VSH_SP             .д.ед.                                  : Shale Volume 
~Ascii
# ...
1033.2     0.246      -9999      -9999      6.493      6.833      4.934      0.912      0.2116671  0.2116671  0.3055872  23.32093   20.82779   3.648      0.5289289  0.630963   31.534     0.2846064  0.1877882  0.3814247 
1033.4     0.234      -9999      -9999      6.371      6.782      5.163      0.948      0.2006817  0.2006817  0.2910288  14.59722   23.34731   3.875      0.52033    0.623331   31.121     0.273779   0.1792328  0.3683252 
1033.6     0.225      -9999      -9999      6.544      8.853      6.659      0.994      0.1848356  0.1848356  0.2724264  7.426126   19.85689   4.076      0.4967908  0.6050438  30.152     0.2654265  0.1914845  0.3393686 
1033.8     0.219      -9999      -9999      6.813      8.853      6.64       1.033      0.16778    0.16778    0.2566548  3.587988   15.43695   4.385      0.4709753  0.5896389  29.69      0.2693175  0.2122193  0.3264158 
1034       0.22       -9999      -9999      6.885      8.853      6.62       1.05       0.1595098  0.1595098  0.24978    2.52154    14.43089   4.650001   0.4621793  0.5866316  29.782     0.2735462  0.2181404  0.3289521 
1034.2     0.221      -9999      -9999      6.935      5.042      4.029      1.055      0.153527   0.153527   0.247758   1.953664   13.77109   4.793      0.4518181  0.5845059  30.475     0.2855487  0.2223492  0.3487482 
1034.4     0.221      -9999      -9999      6.855      8.751001   5.506      1.057      0.1496339  0.1496339  0.2469492  1.654785   14.84187   4.342      0.4128089  0.558072   31.306     0.2948947  0.2156534  0.374136  
1034.6     0.22       -9999      -9999      7.158      8.307      6.473      1.049      0.1445169  0.1445169  0.2501844  1.330339   11.17681   4.044      0.3742066  0.5393031  32.045     0.3202044  0.2421314  0.3982774 
1034.8     0.235      -9999      -9999      7.6        6.77       6.525      1.035      0.1380458  0.1380458  0.255846   1.00949    7.389973   4.069      0.350614   0.5386589  32.876     0.3569702  0.2866938  0.4272465 
1035       0.241      -9999      -9999      8.059      7.798      6.173      1.009      0.1358338  0.1358338  0.2663604  0.9186084  4.809026   4.326      0.360072   0.5607076  33.476     0.3955351  0.3416705  0.4493997 
1035.2     0.236      -9999      -9999      8.181      5.373      3.991      0.965      0.1497741  0.1497741  0.284154   1.664709   4.290065   4.555      0.4263259  0.6038045  33.661     0.4072118  0.3579794  0.456444  
1035.4     0.23       -9999      -9999      8.126      6.909      4.826      0.925      0.1665945  0.1665945  0.30033    3.411084   4.516701   4.458      0.4718063  0.6285818  33.753     0.405259   0.3505329  0.4599852 
1035.6     0.227      -9999      -9999      7.899      8.421      5.649      0.908      0.1785685  0.1785685  0.3072048  5.684338   5.585958   4.159      0.4863256  0.6309547  33.707     0.389807   0.3214025  0.4582115 
1035.8     0.247      -9999      -9999      8.025      3.163      3.134      0.913      0.1733438  0.1733438  0.3051828  4.548886   4.964533   3.845      0.4530865  0.610087   33.799     0.3995122  0.3372591  0.4617653 
1036       0.257      -9999      -9999      8.366      2.54       2.534      0.902      0.1694486  0.1694486  0.3096312  3.852632   3.607947   3.491      0.4162873  0.590723   33.892     0.4247957  0.3842078  0.4653836 
1036.2     0.272      -9999      -9999      8.715      1.905      2.715      0.874      0.1705254  0.1705254  0.3209544  4.033679   2.602497   3.449      0.4161922  0.5981448  34.077     0.4558456  0.4390323  0.4726589 
1036.4     0.255      -9999      -9999      9.094      2.083      1.648      0.848      0.1688417  0.1688417  0.3314688  3.754188   1.825262   3.586      0.4217915  0.6121066  34.215     0.4928094  0.5074653  0.4781534 
1036.6     0.27       -9999      -9999      9.174      1.41       0.648      0.835      0.1702687  0.1702687  0.336726   3.989772   1.693576   3.638      0.4298791  0.6198297  34.4       0.504416   0.5232214  0.4856106 
1036.8     0.278      -9999      -9999      9.359      1.397      0.076      0.829      0.1638636  0.1638636  0.3391524  3.036058   1.424299   3.619      0.409068   0.6148982  34.769     0.5311781  0.5615566  0.5007997 
1037       0.294      -9999      -9999      9.367      1.296      0.524      0.828      0.161733   0.161733   0.3395568  2.77234    1.413675   3.814      0.4168338  0.6232768  35.092     0.5388598  0.5632762  0.5144435 
1037.2     0.272      -9999      -9999      9.085      2.396      1.95       0.836      0.1663508  0.1663508  0.3363216  3.375818   1.840702   3.961      0.440968   0.632113   35.323     0.5150629  0.5057228  0.5244032 
1037.4     0.25       -9999      -9999      8.883      3.302      3.124      0.855      0.1638648  0.1638648  0.328638   3.036208   2.223808   3.994      0.4357894  0.6262273  35.462     0.4993127  0.4681475  0.530478  
1037.6     0.229      -9999      -9999      8.42       5.449      3.963      0.89       0.1619049  0.1619049  0.314484   2.792736   3.430119   3.575      0.3994086  0.5922101  35.508     0.4623609  0.3922199  0.5325019 
1037.8     0.227      -9999      -9999      8.593      4.636      6.535      0.925      0.1436611  0.1436611  0.30033    1.282654   2.917318   3.3        0.30799    0.5428438  35.462     0.4747543  0.4190307  0.530478  
1038       0.235      -9999      -9999      8.576      8.726      6.735      0.943      0.1381615  0.1381615  0.2930508  1.014481   2.96411    3.479      0.301588   0.5411815  35.277     0.4693615  0.4163168  0.5224063 
1038.2     0.244      -9999      -9999      8.547      5.982      4.515      0.922      0.1483928  0.1483928  0.3015432  1.569472   3.045672   3.429      0.339246   0.5581408  35.139     0.464092   0.4117278  0.5164562 
1038.4     0.251      -9999      -9999      8.509      4.064      3.391      0.884      0.1663607  0.1663607  0.3169104  3.377244   3.155952   3.184      0.3806798  0.5744289  34.908     0.4562111  0.4057912  0.506631  
1038.6     0.237      -9999      -9999      8.522      3.429      2.762      0.864      0.1753936  0.1753936  0.3249984  4.964478   3.11778    3.502      0.434393   0.6085548  34.723     0.4533478  0.4078125  0.498883  
1038.8     0.229      -9999      -9999      8.766      3.302      2.2        0.877      0.1651309  0.1651309  0.3197412  3.204667   2.481182   3.886      0.432303   0.6157681  34.492     0.4685161  0.447674   0.4893582 
1039       0.219      -9999      -9999      8.585      4.623      3.806      0.919      0.1546278  0.1546278  0.3027564  2.047572   2.939246   4.19       0.4197379  0.607524   34.261     0.4488746  0.4177513  0.4799979 
1039.2     0.215      -9999      -9999      8.383      8.776      6.725      0.969      0.1410467  0.1410467  0.2825364  1.147324   3.550991   4.577      0.3968959  0.5940576  34.03      0.4287565  0.3867123  0.4708007 
1039.4     0.219      -9999      -9999      8.008      5.131      5.325      1.005      0.1353075  0.1353075  0.267978   0.8982165  5.044158   4.949      0.3971904  0.5901988  33.984     0.4020319  0.335075   0.4689887 
1039.6     0.222      -9999      -9999      7.415      4.115      3.525      1.022      0.1390393  0.1390393  0.2611032  1.053182   8.787109   5.013      0.4148454  0.5906295  34.077     0.3698906  0.2671224  0.4726589 
1039.8     0.224      -9999      -9999      7.335      5.817      5.03       1.024      0.1377283  0.1377283  0.2602944  0.9959087  9.47036    4.864      0.4015836  0.5820791  34.354     0.3714125  0.2590784  0.4837466 
1040       0.225      -9999      -9999      7.247      8.661999   4.249      1.03       0.1354791  0.1354791  0.257868   0.9048139  10.28345   4.574      0.3751733  0.563776   34.538     0.3708755  0.2505095  0.4912416 
1040.2     0.225      -9999      -9999      7.554      8.661999   6.63       1.027      0.1293335  0.1293335  0.2590812  0.6961907  7.715107   4.34       0.3331606  0.5453746  34.861     0.3931749  0.2816974  0.5046524 
1040.4     0.225      -9999      -9999      7.928      4.115      3.277      1.009      0.1281787  0.1281787  0.2663604  0.6627325  5.436375   4          0.3017038  0.5328797  35.046     0.4187326  0.3249846  0.5124804 
