~Version
 VERS              .         2.0                           : CWLS LOG ASCII STANDARD - VERSION 2.0
 WRAP              .         NO                            : ONE LINE PER DEPTH STEP
 DLM               .         SPACE                         : DELIMITING CHARACTER(SPACE TAB OR COMMA)
~Well Information
#_______________________________________________________________________________
#
#PARAMETER_NAME    .UNIT     VALUE                         : DESCRIPTION
#_______________________________________________________________________________
STRT               .M        900                           : First reference value
STOP               .M        1308.8                        : Last reference value
STEP               .M        0.2                           : Step increment
NULL               .         -9999                         : Missing value
COMP               .                                       : Company
WELL               .         1478                          : Well name
FLD                .         Узень                         : Field
LOC                .                                       : Location
CNTY               .                                       : County
STAT               .                                       : State
CTRY               .                                       : Country
SRVC               .                                       : Service Company
DATE               .                                       : Date
UWI                .                                       : Unique Well ID
Block              .         7                             : 
Category           .         Нефтяная                      : 
Condition          .         Ликвидированная               : 
Date               .         08.06.1967                    : 
EREF               .m        86.7                          : 100.8
Gorizont           .         15                            : 14
Interpretator      .         Бекбулатова А.А.              : 
Kupol              .         Основной                      : osnovnoi
Mud                .         0                             : 
Mud_density        .         0                             : 
Mud_resistivity    .         0                             : 
NGDU               .         НГДУ-2                        : 
ORIGINALWELLNAME   .         1478                          : 
Spud_date          .         1967                          : 1961
Viscosity          .         0                             : 
X                  .m        42259.4                       : 46154
Y                  .m        85033.9                       : 85761.93
YEAR               .         2018                          : 
Исправ_15гор       .         Исправ.15гор                  : 
~Parameter Information Block
#_______________________________________________________________________________
#
#PARAMETER_NAME    .UNIT     VALUE                         : DESCRIPTION
#_______________________________________________________________________________
SET                .         LQC_KAZNIPI_Petrel            : 
TLFamily_CALI      .         Caliper                       : 
TLFamily_COLL      .         Net Reservoir Flag            : 
TLFamily_CSAT      .         Fluid Code                    : 
TLFamily_DEPT      .         Measured Depth                : 
TLFamily_GR        .         Russian Gamma Ray             : 
TLFamily_MINV      .         Micro Gradient Resistivity    : 
TLFamily_MNOR      .         Micro Resistivity             : 
TLFamily_NGLD      .         Neutron Gamma                 : 
TLFamily_PHIE      .         Effective Porosity            : 
TLFamily_PHIEN     .         Effective Porosity            : 
TLFamily_PHIT      .         Porosity                      : 
TLFamily_PRMB      .         Permeability                  : 
TLFamily_PRMB_DGR  .         Permeability                  : 
TLFamily_RT        .         Formation Resistivity         : 
TLFamily_SOIL_ARCHIE .         Oil Saturation                : 
TLFamily_SOIL_DW   .         Oil Saturation                : 
TLFamily_SP        .         Spontaneous Potential         : 
TLFamily_VSH_FIN   .         Shale Volume                  : 
TLFamily_VSH_GR    .         Shale Volume                  : 
TLFamily_VSH_SP    .         Shale Volume                  : 
~Curve Information
#_______________________________________________________________________________
#
#LOGNAME           .UNIT     LOG_ID                        : DESCRIPTION
#_______________________________________________________________________________
DEPT               .M                                      : Колонка глубины 
CALI               .м                                      : Каверномер 
COLL               .unitless                               : Описание 
CSAT               .unitless                               : Описание 
GR                 .uR/h                                   : Гамма каротаж 
MINV               .Ohmm                                   : Микро-градиент зонд 
MNOR               .Ohmm                                   : Микро-потенциал зонд 
NGLD               .у.е.                                   : Показания зонда НГК-60 аппаратуры ДРСТ-3-90 
PHIE               .д.ед.                                  : Описание 
PHIEN              .д.ед.                                  :  
PHIT               .д.ед.                                  : Описание 
PRMB               .mD                                     :  
PRMB_DGR           .mD                                     :  
RT                 .ohmm                                   : УЭС пласта 
SOIL_ARCHIE        .д.ед.                                  :  
SOIL_DW            .д.ед.                                  :  
SP                 .мВ                                     : Потенциал самополяризации 
VSH_FIN            .д.ед.                                  : Описание 
VSH_GR             .д.ед.                                  : Shale volume 
VSH_SP             .д.ед.                                  : Shale Volume 
~Ascii
# ...
1011       0.264      -9999      -9999      9.611      3.175      2.277      0.84       0.1217482  0.1217482  0.334704   0.5037673  1.125025   2.447      0.08026794 0.4732171  38.371     0.6453207  0.6183336  0.6723077 
1011.2     0.271      -9999      -9999      9.595      1.981      1.696      0.839      0.1219561  0.1219561  0.3351084  0.5082535  1.142      2.499      0.09065102 0.4794475  38.463     0.6459162  0.6145639  0.6772684 
1011.4     0.265      -9999      -9999      10.117     1.981      2.248      0.84       0.09916137 0.09916137 0.334704   0.1922504  0.7006018  2.519      0          0.4429619  38.463     0.7137656  0.7502627  0.6772684 
1011.6     0.258      -9999      -9999      10.331     1.296      1.657      0.845      0.08934259 0.08934259 0.332682   0.1264735  0.573428   2.519      0          0.4213391  38.417     0.7373921  0.8        0.6747843 
1011.8     0.253      -9999      -9999      10.39      2.451      1.991      0.847      0.08934978 0.08934978 0.3318732  0.1265123  0.5426193  2.519      0          0.4203964  38.325     0.7349194  0.8        0.6698388 
1012       0.247      -9999      -9999      10.028     3.506      2.667      0.847      0.1016966  0.1016966  0.3318732  0.214203   0.7614651  2.521      0          0.4447164  38.325     0.6975049  0.7251709  0.6698388 
1012.2     0.248      -9999      -9999      9.86       3.391      2.782      0.858      0.1034638  0.1034638  0.3274248  0.2309719  0.8911338  2.53       0          0.443962   38.463     0.6786696  0.6800708  0.6772684 
1012.4     0.251      -9999      -9999      9.91       3.366      2.705      0.872      0.09397625 0.09397625 0.3217632  0.1541084  0.8503891  2.558      0          0.422271   38.648     0.6902635  0.6931921  0.6873348 
1012.6     0.253      -9999      -9999      9.965      3.15       2.61       0.877      0.08827225 0.08827225 0.3197412  0.1208299  0.8077178  2.605      0          0.4131846  38.786     0.7014211  0.7079182  0.6949239 
1012.8     0.255      -9999      -9999      9.944      3.264      2.553      0.873      0.08912715 0.08912715 0.3213588  0.1253167  0.8237517  2.678      0          0.425007   38.971     0.7037323  0.702259   0.7052055 
1013       0.251      -9999      -9999      9.868      3.696      2.81       0.853      0.09968133 0.09968133 0.3294468  0.1965613  0.8844852  2.717      0          0.4588897  39.063     0.696259   0.6821535  0.7103646 
1013.2     0.244      -9999      -9999      9.919      3.582      2.753      0.849      0.09865589 0.09865589 0.3310644  0.1881502  0.8432552  2.777      0          0.4646719  39.109     0.7042682  0.6955807  0.7129557 
1013.4     0.243      -9999      -9999      9.818      3.633      2.696      0.833      0.1094723  0.1094723  0.3375348  0.2984357  0.9268637  2.817      0.05557783 0.4933388  39.109     0.6910985  0.6692411  0.7129557 
1013.6     0.246      -9999      -9999      9.805      3.887      2.905      0.83       0.1120866  0.1120866  0.338748   0.3336372  0.9382108  2.836      0.07770611 0.5002857  39.017     0.6868526  0.6659243  0.7077811 
1013.8     0.248      -9999      -9999      9.548      3.658      2.753      0.82       0.1268353  0.1268353  0.342792   0.62583    1.193361   2.856      0.1745728  0.5267692  38.971     0.6544141  0.6036227  0.7052055 
1014       0.249      -9999      -9999      9.241      3.683      3.144      0.828      0.1359036  0.1359036  0.3395568  0.9213446  1.590629   2.869      0.2244088  0.5366125  38.832     0.6171309  0.536793   0.6974689 
1014.2     0.245      -9999      -9999      8.741      2.959      2.429      0.834      0.1501402  0.1501402  0.3371304  1.690905   2.539926   2.903      0.2927889  0.5539292  38.694     0.5666369  0.4434168  0.689857  
1014.4     0.238      -9999      -9999      8.362      3.239      2.496      0.844      0.1567936  0.1567936  0.3330864  2.24572    3.62148    2.903      0.3189986  0.5578338  38.602     0.5342207  0.3836209  0.6848205 
1014.6     0.23       -9999      -9999      8.101      4.229      3.305      0.864      0.1555501  0.1555501  0.3249984  2.129725   4.62364    2.882      0.3119194  0.5480426  38.509     0.5134797  0.3471994  0.6797599 
1014.8     0.233      -9999      -9999      8.585      3.328      2.486      0.873      0.141499   0.141499   0.3213588  1.169671   2.939246   2.888      0.2535061  0.528829   38.371     0.5450295  0.4177513  0.6723077 
1015       0.239      -9999      -9999      8.841      3.353      2.82       0.868      0.1364358  0.1364358  0.3233808  0.9424975  2.312975   2.927      0.2342702  0.5274839  38.371     0.5665     0.4606924  0.6723077 
1015.2     0.242      -9999      -9999      8.989      3.696      3.105      0.855      0.1372692  0.1372692  0.328638   0.9765986  2.013761   2.953      0.2414751  0.5353808  38.371     0.5799055  0.4875033  0.6723077 
1015.4     0.237      -9999      -9999      8.719      4.064      3.334      0.855      0.1451561  0.1451561  0.328638   1.367101   2.592772   2.986      0.2812567  0.5474153  38.371     0.5560058  0.4397039  0.6723077 
1015.6     0.226      -9999      -9999      8.467      4.204      2.991      0.863      0.1485827  0.1485827  0.3254028  1.582233   3.282489   3.017      0.2991203  0.5508936  38.371     0.5358185  0.3993292  0.6723077 
1015.8     0.226      -9999      -9999      8.223      3.62       2.801      0.853      0.1584936  0.1584936  0.3294468  2.414594   4.124684   3.075      0.3433435  0.5692095  38.371     0.51804    0.3637723  0.6723077 
1016       0.231      -9999      -9999      8.294      3.734      2.953      0.849      0.1592824  0.1592824  0.3310644  2.497212   3.859479   3.116      0.350228   0.5741548  38.278     0.5205514  0.373779   0.6673238 
1016.2     0.237      -9999      -9999      8.972      3.645      2.753      0.843      0.1434653  0.1434653  0.3334908  1.271988   2.046061   3.16       0.2929291  0.5621827  38.278     0.5758349  0.484346   0.6673238 
1016.4     0.241      -9999      -9999      9.308      3.671      2.61       0.845      0.1317053  0.1317053  0.332682   0.7703012  1.493941   3.171      0.23949    0.5483353  38.278     0.6090201  0.5507164  0.6673238 
1016.6     0.244      -9999      -9999      9.506      4.128      3.163      0.842      0.1257751  0.1257751  0.3338952  0.5981605  1.24121    3.204      0.2121897  0.5442198  38.278     0.630667   0.5940102  0.6673238 
1016.8     0.234      -9999      -9999      9.052      4.191      3.458      0.851      0.1389597  0.1389597  0.3302556  1.049612   1.898446   3.212      0.2785501  0.5578828  38.14      0.5796845  0.4993843  0.6599848 
1017       0.225      -9999      -9999      8.858      4.687      3.515      0.873      0.1379538  0.1379538  0.3213588  1.005534   2.276461   3.24       0.2769215  0.5509465  37.909     0.5557728  0.4636955  0.64785   
1017.2     0.22       -9999      -9999      8.589      4.153      3.372      0.893      0.1400892  0.1400892  0.3132708  1.101412   2.928262   3.36       0.2986035  0.5544792  37.586     0.5247927  0.4183904  0.6311951 
1017.4     0.223      -9999      -9999      8.223      3.925      3.02       0.904      0.1477275  0.1477275  0.3088224  1.525565   4.124684   3.481      0.3413237  0.5671327  37.216     0.4881662  0.3637723  0.6125601 
1017.6     0.225      -9999      -9999      8.109      3.696      3.077      0.912      0.1564981  0.1564981  0.3055872  2.217593   4.589146   3.639      0.3865058  0.5831963  36.016     0.4517853  0.3482627  0.5553078 
1017.8     0.227      -9999      -9999      7.987      5.233      4.934      0.917      0.1657706  0.1657706  0.3035652  3.293298   5.14429    3.595      0.4131635  0.5882788  34.815     0.4175595  0.3323963  0.5027227 
1018       0.228      -9999      -9999      8.13       7.049      6.257999   0.923      0.1633942  0.1633942  0.3011388  2.975879   4.499823   3.467      0.3955404  0.5763061  34.354     0.4174079  0.3510692  0.4837466 
1018.2     0.228      -9999      -9999      8.046      6.173      5.049      0.93       0.1648287  0.1648287  0.298308   3.163623   4.867904   3.343      0.3897839  0.567521   33.984     0.4044828  0.339977   0.4689887 
