~Version
 VERS              .         2.0                           : CWLS LOG ASCII STANDARD - VERSION 2.0
 WRAP              .         NO                            : ONE LINE PER DEPTH STEP
 DLM               .         SPACE                         : DELIMITING CHARACTER(SPACE TAB OR COMMA)
~Well Information
#_______________________________________________________________________________
#
#PARAMETER_NAME    .UNIT     VALUE                         : DESCRIPTION
#_______________________________________________________________________________
STRT               .M        900                           : First reference value
STOP               .M        1308.8                        : Last reference value
STEP               .M        0.2                           : Step increment
NULL               .         -9999                         : Missing value
COMP               .                                       : Company
WELL               .         1478                          : Well name
FLD                .         Узень                         : Field
LOC                .                                       : Location
CNTY               .                                       : County
STAT               .                                       : State
CTRY               .                                       : Country
SRVC               .                                       : Service Company
DATE               .                                       : Date
UWI                .                                       : Unique Well ID
Block              .         7                             : 
Category           .         Нефтяная                      : 
Condition          .         Ликвидированная               : 
Date               .         08.06.1967                    : 
EREF               .m        86.7                          : 100.8
Gorizont           .         15                            : 14
Interpretator      .         Бекбулатова А.А.              : 
Kupol              .         Основной                      : osnovnoi
Mud                .         0                             : 
Mud_density        .         0                             : 
Mud_resistivity    .         0                             : 
NGDU               .         НГДУ-2                        : 
ORIGINALWELLNAME   .         1478                          : 
Spud_date          .         1967                          : 1961
Viscosity          .         0                             : 
X                  .m        42259.4                       : 46154
Y                  .m        85033.9                       : 85761.93
YEAR               .         2018                          : 
Исправ_15гор       .         Исправ.15гор                  : 
~Parameter Information Block
#_______________________________________________________________________________
#
#PARAMETER_NAME    .UNIT     VALUE                         : DESCRIPTION
#_______________________________________________________________________________
SET                .         LQC_KAZNIPI_Petrel            : 
TLFamily_CALI      .         Caliper                       : 
TLFamily_COLL      .         Net Reservoir Flag            : 
TLFamily_CSAT      .         Fluid Code                    : 
TLFamily_DEPT      .         Measured Depth                : 
TLFamily_GR        .         Russian Gamma Ray             : 
TLFamily_MINV      .         Micro Gradient Resistivity    : 
TLFamily_MNOR      .         Micro Resistivity             : 
TLFamily_NGLD      .         Neutron Gamma                 : 
TLFamily_PHIE      .         Effective Porosity            : 
TLFamily_PHIEN     .         Effective Porosity            : 
TLFamily_PHIT      .         Porosity                      : 
TLFamily_PRMB      .         Permeability                  : 
TLFamily_PRMB_DGR  .         Permeability                  : 
TLFamily_RT        .         Formation Resistivity         : 
TLFamily_SOIL_ARCHIE .         Oil Saturation                : 
TLFamily_SOIL_DW   .         Oil Saturation                : 
TLFamily_SP        .         Spontaneous Potential         : 
TLFamily_VSH_FIN   .         Shale Volume                  : 
TLFamily_VSH_GR    .         Shale Volume                  : 
TLFamily_VSH_SP    .         Shale Volume                  : 
~Curve Information
#_______________________________________________________________________________
#
#LOGNAME           .UNIT     LOG_ID                        : DESCRIPTION
#_______________________________________________________________________________
DEPT               .M                                      : Колонка глубины 
CALI               .м                                      : Каверномер 
COLL               .unitless                               : Описание 
CSAT               .unitless                               : Описание 
GR                 .uR/h                                   : Гамма каротаж 
MINV               .Ohmm                                   : Микро-градиент зонд 
MNOR               .Ohmm                                   : Микро-потенциал зонд 
NGLD               .у.е.                                   : Показания зонда НГК-60 аппаратуры ДРСТ-3-90 
PHIE               .д.ед.                                  : Описание 
PHIEN              .д.ед.                                  :  
PHIT               .д.ед.                                  : Описание 
PRMB               .mD                                     :  
PRMB_DGR           .mD                                     :  
RT                 .ohmm                                   : УЭС пласта 
SOIL_ARCHIE        .д.ед.                                  :  
SOIL_DW            .д.ед.                                  :  
SP                 .мВ                                     : Потенциал самополяризации 
VSH_FIN            .д.ед.                                  : Описание 
VSH_GR             .д.ед.                                  : Shale volume 
VSH_SP             .д.ед.                                  : Shale Volume 
~Ascii
# ...
1240.4     0.215      1          3          11.245     2.413      3.515      0.942      0.1932423  0.1932423  0.2934552  10.62855   11.62436   1.73       0.2863339  0.4382154  23.734     0.3036756  0.2382804  0.3690707 
1240.6     0.215      1          3          11.166     3.937      3.801      0.948      0.2032679  0.2032679  0.2910288  16.29943   12.94802   1.618      0.2953012  0.4282838  21.425     0.2659422  0.2280155  0.3038688 
1240.8     0.215      1          3          10.954     2.591      3.667      0.946      0.2128434  0.2128434  0.2918376  24.52076   17.29363   1.526      0.3041389  0.423388   20.27      0.2393764  0.2026021  0.2761508 
1241       0.215      1          3          10.794     3.188      3.382      0.947      0.2164799  0.2164799  0.2914332  28.63457   21.51501   1.526      0.3143308  0.4269896  19.947     0.2271312  0.1853153  0.2689472 
1241.2     0.215      1          3          10.887     3.201      3.972      0.937      0.2198858  0.2198858  0.2954772  33.11139   18.9499    1.527      0.3237982  0.4354493  19.67      0.2290647  0.1951752  0.2629543 
1241.4     0.215      1          3          10.63      2.858      3.553      0.931      0.2277284  0.2277284  0.2979036  46.26371   26.91335   1.562      0.3510638  0.4525571  19.347     0.2126521  0.1691261  0.2561781 
1241.6     0.216      1          3          10.51      4.293      3.848      0.933      0.2298062  0.2298062  0.2970948  50.55051   31.70361   1.605      0.3643295  0.4611506  19.024     0.2039049  0.1581836  0.2496263 
1241.8     0.216      1          3          10.416     3.607      3.582      0.931      0.2335743  0.2335743  0.2979036  59.36363   36.04424   1.625      0.3769021  0.4689702  18.516     0.1949373  0.1501088  0.2397659 
1242       0.216      1          3          10.609     2.794      3.925      0.928      0.2344489  0.2344489  0.2991168  61.61982   27.69602   1.647      0.382834   0.4745958  17.685     0.1959634  0.167158   0.2247688 
1242.2     0.216      1          3          11.268     3.302      3.21       0.918      0.218961   0.218961   0.3031608  31.83072   11.26507   1.712      0.3567722  0.4738164  19.947     0.255151   0.2413549  0.2689472 
1242.4     0.217      0          0          11.59      5.334      3.715      0.917      0.2002418  0.2002418  0.3035652  14.32593   7.258354   1.768      0.3151295  0.4631692  22.672     0.3131011  0.2888054  0.3373968 
1242.6     0.218      0          0          11.623     4.928      3.086      0.925      0.1864597  0.1864597  0.30033    7.958722   6.93864    1.798      0.276976   0.4484824  24.565     0.3450616  0.2941669  0.3959563 
1242.8     0.218      0          0          11.628     4.979      3.134      0.922      0.1871259  0.1871259  0.3015432  8.188124   6.891441   1.8        0.2795945  0.4509033  22.995     0.346719   0.2949879  0.3467189 
1243       0.217      8          3          11.804     4.026      3.239      0.908      0.2037858  0.2037858  0.3072048  16.66346   5.419631   1.8        0.3311681  0.4754766  21.794     0.313391   0.3253942  0.3133906 
1243.2     0.216      8          3          12.406     3.963      3.277      0.901      0.2150091  0.2150091  0.3100356  26.89358   2.382747   1.79       0.3600089  0.4882656  20.778     0.287959   0.4551354  0.2879592 
1243.4     0.216      8          3          12.848     3.721      3.248      0.89       0.2208914  0.2208914  0.314484   34.56229   1.303292   1.78       0.3732325  0.49675    20.594     0.283614   0.5822892  0.2836137 
1243.6     0.216      8          3          12.7       4.014      3.553      0.885      0.2303757  0.2303757  0.316506   51.79341   1.59508    1.768      0.3938455  0.5056445  19.578     0.261001   0.5361809  0.2610011 
1243.8     0.215      8          3          12.288     3.251      4.096      0.886      0.2290021  0.2290021  0.3161016  48.84631   2.799199   1.747      0.3872539  0.5010696  19.716     0.263938   0.4261627  0.2639378 
1244       0.215      8          3          11.851     3.226      3.286      0.897      0.2271145  0.2271145  0.3116532  45.06805   5.082837   1.768      0.3862717  0.4981966  19.347     0.256178   0.3340315  0.2561781 
1244.2     0.216      8          3          11.539     3.366      3.591      0.909      0.2285373  0.2285373  0.3068004  47.88758   7.78168    1.774      0.3905706  0.495763   18.377     0.237161   0.2807108  0.2371606 
1244.4     0.218      8          3          11.657     3.658      3.315      0.918      0.2292477  0.2292477  0.3031608  49.36081   6.623962   1.771      0.3917329  0.4924842  17.639     0.223979   0.2997949  0.2239786 
1244.6     0.22       8          3          11.669     3.747      3.182      0.934      0.2323813  0.2323813  0.2966904  56.4188    6.516339   1.762      0.3974441  0.4877224  15.745     0.194876   0.301807   0.1948757 
1244.8     0.221      8          3          11.884     2.896      3.172      0.934      0.2363096  0.2363096  0.2966904  66.70921   4.85895    1.752      0.4045894  0.4898863  14.822     0.182972   0.3402326  0.1829724 
1245       0.222      8          3          11.573     2.743      3.42       0.937      0.2377477  0.2377477  0.2954772  70.92866   7.428765   1.703      0.3997906  0.482705   14.129     0.174938   0.2860816  0.1749377 
1245.2     0.222      8          3          11.468     2.528      3.62       0.939      0.2387288  0.2387288  0.2946684  73.95954   8.57363    1.663      0.3952317  0.4766073  13.621     0.169514   0.2698186  0.1695135 
1245.4     0.219      8          3          11.577     2.515      3.715      0.936      0.2411643  0.2411643  0.2958816  82.05516   7.388312   1.614      0.3920823  0.4722542  13.252     0.16581    0.2867201  0.1658102 
1245.6     0.216      8          3          11.341     3.175      3.715      0.936      0.242182   0.242182   0.2958816  85.69527   10.19662   1.574      0.3871329  0.4665448  12.929     0.162726   0.2513783  0.1627265 
1245.8     0.214      8          3          11.358     2.705      3.439      -9999      -9999      -9999      -9999      -9999      -9999      1.535      -9999      -9999      13.898     0.172424   0.2537717  0.1724236 
1246       0.211      -9999      -9999      11.371     2.299      3.448      -9999      -9999      -9999      -9999      -9999      -9999      1.485      -9999      -9999      15.422     0.190549   0.2556173  0.1905489 
1246.2     0.213      -9999      -9999      12.002     2.705      3.41       -9999      -9999      -9999      -9999      -9999      -9999      1.456      -9999      -9999      17.084     0.214765   0.3633634  0.2147652 
1246.4     0.213      -9999      -9999      11.998     2.629      3.667      -9999      -9999      -9999      -9999      -9999      -9999      1.436      -9999      -9999      18.839     0.245973   0.3625542  0.2459732 
1246.6     0.213      -9999      -9999      11.573     3.099      3.629      -9999      -9999      -9999      -9999      -9999      -9999      1.437      -9999      -9999      19.763     0.264948   0.2860816  0.2649475 
1246.8     0.213      -9999      -9999      11.127     3.658      2.943      -9999      -9999      -9999      -9999      -9999      -9999      1.446      -9999      -9999      20.455     0.280383   0.2231122  0.2803827 
1247       0.213      -9999      -9999      11.127     3.023      2.858      -9999      -9999      -9999      -9999      -9999      -9999      1.465      -9999      -9999      20.086     0.272018   0.2231122  0.2720185 
1247.2     0.213      -9999      -9999      11.127     2.413      3.086      -9999      -9999      -9999      -9999      -9999      -9999      1.492      -9999      -9999      18.423     0.2305653  0.2231122  0.2380184 
1247.4     0.213      1          3          -9999      2.566      3.391      -9999      -9999      -9999      -9999      -9999      -9999      1.499      -9999      -9999      17.038     0.214028   -9999      0.2140277 
1247.6     0.214      1          3          -9999      2.909      3.486      -9999      -9999      -9999      -9999      -9999      -9999      1.504      -9999      -9999      14.591     0.180211   -9999      0.1802106 
