~Version
 VERS              .         2.0                           : CWLS LOG ASCII STANDARD - VERSION 2.0
 WRAP              .         NO                            : ONE LINE PER DEPTH STEP
 DLM               .         SPACE                         : DELIMITING CHARACTER(SPACE TAB OR COMMA)
~Well Information
#_______________________________________________________________________________
#
#PARAMETER_NAME    .UNIT     VALUE                         : DESCRIPTION
#_______________________________________________________________________________
STRT               .M        900                           : First reference value
STOP               .M        1308.8                        : Last reference value
STEP               .M        0.2                           : Step increment
NULL               .         -9999                         : Missing value
COMP               .                                       : Company
WELL               .         1478                          : Well name
FLD                .         Узень                         : Field
LOC                .                                       : Location
CNTY               .                                       : County
STAT               .                                       : State
CTRY               .                                       : Country
SRVC               .                                       : Service Company
DATE               .                                       : Date
UWI                .                                       : Unique Well ID
Block              .         7                             : 
Category           .         Нефтяная                      : 
Condition          .         Ликвидированная               : 
Date               .         08.06.1967                    : 
EREF               .m        86.7                          : 100.8
Gorizont           .         15                            : 14
Interpretator      .         Бекбулатова А.А.              : 
Kupol              .         Основной                      : osnovnoi
Mud                .         0                             : 
Mud_density        .         0                             : 
Mud_resistivity    .         0                             : 
NGDU               .         НГДУ-2                        : 
ORIGINALWELLNAME   .         1478                          : 
Spud_date          .         1967                          : 1961
Viscosity          .         0                             : 
X                  .m        42259.4                       : 46154
Y                  .m        85033.9                       : 85761.93
YEAR               .         2018                          : 
Исправ_15гор       .         Исправ.15гор                  : 
~Parameter Information Block
#_______________________________________________________________________________
#
#PARAMETER_NAME    .UNIT     VALUE                         : DESCRIPTION
#_______________________________________________________________________________
SET                .         LQC_KAZNIPI_Petrel            : 
TLFamily_CALI      .         Caliper                       : 
TLFamily_COLL      .         Net Reservoir Flag            : 
TLFamily_CSAT      .         Fluid Code                    : 
TLFamily_DEPT      .         Measured Depth                : 
TLFamily_GR        .         Russian Gamma Ray             : 
TLFamily_MINV      .         Micro Gradient Resistivity    : 
TLFamily_MNOR      .         Micro Resistivity             : 
TLFamily_NGLD      .         Neutron Gamma                 : 
TLFamily_PHIE      .         Effective Porosity            : 
TLFamily_PHIEN     .         Effective Porosity            : 
TLFamily_PHIT      .         Porosity                      : 
TLFamily_PRMB      .         Permeability                  : 
TLFamily_PRMB_DGR  .         Permeability                  : 
TLFamily_RT        .         Formation Resistivity         : 
TLFamily_SOIL_ARCHIE .         Oil Saturation                : 
TLFamily_SOIL_DW   .         Oil Saturation                : 
TLFamily_SP        .         Spontaneous Potential         : 
TLFamily_VSH_FIN   .         Shale Volume                  : 
TLFamily_VSH_GR    .         Shale Volume                  : 
TLFamily_VSH_SP    .         Shale Volume                  : 
~Curve Information
#_______________________________________________________________________________
#
#LOGNAME           .UNIT     LOG_ID                        : DESCRIPTION
#_______________________________________________________________________________
DEPT               .M                                      : Колонка глубины 
CALI               .м                                      : Каверномер 
COLL               .unitless                               : Описание 
CSAT               .unitless                               : Описание 
GR                 .uR/h                                   : Гамма каротаж 
MINV               .Ohmm                                   : Микро-градиент зонд 
MNOR               .Ohmm                                   : Микро-потенциал зонд 
NGLD               .у.е.                                   : Показания зонда НГК-60 аппаратуры ДРСТ-3-90 
PHIE               .д.ед.                                  : Описание 
PHIEN              .д.ед.                                  :  
PHIT               .д.ед.                                  : Описание 
PRMB               .mD                                     :  
PRMB_DGR           .mD                                     :  
RT                 .ohmm                                   : УЭС пласта 
SOIL_ARCHIE        .д.ед.                                  :  
SOIL_DW            .д.ед.                                  :  
SP                 .мВ                                     : Потенциал самополяризации 
VSH_FIN            .д.ед.                                  : Описание 
VSH_GR             .д.ед.                                  : Shale volume 
VSH_SP             .д.ед.                                  : Shale Volume 
~Ascii
# ...
1159       0.221      8          2          11.939     3.023      5.039      0.949      0.2460275  0.2460275  0.2906244  100.9683   3.710032   8.403      0.7206585  0.7648867  12.606     0.135142   0.3798554  0.1351418 
1159.2     0.222      8          2          12.49      3.213      4.048      0.949      0.2440835  0.2440835  0.2906244  92.93447   1.712575   8.719      0.7235525  0.7684084  13.714     0.141033   0.5208434  0.1410327 
1159.4     0.222      8          2          12.313     3.15       3.782      0.952      0.2409365  0.2409365  0.2894112  81.26184   2.195315   9.747      0.7346575  0.779222   14.637     0.146893   0.4706191  0.1468925 
1159.6     0.222      8          2          12.452     2.566      4.182      0.964      0.2339486  0.2339486  0.2845584  60.31899   1.806356   9.927      0.7300954  0.7763202  15.515     0.153363   0.5096274  0.153363  
1159.8     0.222      8          2          12.124     2.705      4.668      0.972      0.2282651  0.2282651  0.2813232  47.33498   2.861911   9.605      0.7199517  0.7687051  16.392     0.160782   0.4223244  0.1607816 
1160       0.221      8          2          12.242     3.15       5.058      0.981      0.2280107  0.2280107  0.2776836  46.82404   2.425258   8.686      0.7061328  0.7548245  15.145     0.150524   0.4518608  0.1505243 
1160.2     0.22       8          2          12.616     3.175      4.153      0.982      0.2293173  0.2293173  0.2772792  49.50756   1.435081   7.99       0.6959036  0.7447712  14.406     0.145339   0.55983    0.1453389 
1160.4     0.219      8          2          13.05      2.528      4.229      0.991      0.2274508  0.2274508  0.2736396  45.71924   0.7806159  7.397      0.6824451  0.7317824  13.529     0.139966   0.7178531  0.1399661 
1160.6     0.22       8          2          13.226     2.782      4.153      0.993      0.2252633  0.2252633  0.2728308  41.64672   0.6098168  7.35       0.6788017  0.7293619  14.222     0.144144   0.794007   0.1441438 
1160.8     0.22       8          2          13.163     2.985      4.029      0.992      0.2237867  0.2237867  0.2732352  39.10482   0.6661708  7.206      0.6739432  0.7261446  15.053     0.149844   0.765861   0.1498441 
1161       0.22       8          2          12.864     2.82       3.801      0.984      0.2247429  0.2247429  0.2764704  40.73255   1.013371   7.001      0.6707222  0.7245436  15.93      0.15675    0.6452956  0.1567495 
1161.2     0.22       8          2          12.843     2.578      4.334      0.979      0.2243038  0.2243038  0.2784924  39.9768    1.043672   6.95       0.6690273  0.7244705  16.761     0.164208   0.6375789  0.1642082 
1161.4     0.221      8          2          12.536     2.959      4.639      0.97       0.2261277  0.2261277  0.282132   43.21071   1.60554    6.918      0.6706411  0.7268351  17.315     0.16971    0.5347517  0.1697105 
1161.6     0.221      8          2          12.179     2.769      4.325      0.963      0.2273313  0.2273313  0.2849628  45.48672   2.649379   6.779      0.6690228  0.726252   17.777     0.174641   0.4358432  0.1746408 
1161.8     0.22       8          2          11.741     2.972      4.029      0.958      0.2336509  0.2336509  0.2869848  59.55784   4.89802    6.628      0.673399   0.7274488  16.484     0.161618   0.3391218  0.1616185 
1162       0.22       8          2          11.476     2.756      4.401      0.956      0.2369423  0.2369423  0.2877936  68.53362   7.10374    6.414      0.6723464  0.7250189  15.607     0.154095   0.2913557  0.154095  
1162.2     0.221      8          2          11.804     2.794      4.334      0.957      0.2389145  0.2389145  0.2873892  74.54772   4.483677   6.543      0.6777289  0.728476   14.637     0.146893   0.3515849  0.1468925 
1162.4     0.22       8          2          12.364     3.086      4.372      0.966      0.2379014  0.2379014  0.2837496  71.39515   2.043722   6.586      0.6775267  0.7268773  13.344     0.138934   0.4845722  0.1389339 
1162.6     0.22       8          2          12.477     2.934      4.276999   0.963      0.2407949  0.2407949  0.2849628  80.7727    1.744096   6.578001   0.6807223  0.7287763  12.328     0.133842   0.516979   0.1338416 
1162.8     0.22       8          2          12.317     3.112      4.315      0.959      0.2436273  0.2436273  0.2865804  91.14363   2.183028   6.683      0.6862975  0.7331188  11.451     0.130161   0.4716989  0.1301613 
1163       0.22       1          2          11.737     2.693      4.639      0.951      0.247837   0.247837   0.2898156  109.0687   4.925581   6.884      0.6952113  0.7406311  10.62      0.127208   0.3383457  0.1272076 
1163.2     0.221      1          2          11.526     3.442      3.791      0.949      0.2494727  0.2494727  0.2906244  116.9495   6.622493   7.167      0.702628   0.7469194  9.789      0.124702   0.2998221  0.1247024 
1163.4     0.22       1          2          11.308     3.074      3.944      0.959      0.246058   0.246058   0.2865804  101.0997   8.991886   7.332      0.7022344  0.7462773  9.05       0.122795   0.2646215  0.1227951 
1163.6     0.22       1          2          11.447     3.239      3.915      0.96       0.2461678  0.2461678  0.286176   101.5741   7.39873    7.497      0.7054423  0.7489288  8.358      0.121237   0.2865552  0.1212375 
1163.8     0.22       1          2          11.472     3.188      4.487      0.967      0.2150458  0.2150458  0.2833452  26.93563   7.143714   7.830999   0.6753521  0.7384402  9.235      0.206968   0.2906889  0.1232471 
1164       0.22       1          2          11.19      2.87       4.487      0.964      0.2202052  0.2202052  0.2845584  33.56544   10.61082   7.705      0.6795573  0.7395588  13.991     0.1950098  0.2473242  0.1426953 
1164.2     0.221      1          2          10.79      3.175      4.563      0.963      0.2015153  0.2015153  0.2849628  15.1255    18.59823   7.167      0.6418619  0.720056   25.303     0.2528713  0.1966738  0.3090688 
1164.4     0.22       1          2          10.588     2.921      4.458      0.96       0.1902816  0.1902816  0.286176   9.367736   24.69174   6.448999   0.6043962  0.6986164  28.536     0.2905892  0.1751818  0.4059966 
1164.6     0.22       -9999      -9999      10.534     3.315      4.534      0.959      0.1793828  0.1793828  0.2865804  5.885212   26.6351    5.763      0.5609729  0.6737409  30.521     0.3248413  0.1698454  0.4798372 
1164.8     0.221      -9999      -9999      10.672     3.213      4.63       0.96       0.1696776  0.1696776  0.286176   3.890441   21.94674   5.343      0.5225236  0.6532251  31.537     0.3530255  0.183818   0.522233  
1165       0.222      -9999      -9999      11.396     3.048      4.391      0.958      0.1590914  0.1590914  0.2869848  2.476949   7.947522   5.205      0.4887279  0.6401922  30.937     0.3875557  0.2783041  0.4968074 
1165.2     0.222      -9999      -9999      12.073     3.607      4.325      0.952      0.1449716  0.1449716  0.2894112  1.356388   3.074189   5.057      0.4380653  0.6234705  30.152     0.4376957  0.4101639  0.4652275 
1165.4     0.222      -9999      -9999      12.12      3.594      4.82       0.954      0.1546561  0.1546561  0.2886024  2.050053   2.878017   5.549      0.4914843  0.6488436  28.074     0.4058977  0.4213578  0.3904377 
1165.6     0.222      1          2          11.467     3.226      4.763      0.972      0.1775198  0.1775198  0.2813232  5.435699   7.194005   6.097      0.5685222  0.6779265  26.412     0.3145558  0.2898574  0.3392541 
1165.8     0.222      1          2          10.895     3.099      4.62       0.99       0.1910722  0.1910722  0.274044   9.688994   16.0507    6.568      0.6091899  0.6941415  24.703     0.2514297  0.2088674  0.293992  
1166       0.222      1          2          10.571     3.899      4.553      1.012      0.1941879  0.1941879  0.2651472  11.06596   25.28773   7.040999   0.6270288  0.7008207  23.041     0.2150282  0.1734839  0.2565725 
1166.2     0.22       1          2          10.327     4.852      4.496      1.032      0.1981072  0.1981072  0.2570592  13.0793    35.61076   6.524      0.6201088  0.6861472  20.224     0.1786424  0.1508523  0.2064326 
