~Version
 VERS              .         2.0                           : CWLS LOG ASCII STANDARD - VERSION 2.0
 WRAP              .         NO                            : ONE LINE PER DEPTH STEP
 DLM               .         SPACE                         : DELIMITING CHARACTER(SPACE TAB OR COMMA)
~Well Information
#_______________________________________________________________________________
#
#PARAMETER_NAME    .UNIT     VALUE                         : DESCRIPTION
#_______________________________________________________________________________
STRT               .M        900                           : First reference value
STOP               .M        1308.8                        : Last reference value
STEP               .M        0.2                           : Step increment
NULL               .         -9999                         : Missing value
COMP               .                                       : Company
WELL               .         1478                          : Well name
FLD                .         Узень                         : Field
LOC                .                                       : Location
CNTY               .                                       : County
STAT               .                                       : State
CTRY               .                                       : Country
SRVC               .                                       : Service Company
DATE               .                                       : Date
UWI                .                                       : Unique Well ID
Block              .         7                             : 
Category           .         Нефтяная                      : 
Condition          .         Ликвидированная               : 
Date               .         08.06.1967                    : 
EREF               .m        86.7                          : 100.8
Gorizont           .         15                            : 14
Interpretator      .         Бекбулатова А.А.              : 
Kupol              .         Основной                      : osnovnoi
Mud                .         0                             : 
Mud_density        .         0                             : 
Mud_resistivity    .         0                             : 
NGDU               .         НГДУ-2                        : 
ORIGINALWELLNAME   .         1478                          : 
Spud_date          .         1967                          : 1961
Viscosity          .         0                             : 
X                  .m        42259.4                       : 46154
Y                  .m        85033.9                       : 85761.93
YEAR               .         2018                          : 
Исправ_15гор       .         Исправ.15гор                  : 
~Parameter Information Block
#_______________________________________________________________________________
#
#PARAMETER_NAME    .UNIT     VALUE                         : DESCRIPTION
#_______________________________________________________________________________
SET                .         LQC_KAZNIPI_Petrel            : 
TLFamily_CALI      .         Caliper                       : 
TLFamily_COLL      .         Net Reservoir Flag            : 
TLFamily_CSAT      .         Fluid Code                    : 
TLFamily_DEPT      .         Measured Depth                : 
TLFamily_GR        .         Russian Gamma Ray             : 
TLFamily_MINV      .         Micro Gradient Resistivity    : 
TLFamily_MNOR      .         Micro Resistivity             : 
TLFamily_NGLD      .         Neutron Gamma                 : 
TLFamily_PHIE      .         Effective Porosity            : 
TLFamily_PHIEN     .         Effective Porosity            : 
TLFamily_PHIT      .         Porosity                      : 
TLFamily_PRMB      .         Permeability                  : 
TLFamily_PRMB_DGR  .         Permeability                  : 
TLFamily_RT        .         Formation Resistivity         : 
TLFamily_SOIL_ARCHIE .         Oil Saturation                : 
TLFamily_SOIL_DW   .         Oil Saturation                : 
TLFamily_SP        .         Spontaneous Potential         : 
TLFamily_VSH_FIN   .         Shale Volume                  : 
TLFamily_VSH_GR    .         Shale Volume                  : 
TLFamily_VSH_SP    .         Shale Volume                  : 
~Curve Information
#_______________________________________________________________________________
#
#LOGNAME           .UNIT     LOG_ID                        : DESCRIPTION
#_______________________________________________________________________________
DEPT               .M                                      : Колонка глубины 
CALI               .м                                      : Каверномер 
COLL               .unitless                               : Описание 
CSAT               .unitless                               : Описание 
GR                 .uR/h                                   : Гамма каротаж 
MINV               .Ohmm                                   : Микро-градиент зонд 
MNOR               .Ohmm                                   : Микро-потенциал зонд 
NGLD               .у.е.                                   : Показания зонда НГК-60 аппаратуры ДРСТ-3-90 
PHIE               .д.ед.                                  : Описание 
PHIEN              .д.ед.                                  :  
PHIT               .д.ед.                                  : Описание 
PRMB               .mD                                     :  
PRMB_DGR           .mD                                     :  
RT                 .ohmm                                   : УЭС пласта 
SOIL_ARCHIE        .д.ед.                                  :  
SOIL_DW            .д.ед.                                  :  
SP                 .мВ                                     : Потенциал самополяризации 
VSH_FIN            .д.ед.                                  : Описание 
VSH_GR             .д.ед.                                  : Shale volume 
VSH_SP             .д.ед.                                  : Shale Volume 
~Ascii
# ...
1077.6     0.249      -9999      -9999      10.925     3.328      2.239      0.866      0.1169405  0.1169405  0.3241896  0.4103747  1.395082   2.197      0          0.4243218  35.323     0.6280274  0.5663296  0.6897253 
1077.8     0.239      -9999      -9999      11.459     3.15       2.41       0.863      0.1006705  0.1006705  0.3254028  0.2050316  0.9082429  2.218      0          0.3981635  35.277     0.6810068  0.6748102  0.6872035 
1078       0.23       -9999      -9999      11.675     3.353      2.248      0.866      0.09127769 0.09127769 0.3241896  0.1373543  0.7634931  2.242      0          0.3801114  35.277     0.7057937  0.7243839  0.6872035 
1078.2     0.225      -9999      -9999      11.893     3.112      2.105      0.87       0.07953421 0.07953421 0.322572   0.08323856 0.6407819  2.248      0          0.3509935  35.416     0.7364781  0.7781097  0.6948466 
1078.4     0.226      -9999      -9999      11.505     3.181      2.633      0.88       0.0895775  0.0895775  0.318528   0.127747   0.8752761  2.295      0          0.3761802  35.554     0.6937894  0.6850751  0.7025037 
1078.6     0.229      -9999      -9999      11.202     3.251      3.172      0.885      0.09697136 0.09697136 0.316506   0.1751067  1.116633   2.394      0          0.4024782  35.693     0.6652565  0.6202271  0.7102858 
1078.8     0.235      -9999      -9999      10.92      4.801      4.287      0.891      0.102735   0.102735   0.3140796  0.223903   1.4007     2.453      0          0.4181943  35.785     0.6404381  0.565401   0.7154753 
1079       0.242      -9999      -9999      10.727     4.839      4.029      0.893      0.1072221  0.1072221  0.3132708  0.2711259  1.635737   2.481      0          0.4289904  35.831     0.6243901  0.5306984  0.7180817 
1079.2     0.249      -9999      -9999      10.499     4.458      4.315      0.889      0.114289   0.114289   0.3148884  0.3664947  1.964714   2.491      0.03629521 0.4446033  35.923     0.607877   0.4924365  0.7233174 
1079.4     0.255      -9999      -9999      10.091     3.213      2.486      0.883      0.1247065  0.1247065  0.3173148  0.5715124  2.727192   2.498      0.1079765  0.4650585  36.154     0.5836614  0.4307218  0.7366009 
1079.6     0.248      -9999      -9999      10.196     2.629      2.496      0.875      0.1214207  0.1214207  0.32055    0.4967797  2.50648    2.467      0.08162244 0.4600309  36.57      0.6034222  0.4458235  0.7610208 
1079.8     0.239      -9999      -9999      10.55      3.353      2.286      0.866      0.1164485  0.1164485  0.3241896  0.4018522  1.885806   2.447      0.04391673 0.4537096  36.524     0.6295186  0.5007483  0.7582888 
1080       0.231      -9999      -9999      11.017     3.887      3.963      0.861      0.1052345  0.1052345  0.3262116  0.2490905  1.295646   2.421      0          0.4334648  36.478     0.6696274  0.58369    0.7555648 
1080.2     0.226      -9999      -9999      11.131     4.725      2.934      0.866      0.1008913  0.1008913  0.3241896  0.206971   1.182208   2.418      0          0.4225868  36.339     0.6766616  0.6059418  0.7473813 
1080.4     0.225      -9999      -9999      11.03      4.09       2.972      0.876      0.1009942  0.1009942  0.3201456  0.2078818  1.282179   2.538      0          0.4318939  36.247     0.664095   0.5861856  0.7420045 
1080.6     0.227      -9999      -9999      10.47      6.401      5.134      0.893      0.1125625  0.1125625  0.3132708  0.3404781  2.011045   2.619      0.0461292  0.4536097  36.016     0.6082069  0.487772   0.7286416 
1080.8     0.227      -9999      -9999      9.881      6.02       4.83       0.911      0.122894   0.122894   0.3059916  0.5289958  3.228629   2.658      0.1224701  0.4664333  35.646     0.5548413  0.4020361  0.7076465 
1081       0.229      -9999      -9999      9.494      5.741      4.611      0.926      0.1264323  0.1264323  0.2999256  0.6151649  4.406602   2.627      0.1391728  0.4620588  35.462     0.5257372  0.3540829  0.6973914 
1081.2     0.236      -9999      -9999      9.414      5.995      5.677001   0.921      0.1312332  0.1312332  0.3019476  0.7549459  4.699255   2.576      0.1589643  0.466462   35.323     0.5173163  0.3449072  0.6897253 
1081.4     0.247      -9999      -9999      9.586      5.728      3.677      0.905      0.1360555  0.1360555  0.308418   0.9273348  4.092518   2.485      0.1711152  0.4711149  35.139     0.5223106  0.3649371  0.679684  
1081.6     0.257      -9999      -9999      9.788      3.633      3.001      0.888      0.1418734  0.1418734  0.3152928  1.188496   3.47921    2.488      0.2012513  0.4867765  34.792     0.5255133  0.3899506  0.6610761 
1081.8     0.268      -9999      -9999      10.272     3.714      2.981      0.876      0.1382472  0.1382472  0.3201456  1.018196   2.357955   2.576      0.1962518  0.4955829  34.492     0.5512073  0.4570834  0.6453313 
1082       0.271      -9999      -9999      10.895     3.785      2.963      0.865      0.1279381  0.1279381  0.324594   0.6559677  1.429129   2.62       0.1469363  0.4899113  34.215     0.5959269  0.560781   0.6310728 
1082.2     0.268      -9999      -9999      11.165     3.213      2.191      0.86       0.1217732  0.1217732  0.326616   0.5043039  1.150338   2.615      0.1086438  0.4823532  34.169     0.6207359  0.6127412  0.6287306 
1082.4     0.27       -9999      -9999      10.895     3.455      2.21       0.865      0.1251905  0.1251905  0.324594   0.5834321  1.429129   2.56       0.1211502  0.4799105  34.538     0.6042529  0.560781   0.6477249 
1082.6     0.267      -9999      -9999      10.702     3.086      2.477      0.878      0.1203392  0.1203392  0.3193368  0.4743866  1.668938   2.568      0.09170271 0.4677652  35.139     0.6030229  0.5263618  0.679684  
1082.8     0.261      -9999      -9999      10.782     3.114      2.351      0.886      0.1106047  0.1106047  0.3161016  0.3132023  1.565004   2.578      0.02424184 0.4491047  35.6       0.622718   0.5403647  0.7050712 
1083       0.265      -9999      -9999      11.442     3.15       2.191      0.887      0.08431061 0.08431061 0.3156972  0.1020458  0.9207373  2.594      0          0.3980148  36.062     0.7011715  0.6710559  0.731287  
1083.2     0.268      -9999      -9999      11.594     3.099      1.924      0.883      0.07625879 0.07625879 0.3173148  0.07238619 0.8148525  2.619      0          0.3838954  36.478     0.7304727  0.7053807  0.7555648 
1083.4     0.271      -9999      -9999      11.758     2.616      2.239      0.878      0.06820226 0.06820226 0.3193368  0.05133686 0.7142217  2.671      0          0.3719054  36.847     0.7610137  0.7443874  0.7776402 
1083.6     0.263      -9999      -9999      11.257     2.732      2.526      0.873      0.08605663 0.08605663 0.3213588  0.1099349  1.068346   2.756      0          0.4267642  37.124     0.7130368  0.6315243  0.7945493 
1083.8     0.253      -9999      -9999      11.122     2.82       2.743      0.866      0.09250408 0.09250408 0.3241896  0.1447299  1.19079    2.837      0          0.4513333  37.263     0.7020773  0.6041546  0.8       
1084       0.247      -9999      -9999      10.609     2.502      3.029      0.86       0.1103771  0.1103771  0.326616   0.3101766  1.798467   2.888      0.0732128  0.490135   37.355     0.6552695  0.510539   0.8       
1084.2     0.255      -9999      -9999      10.112     1.524      1.2        0.861      0.122651   0.122651   0.3262116  0.5235422  2.681546   2.907      0.1571296  0.5099049  37.493     0.6168504  0.4337008  0.8       
1084.4     0.263      -9999      -9999      9.452      2.134      2.42       0.865      0.1349701  0.1349701  0.324594   0.8853853  4.5579     2.901      0.2237899  0.5246082  37.586     0.5746178  0.3492356  0.8       
1084.6     0.256      -9999      -9999      9.279      3.15       2.334      0.877      0.1332979  0.1332979  0.3197412  0.8244398  5.237834   2.846      0.2082359  0.5132166  37.632     0.5649797  0.3299594  0.8       
1084.8     0.235      -9999      -9999      9.292      4.096      3.301      0.891      0.1274035  0.1274035  0.3140796  0.6411812  5.183393   2.801      0.1702427  0.4954484  37.54      0.565685   0.3313701  0.8       
