~Version
 VERS              .         2.0                           : CWLS LOG ASCII STANDARD - VERSION 2.0
 WRAP              .         NO                            : ONE LINE PER DEPTH STEP
 DLM               .         SPACE                         : DELIMITING CHARACTER(SPACE TAB OR COMMA)
~Well Information
#_______________________________________________________________________________
#
#PARAMETER_NAME    .UNIT     VALUE                         : DESCRIPTION
#_______________________________________________________________________________
STRT               .M        900                           : First reference value
STOP               .M        1308.8                        : Last reference value
STEP               .M        0.2                           : Step increment
NULL               .         -9999                         : Missing value
COMP               .                                       : Company
WELL               .         1478                          : Well name
FLD                .         Узень                         : Field
LOC                .                                       : Location
CNTY               .                                       : County
STAT               .                                       : State
CTRY               .                                       : Country
SRVC               .                                       : Service Company
DATE               .                                       : Date
UWI                .                                       : Unique Well ID
Block              .         7                             : 
Category           .         Нефтяная                      : 
Condition          .         Ликвидированная               : 
Date               .         08.06.1967                    : 
EREF               .m        86.7                          : 100.8
Gorizont           .         15                            : 14
Interpretator      .         Бекбулатова А.А.              : 
Kupol              .         Основной                      : osnovnoi
Mud                .         0                             : 
Mud_density        .         0                             : 
Mud_resistivity    .         0                             : 
NGDU               .         НГДУ-2                        : 
ORIGINALWELLNAME   .         1478                          : 
Spud_date          .         1967                          : 1961
Viscosity          .         0                             : 
X                  .m        42259.4                       : 46154
Y                  .m        85033.9                       : 85761.93
YEAR               .         2018                          : 
Исправ_15гор       .         Исправ.15гор                  : 
~Parameter Information Block
#_______________________________________________________________________________
#
#PARAMETER_NAME    .UNIT     VALUE                         : DESCRIPTION
#_______________________________________________________________________________
SET                .         LQC_KAZNIPI_Petrel            : 
TLFamily_CALI      .         Caliper                       : 
TLFamily_COLL      .         Net Reservoir Flag            : 
TLFamily_CSAT      .         Fluid Code                    : 
TLFamily_DEPT      .         Measured Depth                : 
TLFamily_GR        .         Russian Gamma Ray             : 
TLFamily_MINV      .         Micro Gradient Resistivity    : 
TLFamily_MNOR      .         Micro Resistivity             : 
TLFamily_NGLD      .         Neutron Gamma                 : 
TLFamily_PHIE      .         Effective Porosity            : 
TLFamily_PHIEN     .         Effective Porosity            : 
TLFamily_PHIT      .         Porosity                      : 
TLFamily_PRMB      .         Permeability                  : 
TLFamily_PRMB_DGR  .         Permeability                  : 
TLFamily_RT        .         Formation Resistivity         : 
TLFamily_SOIL_ARCHIE .         Oil Saturation                : 
TLFamily_SOIL_DW   .         Oil Saturation                : 
TLFamily_SP        .         Spontaneous Potential         : 
TLFamily_VSH_FIN   .         Shale Volume                  : 
TLFamily_VSH_GR    .         Shale Volume                  : 
TLFamily_VSH_SP    .         Shale Volume                  : 
~Curve Information
#_______________________________________________________________________________
#
#LOGNAME           .UNIT     LOG_ID                        : DESCRIPTION
#_______________________________________________________________________________
DEPT               .M                                      : Колонка глубины 
CALI               .м                                      : Каверномер 
COLL               .unitless                               : Описание 
CSAT               .unitless                               : Описание 
GR                 .uR/h                                   : Гамма каротаж 
MINV               .Ohmm                                   : Микро-градиент зонд 
MNOR               .Ohmm                                   : Микро-потенциал зонд 
NGLD               .у.е.                                   : Показания зонда НГК-60 аппаратуры ДРСТ-3-90 
PHIE               .д.ед.                                  : Описание 
PHIEN              .д.ед.                                  :  
PHIT               .д.ед.                                  : Описание 
PRMB               .mD                                     :  
PRMB_DGR           .mD                                     :  
RT                 .ohmm                                   : УЭС пласта 
SOIL_ARCHIE        .д.ед.                                  :  
SOIL_DW            .д.ед.                                  :  
SP                 .мВ                                     : Потенциал самополяризации 
VSH_FIN            .д.ед.                                  : Описание 
VSH_GR             .д.ед.                                  : Shale volume 
VSH_SP             .д.ед.                                  : Shale Volume 
~Ascii
# ...
1136.8     0.219      1          2          10.294     3.315      5.134      0.947      0.2462802  0.2462802  0.2914332  102.0621   37.29824   8.246      0.7184271  0.7631416  10.112     0.1368272  0.1480272  0.1256273 
1137       0.219      1          2          10.045     3.302      5.03       0.944      0.2504296  0.2504296  0.2926464  121.8208   52.89387   7.9        0.7168562  0.7602953  10.712     0.1279298  0.1283483  0.1275113 
1137.2     0.218      1          2          10.108     3.061      5.392      0.934      0.2537454  0.2537454  0.2966904  140.326    48.41941   7.793      0.7182844  0.7618872  10.62      0.1301364  0.1330652  0.1272076 
1137.4     0.218      1          2          10.289     3.29       4.953      0.934      0.2514684  0.2514684  0.2966904  127.3392   37.5608    7.772      0.7157042  0.7606507  10.389     0.1370365  0.1476038  0.1264692 
1137.6     0.218      1          2          10.399     3.277      5.211      0.944      0.2460236  0.2460236  0.2926464  100.9513   32.18925   7.735      0.7095825  0.7559192  10.02      0.1412813  0.1572047  0.1253578 
1137.8     0.219      1          2          10.222     3.544      5.049      0.948      0.2468851  0.2468851  0.2910288  104.7295   41.26276   7.721      0.7102191  0.7552806  10.066     0.1337688  0.1420456  0.1254919 
1138       0.219      1          2          10.049     3.023      4.972      0.939      0.2528453  0.2528453  0.2946684  135.0413   52.59791   7.849      0.7183591  0.7614436  9.835      0.1267366  0.1286428  0.1248305 
1138.2     0.218      1          2          10.293     3.378      4.982      0.933      0.2519105  0.2519105  0.2970948  129.7631   37.35057   8.169      0.722698   0.7668959  10.204     0.1369221  0.1479424  0.1259018 
1138.4     0.218      1          2          10.449     3.582      5.411      0.937      0.2476418  0.2476418  0.2954772  108.1644   30.00857   8.427      0.7226166  0.7680939  10.897     0.1449559  0.1617729  0.1281389 
1138.6     0.218      1          2          10.411     3.074      5.011      0.952      0.2417572  0.2417572  0.2894112  84.1566    31.65185   8.575      0.71905    0.7649563  11.544     0.144406   0.1582892  0.1305228 
1138.8     0.217      1          2          10.327     3.683      5.334      0.956      0.2407133  0.2407133  0.2877936  80.49177   35.61076   8.513      0.7170271  0.7629044  12.467     0.1426678  0.1508523  0.1344833 
1139       0.216      1          2          10.807     2.997      4.687      0.951      0.2351322  0.2351322  0.2898156  63.44197   18.1599    8.178      0.7056935  0.7566712  12.098     0.1657073  0.1985986  0.1328161 
1139.2     0.215      1          2          11.021     3.163      5.011      0.937      0.236746   0.236746   0.2954772  67.96225   13.44999   7.926      0.7031129  0.7562882  11.774     0.1779735  0.2245016  0.1314454 
1139.4     0.216      1          2          11.017     3.163      4.725      0.932      0.2390937  0.2390937  0.2974992  75.11971   13.52567   7.656      0.7008271  0.7540293  11.405     0.1769863  0.2239877  0.1299849 
1139.6     0.215      1          2          10.643     3.074      5.106      0.927      0.2484951  0.2484951  0.2995212  112.1736   22.8581    7.465      0.7072595  0.7558831  10.989     0.1546245  0.1807893  0.1284597 
1139.8     0.216      1          2          10.546     3.201      4.649001   0.929      0.2494804  0.2494804  0.2987124  116.9877   26.19045   7.381      0.7067133  0.7545266  10.666     0.1491878  0.1710169  0.1273588 
1140       0.215      1          2          10.479     2.972      4.982      0.924      0.2527587  0.2527587  0.3007344  134.5436   28.77175   7.3        0.7085238  0.7554829  10.297     0.1453808  0.1645772  0.1261844 
1140.2     0.215      1          2          10.849     3.112      4.887      0.924      0.2465492  0.2465492  0.3007344  103.24     17.12074   7.168      0.6995789  0.75063    9.881      0.1641974  0.203435   0.1249598 
1140.4     0.215      1          2          10.79      3.353      4.849      0.922      0.2486394  0.2486394  0.3015432  112.8662   18.59823   7.06       0.6996475  0.7500127  9.512      0.1603144  0.1966738  0.123955  
1140.6     0.216      1          2          11.131     3.124      4.563      0.927      0.2397143  0.2397143  0.2995212  77.13435   11.52652   7.083      0.6904038  0.7455522  9.281      0.1812332  0.2391043  0.123362  
1140.8     0.216      8          2          11.358     3.213      5.058      0.936      0.2306333  0.2306333  0.2958816  52.36567   8.382726   7.248      0.6832548  0.7425328  9.189      0.1977221  0.2723109  0.1231332 
1141       0.216      8          2          12.057     3.531      4.849      0.941      0.2062659  0.2062659  0.2938596  18.52262   3.143978   7.348      0.6531401  0.7310724  9.697      0.2654356  0.4064215  0.1244496 
1141.2     0.215      8          2          11.977     3.023      4.725      0.937      0.2107155  0.2107155  0.2954772  22.39342   3.517417   7.443      0.6615744  0.7359884  10.066     0.2568536  0.3882153  0.1254919 
1141.4     0.216      8          2          11.67      3.201      4.668      0.93       0.2236674  0.2236674  0.298308   38.90639   5.411046   7.566      0.6811696  0.7459628  10.482     0.2261837  0.3256049  0.1267624 
1141.6     0.216      8          2          11.564     2.794      4.839      0.923      0.2293835  0.2293835  0.3011388  49.64755   6.278674   7.423      0.6852953  0.7476059  10.989     0.2174402  0.3064207  0.1284597 
1141.8     0.216      8          2          11.463     2.921      4.582      0.922      0.2324075  0.2324075  0.3015432  56.4819    7.234487   7.16       0.683553   0.7446146  11.359     0.2095021  0.289194   0.1298101 
1142       0.216      1          2          11.501     3.086      4.734001   0.923      0.2308656  0.2308656  0.3011388  52.88712   6.858894   6.913      0.6764262  0.7391642  11.497     0.212949   0.2955587  0.1303393 
1142.2     0.218      1          2          10.941     3.023      4.801      0.934      0.2400293  0.2400293  0.2966904  78.17789   15.04757   6.695      0.6824734  0.7369863  11.128     0.1717001  0.2144447  0.1289556 
1142.4     0.219      1          2          10.786     3.34       4.649001   0.947      0.2380421  0.2380421  0.2914332  71.8249    18.7029    6.565      0.6772093  0.7306926  10.666     0.1617912  0.1962237  0.1273588 
1142.6     0.219      1          2          10.529     3.378      4.687      0.959      0.2378156  0.2378156  0.2865804  71.13459   26.82259   6.530001   0.6761302  0.727232   10.297     0.147772   0.1693595  0.1261844 
1142.8     0.219      1          2          10.735     3.023      4.363      0.957      0.2353687  0.2353687  0.2873892  64.08511   20.09018   6.492      0.6723034  0.7256824  9.789      0.1576379  0.1905735  0.1247024 
1143       0.219      1          2          10.575     3.213      4.42       0.947      0.2423495  0.2423495  0.2914332  86.30956   25.14623   6.434      0.6791918  0.7300197  9.373      0.1487384  0.1738819  0.123595  
1143.2     0.219      1          2          10.685     2.845      4.401      0.935      0.2454313  0.2454313  0.296286   98.43331   21.55007   6.336      0.6804096  0.7319562  9.142      0.154105   0.1851922  0.1230179 
1143.4     0.219      1          2          10.584     2.655      4.525      0.929      0.2495756  0.2495756  0.2987124  117.4638   24.83072   6.209      0.6820297  0.7324032  9.142      0.1488993  0.1747807  0.1230179 
1143.6     0.216      1          2          10.685     2.883      4.715      0.925      0.2493602  0.2493602  0.30033    116.3896   21.55007   6.100999   0.6791594  0.7307858  9.42       0.1544539  0.1851922  0.1237156 
1143.8     0.217      1          2          10.319     3.137      4.582      0.927      0.2541894  0.2541894  0.2995212  143.0089   36.01266   6.05       0.6832295  0.7314264  9.743      0.137369   0.1501625  0.1245754 
1144       0.218      1          2          10.188     3.023      4.582      0.941      0.2501231  0.2501231  0.2938596  120.239    43.27876   6.084      0.6795927  0.7273607  10.158     0.1325348  0.1393056  0.1257639 
