~Version
 VERS              .         2.0                           : CWLS LOG ASCII STANDARD - VERSION 2.0
 WRAP              .         NO                            : ONE LINE PER DEPTH STEP
 DLM               .         SPACE                         : DELIMITING CHARACTER(SPACE TAB OR COMMA)
~Well Information
#_______________________________________________________________________________
#
#PARAMETER_NAME    .UNIT     VALUE                         : DESCRIPTION
#_______________________________________________________________________________
STRT               .M        900                           : First reference value
STOP               .M        1308.8                        : Last reference value
STEP               .M        0.2                           : Step increment
NULL               .         -9999                         : Missing value
COMP               .                                       : Company
WELL               .         1478                          : Well name
FLD                .         Узень                         : Field
LOC                .                                       : Location
CNTY               .                                       : County
STAT               .                                       : State
CTRY               .                                       : Country
SRVC               .                                       : Service Company
DATE               .                                       : Date
UWI                .                                       : Unique Well ID
Block              .         7                             : 
Category           .         Нефтяная                      : 
Condition          .         Ликвидированная               : 
Date               .         08.06.1967                    : 
EREF               .m        86.7                          : 100.8
Gorizont           .         15                            : 14
Interpretator      .         Бекбулатова А.А.              : 
Kupol              .         Основной                      : osnovnoi
Mud                .         0                             : 
Mud_density        .         0                             : 
Mud_resistivity    .         0                             : 
NGDU               .         НГДУ-2                        : 
ORIGINALWELLNAME   .         1478                          : 
Spud_date          .         1967                          : 1961
Viscosity          .         0                             : 
X                  .m        42259.4                       : 46154
Y                  .m        85033.9                       : 85761.93
YEAR               .         2018                          : 
Исправ_15гор       .         Исправ.15гор                  : 
~Parameter Information Block
#_______________________________________________________________________________
#
#PARAMETER_NAME    .UNIT     VALUE                         : DESCRIPTION
#_______________________________________________________________________________
SET                .         LQC_KAZNIPI_Petrel            : 
TLFamily_CALI      .         Caliper                       : 
TLFamily_COLL      .         Net Reservoir Flag            : 
TLFamily_CSAT      .         Fluid Code                    : 
TLFamily_DEPT      .         Measured Depth                : 
TLFamily_GR        .         Russian Gamma Ray             : 
TLFamily_MINV      .         Micro Gradient Resistivity    : 
TLFamily_MNOR      .         Micro Resistivity             : 
TLFamily_NGLD      .         Neutron Gamma                 : 
TLFamily_PHIE      .         Effective Porosity            : 
TLFamily_PHIEN     .         Effective Porosity            : 
TLFamily_PHIT      .         Porosity                      : 
TLFamily_PRMB      .         Permeability                  : 
TLFamily_PRMB_DGR  .         Permeability                  : 
TLFamily_RT        .         Formation Resistivity         : 
TLFamily_SOIL_ARCHIE .         Oil Saturation                : 
TLFamily_SOIL_DW   .         Oil Saturation                : 
TLFamily_SP        .         Spontaneous Potential         : 
TLFamily_VSH_FIN   .         Shale Volume                  : 
TLFamily_VSH_GR    .         Shale Volume                  : 
TLFamily_VSH_SP    .         Shale Volume                  : 
~Curve Information
#_______________________________________________________________________________
#
#LOGNAME           .UNIT     LOG_ID                        : DESCRIPTION
#_______________________________________________________________________________
DEPT               .M                                      : Колонка глубины 
CALI               .м                                      : Каверномер 
COLL               .unitless                               : Описание 
CSAT               .unitless                               : Описание 
GR                 .uR/h                                   : Гамма каротаж 
MINV               .Ohmm                                   : Микро-градиент зонд 
MNOR               .Ohmm                                   : Микро-потенциал зонд 
NGLD               .у.е.                                   : Показания зонда НГК-60 аппаратуры ДРСТ-3-90 
PHIE               .д.ед.                                  : Описание 
PHIEN              .д.ед.                                  :  
PHIT               .д.ед.                                  : Описание 
PRMB               .mD                                     :  
PRMB_DGR           .mD                                     :  
RT                 .ohmm                                   : УЭС пласта 
SOIL_ARCHIE        .д.ед.                                  :  
SOIL_DW            .д.ед.                                  :  
SP                 .мВ                                     : Потенциал самополяризации 
VSH_FIN            .д.ед.                                  : Описание 
VSH_GR             .д.ед.                                  : Shale volume 
VSH_SP             .д.ед.                                  : Shale Volume 
~Ascii
# ...
1181.2     0.253      -9999      -9999      11.834     3.175      2.153      0.921      0.1609913  0.1609913  0.3019476  2.686009   5.202172   1.64       0.1420749  0.38964    27.889     0.4271403  0.3308812  0.5233995 
1181.4     0.245      -9999      -9999      12.259     2.743      4.268      0.939      0.1423714  0.1423714  0.2946684  1.214011   2.912233   1.823      0.09138244 0.3836322  27.427     0.4615059  0.4193292  0.5036826 
1181.6     0.237      -9999      -9999      11.83      4.115      3.867      0.966      0.1505329  0.1505329  0.2837496  1.719461   5.230652   2.059      0.1825017  0.4191954  26.781     0.403687   0.3301443  0.4772297 
1181.8     0.23       -9999      -9999      11.371     2.832      4.515      0.994      0.161784   0.161784   0.2724264  2.778368   9.787473   2.383      0.2831316  0.4623155  25.119     0.3352801  0.2556173  0.4149428 
1182       0.227      -9999      -9999      10.588     3.378      4.334      1.02       0.1763159  0.1763159  0.261912   5.163649   28.50145   2.797      0.3830383  0.5094274  23.226     0.2593821  0.1652127  0.3535514 
1182.2     0.228      -9999      -9999      10.824     2.362      5.754      1.039      0.1691733  0.1691733  0.2542284  3.807656   20.6517    3.337      0.4112583  0.5350906  22.302     0.2577427  0.1884403  0.3270451 
1182.4     0.229      6          6          10.436     7.506001   4.591      1.053      0.1726062  0.1726062  0.2485668  4.408029   35.07352   3.605      0.4420663  0.5504768  21.609     0.2301835  0.1517915  0.3085755 
1182.6     0.23       6          6          10.474     8.865      4.858      1.066      0.1687333  0.1687333  0.2433096  3.736878   33.30054   3.885      0.4505578  0.5573816  21.148     0.2259887  0.155041   0.2969363 
1182.8     0.229      6          6          10.348     8.853      6.649      1.065      0.172354   0.172354   0.243714   4.360858   39.5503    4.313      0.4864386  0.5839984  20.778     0.2162424  0.1445256  0.2879592 
1183       0.23       6          6          10.773     8.84       4.306      1.051      0.1730661  0.1730661  0.2493756  4.495332   22.14069   4.586999   0.5028581  0.6026849  20.409     0.231241   0.1831588  0.2793232 
1183.2     0.23       1          2          11.333     3.766      4.944      1.021      0.1755002  0.1755002  0.2615076  4.987084   10.30858   3.991      0.4757202  0.5881569  20.04      0.2606286  0.2502599  0.2709973 
1183.4     0.232      1          2          11.854     2.096      3.963      0.986      0.1769044  0.1769044  0.2756616  5.29489    5.062062   3.486      0.4452212  0.5742345  19.716     0.2992642  0.3345906  0.2639378 
1183.6     0.233      1          2          11.726     2.032      3.906      0.971      0.1860215  0.1860215  0.2817276  7.811378   6.028532   3.122      0.4407746  0.5648808  19.926     0.2900184  0.31155    0.2684869 
1183.8     0.231      1          2          11.068     2.667      3.658      0.971      0.2010528  0.2010528  0.2817276  14.83006   14.80139   2.597      0.4302062  0.537976   20.132     0.2444692  0.215894   0.2730444 
1184       0.229      1          2          11.375     3.607      3.648      0.979      0.1866608  0.1866608  0.2784924  8.027299   9.734181   2.489      0.3798905  0.5100424  21.286     0.2782775  0.2561879  0.3003672 
1184.2     0.227      -9999      -9999      11.657     3.004      3.677      0.977      0.1594766  0.1594766  0.2793012  2.517978   6.623962   2.454      0.2840388  0.4750048  25.442     0.3631048  0.2997949  0.4264146 
1184.4     0.224      -9999      -9999      11.501     2.286      3.448      0.972      0.1505991  0.1505991  0.2813232  1.724326   8.195981   2.317      0.2268541  0.4497188  27.751     0.3961335  0.2748276  0.5174394 
1184.6     0.219      -9999      -9999      11.263     3.302      3.353      0.968      0.1524745  0.1524745  0.2829408  1.867906   11.34222   2.047      0.1893551  0.4194179  28.489     0.3953525  0.2406832  0.5500219 
1184.8     0.219      -9999      -9999      11.404     2.82       3.544      0.963      0.1515929  0.1515929  0.2849628  1.79898    9.356357   2.32       0.2317369  0.4557576  28.443     0.4041512  0.2603627  0.5479397 
1185       0.223      6          6          10.958     3.76       3.096      0.962      0.1631614  0.1631614  0.2853672  2.946473   17.19947   2.532      0.3083721  0.4944144  28.212     0.3703207  0.2030543  0.5375872 
1185.2     0.229      6          6          10.659     2.909      5.910999   0.973      0.1651967  0.1651967  0.2809188  3.213667   25.86873   2.598      0.3240118  0.4986395  28.028     0.3506732  0.1718822  0.5294641 
1185.4     0.23       6          6          10.15      3.899      3.486      0.99       0.1653275  0.1653275  0.274044   3.231656   51.8242    2.652      0.3309678  0.4965219  28.028     0.3294438  0.1294236  0.5294641 
1185.6     0.232      6          6          9.99       2.566      2.534      1.003      0.161559   0.161559   0.2687868  2.751839   64.4744    2.697      0.3227647  0.4902183  28.074     0.3249327  0.1183807  0.5314846 
1185.8     0.234      6          6          9.961      3.556      2.667      1.007      0.1622454  0.1622454  0.2671692  2.833586   67.0779    2.686      0.3239654  0.4882066  27.797     0.317951   0.1164825  0.5194194 
1186       0.234      -9999      -9999      10.356     4.776      2.553      0.992      0.1658484  0.1658484  0.2732352  3.304245   39.12071   2.254      0.279894   0.4536062  27.474     0.3254146  0.1451715  0.5056577 
1186.2     0.234      -9999      -9999      10.811     3.252      2.077      0.971      0.1705802  0.1705802  0.2817276  4.043124   21.02147   1.899      0.238478   0.4220887  27.012     0.3368103  0.1870797  0.4865409 
1186.4     0.235      -9999      -9999      10.803     2.35       2.505      0.95       0.1744443  0.1744443  0.29022    4.767496   21.25228   1.742      0.2223287  0.4125394  27.704     0.3508354  0.1862474  0.5154233 
1186.6     0.237      -9999      -9999      10.89      3.417      3.391      0.934      0.1767376  0.1767376  0.2966904  5.257359   18.87244   1.712      0.2248313  0.4182381  28.074     0.3634933  0.1955019  0.5314846 
1186.8     0.239      -9999      -9999      10.996     3.925      2.2        0.931      0.1732724  0.1732724  0.2979036  4.535054   16.33002   1.879      0.2450518  0.4416322  28.443     0.3776704  0.2074012  0.5479397 
1187       0.237      -9999      -9999      11.055     3.188      1.648      0.921      0.1705141  0.1705141  0.3019476  4.031747   15.06639   2.007      0.2577398  0.4606519  29.182     0.3982833  0.2143353  0.5822312 
1187.2     0.234      -9999      -9999      11.287     3.011      3.025      0.92       0.1600772  0.1600772  0.302352   2.583309   10.97665   2.095      0.2313978  0.4592037  29.921     0.4311357  0.2439246  0.6183468 
1187.4     0.233      -9999      -9999      11.51      3.861      2.258      0.912      0.1517173  0.1517173  0.3055872  1.808548   8.095906   2.061      0.1884326  0.446855   30.66      0.4662725  0.2762098  0.6563352 
1187.6     0.23       -9999      -9999      11.707     2.921      1.619      0.913      0.1394473  0.1394473  0.3051828  1.071666   6.186935   2.049      0.124183   0.4265553  31.398     0.5022289  0.3082679  0.6961899 
1187.8     0.229      -9999      -9999      11.985     2.502      1.524      0.917      0.1201666  0.1201666  0.3035652  0.4709076  4.233167   2.088      0.01177233 0.3975454  32.368     0.5557532  0.3599364  0.75157   
1188       0.23       -9999      -9999      12.12      1.892      1.772      0.925      0.1445003  0.1445003  0.30033    1.329395   3.52072    2.103      0.16122    0.4360412  28.628     0.4722112  0.3880666  0.5563557 
1188.2     0.231      8          2          12.259     1.874      4.186      0.921      0.2005086  0.2005086  0.3019476  14.48983   2.912233   2.102      0.3692756  0.5063782  21.563     0.307391   0.4193292  0.3073912 
1188.4     0.232      8          2          12.835     2.54       3.906      0.908      0.2303419  0.2303419  0.3072048  51.71878   1.326625   2.203      0.4532245  0.5493475  18.146     0.232918   0.5780852  0.2329178 
