~Version
 VERS              .         2.0                           : CWLS LOG ASCII STANDARD - VERSION 2.0
 WRAP              .         NO                            : ONE LINE PER DEPTH STEP
 DLM               .         SPACE                         : DELIMITING CHARACTER(SPACE TAB OR COMMA)
~Well Information
#_______________________________________________________________________________
#
#PARAMETER_NAME    .UNIT     VALUE                         : DESCRIPTION
#_______________________________________________________________________________
STRT               .M        900                           : First reference value
STOP               .M        1308.8                        : Last reference value
STEP               .M        0.2                           : Step increment
NULL               .         -9999                         : Missing value
COMP               .                                       : Company
WELL               .         1478                          : Well name
FLD                .         Узень                         : Field
LOC                .                                       : Location
CNTY               .                                       : County
STAT               .                                       : State
CTRY               .                                       : Country
SRVC               .                                       : Service Company
DATE               .                                       : Date
UWI                .                                       : Unique Well ID
Block              .         7                             : 
Category           .         Нефтяная                      : 
Condition          .         Ликвидированная               : 
Date               .         08.06.1967                    : 
EREF               .m        86.7                          : 100.8
Gorizont           .         15                            : 14
Interpretator      .         Бекбулатова А.А.              : 
Kupol              .         Основной                      : osnovnoi
Mud                .         0                             : 
Mud_density        .         0                             : 
Mud_resistivity    .         0                             : 
NGDU               .         НГДУ-2                        : 
ORIGINALWELLNAME   .         1478                          : 
Spud_date          .         1967                          : 1961
Viscosity          .         0                             : 
X                  .m        42259.4                       : 46154
Y                  .m        85033.9                       : 85761.93
YEAR               .         2018                          : 
Исправ_15гор       .         Исправ.15гор                  : 
~Parameter Information Block
#_______________________________________________________________________________
#
#PARAMETER_NAME    .UNIT     VALUE                         : DESCRIPTION
#_______________________________________________________________________________
SET                .         LQC_KAZNIPI_Petrel            : 
TLFamily_CALI      .         Caliper                       : 
TLFamily_COLL      .         Net Reservoir Flag            : 
TLFamily_CSAT      .         Fluid Code                    : 
TLFamily_DEPT      .         Measured Depth                : 
TLFamily_GR        .         Russian Gamma Ray             : 
TLFamily_MINV      .         Micro Gradient Resistivity    : 
TLFamily_MNOR      .         Micro Resistivity             : 
TLFamily_NGLD      .         Neutron Gamma                 : 
TLFamily_PHIE      .         Effective Porosity            : 
TLFamily_PHIEN     .         Effective Porosity            : 
TLFamily_PHIT      .         Porosity                      : 
TLFamily_PRMB      .         Permeability                  : 
TLFamily_PRMB_DGR  .         Permeability                  : 
TLFamily_RT        .         Formation Resistivity         : 
TLFamily_SOIL_ARCHIE .         Oil Saturation                : 
TLFamily_SOIL_DW   .         Oil Saturation                : 
TLFamily_SP        .         Spontaneous Potential         : 
TLFamily_VSH_FIN   .         Shale Volume                  : 
TLFamily_VSH_GR    .         Shale Volume                  : 
TLFamily_VSH_SP    .         Shale Volume                  : 
~Curve Information
#_______________________________________________________________________________
#
#LOGNAME           .UNIT     LOG_ID                        : DESCRIPTION
#_______________________________________________________________________________
DEPT               .M                                      : Колонка глубины 
CALI               .м                                      : Каверномер 
COLL               .unitless                               : Описание 
CSAT               .unitless                               : Описание 
GR                 .uR/h                                   : Гамма каротаж 
MINV               .Ohmm                                   : Микро-градиент зонд 
MNOR               .Ohmm                                   : Микро-потенциал зонд 
NGLD               .у.е.                                   : Показания зонда НГК-60 аппаратуры ДРСТ-3-90 
PHIE               .д.ед.                                  : Описание 
PHIEN              .д.ед.                                  :  
PHIT               .д.ед.                                  : Описание 
PRMB               .mD                                     :  
PRMB_DGR           .mD                                     :  
RT                 .ohmm                                   : УЭС пласта 
SOIL_ARCHIE        .д.ед.                                  :  
SOIL_DW            .д.ед.                                  :  
SP                 .мВ                                     : Потенциал самополяризации 
VSH_FIN            .д.ед.                                  : Описание 
VSH_GR             .д.ед.                                  : Shale volume 
VSH_SP             .д.ед.                                  : Shale Volume 
~Ascii
# ...
1218.2     0.218      1          2          10.222     2.782      4.229      1.002      0.2230017  0.2230017  0.2691912  37.81726   46.97291   2.921      0.5073187  0.5717752  10.712     0.1399683  0.1347234  0.1452132 
1218.4     0.218      1          2          10.129     2.489      4.315      1.016      0.2198386  0.2198386  0.2635296  33.04476   53.33131   2.724      0.4845344  0.5483758  9.281      0.1323969  0.1279174  0.1368763 
1218.6     0.217      1          2          10.205     2.489      4.401      1.012      0.2213887  0.2213887  0.2651472  35.30314   48.07574   2.521      0.4687176  0.5335888  8.173      0.1326017  0.1334528  0.1317506 
1218.8     0.216      1          2          10.123     2.845      3.982      0.99       0.2316298  0.2316298  0.274044   54.63916   53.76989   2.341      0.4711681  0.5341352  7.619      0.1285278  0.1274904  0.1295653 
1219       0.216      1          2          10.024     2.566      4.039      0.973      0.2399062  0.2399062  0.2809188  77.76843   61.55036   2.242      0.4765873  0.5376543  7.157      0.1242805  0.1206456  0.1279155 
1219.2     0.216      1          2          10.356     2.134      4.106      0.967      0.2384129  0.2384129  0.2833452  72.96995   39.12071   2.216      0.4708446  0.536002   6.926      0.1361584  0.1451715  0.1271453 
1219.4     0.215      1          2          10.306     3.15       3.982      0.972      0.2370493  0.2370493  0.2813232  68.84718   41.88408   2.264      0.4735155  0.5379286  6.926      0.1341633  0.1411814  0.1271453 
1219.6     0.217      1          2          10.639     2.464      4.172      0.975      0.2309836  0.2309836  0.28011    53.15374   26.58471   2.308      0.4663363  0.5361258  7.111      0.148868   0.1699767  0.1277593 
1219.8     0.217      1          2          10.495     3.124      3.82       0.973      0.2336003  0.2336003  0.2809188  59.42963   32.35949   2.438      0.4849621  0.5515637  7.711      0.1433893  0.1568665  0.1299122 
1220       0.218      1          2          10.617     2.705      3.972      0.959      0.2345018  0.2345018  0.2865804  61.75911   27.39522   2.606      0.5024904  0.5719078  11.082     0.1578138  0.167905   0.1477227 
1220.2     0.215      0          0          10.327     2.591      4.229      0.946      0.2373207  0.2373207  0.2918376  69.64861   40.70047   2.763      0.5209736  0.590657   15.191     0.1652029  0.1428437  0.187562  
1220.4     0.216      0          0          10.171     2.972      3.887      0.936      0.2374513  0.2374513  0.2958816  70.03789   50.35968   2.822      0.525927   0.5982518  17.592     0.1770614  0.1309474  0.2231754 
1220.6     0.216      0          0          10.041     3.76       3.382      0.927      0.2418099  0.2418099  0.2995212  84.34604   60.13844   2.845      0.5351521  0.6057381  17.869     0.1748827  0.1217943  0.227971  
1220.8     0.216      0          0          9.843      3.163      2.762      0.907      0.2481205  0.2481205  0.3076092  110.3957   78.8016    2.545      0.5210657  0.5939564  19.116     0.1802687  0.1090676  0.2514698 
1221       0.216      0          0          10.011     3.645      3.553      0.892      0.2479981  0.2479981  0.3136752  109.8207   62.65239   2.291      0.4966264  0.5767459  20.363     0.1990215  0.1197746  0.2782685 
1221.2     0.218      0          0          10.032     3.76       3.105      0.884      0.2457994  0.2457994  0.3169104  99.99066   60.88189   2.037      0.4639476  0.5521092  21.656     0.2154879  0.1211848  0.3097909 
1221.4     0.218      0          0          10.172     3.302      5.125      0.892      0.23507    0.23507    0.3136752  63.27381   50.29095   1.885      0.4220448  0.5227602  22.949     0.2381977  0.1310205  0.3453749 
1221.6     0.218      0          0          10.319     3.201      4.334      0.901      0.2261518  0.2261518  0.3100356  43.25518   41.14733   1.79       0.3875615  0.4988876  23.641     0.2541933  0.1422082  0.3661783 
1221.8     0.219      0          0          10.163     3.277      3.525      0.919      0.218173   0.218173   0.3027564  30.77881   50.91259   1.743      0.3601604  0.4773264  24.149     0.2563132  0.1303648  0.3822616 
1222       0.219      0          0          10.155     3.061      3.401      0.917      0.2258285  0.2258285  0.3035652  42.66283   51.47167   1.724      0.3758916  0.482766   22.81      0.2355658  0.1297848  0.3413468 
1222.2     0.22       0          0          10.096     3.188      4.515      0.918      0.2284767  0.2284767  0.3031608  47.76397   55.78867   1.77       0.3897837  0.4916233  22.302     0.2263156  0.125586   0.3270451 
1222.4     0.22       0          0          10.352     3.366      4.096      0.911      0.2332842  0.2332842  0.3059916  58.63369   39.33488   1.829      0.409901   0.5069075  21.102     0.2203255  0.1448482  0.2958027 
1222.6     0.22       0          0          10.289     3.848      3.239      0.913      0.2340441  0.2340441  0.3051828  60.56503   42.86744   1.9        0.4219928  0.5161268  20.917     0.215572   0.1398499  0.2912941 
1222.8     0.22       0          0          10.274     3.652      4.306      0.917      0.2320649  0.2320649  0.3035652  55.66254   43.75418   1.954      0.4253094  0.5196762  21.055     0.2166676  0.1386855  0.2946497 
1223       0.22       0          0          10.26      3.518      4.915      0.924      0.2284686  0.2284686  0.3007344  47.74746   44.59841   2.02       0.4264494  0.5218884  21.286     0.2189873  0.1376075  0.3003672 
1223.2     0.22       0          0          10.1       3.467      4.525      0.939      0.2256532  0.2256532  0.2946684  42.34504   55.48484   2.096      0.4301836  0.5225764  20.963     0.209137   0.1258663  0.2924076 
1223.4     0.22       0          0          10.382     4.09       4.487      0.939      0.2246244  0.2246244  0.2946684  40.5272    37.75659   2.136      0.4329638  0.5261591  20.317     0.2122546  0.1472907  0.2772185 
1223.6     0.22       1          2          10.933     3.607      4.315      0.925      0.2268522  0.2268522  0.30033    44.56671   17.79658   2.176      0.4426903  0.5376102  18.793     0.2226601  0.2002443  0.2450759 
1223.8     0.22       1          2          11.349     2.947      3.525      0.917      0.2281158  0.2281158  0.3035652  47.03441   10.08587   2.226      0.4512612  0.5467257  16.438     0.2286346  0.2525018  0.2047675 
1224       0.22       1          2          11.56      2.921      3.62       0.916      0.2268241  0.2268241  0.3039696  44.51334   7.561766   2.256      0.451994   0.5490269  14.868     0.2337743  0.2840161  0.1835325 
1224.2     0.22       1          2          11.293     2.667      3.429      0.928      0.2306845  0.2306845  0.2991168  52.48014   10.8871    2.301      0.4649717  0.5524483  13.668     0.2073706  0.2447418  0.1699993 
1224.4     0.219      1          2          11.068     3.099      3.582      0.931      0.235985   0.235985   0.2979036  65.79203   14.80139   2.339      0.47947    0.5592949  12.559     0.187632   0.215894   0.15937   
1224.6     0.219      1          2          10.719     3.315      3.372      0.934      0.2424957  0.2424957  0.2966904  86.84922   23.83442   2.4        0.4977676  0.5689042  11.497     0.1642265  0.1777279  0.1507251 
1224.8     0.219      1          2          10.815     2.413      4.039      0.933      0.2424912  0.2424912  0.2970948  86.83261   20.90701   2.505      0.5077507  0.5783632  10.435     0.1654655  0.1874973  0.1434337 
1225       0.218      1          2          10.786     2.794      4.125      0.928      0.2460522  0.2460522  0.2991168  101.0747   21.75123   2.62       0.5240918  0.5918608  9.327      0.1608018  0.1844909  0.1371127 
1225.2     0.218      1          2          10.622     2.477      4.325      0.924      0.2511502  0.2511502  0.3007344  125.6231   27.20887   2.721      0.5407412  0.6042143  8.265      0.1502551  0.1683736  0.1321366 
1225.4     0.218      1          2          10.601     2.743      4.039      0.924      0.25217    0.25217    0.3007344  131.2074   28.00013   2.91       0.5565559  0.617943   7.157      0.1471648  0.1664142  0.1279155 
