~Version
 VERS              .         2.0                           : CWLS LOG ASCII STANDARD - VERSION 2.0
 WRAP              .         NO                            : ONE LINE PER DEPTH STEP
 DLM               .         SPACE                         : DELIMITING CHARACTER(SPACE TAB OR COMMA)
~Well Information
#_______________________________________________________________________________
#
#PARAMETER_NAME    .UNIT     VALUE                         : DESCRIPTION
#_______________________________________________________________________________
STRT               .M        900                           : First reference value
STOP               .M        1308.8                        : Last reference value
STEP               .M        0.2                           : Step increment
NULL               .         -9999                         : Missing value
COMP               .                                       : Company
WELL               .         1478                          : Well name
FLD                .         Узень                         : Field
LOC                .                                       : Location
CNTY               .                                       : County
STAT               .                                       : State
CTRY               .                                       : Country
SRVC               .                                       : Service Company
DATE               .                                       : Date
UWI                .                                       : Unique Well ID
Block              .         7                             : 
Category           .         Нефтяная                      : 
Condition          .         Ликвидированная               : 
Date               .         08.06.1967                    : 
EREF               .m        86.7                          : 100.8
Gorizont           .         15                            : 14
Interpretator      .         Бекбулатова А.А.              : 
Kupol              .         Основной                      : osnovnoi
Mud                .         0                             : 
Mud_density        .         0                             : 
Mud_resistivity    .         0                             : 
NGDU               .         НГДУ-2                        : 
ORIGINALWELLNAME   .         1478                          : 
Spud_date          .         1967                          : 1961
Viscosity          .         0                             : 
X                  .m        42259.4                       : 46154
Y                  .m        85033.9                       : 85761.93
YEAR               .         2018                          : 
Исправ_15гор       .         Исправ.15гор                  : 
~Parameter Information Block
#_______________________________________________________________________________
#
#PARAMETER_NAME    .UNIT     VALUE                         : DESCRIPTION
#_______________________________________________________________________________
SET                .         LQC_KAZNIPI_Petrel            : 
TLFamily_CALI      .         Caliper                       : 
TLFamily_COLL      .         Net Reservoir Flag            : 
TLFamily_CSAT      .         Fluid Code                    : 
TLFamily_DEPT      .         Measured Depth                : 
TLFamily_GR        .         Russian Gamma Ray             : 
TLFamily_MINV      .         Micro Gradient Resistivity    : 
TLFamily_MNOR      .         Micro Resistivity             : 
TLFamily_NGLD      .         Neutron Gamma                 : 
TLFamily_PHIE      .         Effective Porosity            : 
TLFamily_PHIEN     .         Effective Porosity            : 
TLFamily_PHIT      .         Porosity                      : 
TLFamily_PRMB      .         Permeability                  : 
TLFamily_PRMB_DGR  .         Permeability                  : 
TLFamily_RT        .         Formation Resistivity         : 
TLFamily_SOIL_ARCHIE .         Oil Saturation                : 
TLFamily_SOIL_DW   .         Oil Saturation                : 
TLFamily_SP        .         Spontaneous Potential         : 
TLFamily_VSH_FIN   .         Shale Volume                  : 
TLFamily_VSH_GR    .         Shale Volume                  : 
TLFamily_VSH_SP    .         Shale Volume                  : 
~Curve Information
#_______________________________________________________________________________
#
#LOGNAME           .UNIT     LOG_ID                        : DESCRIPTION
#_______________________________________________________________________________
DEPT               .M                                      : Колонка глубины 
CALI               .м                                      : Каверномер 
COLL               .unitless                               : Описание 
CSAT               .unitless                               : Описание 
GR                 .uR/h                                   : Гамма каротаж 
MINV               .Ohmm                                   : Микро-градиент зонд 
MNOR               .Ohmm                                   : Микро-потенциал зонд 
NGLD               .у.е.                                   : Показания зонда НГК-60 аппаратуры ДРСТ-3-90 
PHIE               .д.ед.                                  : Описание 
PHIEN              .д.ед.                                  :  
PHIT               .д.ед.                                  : Описание 
PRMB               .mD                                     :  
PRMB_DGR           .mD                                     :  
RT                 .ohmm                                   : УЭС пласта 
SOIL_ARCHIE        .д.ед.                                  :  
SOIL_DW            .д.ед.                                  :  
SP                 .мВ                                     : Потенциал самополяризации 
VSH_FIN            .д.ед.                                  : Описание 
VSH_GR             .д.ед.                                  : Shale volume 
VSH_SP             .д.ед.                                  : Shale Volume 
~Ascii
# ...
974        -9999      -9999      -9999      8.513      -9999      -9999      0.845      0.198566   0.198566   0.332682   13.33775   3.144159   -9999      -9999      -9999      -9999      0.406412   0.406412   -9999     
974.2000000000001 -9999      -9999      -9999      8.252      -9999      -9999      0.861      0.2048287  0.2048287  0.3262116  17.42138   4.014226   -9999      -9999      -9999      -9999      0.367827   0.3678268  -9999     
974.4      -9999      -9999      -9999      8.156      -9999      -9999      0.876      0.2031358  0.2031358  0.3201456  16.2079    4.391635   -9999      -9999      -9999      -9999      0.354575   0.3545753  -9999     
974.6      -9999      -9999      -9999      8.509      -9999      -9999      0.886      0.1821906  0.1821906  0.3161016  6.633907   3.155952   -9999      -9999      -9999      -9999      0.405791   0.4057912  -9999     
974.8      -9999      -9999      -9999      8.9        -9999      -9999      0.888      0.1597971  0.1597971  0.3152928  2.552633   2.188704   -9999      -9999      -9999      -9999      0.471199   0.471199   -9999     
975        -9999      -9999      -9999      9.001      -9999      -9999      0.882      0.1561037  0.1561037  0.3177192  2.180604   1.991269   -9999      -9999      -9999      -9999      0.489744   0.4897444  -9999     
975.2000000000001 -9999      -9999      -9999      9.102      -9999      -9999      0.881      0.1501473  0.1501473  0.3181236  1.691418   1.811645   -9999      -9999      -9999      -9999      0.509019   0.5090194  -9999     
975.4      -9999      -9999      -9999      9.128      -9999      -9999      0.885      0.146852   0.146852   0.316506   1.469649   1.768088   -9999      -9999      -9999      -9999      0.514103   0.5141029  -9999     
975.6      -9999      -9999      -9999      8.968      -9999      -9999      0.89       0.154894   0.154894   0.314484   2.070957   2.053735   -9999      -9999      -9999      -9999      0.483606   0.4836061  -9999     
975.8      -9999      -9999      -9999      8.623      -9999      -9999      0.889      0.1750136  0.1750136  0.3148884  4.884665   2.836538   -9999      -9999      -9999      -9999      0.423863   0.4238629  -9999     
976        -9999      -9999      -9999      8.29       -9999      -9999      0.895      0.1893034  0.1893034  0.312462   8.984951   3.873955   -9999      -9999      -9999      -9999      0.373208   0.373208   -9999     
976.2000000000001 -9999      -9999      -9999      8.442      -9999      -9999      0.908      0.1766792  0.1766792  0.3072048  5.244284   3.360206   -9999      -9999      -9999      -9999      0.395532   0.3955318  -9999     
976.4      -9999      -9999      -9999      8.82       -9999      -9999      0.918      0.1523475  0.1523475  0.3031608  1.857819   2.358889   -9999      -9999      -9999      -9999      0.45701    0.4570095  -9999     
976.6      -9999      -9999      -9999      9.119      -9999      -9999      0.913      0.1361113  0.1361113  0.3051828  0.9295421  1.783045   -9999      -9999      -9999      -9999      0.512338   0.5123376  -9999     
976.8      -9999      -9999      -9999      9.098      -9999      -9999      0.897      0.1439333  0.1439333  0.3116532  1.297635   1.818441   -9999      -9999      -9999      -9999      0.508242   0.5082417  -9999     
977        -9999      -9999      -9999      9.115      -9999      -9999      0.888      0.1464796  0.1464796  0.3152928  1.446493   1.789735   -9999      -9999      -9999      -9999      0.511555   0.5115547  -9999     
977.2000000000001 -9999      -9999      -9999      9.031      -9999      -9999      0.891      0.1506003  0.1506003  0.3140796  1.724408   1.936131   -9999      -9999      -9999      -9999      0.495392   0.4953921  -9999     
977.4      -9999      -9999      -9999      9.056      -9999      -9999      0.901      0.1449867  0.1449867  0.3100356  1.357264   1.891352   -9999      -9999      -9999      -9999      0.500148   0.5001482  -9999     
977.6      -9999      -9999      -9999      9.275      -9999      -9999      0.906      0.128555   0.128555   0.3080136  0.673454   1.540806   -9999      -9999      -9999      -9999      0.543814   0.543814   -9999     
977.8      -9999      -9999      -9999      9.473      -9999      -9999      0.895      0.1188956  0.1188956  0.312462   0.4460588  1.280148   -9999      -9999      -9999      -9999      0.586565   0.5865651  -9999     
978        -9999      -9999      -9999      9.666      -9999      -9999      0.875      0.1121652  0.1121652  0.32055    0.3347574  1.068574   -9999      -9999      -9999      -9999      0.631469   0.6314694  -9999     
978.2000000000001 -9999      -9999      -9999      9.452      -9999      -9999      0.855      0.1366189  0.1366189  0.328638   0.9498866  1.305559   -9999      -9999      -9999      -9999      0.581876   0.581876   -9999     
978.4      -9999      -9999      -9999      9.246      -9999      -9999      0.854      0.1515618  0.1515618  0.3290424  1.796596   1.583202   -9999      -9999      -9999      -9999      0.53782    0.5378198  -9999     
978.6      -9999      -9999      -9999      9.052      -9999      -9999      0.856      0.1634369  0.1634369  0.3282336  2.981299   1.898446   -9999      -9999      -9999      -9999      0.499384   0.4993843  -9999     
978.8      -9999      -9999      -9999      8.85       -9999      -9999      0.868      0.1708284  0.1708284  0.3233808  4.086154   2.29357    -9999      -9999      -9999      -9999      0.46228    0.4622799  -9999     
979        -9999      -9999      -9999      8.905      -9999      -9999      0.863      0.1696098  0.1696098  0.3254028  3.87921    2.178485   -9999      -9999      -9999      -9999      0.4721     0.4721004  -9999     
979.2000000000001 -9999      -9999      -9999      8.894      -9999      -9999      0.863      0.1702632  0.1702632  0.3254028  3.988831   2.20103    -9999      -9999      -9999      -9999      0.47012    0.4701198  -9999     
979.4      -9999      -9999      -9999      8.884      -9999      -9999      0.856      0.173686   0.173686   0.3282336  4.615772   2.221729   -9999      -9999      -9999      -9999      0.468326   0.4683264  -9999     
979.6      -9999      -9999      -9999      8.816      -9999      -9999      0.864      0.1744158  0.1744158  0.3249984  4.761691   2.367736   -9999      -9999      -9999      -9999      0.456311   0.4563114  -9999     
979.8      -9999      -9999      -9999      8.564      -9999      -9999      0.87       0.1272417  0.1272417  0.322572   0.6367699  2.997591   -9999      -9999      -9999      40.079     0.5919101  0.4144118  0.7694083 
980        -9999      -9999      -9999      8.354      -9999      -9999      0.873      0.1331232  0.1331232  0.3213588  0.8183193  3.648702   -9999      -9999      -9999      39.894     0.5704108  0.3824497  0.7583719 
980.2000000000001 -9999      -9999      -9999      8.4        -9999      -9999      0.879      0.1309222  0.1309222  0.3189324  0.744997   3.494937   3.092      0.226425   0.5291378  39.756     0.5697279  0.3892331  0.7502227 
980.4      0.226      -9999      -9999      8.635      -9999      -9999      0.875      0.1282886  0.1282886  0.32055    0.6658469  2.804856   3.171      0.2218791  0.5330852  39.571     0.5826102  0.4258114  0.739409  
980.6      0.231      -9999      -9999      8.707      -9999      -9999      0.861      0.1333073  0.1333073  0.3262116  0.8247694  2.622058   3.091      0.238378   0.5388098  39.433     0.5845585  0.4376919  0.7314252 
980.8      0.238      -9999      -9999      8.682      -9999      -9999      0.848      0.1405665  0.1405665  0.3314688  1.124061   2.684139   2.933      0.2546222  0.5403545  39.294     0.578492   0.4335296  0.7234544 
981        0.248      -9999      -9999      8.741      -9999      -9999      0.841      0.1426299  0.1426299  0.3342996  1.227467   2.539926   2.803      0.2481977  0.5348418  39.202     0.5808173  0.4434168  0.7182178 
981.2000000000001 0.244      -9999      -9999      8.795      -9999      -9999      0.851      0.1370602  0.1370602  0.3302556  0.967932   2.414737   2.882      0.2317438  0.5308889  39.202     0.5854407  0.4526636  0.7182178 
