~Version
 VERS              .         2.0                           : CWLS LOG ASCII STANDARD - VERSION 2.0
 WRAP              .         NO                            : ONE LINE PER DEPTH STEP
 DLM               .         SPACE                         : DELIMITING CHARACTER(SPACE TAB OR COMMA)
~Well Information
#_______________________________________________________________________________
#
#PARAMETER_NAME    .UNIT     VALUE                         : DESCRIPTION
#_______________________________________________________________________________
STRT               .M        900                           : First reference value
STOP               .M        1308.8                        : Last reference value
STEP               .M        0.2                           : Step increment
NULL               .         -9999                         : Missing value
COMP               .                                       : Company
WELL               .         1478                          : Well name
FLD                .         Узень                         : Field
LOC                .                                       : Location
CNTY               .                                       : County
STAT               .                                       : State
CTRY               .                                       : Country
SRVC               .                                       : Service Company
DATE               .                                       : Date
UWI                .                                       : Unique Well ID
Block              .         7                             : 
Category           .         Нефтяная                      : 
Condition          .         Ликвидированная               : 
Date               .         08.06.1967                    : 
EREF               .m        86.7                          : 100.8
Gorizont           .         15                            : 14
Interpretator      .         Бекбулатова А.А.              : 
Kupol              .         Основной                      : osnovnoi
Mud                .         0                             : 
Mud_density        .         0                             : 
Mud_resistivity    .         0                             : 
NGDU               .         НГДУ-2                        : 
ORIGINALWELLNAME   .         1478                          : 
Spud_date          .         1967                          : 1961
Viscosity          .         0                             : 
X                  .m        42259.4                       : 46154
Y                  .m        85033.9                       : 85761.93
YEAR               .         2018                          : 
Исправ_15гор       .         Исправ.15гор                  : 
~Parameter Information Block
#_______________________________________________________________________________
#
#PARAMETER_NAME    .UNIT     VALUE                         : DESCRIPTION
#_______________________________________________________________________________
SET                .         LQC_KAZNIPI_Petrel            : 
TLFamily_CALI      .         Caliper                       : 
TLFamily_COLL      .         Net Reservoir Flag            : 
TLFamily_CSAT      .         Fluid Code                    : 
TLFamily_DEPT      .         Measured Depth                : 
TLFamily_GR        .         Russian Gamma Ray             : 
TLFamily_MINV      .         Micro Gradient Resistivity    : 
TLFamily_MNOR      .         Micro Resistivity             : 
TLFamily_NGLD      .         Neutron Gamma                 : 
TLFamily_PHIE      .         Effective Porosity            : 
TLFamily_PHIEN     .         Effective Porosity            : 
TLFamily_PHIT      .         Porosity                      : 
TLFamily_PRMB      .         Permeability                  : 
TLFamily_PRMB_DGR  .         Permeability                  : 
TLFamily_RT        .         Formation Resistivity         : 
TLFamily_SOIL_ARCHIE .         Oil Saturation                : 
TLFamily_SOIL_DW   .         Oil Saturation                : 
TLFamily_SP        .         Spontaneous Potential         : 
TLFamily_VSH_FIN   .         Shale Volume                  : 
TLFamily_VSH_GR    .         Shale Volume                  : 
TLFamily_VSH_SP    .         Shale Volume                  : 
~Curve Information
#_______________________________________________________________________________
#
#LOGNAME           .UNIT     LOG_ID                        : DESCRIPTION
#_______________________________________________________________________________
DEPT               .M                                      : Колонка глубины 
CALI               .м                                      : Каверномер 
COLL               .unitless                               : Описание 
CSAT               .unitless                               : Описание 
GR                 .uR/h                                   : Гамма каротаж 
MINV               .Ohmm                                   : Микро-градиент зонд 
MNOR               .Ohmm                                   : Микро-потенциал зонд 
NGLD               .у.е.                                   : Показания зонда НГК-60 аппаратуры ДРСТ-3-90 
PHIE               .д.ед.                                  : Описание 
PHIEN              .д.ед.                                  :  
PHIT               .д.ед.                                  : Описание 
PRMB               .mD                                     :  
PRMB_DGR           .mD                                     :  
RT                 .ohmm                                   : УЭС пласта 
SOIL_ARCHIE        .д.ед.                                  :  
SOIL_DW            .д.ед.                                  :  
SP                 .мВ                                     : Потенциал самополяризации 
VSH_FIN            .д.ед.                                  : Описание 
VSH_GR             .д.ед.                                  : Shale volume 
VSH_SP             .д.ед.                                  : Shale Volume 
~Ascii
# ...
1114.6     0.241      -9999      -9999      10.845     2.045      2.01       0.9        0.1072693  0.1072693  0.31044    0.271672   1.487731   2.678      0.01560708 0.4472153  35.139     0.615669   0.5516539  0.679684  
1114.8     0.237      -9999      -9999      10.786     3.633      2.353      0.917      0.1598845  0.1598845  0.3035652  2.562162   18.7029    2.884      0.328413   0.5337855  34.677     0.4353961  0.1962237  0.6745685 
1115       0.234      6          6          10.289     4.877      3.248      0.944      0.1687521  0.1687521  0.2926464  3.739862   37.5608    2.967      0.3677303  0.5398731  33.292     0.3754374  0.1476038  0.603271  
1115.2     0.228      6          6          9.843      6.668      4.439      0.97       0.1713256  0.1713256  0.282132   4.173732   70.22397   3.207      0.3983763  0.5503003  32.322     0.3357768  0.1143227  0.5572309 
1115.4     0.222      6          6          9.784      8.891      6.697      0.99       0.1693099  0.1693099  0.274044   3.829899   76.28419   3.822      0.4401808  0.5788358  31.583     0.3173762  0.1105232  0.5242292 
1115.6     0.226      6          6          9.91       4.763      5.916      0.99       0.1712027  0.1712027  0.274044   4.151908   63.92372   4.206      0.4699325  0.6003143  31.121     0.3116402  0.1187961  0.5044844 
1115.8     0.229      6          6          10.192     5.271      6.119999   0.977      0.1764782  0.1764782  0.2793012  5.199513   43.03651   4.525      0.5011697  0.6236399  30.613     0.3115848  0.1396253  0.4835444 
1116       0.233      6          6          10.921     8.84       6.448999   0.948      0.1798828  0.1798828  0.2910288  6.012075   15.47579   4.598      0.5130733  0.6384906  30.059     0.336806   0.2120017  0.4616103 
1116.2     0.234      6          6          12.111     3.696      2.801      0.921      0.1580794  0.1580794  0.3019476  2.372309   2.914587   4.222      0.432817   0.6117072  29.828     0.4359644  0.419191   0.4527377 
1116.4     0.235      -9999      -9999      13.231     3.683      2.543      0.898      0.1068811  0.1068811  0.3112488  0.2672113  0.6055541  3.765      0.1583914  0.5339956  29.551     0.6192961  0.7962847  0.4423076 
1116.6     0.24       -9999      -9999      13.344     3.315      2.753      0.882      0.1101397  0.1101397  0.3177192  0.3070525  0.5167747  3.307      0.1286668  0.5144997  29.967     0.6290287  0.8        0.4580575 
1116.8     0.242      -9999      -9999      13.197     3.061      2.648      0.877      0.1101715  0.1101715  0.3197412  0.3074697  0.6351401  2.87       0.06897968 0.4810487  30.752     0.6350596  0.7809245  0.4891947 
1117       0.236      -9999      -9999      12.658     3.544      2.839      0.879      0.1341013  0.1341013  0.3189324  0.8531761  1.352962   2.496      0.1623424  0.4805228  32.091     0.5600944  0.5734634  0.5467252 
1117.2     0.23       -9999      -9999      12.541     3.048      2.505      0.887      0.1238765  0.1238765  0.3156972  0.551634   1.594316   2.529      0.1079508  0.4653202  33.753     0.5812749  0.5362856  0.6262641 
1117.4     0.227      -9999      -9999      11.897     3.315      2.896      0.901      0.1383703  0.1383703  0.3100356  1.023558   3.935215   2.574      0.1965821  0.485292   34.584     0.5201977  0.3708247  0.6695708 
1117.6     0.222      -9999      -9999      11.215     3.137      3.086      0.913      0.1504115  0.1504115  0.3051828  1.710581   10.2451    2.896      0.2930994  0.5252052  34.908     0.469004   0.250892   0.687116  
1117.8     0.218      -9999      -9999      10.794     3.518      4.315      0.92       0.1572895  0.1572895  0.302352   2.293729   18.49416   3.5        0.3779298  0.5730539  34.815     0.4395832  0.197125   0.6820414 
1118       0.223      -9999      -9999      10.823     3.645      3.534      0.908      0.1607601  0.1607601  0.3072048  2.65966    17.75679   4.12       0.4346121  0.6135899  34.908     0.4437717  0.2004273  0.687116  
1118.2     0.227      -9999      -9999      10.76      2.401      2.677      0.895      0.1633907  0.1633907  0.312462   2.975437   19.39772   4.344      0.4562271  0.6299101  35.323     0.4517311  0.1933226  0.7101397 
1118.4     0.23       -9999      -9999      10.727     2.934      3.611      0.886      0.1637159  0.1637159  0.3161016  3.016991   20.31692   4.033      0.4379115  0.6189127  35.739     0.4617748  0.1897021  0.7338476 
1118.6     0.235      -9999      -9999      10.887     1.384      1.296      0.882      0.1587708  0.1587708  0.3177192  2.443311   16.23188   3.691      0.398182   0.5981673  36.108     0.4816617  0.2079123  0.7554111 
1118.8     0.238      -9999      -9999      11.122     1.34       1.425      0.87       0.1513227  0.1513227  0.322572   1.778366   11.67299   3.313      0.3398265  0.5720485  36.847     0.5189373  0.2378747  0.8       
1119       0.238      -9999      -9999      11.413     1.296      1.553      0.869      0.1446068  0.1446068  0.3229764  1.335448   7.760206   2.952      0.2749939  0.5391824  37.401     0.5405139  0.2810278  0.8       
1119.2     0.238      -9999      -9999      11.253     0.902      1.486      0.888      0.1409846  0.1409846  0.3152928  1.144284   9.713199   2.958      0.259503   0.5282036  37.77      0.5282068  0.2564137  0.8       
1119.4     0.228      -9999      -9999      10.925     1.473      1.781      0.929      0.1316518  0.1316518  0.2987124  0.7685457  15.38916   3.185      0.240792   0.5174899  37.309     0.5062441  0.2124881  0.8       
1119.6     0.216      6          6          10.643     5.042      6.324999   0.972      0.1330245  0.1330245  0.2813232  0.81488    22.8581    4.069      0.3293157  0.558556   35.462     0.4493901  0.1807893  0.7179909 
1119.8     0.218      6          6          10.361     5.093      5.182001   1.002      0.1304369  0.1304369  0.2691912  0.7297352  33.95192   5.04       0.3829311  0.5893128  34.908     0.4204677  0.1538194  0.687116  
1120       0.219      6          6          10.214     4.75       6.678      1.019      0.1297212  0.1297212  0.2623164  0.7077971  41.7285    5.826      0.4207321  0.6110503  34.446     0.4018037  0.1413961  0.6622112 
1120.2     0.22       6          6          9.666      8.713      6.678      1.025      0.1307211  0.1307211  0.25989    0.7386358  90.01871   6.443      0.4511423  0.6291151  34.769     0.3914209  0.1032987  0.679543  
1120.4     0.222      6          6          9.414      8.713      5.458      1.023      0.1313198  0.1313198  0.2606988  0.7577377  128.1973   6.906      0.470838   0.6430758  35.046     0.3920577  0.08941224 0.6947031 
1120.6     0.223      6          6          9.611      8.357      6.735      1.009      0.1339464  0.1339464  0.2663604  0.8475605  97.23997   6.962      0.4818546  0.6518451  35.185     0.4012546  0.1000946  0.7024145 
1120.8     0.223      -9999      -9999      10.213     6.846      6.735      0.982      0.1372153  0.1372153  0.2772792  0.9743581  41.78704   6.207      0.4645421  0.6436055  35.277     0.424436   0.1413151  0.7075569 
1121       0.223      -9999      -9999      11.055     5.843      5.373      0.956      0.1337003  0.1337003  0.2877936  0.8387091  12.82346   5.341      0.4122874  0.6208269  35.231     0.4669496  0.2289173  0.7049817 
1121.2     0.223      -9999      -9999      11.375     5.766      4.496      0.935      0.1400196  0.1400196  0.296286   1.09815    8.185159   4.503      0.3883842  0.6014737  34.631     0.4735344  0.274976   0.6720928 
1121.4     0.223      -9999      -9999      11.749     5.087      4.573      0.92       0.1439546  0.1439546  0.302352   1.29881    4.843355   3.785      0.3522688  0.5752382  33.615     0.4799922  0.3406795  0.619305  
1121.6     0.224      -9999      -9999      11.804     5.982      5.334      0.906      0.1594495  0.1594495  0.3080136  2.515069   4.483677   3.183      0.3572696  0.5596898  32.137     0.4501942  0.3515849  0.5488035 
1121.8     0.225      -9999      -9999      12.157     3.366      2.601      0.892      0.1625628  0.1625628  0.3136752  2.872206   2.732429   3.004      0.350603   0.5551354  30.66      0.4579163  0.4303845  0.4854482 
