~Version
 VERS              .         2.0                           : CWLS LOG ASCII STANDARD - VERSION 2.0
 WRAP              .         NO                            : ONE LINE PER DEPTH STEP
 DLM               .         SPACE                         : DELIMITING CHARACTER(SPACE TAB OR COMMA)
~Well Information
#_______________________________________________________________________________
#
#PARAMETER_NAME    .UNIT     VALUE                         : DESCRIPTION
#_______________________________________________________________________________
STRT               .M        900                           : First reference value
STOP               .M        1308.8                        : Last reference value
STEP               .M        0.2                           : Step increment
NULL               .         -9999                         : Missing value
COMP               .                                       : Company
WELL               .         1478                          : Well name
FLD                .         Узень                         : Field
LOC                .                                       : Location
CNTY               .                                       : County
STAT               .                                       : State
CTRY               .                                       : Country
SRVC               .                                       : Service Company
DATE               .                                       : Date
UWI                .                                       : Unique Well ID
Block              .         7                             : 
Category           .         Нефтяная                      : 
Condition          .         Ликвидированная               : 
Date               .         08.06.1967                    : 
EREF               .m        86.7                          : 100.8
Gorizont           .         15                            : 14
Interpretator      .         Бекбулатова А.А.              : 
Kupol              .         Основной                      : osnovnoi
Mud                .         0                             : 
Mud_density        .         0                             : 
Mud_resistivity    .         0                             : 
NGDU               .         НГДУ-2                        : 
ORIGINALWELLNAME   .         1478                          : 
Spud_date          .         1967                          : 1961
Viscosity          .         0                             : 
X                  .m        42259.4                       : 46154
Y                  .m        85033.9                       : 85761.93
YEAR               .         2018                          : 
Исправ_15гор       .         Исправ.15гор                  : 
~Parameter Information Block
#_______________________________________________________________________________
#
#PARAMETER_NAME    .UNIT     VALUE                         : DESCRIPTION
#_______________________________________________________________________________
SET                .         LQC_KAZNIPI_Petrel            : 
TLFamily_CALI      .         Caliper                       : 
TLFamily_COLL      .         Net Reservoir Flag            : 
TLFamily_CSAT      .         Fluid Code                    : 
TLFamily_DEPT      .         Measured Depth                : 
TLFamily_GR        .         Russian Gamma Ray             : 
TLFamily_MINV      .         Micro Gradient Resistivity    : 
TLFamily_MNOR      .         Micro Resistivity             : 
TLFamily_NGLD      .         Neutron Gamma                 : 
TLFamily_PHIE      .         Effective Porosity            : 
TLFamily_PHIEN     .         Effective Porosity            : 
TLFamily_PHIT      .         Porosity                      : 
TLFamily_PRMB      .         Permeability                  : 
TLFamily_PRMB_DGR  .         Permeability                  : 
TLFamily_RT        .         Formation Resistivity         : 
TLFamily_SOIL_ARCHIE .         Oil Saturation                : 
TLFamily_SOIL_DW   .         Oil Saturation                : 
TLFamily_SP        .         Spontaneous Potential         : 
TLFamily_VSH_FIN   .         Shale Volume                  : 
TLFamily_VSH_GR    .         Shale Volume                  : 
TLFamily_VSH_SP    .         Shale Volume                  : 
~Curve Information
#_______________________________________________________________________________
#
#LOGNAME           .UNIT     LOG_ID                        : DESCRIPTION
#_______________________________________________________________________________
DEPT               .M                                      : Колонка глубины 
CALI               .м                                      : Каверномер 
COLL               .unitless                               : Описание 
CSAT               .unitless                               : Описание 
GR                 .uR/h                                   : Гамма каротаж 
MINV               .Ohmm                                   : Микро-градиент зонд 
MNOR               .Ohmm                                   : Микро-потенциал зонд 
NGLD               .у.е.                                   : Показания зонда НГК-60 аппаратуры ДРСТ-3-90 
PHIE               .д.ед.                                  : Описание 
PHIEN              .д.ед.                                  :  
PHIT               .д.ед.                                  : Описание 
PRMB               .mD                                     :  
PRMB_DGR           .mD                                     :  
RT                 .ohmm                                   : УЭС пласта 
SOIL_ARCHIE        .д.ед.                                  :  
SOIL_DW            .д.ед.                                  :  
SP                 .мВ                                     : Потенциал самополяризации 
VSH_FIN            .д.ед.                                  : Описание 
VSH_GR             .д.ед.                                  : Shale volume 
VSH_SP             .д.ед.                                  : Shale Volume 
~Ascii
# ...
907.4      -9999      -9999      -9999      9.818      -9999      -9999      0.905      0.1595883  0.1595883  0.308418   2.530004   2.436617   -9999      -9999      -9999      -9999      0.450999   0.4509994  -9999     
907.6      -9999      -9999      -9999      9.827      -9999      -9999      0.874      0.1716657  0.1716657  0.3209544  4.234706   2.418319   -9999      -9999      -9999      -9999      0.45239    0.4523897  -9999     
907.8      -9999      -9999      -9999      10.096     -9999      -9999      0.859      0.1633457  0.1633457  0.3270204  2.969726   1.930479   -9999      -9999      -9999      -9999      0.495984   0.4959839  -9999     
908        -9999      -9999      -9999      10.319     -9999      -9999      0.852      0.1532052  0.1532052  0.3298512  1.927035   1.601581   -9999      -9999      -9999      -9999      0.535291   0.5352911  -9999     
908.2000000000001 -9999      -9999      -9999      10.74      -9999      -9999      0.851      0.1262532  0.1262532  0.3302556  0.6104839  1.125668   -9999      -9999      -9999      -9999      0.618189   0.6181893  -9999     
908.4      -9999      -9999      -9999      11.005     -9999      -9999      0.833      0.1141796  0.1141796  0.3375348  0.3647883  0.9016065  -9999      -9999      -9999      -9999      0.676834   0.6768341  -9999     
908.6      -9999      -9999      -9999      11.451     -9999      -9999      0.819      0.08303628 0.08303628 0.3431964  0.09664768 0.6205613  -9999      -9999      -9999      -9999      0.788364   0.7883644  -9999     
908.8      -9999      -9999      -9999      11.64      -9999      -9999      0.819      0.07919639 0.07919639 0.3431964  0.08204789 0.5297076  -9999      -9999      -9999      -9999      0.8        0.8        -9999     
909        -9999      -9999      -9999      11.514     -9999      -9999      0.823      0.07757879 0.07757879 0.3415788  0.07657825 0.5886655  -9999      -9999      -9999      -9999      0.8        0.8        -9999     
909.2000000000001 -9999      -9999      -9999      11.135     -9999      -9999      0.827      0.1064512  0.1064512  0.3399612  0.262357   0.8085921  -9999      -9999      -9999      -9999      0.707606   0.7076056  -9999     
909.4      -9999      -9999      -9999      10.744     -9999      -9999      0.818      0.1393189  0.1393189  0.3436008  1.065816   1.121903   -9999      -9999      -9999      -9999      0.619036   0.6190357  -9999     
909.6      -9999      -9999      -9999      10.571     -9999      -9999      0.818      0.151055   0.151055   0.3436008  1.758181   1.296833   -9999      -9999      -9999      -9999      0.583472   0.5834717  -9999     
909.8      -9999      -9999      -9999      10.293     -9999      -9999      0.808      0.08364478 0.08364478 0.3476448  0.09918874 0.5941911  -9999      -9999      -9999      -9999      0.8        0.8        -9999     
910        -9999      -9999      -9999      9.999      -9999      -9999      0.814      0.1085497  0.1085497  0.3452184  0.2869202  0.782418   -9999      -9999      -9999      -9999      0.717178   0.7171775  -9999     
910.2000000000001 -9999      -9999      -9999      9.565      -9999      -9999      0.821      0.1418938  0.1418938  0.3423876  1.18953    1.174523   -9999      -9999      -9999      -9999      0.607557   0.6075574  -9999     
910.4      -9999      -9999      -9999      9.409      -9999      -9999      0.838      0.1466238  0.1466238  0.3355128  1.455413   1.359177   -9999      -9999      -9999      -9999      0.572391   0.5723914  -9999     
910.6      -9999      -9999      -9999      9.302      -9999      -9999      0.857      0.1465091  0.1465091  0.3278292  1.448309   1.502354   -9999      -9999      -9999      -9999      0.549455   0.549455   -9999     
910.8      -9999      -9999      -9999      8.686      -9999      -9999      0.874      0.1776707  0.1776707  0.3209544  5.470796   2.674109   -9999      -9999      -9999      -9999      0.434193   0.4341929  -9999     
911        -9999      -9999      -9999      8.32       -9999      -9999      0.904      0.1842434  0.1842434  0.3088224  7.240917   3.766689   -9999      -9999      -9999      -9999      0.377512   0.3775119  -9999     
911.2000000000001 -9999      -9999      -9999      8.118      -9999      -9999      0.939      0.1793456  0.1793456  0.2946684  5.875893   4.55065    -9999      -9999      -9999      -9999      0.349463   0.3494627  -9999     
911.4      -9999      -9999      -9999      7.81       -9999      -9999      0.977      0.1767857  0.1767857  0.2793012  5.268152   6.071231   -9999      -9999      -9999      -9999      0.310653   0.3106534  -9999     
911.6      -9999      -9999      -9999      7.743      -9999      -9999      1.02       0.1619883  0.1619883  0.261912   2.802691   6.464168   -9999      -9999      -9999      -9999      0.302799   0.3027993  -9999     
911.8      -9999      6          6          7.503      -9999      -9999      1.066      0.1521438  0.1521438  0.2433096  1.841749   8.092334   -9999      -9999      -9999      -9999      0.27626    0.2762596  -9999     
912        -9999      6          6          7.588      -9999      -9999      1.112      0.1305311  0.1305311  0.2247072  0.7326754  7.473446   -9999      -9999      -9999      -9999      0.285382   0.2853819  -9999     
912.2000000000001 -9999      6          6          7.344      -9999      -9999      1.13       0.1316376  0.1316376  0.217428   0.7680779  9.390911   -9999      -9999      -9999      -9999      0.259971   0.2599711  -9999     
912.4      -9999      6          6          7.503      -9999      -9999      1.135      0.1242402  0.1242402  0.215406   0.560258   8.092334   -9999      -9999      -9999      -9999      0.27626    0.2762596  -9999     
912.6      -9999      6          6          7.213      -9999      -9999      1.133      0.1346141  0.1346141  0.2162148  0.8720409  10.61598   -9999      -9999      -9999      -9999      0.247275   0.2472751  -9999     
912.8      -9999      6          6          6.952      -9999      -9999      1.127      0.1447875  0.1447875  0.2186412  1.345781   13.55369   -9999      -9999      -9999      -9999      0.223799   0.2237986  -9999     
913        -9999      6          6          6.666      -9999      -9999      1.098      0.1641625  0.1641625  0.2303688  3.075009   17.71406   -9999      -9999      -9999      -9999      0.200625   0.2006247  -9999     
913.2000000000001 -9999      1          3          6.607      -9999      -9999      1.051      0.1846458  0.1846458  0.2493756  7.366238   18.71982   -9999      -9999      -9999      -9999      0.196151   0.1961512  -9999     
913.4      -9999      1          3          6.801      -9999      -9999      1.008      0.197053   0.197053   0.2667648  12.50423   15.61132   -9999      -9999      -9999      -9999      0.211248   0.2112482  -9999     
913.6      -9999      1          3          7.07       -9999      -9999      0.977      0.2020406  0.2020406  0.2793012  15.46822   12.13641   -9999      -9999      -9999      -9999      0.234123   0.234123   -9999     
913.8      -9999      1          3          7.331      -9999      -9999      0.969      0.197171   0.197171   0.2825364  12.56735   9.505881   -9999      -9999      -9999      -9999      0.258683   0.2586826  -9999     
914        -9999      1          3          7.449      -9999      -9999      0.974      0.1912111  0.1912111  0.2805144  9.746578   8.51187    -9999      -9999      -9999      -9999      0.270616   0.2706163  -9999     
914.2000000000001 -9999      1          3          6.99       -9999      -9999      0.976      0.2047715  0.2047715  0.2797056  17.37893   13.08008   -9999      -9999      -9999      -9999      0.227073   0.2270727  -9999     
914.4      -9999      1          3          6.733      -9999      -9999      0.982      0.209356   0.209356   0.2772792  21.13189   16.63728   -9999      -9999      -9999      -9999      0.205828   0.2058285  -9999     
914.6      -9999      1          3          6.737      -9999      -9999      0.99       0.2060165  0.2060165  0.274044   18.32665   16.57509   -9999      -9999      -9999      -9999      0.206144   0.2061435  -9999     
