~Version
 VERS              .         2.0                           : CWLS LOG ASCII STANDARD - VERSION 2.0
 WRAP              .         NO                            : ONE LINE PER DEPTH STEP
 DLM               .         SPACE                         : DELIMITING CHARACTER(SPACE TAB OR COMMA)
~Well Information
#_______________________________________________________________________________
#
#PARAMETER_NAME    .UNIT     VALUE                         : DESCRIPTION
#_______________________________________________________________________________
STRT               .M        900                           : First reference value
STOP               .M        1308.8                        : Last reference value
STEP               .M        0.2                           : Step increment
NULL               .         -9999                         : Missing value
COMP               .                                       : Company
WELL               .         1478                          : Well name
FLD                .         Узень                         : Field
LOC                .                                       : Location
CNTY               .                                       : County
STAT               .                                       : State
CTRY               .                                       : Country
SRVC               .                                       : Service Company
DATE               .                                       : Date
UWI                .                                       : Unique Well ID
Block              .         7                             : 
Category           .         Нефтяная                      : 
Condition          .         Ликвидированная               : 
Date               .         08.06.1967                    : 
EREF               .m        86.7                          : 100.8
Gorizont           .         15                            : 14
Interpretator      .         Бекбулатова А.А.              : 
Kupol              .         Основной                      : osnovnoi
Mud                .         0                             : 
Mud_density        .         0                             : 
Mud_resistivity    .         0                             : 
NGDU               .         НГДУ-2                        : 
ORIGINALWELLNAME   .         1478                          : 
Spud_date          .         1967                          : 1961
Viscosity          .         0                             : 
X                  .m        42259.4                       : 46154
Y                  .m        85033.9                       : 85761.93
YEAR               .         2018                          : 
Исправ_15гор       .         Исправ.15гор                  : 
~Parameter Information Block
#_______________________________________________________________________________
#
#PARAMETER_NAME    .UNIT     VALUE                         : DESCRIPTION
#_______________________________________________________________________________
SET                .         LQC_KAZNIPI_Petrel            : 
TLFamily_CALI      .         Caliper                       : 
TLFamily_COLL      .         Net Reservoir Flag            : 
TLFamily_CSAT      .         Fluid Code                    : 
TLFamily_DEPT      .         Measured Depth                : 
TLFamily_GR        .         Russian Gamma Ray             : 
TLFamily_MINV      .         Micro Gradient Resistivity    : 
TLFamily_MNOR      .         Micro Resistivity             : 
TLFamily_NGLD      .         Neutron Gamma                 : 
TLFamily_PHIE      .         Effective Porosity            : 
TLFamily_PHIEN     .         Effective Porosity            : 
TLFamily_PHIT      .         Porosity                      : 
TLFamily_PRMB      .         Permeability                  : 
TLFamily_PRMB_DGR  .         Permeability                  : 
TLFamily_RT        .         Formation Resistivity         : 
TLFamily_SOIL_ARCHIE .         Oil Saturation                : 
TLFamily_SOIL_DW   .         Oil Saturation                : 
TLFamily_SP        .         Spontaneous Potential         : 
TLFamily_VSH_FIN   .         Shale Volume                  : 
TLFamily_VSH_GR    .         Shale Volume                  : 
TLFamily_VSH_SP    .         Shale Volume                  : 
~Curve Information
#_______________________________________________________________________________
#
#LOGNAME           .UNIT     LOG_ID                        : DESCRIPTION
#_______________________________________________________________________________
DEPT               .M                                      : Колонка глубины 
CALI               .м                                      : Каверномер 
COLL               .unitless                               : Описание 
CSAT               .unitless                               : Описание 
GR                 .uR/h                                   : Гамма каротаж 
MINV               .Ohmm                                   : Микро-градиент зонд 
MNOR               .Ohmm                                   : Микро-потенциал зонд 
NGLD               .у.е.                                   : Показания зонда НГК-60 аппаратуры ДРСТ-3-90 
PHIE               .д.ед.                                  : Описание 
PHIEN              .д.ед.                                  :  
PHIT               .д.ед.                                  : Описание 
PRMB               .mD                                     :  
PRMB_DGR           .mD                                     :  
RT                 .ohmm                                   : УЭС пласта 
SOIL_ARCHIE        .д.ед.                                  :  
SOIL_DW            .д.ед.                                  :  
SP                 .мВ                                     : Потенциал самополяризации 
VSH_FIN            .д.ед.                                  : Описание 
VSH_GR             .д.ед.                                  : Shale volume 
VSH_SP             .д.ед.                                  : Shale Volume 
~Ascii
# ...
988.8      0.241      -9999      -9999      9.061      -9999      -9999      0.863      0.1139258  0.1139258  0.3254028  0.3608617  1.882521   2.603      0.05336017 0.4675363  40.264     0.6408393  0.501105   0.7805737 
989        0.237      -9999      -9999      8.703      -9999      -9999      0.878      0.1184333  0.1184333  0.3193368  0.4373506  2.631893   2.636      0.09021157 0.4716763  40.264     0.6087985  0.4370233  0.7805737 
989.2000000000001 0.237      -9999      -9999      8.513      -9999      -9999      0.887      0.1198445  0.1198445  0.3156972  0.4644829  3.144159   2.669      0.1047913  0.4732993  40.264     0.5934929  0.406412   0.7805737 
989.4      0.237      -9999      -9999      8.118      -9999      -9999      0.896      0.1260617  0.1260617  0.3120576  0.6055164  4.55065    2.72       0.1509437  0.4838969  40.218     0.563624   0.3494627  0.7777853 
989.6      0.235      -9999      -9999      8.505      -9999      -9999      0.907      0.1128801  0.1128801  0.3076092  0.3451206  3.167787   2.781      0.07489203 0.4640082  40.172     0.5900882  0.4051713  0.7750052 
989.8      0.23       -9999      -9999      8.627      -9999      -9999      0.919      0.1053035  0.1053035  0.3027564  0.2498244  2.825939   2.887      0.03428428 0.455337   40.125     0.598342   0.4245114  0.7721726 
990        0.225      -9999      -9999      9.098      -9999      -9999      0.926      0.08911335 0.08911335 0.2999256  0.125243   1.818441   3.032      0          0.433933   40.079     0.638825   0.5082417  0.7694083 
990.2000000000001 0.22       -9999      -9999      8.842      -9999      -9999      0.932      0.09541176 0.09541176 0.2974992  0.1638382  2.31081    3.142      0          0.4536121  39.987     0.6123862  0.4608686  0.7639039 
990.4      0.219      -9999      -9999      8.989      -9999      -9999      0.936      0.09031219 0.09031219 0.2958816  0.1318132  2.013761   3.261      0          0.4516577  39.894     0.6229376  0.4875033  0.7583719 
990.6      0.221      -9999      -9999      8.821      -9999      -9999      0.947      0.09176416 0.09176416 0.2914332  0.1402339  2.356681   3.327      0          0.4545773  39.802     0.6050577  0.4571843  0.7529311 
990.8      0.222      -9999      -9999      9.212      -9999      -9999      0.953      0.07851542 0.07851542 0.2890068  0.07969922 1.634397   3.274      0          0.4178851  39.664     0.6378527  0.530876   0.7448293 
991        0.222      -9999      -9999      8.85       -9999      -9999      0.941      0.0960213  0.0960213  0.2938596  0.1681533  2.29357    3.212      0.004565611 0.4563826  39.525     0.59951    0.4622799  0.7367401 
991.2000000000001 0.223      -9999      -9999      8.589      -9999      -9999      0.916      0.11425    0.11425    0.3039696  0.3658859  2.928262   3.188      0.1413938  0.497698   39.433     0.5749078  0.4183904  0.7314252 
991.4      0.222      -9999      -9999      8.32       -9999      -9999      0.898      0.1295894  0.1295894  0.3112488  0.7038299  3.766689   3.223      0.234551   0.5298669  39.294     0.5504831  0.3775119  0.7234544 
991.6      0.219      -9999      -9999      8.576      -9999      -9999      0.9        0.1232418  0.1232418  0.31044    0.5369023  2.96411    3.292      0.2082357  0.5254317  39.202     0.5672673  0.4163168  0.7182178 
991.8      0.217      -9999      -9999      9.056      -9999      -9999      0.901      0.1085738  0.1085738  0.3100356  0.2872158  1.891352   3.38       0.1267255  0.5096129  39.248     0.6104903  0.5001482  0.7208323 
992        0.218      -9999      -9999      9.165      -9999      -9999      0.905      0.103877   0.103877   0.308418   0.2350781  1.707904   3.446      0.1006332  0.5051206  39.202     0.6198213  0.5214247  0.7182178 
992.2000000000001 0.22       -9999      -9999      8.913      -9999      -9999      0.897      0.1141481  0.1141481  0.3116532  0.364299   2.162233   3.517      0.17943    0.5292491  39.294     0.5985003  0.4735462  0.7234544 
992.4      0.222      -9999      -9999      8.745      -9999      -9999      0.882      0.1241948  0.1241948  0.3177192  0.5591752  2.530434   3.554      0.2412904  0.5512177  39.387     0.5864374  0.4440952  0.7287796 
992.6      0.226      -9999      -9999      8.724      -9999      -9999      0.851      0.137317   0.137317   0.3302556  0.9785942  2.580666   3.519      0.3016054  0.575757   39.387     0.5846623  0.4405451  0.7287796 
992.8      0.229      -9999      -9999      8.601      -9999      -9999      0.84       0.1442292  0.1442292  0.334704   1.314116   2.895556   3.466      0.3260663  0.5837303  39.479     0.5771962  0.4203138  0.7340787 
993        0.235      -9999      -9999      8.593      -9999      -9999      0.845      0.1428568  0.1428568  0.332682   1.239402   2.917318   3.34       0.3085186  0.5728201  39.433     0.5752279  0.4190307  0.7314252 
993.2000000000001 0.241      -9999      -9999      8.778      -9999      -9999      0.858      0.1329704  0.1329704  0.3274248  0.8130038  2.453469   3.191      0.2480175  0.5467436  39.387     0.5892558  0.4497319  0.7287796 
993.4      0.247      -9999      -9999      9.544      -9999      -9999      0.853      0.1106313  0.1106313  0.3294468  0.3135576  1.197839   3.055      0.09914829 0.5074498  39.294     0.6630774  0.6027005  0.7234544 
993.6      0.253      -9999      -9999      9.742      -9999      -9999      0.841      0.1080989  0.1080989  0.3342996  0.2814572  0.9951999  2.949      0.0654364  0.4995044  39.248     0.6854566  0.6500809  0.7208323 
993.8      0.259      -9999      -9999      9.725      -9999      -9999      0.832      0.1132947  0.1132947  0.3379392  0.3512775  1.011162   2.936      0.1010156  0.5099122  39.156     0.680741   0.6458709  0.715611  
994        0.251      -9999      -9999      8.917      -9999      -9999      0.841      0.1401098  0.1401098  0.3342996  1.102379   2.154153   2.972      0.2571257  0.545281   38.925     0.588454   0.4742706  0.7026374 
994.2000000000001 0.234      -9999      -9999      8.846      -9999      -9999      0.853      0.1398769  0.1398769  0.3294468  1.091485   2.302175   3.1        0.2706249  0.5503621  38.648     0.5744542  0.4615736  0.6873348 
994.4      0.226      -9999      -9999      8.764      -9999      -9999      0.861      0.1418784  0.1418784  0.3262116  1.188751   2.48583    3.247      0.2950879  0.5602396  38.325     0.5585853  0.4473319  0.6698388 
994.6      0.225      -9999      -9999      8.686      -9999      -9999      0.867      0.1452481  0.1452481  0.3237852  1.372479   2.674109   3.435      0.3273557  0.5741811  37.909     0.5410215  0.4341929  0.64785   
994.8      0.225      -9999      -9999      8.938      -9999      -9999      0.882      0.134299   0.134299   0.3177192  0.8604023  2.112224   3.447      0.2810147  0.5571287  37.632     0.5558187  0.4780926  0.6335449 
995        0.225      -9999      -9999      8.471      -9999      -9999      0.897      0.1419024  0.1419024  0.3116532  1.189965   3.270225   3.235      0.2939658  0.5466731  37.54      0.5143964  0.3999401  0.6288527 
995.2000000000001 0.225      -9999      -9999      8.261      -9999      -9999      0.901      0.1438211  0.1438211  0.3100356  1.291438   3.980553   3.019      0.279177   0.5315874  37.724     0.5036803  0.3690942  0.6382664 
995.4      0.228      -9999      -9999      8.151      -9999      -9999      0.898      0.1447679  0.1447679  0.3112488  1.344654   4.412236   2.853      0.2640091  0.5205123  38.047     0.5044876  0.3538983  0.6550769 
995.6      0.234      -9999      -9999      8.362      -9999      -9999      0.889      0.1410675  0.1410675  0.3148884  1.148341   3.62148    2.705      0.2281682  0.5063453  38.325     0.5267299  0.3836209  0.6698388 
995.8      0.246      -9999      -9999      8.349      -9999      -9999      0.877      0.1445971  0.1445971  0.3197412  1.334897   3.665818   2.646      0.2367454  0.5101794  38.509     0.5307397  0.3817195  0.6797599 
996        0.256      -9999      -9999      8.543      -9999      -9999      0.852      0.1477761  0.1477761  0.3298512  1.528726   3.057096   2.609      0.2461002  0.5201532  38.74      0.5517428  0.4110989  0.6923867 
