~Version
 VERS              .         2.0                           : CWLS LOG ASCII STANDARD - VERSION 2.0
 WRAP              .         NO                            : ONE LINE PER DEPTH STEP
 DLM               .         SPACE                         : DELIMITING CHARACTER(SPACE TAB OR COMMA)
~Well Information
#_______________________________________________________________________________
#
#PARAMETER_NAME    .UNIT     VALUE                         : DESCRIPTION
#_______________________________________________________________________________
STRT               .M        900                           : First reference value
STOP               .M        1308.8                        : Last reference value
STEP               .M        0.2                           : Step increment
NULL               .         -9999                         : Missing value
COMP               .                                       : Company
WELL               .         1478                          : Well name
FLD                .         Узень                         : Field
LOC                .                                       : Location
CNTY               .                                       : County
STAT               .                                       : State
CTRY               .                                       : Country
SRVC               .                                       : Service Company
DATE               .                                       : Date
UWI                .                                       : Unique Well ID
Block              .         7                             : 
Category           .         Нефтяная                      : 
Condition          .         Ликвидированная               : 
Date               .         08.06.1967                    : 
EREF               .m        86.7                          : 100.8
Gorizont           .         15                            : 14
Interpretator      .         Бекбулатова А.А.              : 
Kupol              .         Основной                      : osnovnoi
Mud                .         0                             : 
Mud_density        .         0                             : 
Mud_resistivity    .         0                             : 
NGDU               .         НГДУ-2                        : 
ORIGINALWELLNAME   .         1478                          : 
Spud_date          .         1967                          : 1961
Viscosity          .         0                             : 
X                  .m        42259.4                       : 46154
Y                  .m        85033.9                       : 85761.93
YEAR               .         2018                          : 
Исправ_15гор       .         Исправ.15гор                  : 
~Parameter Information Block
#_______________________________________________________________________________
#
#PARAMETER_NAME    .UNIT     VALUE                         : DESCRIPTION
#_______________________________________________________________________________
SET                .         LQC_KAZNIPI_Petrel            : 
TLFamily_CALI      .         Caliper                       : 
TLFamily_COLL      .         Net Reservoir Flag            : 
TLFamily_CSAT      .         Fluid Code                    : 
TLFamily_DEPT      .         Measured Depth                : 
TLFamily_GR        .         Russian Gamma Ray             : 
TLFamily_MINV      .         Micro Gradient Resistivity    : 
TLFamily_MNOR      .         Micro Resistivity             : 
TLFamily_NGLD      .         Neutron Gamma                 : 
TLFamily_PHIE      .         Effective Porosity            : 
TLFamily_PHIEN     .         Effective Porosity            : 
TLFamily_PHIT      .         Porosity                      : 
TLFamily_PRMB      .         Permeability                  : 
TLFamily_PRMB_DGR  .         Permeability                  : 
TLFamily_RT        .         Formation Resistivity         : 
TLFamily_SOIL_ARCHIE .         Oil Saturation                : 
TLFamily_SOIL_DW   .         Oil Saturation                : 
TLFamily_SP        .         Spontaneous Potential         : 
TLFamily_VSH_FIN   .         Shale Volume                  : 
TLFamily_VSH_GR    .         Shale Volume                  : 
TLFamily_VSH_SP    .         Shale Volume                  : 
~Curve Information
#_______________________________________________________________________________
#
#LOGNAME           .UNIT     LOG_ID                        : DESCRIPTION
#_______________________________________________________________________________
DEPT               .M                                      : Колонка глубины 
CALI               .м                                      : Каверномер 
COLL               .unitless                               : Описание 
CSAT               .unitless                               : Описание 
GR                 .uR/h                                   : Гамма каротаж 
MINV               .Ohmm                                   : Микро-градиент зонд 
MNOR               .Ohmm                                   : Микро-потенциал зонд 
NGLD               .у.е.                                   : Показания зонда НГК-60 аппаратуры ДРСТ-3-90 
PHIE               .д.ед.                                  : Описание 
PHIEN              .д.ед.                                  :  
PHIT               .д.ед.                                  : Описание 
PRMB               .mD                                     :  
PRMB_DGR           .mD                                     :  
RT                 .ohmm                                   : УЭС пласта 
SOIL_ARCHIE        .д.ед.                                  :  
SOIL_DW            .д.ед.                                  :  
SP                 .мВ                                     : Потенциал самополяризации 
VSH_FIN            .д.ед.                                  : Описание 
VSH_GR             .д.ед.                                  : Shale volume 
VSH_SP             .д.ед.                                  : Shale Volume 
~Ascii
# ...
1055.4     0.247      -9999      -9999      11.88      3.887      1.886      0.829      0.09875068 0.09875068 0.3391524  0.1889123  0.647512   1.67       0          0.3209549  35.185     0.7284901  0.774797   0.682183  
1055.6     0.251      -9999      -9999      11.859     2.134      1.343      0.81       0.1089631  0.1089631  0.346836   0.2920238  0.6585335  1.701      0          0.3585639  35         0.7208271  0.7694755  0.6721787 
1055.8     0.252      -9999      -9999      12.216     1.994      1.619      0.803      0.1083879  0.1083879  0.3496668  0.2849481  0.4942696  1.712      0          0.3629262  34.815     0.7311481  0.8        0.6622962 
1056       0.253      -9999      -9999      11.909     1.931      1.61       0.803      0.1141231  0.1141231  0.3496668  0.3639103  0.6325937  1.752      0          0.3811668  34.492     0.7137689  0.7822065  0.6453313 
1056.2     0.242      -9999      -9999      12.082     2.591      1.934      0.809      0.111885   0.111885   0.3472404  0.330781   0.5504753  1.767      0          0.3767655  34.123     0.713198   0.8        0.626396  
1056.4     0.243      -9999      -9999      11.699     2.413      2.143      0.801      0.1300812  0.1300812  0.3504756  0.7187486  0.7489064  1.796      0          0.4169675  33.707     0.6678619  0.7301121  0.6056116 
1056.6     0.249      -9999      -9999      11.648     2.261      2.239      0.801      0.1343104  0.1343104  0.3504756  0.8608212  0.7802426  1.805      0.02605606 0.4250358  33.43      0.655046   0.7179932  0.5920987 
1056.8     0.255      -9999      -9999      11.232     2.972      2.667      0.81       0.147255   0.147255   0.346836   1.495126   1.09003    1.799      0.09965491 0.4393462  33.245     0.6047909  0.6263641  0.5832178 
1057       0.261      -9999      -9999      11.051     3.404      3.058      0.825      0.1467791  0.1467791  0.34077    1.465083   1.260719   1.815      0.1008566  0.4349061  33.292     0.5878513  0.5902395  0.5854632 
1057.2     0.267      -9999      -9999      10.769     3.861      2.972      0.839      0.1478957  0.1478957  0.3351084  1.536547   1.581442   1.803      0.1039875  0.4286414  33.522     0.5673111  0.5380642  0.596558  
1057.4     0.27       -9999      -9999      10.959     3.861      2.42       0.841      0.1395064  0.1395064  0.3342996  1.074371   1.357475   1.81       0.05894903 0.416397   33.753     0.5902825  0.5726843  0.6078807 
1057.6     0.267      -9999      -9999      11.186     2.616      1.858      0.843      0.1298711  0.1298711  0.3334908  0.712339   1.131085   1.817      0.0002374067 0.4012229  33.938     0.6170292  0.6169788  0.6170797 
1057.8     0.26       -9999      -9999      11.11      1.842      1.381      0.833      0.1348858  0.1348858  0.3375348  0.8822051  1.20233    1.869      0.04541148 0.4221134  34.123     0.614088   0.6017799  0.626396  
1058       0.254      -9999      -9999      11.017     3.048      2.772      0.823      0.1415294  0.1415294  0.3415788  1.171186   1.295646   1.92       0.0960516  0.4439802  34.169     0.6062103  0.58369    0.6287306 
1058.2     0.248      -9999      -9999      10.794     3.391      2.467      0.819      0.1499438  0.1499438  0.3431964  1.676801   1.549982   1.969      0.1505015  0.4641303  34.169     0.5856138  0.5424971  0.6287306 
1058.4     0.255      -9999      -9999      10.824     3.847      2.648      0.821      0.1486346  0.1486346  0.3423876  1.585736   1.513055   1.973      0.1448028  0.4621294  34.123     0.5871304  0.5478649  0.626396  
1058.6     0.261      -9999      -9999      10.685     4.28       2.82       0.83       0.1486409  0.1486409  0.338748   1.586167   1.691898   1.978      0.1458499  0.4591998  34.169     0.576082   0.5234334  0.6287306 
1058.8     0.267      -9999      -9999      11.202     2.909      2.01       0.841      0.1286068  0.1286068  0.3342996  0.6749443  1.116633   1.989      0.03358256 0.4265681  34.123     0.6233115  0.6202271  0.626396  
1059       0.269      -9999      -9999      11.686     3.302      2          0.857      0.1049023  0.1049023  0.3278292  0.2455859  0.7567726  2.013      0          0.3800547  34.077     0.675536   0.7270036  0.6240684 
1059.2     0.26       -9999      -9999      12.103     3.01       2.2        0.868      0.08918224 0.08918224 0.3233808  0.1256115  0.541262   2.05       0          0.3457223  33.984     0.7096927  0.8        0.6193852 
1059.4     0.248      -9999      -9999      11.897     3.251      2.029      0.873      0.0898307  0.0898307  0.3213588  0.129134   0.6387246  2.079      0          0.3490732  34.077     0.7016003  0.779132   0.6240684 
1059.6     0.238      -9999      -9999      11.716     2.794      2.181      0.874      0.09761334 0.09761334 0.3209544  0.1799674  0.7387438  2.106      0          0.3702102  33.984     0.6767911  0.7341968  0.6193852 
1059.8     0.242      -9999      -9999      11.661     3.455      2.639      0.869      0.1014208  0.1014208  0.3229764  0.2116985  0.7721324  2.113      0          0.3818749  34.03      0.6713805  0.7210632  0.6216979 
1060       0.248      -9999      -9999      11.299     3.696      2.353      0.859      0.1184013  0.1184013  0.3270204  0.4367547  1.032884   2.086      0          0.4150866  34.077     0.632179   0.6402895  0.6240684 
1060.2     0.253      -9999      -9999      11.16      3.315      3.096      0.846      0.1283698  0.1283698  0.3322776  0.6681558  1.15497    2.07       0.04999134 0.4353369  34.077     0.6179025  0.6117365  0.6240684 
1060.4     0.257      -9999      -9999      10.592     3.556      2.334      0.838      0.148002   0.148002   0.3355128  1.543527   1.82321    2.052      0.1572895  0.4649761  34.169     0.5682145  0.5076985  0.6287306 
1060.6     0.261      -9999      -9999      10.718     3.531      2.343      0.843      0.1420568  0.1420568  0.3334908  1.19783    1.647612   2.056      0.1274521  0.4552338  34.215     0.580103   0.5291332  0.6310728 
1060.8     0.256      -9999      -9999      10.526     3.518      2.029      0.847      0.1453833  0.1453833  0.3318732  1.380415   1.922537   2.071      0.1477783  0.4602008  34.261     0.5651209  0.4968196  0.6334222 
1061       0.253      -9999      -9999      10.335     3.302      2.534      0.847      0.1499753  0.1499753  0.3318732  1.679056   2.241532   2.099      0.1757609  0.4700074  34.307     0.5512056  0.4666325  0.6357788 
1061.2     0.254      -9999      -9999      10.432     2.87       2.924      0.853      0.1442685  0.1442685  0.3294468  1.316319   2.073415   2.126      0.1525337  0.4632332  34.4       0.5611463  0.4817266  0.6405661 
1061.4     0.258      -9999      -9999      10.47      3.493      2.2        0.853      0.1424848  0.1424848  0.3294468  1.219893   2.011045   2.154      0.1485448  0.4642625  34.492     0.5665516  0.487772   0.6453313 
1061.6     0.262      -9999      -9999      10.803     3.506      2.258      0.857      0.1311778  0.1311778  0.3278292  0.7531627  1.53881    2.173      0.08873162 0.4484524  34.538     0.5959134  0.544102   0.6477249 
1061.8     0.265      -9999      -9999      11.03      3.696      2.21       0.852      0.1250551  0.1250551  0.3298512  0.5800714  1.282179   2.18       0.05142663 0.4419609  34.677     0.6205943  0.5861856  0.6550031 
1062       0.267      -9999      -9999      11.186     2.909      1.953      0.848      0.1219904  0.1219904  0.3314688  0.5089991  1.131085   2.154      0.0252323  0.4353965  34.631     0.6347829  0.6169788  0.6525871 
1062.2     0.265      -9999      -9999      11.358     3.544      2.791      0.841      0.1197116  0.1197116  0.3342996  0.4618563  0.9850474  2.138      0.005617661 0.4326252  34.538     0.6502667  0.6528085  0.6477249 
1062.4     0.261      -9999      -9999      11.733     2.858      2.124      0.826      0.1108685  0.1108685  0.3403656  0.3167458  0.7287182  2.11       0          0.4203027  34.631     0.6954459  0.7383047  0.6525871 
1062.6     0.261      -9999      -9999      11.956     3.34       2.772      0.821      0.1036404  0.1036404  0.3423876  0.232718   0.6091428  2.097      0          0.4074326  34.631     0.7234764  0.7943657  0.6525871 
