~Version
 VERS              .         2.0                           : CWLS LOG ASCII STANDARD - VERSION 2.0
 WRAP              .         NO                            : ONE LINE PER DEPTH STEP
 DLM               .         SPACE                         : DELIMITING CHARACTER(SPACE TAB OR COMMA)
~Well Information
#_______________________________________________________________________________
#
#PARAMETER_NAME    .UNIT     VALUE                         : DESCRIPTION
#_______________________________________________________________________________
STRT               .M        900                           : First reference value
STOP               .M        1308.8                        : Last reference value
STEP               .M        0.2                           : Step increment
NULL               .         -9999                         : Missing value
COMP               .                                       : Company
WELL               .         1478                          : Well name
FLD                .         Узень                         : Field
LOC                .                                       : Location
CNTY               .                                       : County
STAT               .                                       : State
CTRY               .                                       : Country
SRVC               .                                       : Service Company
DATE               .                                       : Date
UWI                .                                       : Unique Well ID
Block              .         7                             : 
Category           .         Нефтяная                      : 
Condition          .         Ликвидированная               : 
Date               .         08.06.1967                    : 
EREF               .m        86.7                          : 100.8
Gorizont           .         15                            : 14
Interpretator      .         Бекбулатова А.А.              : 
Kupol              .         Основной                      : osnovnoi
Mud                .         0                             : 
Mud_density        .         0                             : 
Mud_resistivity    .         0                             : 
NGDU               .         НГДУ-2                        : 
ORIGINALWELLNAME   .         1478                          : 
Spud_date          .         1967                          : 1961
Viscosity          .         0                             : 
X                  .m        42259.4                       : 46154
Y                  .m        85033.9                       : 85761.93
YEAR               .         2018                          : 
Исправ_15гор       .         Исправ.15гор                  : 
~Parameter Information Block
#_______________________________________________________________________________
#
#PARAMETER_NAME    .UNIT     VALUE                         : DESCRIPTION
#_______________________________________________________________________________
SET                .         LQC_KAZNIPI_Petrel            : 
TLFamily_CALI      .         Caliper                       : 
TLFamily_COLL      .         Net Reservoir Flag            : 
TLFamily_CSAT      .         Fluid Code                    : 
TLFamily_DEPT      .         Measured Depth                : 
TLFamily_GR        .         Russian Gamma Ray             : 
TLFamily_MINV      .         Micro Gradient Resistivity    : 
TLFamily_MNOR      .         Micro Resistivity             : 
TLFamily_NGLD      .         Neutron Gamma                 : 
TLFamily_PHIE      .         Effective Porosity            : 
TLFamily_PHIEN     .         Effective Porosity            : 
TLFamily_PHIT      .         Porosity                      : 
TLFamily_PRMB      .         Permeability                  : 
TLFamily_PRMB_DGR  .         Permeability                  : 
TLFamily_RT        .         Formation Resistivity         : 
TLFamily_SOIL_ARCHIE .         Oil Saturation                : 
TLFamily_SOIL_DW   .         Oil Saturation                : 
TLFamily_SP        .         Spontaneous Potential         : 
TLFamily_VSH_FIN   .         Shale Volume                  : 
TLFamily_VSH_GR    .         Shale Volume                  : 
TLFamily_VSH_SP    .         Shale Volume                  : 
~Curve Information
#_______________________________________________________________________________
#
#LOGNAME           .UNIT     LOG_ID                        : DESCRIPTION
#_______________________________________________________________________________
DEPT               .M                                      : Колонка глубины 
CALI               .м                                      : Каверномер 
COLL               .unitless                               : Описание 
CSAT               .unitless                               : Описание 
GR                 .uR/h                                   : Гамма каротаж 
MINV               .Ohmm                                   : Микро-градиент зонд 
MNOR               .Ohmm                                   : Микро-потенциал зонд 
NGLD               .у.е.                                   : Показания зонда НГК-60 аппаратуры ДРСТ-3-90 
PHIE               .д.ед.                                  : Описание 
PHIEN              .д.ед.                                  :  
PHIT               .д.ед.                                  : Описание 
PRMB               .mD                                     :  
PRMB_DGR           .mD                                     :  
RT                 .ohmm                                   : УЭС пласта 
SOIL_ARCHIE        .д.ед.                                  :  
SOIL_DW            .д.ед.                                  :  
SP                 .мВ                                     : Потенциал самополяризации 
VSH_FIN            .д.ед.                                  : Описание 
VSH_GR             .д.ед.                                  : Shale volume 
VSH_SP             .д.ед.                                  : Shale Volume 
~Ascii
# ...
1196       0.223      1          2          11.333     2.896      4.772      0.932      0.2212529  0.2212529  0.2974992  35.09925   10.30858   2.582      0.4743641  0.568684   16.9       0.2310496  0.2502599  0.2118392 
1196.2     0.224      1          2          11.169     3.302      3.829      0.933      0.2166668  0.2166668  0.2970948  28.86372   12.89512   2.511      0.4576368  0.5584368  19.485     0.2437213  0.228397   0.2590455 
1196.4     0.225      -9999      -9999      11.16      4.039      2.686      0.94       0.2050576  0.2050576  0.294264   17.5923    13.05451   2.556      0.4357126  0.5497026  21.794     0.2703224  0.2272541  0.3133906 
1196.6     0.224      -9999      -9999      11.299     4.763      3.62       0.948      0.186945   0.186945   0.2910288  8.125183   10.79831   2.594      0.3926039  0.5326738  24.241     0.3154054  0.2455617  0.3852492 
1196.8     0.224      -9999      -9999      11.623     4.877      3.829      0.958      0.1575486  0.1575486  0.2869848  2.319209   6.93864    2.703      0.3084961  0.5055088  27.104     0.392231   0.2941669  0.490295  
1197       0.223      -9999      -9999      11.973     4.496      4.41       0.959      0.1350907  0.1350907  0.2865804  0.8899497  4.303082   2.855      0.2294248  0.4887633  28.72      0.4590597  0.3575369  0.5605826 
1197.2     0.22       -9999      -9999      11.548     4.255      3.563      0.946      0.1401695  0.1401695  0.2918376  1.105189   7.686656   2.886      0.2575718  0.5042448  30.29      0.4596004  0.2821227  0.6370782 
1197.4     0.216      -9999      -9999      11.51      2.667      2.334      0.928      0.1343896  0.1343896  0.2991168  0.8637344  8.095906   2.836      0.2234957  0.499503   31.86      0.4991733  0.2762098  0.7221367 
1197.6     0.213      -9999      -9999      11.346     1.664      1.791      0.908      0.1416026  0.1416026  0.3072048  1.174846   10.12726   2.737      0.2455855  0.5087339  32.368     0.501825   0.2520799  0.75157   
1197.8     0.213      -9999      -9999      11.695     2.134      1.772      0.894      0.1614583  0.1614583  0.3128664  2.74004    6.289118   2.725      0.3256729  0.5371453  29.782     0.4588125  0.3062128  0.6114122 
1198       0.216      -9999      -9999      11.628     1.677      1.657      0.892      0.1825292  0.1825292  0.3136752  6.730412   6.891441   2.705      0.3919007  0.5581079  27.335     0.3974121  0.2949879  0.4998363 
1198.2     0.218      -9999      -9999      11.457     2.54       2.696      0.905      0.1980703  0.1980703  0.308418   13.0587    8.703351   2.804      0.4431458  0.5758178  24.703     0.3343872  0.2681692  0.4006051 
1198.4     0.22       1          2          11.27      3.683      4.115      0.924      0.2128029  0.2128029  0.3007344  24.47843   11.23435   3.038      0.4961872  0.5984099  20.917     0.2664591  0.2416242  0.2912941 
1198.6     0.222      1          2          10.971     3.607      4.553      0.938      0.2256409  0.2256409  0.2950728  42.32293   16.89695   3.324      0.5410385  0.6211794  17.177     0.2103996  0.204531   0.2162682 
1198.8     0.224      1          2          10.588     2.705      3.791      0.946      0.2363692  0.2363692  0.2918376  66.87879   28.50145   3.427      0.5655024  0.6318196  13.76      0.1680862  0.1652127  0.1709597 
1199       0.225      1          2          10.561     3.023      4.43       0.947      0.2382842  0.2382842  0.2914332  72.5705    29.57155   3.47       0.5710626  0.6350671  12.559     0.1610574  0.1627449  0.15937   
1199.2     0.225      1          2          10.533     2.705      4.43       0.944      0.2424939  0.2424939  0.2926464  86.84282   30.7237    3.403      0.5736725  0.6350971  10.482     0.1519772  0.1602246  0.1437298 
1199.4     0.225      1          2          10.895     2.959      4.048      0.934      0.2409104  0.2409104  0.2966904  81.17156   18.74407   3.336      0.5672133  0.6333303  10.204     0.1690302  0.1960475  0.1420128 
1199.6     0.225      1          2          11.291     3.048      4.039      0.923      0.2376383  0.2376383  0.3011388  70.59865   10.91687   3.101      0.5467544  0.6207532  9.927      0.1924257  0.2444692  0.1403823 
1199.8     0.223      1          2          11.598     2.604      4.391      0.915      0.2333885  0.2333885  0.304374   58.89516   7.179523   2.824      0.5189072  0.6020247  9.881      0.2151075  0.290096   0.140119  
1200       0.222      1          2          12.061     3.29       3.763      0.913      0.2199269  0.2199269  0.3051828  33.16938   3.816007   2.627      0.475872   0.5776446  10.066     0.2583513  0.3755119  0.1411906 
1200.2     0.22       1          2          11.977     2.68       4.029      0.922      0.2164523  0.2164523  0.3015432  28.60096   4.279644   2.825      0.4863684  0.5871248  12.328     0.2578511  0.3583351  0.1573671 
1200.4     0.22       1          2          11.691     3.061      3.067      0.922      0.2190796  0.2190796  0.3015432  31.99215   6.323554   3.249      0.5240193  0.6169351  15.699     0.2498897  0.3055308  0.1942487 
1200.6     0.22       -9999      -9999      11.081     3.01       2.153      0.907      0.2223565  0.2223565  0.3076092  36.79092   14.54103   3.695      0.557658   0.6471362  21.24      0.2583414  0.2174642  0.2992185 
1200.8     0.222      -9999      -9999      10.879     3.391      1.743      0.875      0.207901   0.207901   0.32055    19.86041   19.15799   4.17       0.5568632  0.6666732  27.058     0.3413607  0.1943068  0.4884147 
1201       0.22       -9999      -9999      10.992     2.959      3.877      0.856      0.2050415  0.2050415  0.3282336  17.58021   16.41945   4.621      0.5725875  0.686008   28.259     0.3733094  0.2069392  0.5396796 
1201.2     0.221      -9999      -9999      10.972     1.689      3.391      0.849      0.2227098  0.2227098  0.3310644  37.34947   16.87389   3.992      0.5740078  0.6750442  26.135     0.3283472  0.2046451  0.4520493 
1201.4     0.225      -9999      -9999      10.954     2.401      2.867      0.857      0.2315717  0.2315717  0.3278292  54.504     17.29363   3.439      0.5583979  0.6534946  24.103     0.2916893  0.2026021  0.3807765 
1201.6     0.224      -9999      -9999      10.567     3.442      4.125      0.863      0.2416987  0.2416987  0.3254028  83.947     29.3303    2.868      0.5367196  0.6256494  22.902     0.2536487  0.1632901  0.3440073 
1201.8     0.226      -9999      -9999      10.095     1.994      3.648      0.878      0.2481017  0.2481017  0.3193368  110.3069   55.86485   2.294      0.4971183  0.581449   21.517     0.215864   0.125516   0.306212  
1202       0.228      -9999      -9999      9.771      2.972      3.848      0.9        0.2480995  0.2480995  0.31044    110.2966   86.94006   1.829      0.4407125  0.5235348  20.132     0.1889107  0.104777   0.2730444 
1202.2     0.229      -9999      -9999      9.696      3.302      3.934      0.925      0.2450385  0.2450385  0.30033    96.79774   96.31263   1.583      0.3949808  0.4752307  18.239     0.16755    0.1004871  0.234613  
1202.4     0.229      -9999      -9999      9.91       2.756      3.448      0.94       0.2331567  0.2331567  0.294264   58.31577   71.91422   1.574      0.3665216  0.4561786  19.393     0.1851736  0.1132178  0.2571293 
1202.6     0.228      -9999      -9999      10.558     3.76       2.505      0.937      0.2140718  0.2140718  0.2954772  25.83964   29.6929    1.671      0.3364914  0.4542529  22.441     0.2466832  0.1624729  0.3308934 
1202.8     0.226      -9999      -9999      11.408     3.657      3.086      0.931      0.1861157  0.1861157  0.2979036  7.842836   9.305412   1.759      0.2683216  0.4392863  25.165     0.3387511  0.2609439  0.4165584 
1203       0.225      -9999      -9999      11.846     3.544      3.725      0.93       0.1732604  0.1732604  0.298308   4.532737   5.117649   1.922      0.2529804  0.4483475  25.396     0.3789322  0.3331018  0.4247626 
1203.2     0.223      -9999      -9999      11.964     3.569      3.848      0.931      0.1685732  0.1685732  0.2979036  3.711445   4.356273   2.066      0.260426   0.4616287  25.488     0.3919103  0.3557478  0.4280728 
