~Version
 VERS              .         2.0                           : CWLS LOG ASCII STANDARD - VERSION 2.0
 WRAP              .         NO                            : ONE LINE PER DEPTH STEP
 DLM               .         SPACE                         : DELIMITING CHARACTER(SPACE TAB OR COMMA)
~Well Information
#_______________________________________________________________________________
#
#PARAMETER_NAME    .UNIT     VALUE                         : DESCRIPTION
#_______________________________________________________________________________
STRT               .M        850                           : First reference value
STOP               .M        1282                          : Last reference value
STEP               .M        0.2                           : Step increment
NULL               .         -9999                         : Missing value
COMP               .                                       : Company
WELL               .         1664                          : Well name
FLD                .         Узень                         : Field
LOC                .                                       : Location
CNTY               .                                       : County
STAT               .                                       : State
CTRY               .                                       : Country
SRVC               .                                       : Service Company
DATE               .                                       : Date
UWI                .                                       : Unique Well ID
Block              .         7                             : 
Category           .         Нефтяная                      : 
Condition          .         Ликвидированная               : 
Date               .         01.04.1975                    : 
EREF               .m        87.7                          : 100.8
Gorizont           .         15                            : 14
Interpretator      .         Бекбулатова А.А.              : 
Kupol              .         Основной                      : osnovnoi
Mud                .         0                             : 
Mud_density        .         0                             : 
Mud_resistivity    .         0                             : 
NGDU               .         НГДУ-2                        : 
ORIGINALWELLNAME   .         1664                          : 
Spud_date          .         1975                          : 1961
Viscosity          .         0                             : 
X                  .m        42026.6                       : 46154
Y                  .m        84148.2                       : 85761.93
YEAR               .         2018                          : 
Исправ_15гор       .         Исправ.15гор                  : 
~Parameter Information Block
#_______________________________________________________________________________
#
#PARAMETER_NAME    .UNIT     VALUE                         : DESCRIPTION
#_______________________________________________________________________________
SET                .         LQC_KAZNIPI_Petrel            : 
TLFamily_CALI      .         Caliper                       : 
TLFamily_CILD      .         Conductivity                  : 
TLFamily_COLL      .         Net Reservoir Flag            : 
TLFamily_CSAT      .         Fluid Code                    : 
TLFamily_DEPT      .         Measured Depth                : 
TLFamily_GR        .         Russian Gamma Ray             : 
TLFamily_LLS       .         Lateral Log Resistivity       : 
TLFamily_NGLD      .         Neutron Gamma                 : 
TLFamily_PHIE      .         Effective Porosity            : 
TLFamily_PHIEN     .         Effective Porosity            : 
TLFamily_PHIT      .         Porosity                      : 
TLFamily_PRMB      .         Permeability                  : 
TLFamily_PRMB_DGR  .         Permeability                  : 
TLFamily_RT        .         Formation Resistivity         : 
TLFamily_SOIL_ARCHIE .         Oil Saturation                : 
TLFamily_SOIL_DW   .         Oil Saturation                : 
TLFamily_SP        .         Spontaneous Potential         : 
TLFamily_VSH_FIN   .         Shale Volume                  : 
TLFamily_VSH_GR    .         Shale Volume                  : 
TLFamily_VSH_SP    .         Shale Volume                  : 
~Curve Information
#_______________________________________________________________________________
#
#LOGNAME           .UNIT     LOG_ID                        : DESCRIPTION
#_______________________________________________________________________________
DEPT               .M                                      : Колонка глубины 
CALI               .м                                      : Каверномер 
CILD               .мСм/м                                  : Индукционный каротаж 
COLL               .unitless                               : Описание 
CSAT               .unitless                               : Описание 
GR                 .uR/h                                   : Гамма каротаж 
LLS                .Ohmm                                   : Боковой каротаж 
NGLD               .у.е.                                   : Показания зонда НГК-60 аппаратуры ДРСТ-3-90 
PHIE               .д.ед.                                  : Описание 
PHIEN              .д.ед.                                  :  
PHIT               .д.ед.                                  : Описание 
PRMB               .mD                                     :  
PRMB_DGR           .mD                                     :  
RT                 .ohmm                                   : УЭС пласта 
SOIL_ARCHIE        .д.ед.                                  :  
SOIL_DW            .д.ед.                                  :  
SP                 .мВ                                     : Потенциал самополяризации 
VSH_FIN            .д.ед.                                  : Описание 
VSH_GR             .д.ед.                                  : Shale volume 
VSH_SP             .д.ед.                                  : Shale Volume 
~Ascii
# ...
1064.6     0.27       477.478    -9999      -9999      6.862      1.534      0.867      0.1362221  0.1362221  0.3477289  0.9339465  1.6259     2.094      0.1027346  0.4662144  56.502     0.6409297  0.5320072  0.7498522 
1064.8     0.262      477.478    -9999      -9999      6.862      1.527      0.865      0.1386845  0.1386845  0.3483955  1.037366   1.6259     2.094      0.1166261  0.4703131  56.266     0.6354878  0.5320072  0.7389684 
1065       0.269      478.769    -9999      -9999      6.862      1.521      0.868      0.1390176  0.1390176  0.3473956  1.052207   1.6259     2.089      0.1174803  0.4691705  56.089     0.6314485  0.5320072  0.7308899 
1065.2     0.279      481.349    -9999      -9999      6.806      1.496      0.883      0.1382722  0.1382722  0.3423961  1.019281   1.744506   2.077      0.1109376  0.4616552  55.852     0.6185574  0.5169294  0.7201854 
1065.4     0.288      483.93     -9999      -9999      6.856      1.465      0.894      0.1341258  0.1341258  0.3387298  0.8540707  1.638212   2.066      0.08476961 0.4504664  55.616     0.620012   0.5303708  0.7096533 
1065.6     0.278      489.091    -9999      -9999      6.937      1.427      0.885      0.1355526  0.1355526  0.3417295  0.9076538  1.479586   2.045      0.08880723 0.4528506  55.321     0.6247786  0.5528918  0.6966654 
1065.8     0.266      491.671    -9999      -9999      7.018      1.414      0.878      0.1352821  0.1352821  0.3440626  0.8972461  1.33632    2.034      0.08490795 0.4533541  55.144     0.632668   0.5763692  0.6889669 
1066       0.252      490.381    -9999      -9999      7.075      1.487      0.88       0.1322123  0.1322123  0.343396   0.7871359  1.243901   2.039      0.06750452 0.4488041  55.085     0.6399508  0.5934853  0.6864162 
1066.2     0.26       469.737    -9999      -9999      7.175      1.547      0.894      0.1215442  0.1215442  0.3387298  0.4994037  1.096935   2.129      0.01674433 0.4392641  55.203     0.6581382  0.6247511  0.6915252 
1066.4     0.271      442.642    -9999      -9999      7.018      1.843      0.923      0.1181601  0.1181601  0.3290641  0.4322846  1.33632    2.259      0.0199049  0.4397886  55.439     0.6391031  0.5763692  0.7018369 
1066.6     0.26       440.061    -9999      -9999      6.687      2.235      0.94       0.1260669  0.1260669  0.323398   0.6056519  2.026061   2.272      0.07615599 0.4480139  55.616     0.597973   0.4862927  0.7096533 
1066.8     0.241      442.642    -9999      -9999      6.425      2.001      0.96       0.127324   0.127324   0.316732   0.6390109  2.816546   2.259      0.08163594 0.4410396  55.911     0.5739635  0.4250889  0.7228382 
1067       0.227      445.222    -9999      -9999      6.443      1.774      0.98       0.1173454  0.1173454  0.310066   0.4175217  2.75352    2.246      0.01130684 0.4147681  56.266     0.5840019  0.4290354  0.7389684 
1067.2     0.245      445.222    -9999      -9999      6.468      1.709      0.968      0.1190856  0.1190856  0.3140656  0.4496894  2.668313   2.246      0.02390245 0.4226146  56.443     0.5908484  0.4345777  0.7471192 
1067.4     0.256      433.61     -9999      -9999      6.531      1.654      0.964      0.1176107  0.1176107  0.3153988  0.4222728  2.465106   2.306      0.02538193 0.4291904  56.502     0.599358   0.4488637  0.7498522 
1067.6     0.25       421.998    -9999      -9999      6.587      1.692      0.984      0.1083321  0.1083321  0.3087328  0.2842705  2.297509   2.37       0          0.4123065  56.561     0.6072748  0.4619562  0.7525934 
1067.8     0.247      410.385    -9999      -9999      6.65       1.837      1.001      0.09925173 0.09925173 0.3030667  0.1929927  2.122541   2.437      0          0.3953249  56.679     0.6176211  0.4771423  0.7580999 
1068       0.242      398.773    -9999      -9999      6.6        2.197      1.024      0.09403607 0.09403607 0.2954008  0.154502   2.260261   2.508      0          0.3825331  56.62      0.6101961  0.4650497  0.7553425 
1068.2     0.233      388.451    -9999      -9999      6.437      2.683      1.047      0.09388709 0.09388709 0.2877349  0.1535235  2.774371   2.574      0          0.3795105  56.443     0.5874175  0.4277158  0.7471192 
1068.4     0.227      384.58     -9999      -9999      6.262      2.696      1.068      0.09518689 0.09518689 0.2807356  0.1622745  3.457186   2.6        0          0.3755334  56.148     0.5622689  0.390963   0.7335747 
1068.6     0.225      389.741    -9999      -9999      6.218      2.708      1.103      0.08673381 0.08673381 0.2690701  0.1131563  3.653835   2.566      0          0.3326641  55.911     0.5525342  0.3822302  0.7228382 
1068.8     0.245      398.773    -9999      -9999      6.243      2.355      1.063      0.1009942  0.1009942  0.2824021  0.2078811  3.54077    2.508      0          0.3795892  55.675     0.5497211  0.3871678  0.7122744 
1069       0.259      410.385    -9999      -9999      6.331      2.03       1.02       0.1115048  0.1115048  0.296734   0.3254593  3.1699     2.437      0.005191726 0.4114344  55.793     0.5613008  0.4050611  0.7175404 
1069.2     0.247      420.707    -9999      -9999      6.506      1.926      0.997      0.1128878  0.1128878  0.3043999  0.3452337  2.543823   2.377      0.004234228 0.4163256  55.793     0.5803398  0.4431393  0.7175404 
1069.4     0.238      436.19     -9999      -9999      6.637      1.85       0.962      0.1194665  0.1194665  0.3160654  0.4570533  2.157519   2.293      0.03602722 0.431537   55.793     0.5957543  0.4739683  0.7175404 
1069.6     0.256      451.673    -9999      -9999      6.506      1.667      0.928      0.1358855  0.1358855  0.3273976  0.9206329  2.543823   2.214      0.1240078  0.4601225  55.793     0.5803398  0.4431393  0.7175404 
1069.8     0.273      459.415    -9999      -9999      6.462      1.534      0.899      0.1476195  0.1476195  0.3370633  1.518549   2.68852    2.177      0.1785027  0.4815644  55.734     0.5740722  0.433241   0.7149035 
1070       0.261      463.286    -9999      -9999      6.556      1.528      0.899      0.1436499  0.1436499  0.3370633  1.282042   2.388826   2.158      0.1552985  0.4739965  55.793     0.5861013  0.4546621  0.7175404 
1070.2     0.256      467.156    -9999      -9999      6.631      1.553      0.903      0.1398068  0.1398068  0.3357301  1.088225   2.173858   2.141      0.1318948  0.465273   55.734     0.593707   0.4725105  0.7149035 
1070.4     0.253      465.866    -9999      -9999      6.7        1.534      0.901      0.1372269  0.1372269  0.3363967  0.9748406  1.993213   2.147      0.1188557  0.4630406  55.793     0.6035448  0.4895492  0.7175404 
1070.6     0.248      461.995    -9999      -9999      6.743      1.484      0.906      0.1341924  0.1341924  0.3347302  0.8564998  1.888312   2.165      0.1050399  0.4591978  55.734     0.6076902  0.500477   0.7149035 
1070.8     0.239      454.254    -9999      -9999      6.793      1.54       0.912      0.1300453  0.1300453  0.3327304  0.7176509  1.773254   2.201      0.08732401 0.4554268  55.734     0.6141971  0.5134907  0.7149035 
1071       0.252      445.222    -9999      -9999      6.856      1.654      0.911      0.1267219  0.1267219  0.3330637  0.6228098  1.638212   2.246      0.07533568 0.4562155  55.852     0.6252781  0.5303708  0.7201854 
1071.2     0.279      433.61     -9999      -9999      6.806      1.648      0.919      0.1240641  0.1240641  0.3303973  0.5560664  1.744506   2.306      0.06968757 0.4564534  56.148     0.625252   0.5169294  0.7335747 
1071.4     0.268      421.998    -9999      -9999      6.606      1.78       0.934      0.1264981  0.1264981  0.3253978  0.6168918  2.243274   2.37       0.09697254 0.4623351  56.266     0.6027265  0.4664845  0.7389684 
1071.6     0.255      410.385    -9999      -9999      6.393      1.995      0.955      0.1261271  0.1261271  0.3183985  0.6072081  2.932178   2.437      0.1064262  0.4617929  56.443     0.5826407  0.4181621  0.7471192 
1071.8     0.246      396.193    -9999      -9999      6.331      1.85       0.971      0.1211441  0.1211441  0.3130657  0.4909548  3.1699     2.524      0.08960774 0.4575726  56.679     0.5815805  0.4050611  0.7580999 
