~Version
 VERS              .         2.0                           : CWLS LOG ASCII STANDARD - VERSION 2.0
 WRAP              .         NO                            : ONE LINE PER DEPTH STEP
 DLM               .         SPACE                         : DELIMITING CHARACTER(SPACE TAB OR COMMA)
~Well Information
#_______________________________________________________________________________
#
#PARAMETER_NAME    .UNIT     VALUE                         : DESCRIPTION
#_______________________________________________________________________________
STRT               .M        850                           : First reference value
STOP               .M        1282                          : Last reference value
STEP               .M        0.2                           : Step increment
NULL               .         -9999                         : Missing value
COMP               .                                       : Company
WELL               .         1664                          : Well name
FLD                .         Узень                         : Field
LOC                .                                       : Location
CNTY               .                                       : County
STAT               .                                       : State
CTRY               .                                       : Country
SRVC               .                                       : Service Company
DATE               .                                       : Date
UWI                .                                       : Unique Well ID
Block              .         7                             : 
Category           .         Нефтяная                      : 
Condition          .         Ликвидированная               : 
Date               .         01.04.1975                    : 
EREF               .m        87.7                          : 100.8
Gorizont           .         15                            : 14
Interpretator      .         Бекбулатова А.А.              : 
Kupol              .         Основной                      : osnovnoi
Mud                .         0                             : 
Mud_density        .         0                             : 
Mud_resistivity    .         0                             : 
NGDU               .         НГДУ-2                        : 
ORIGINALWELLNAME   .         1664                          : 
Spud_date          .         1975                          : 1961
Viscosity          .         0                             : 
X                  .m        42026.6                       : 46154
Y                  .m        84148.2                       : 85761.93
YEAR               .         2018                          : 
Исправ_15гор       .         Исправ.15гор                  : 
~Parameter Information Block
#_______________________________________________________________________________
#
#PARAMETER_NAME    .UNIT     VALUE                         : DESCRIPTION
#_______________________________________________________________________________
SET                .         LQC_KAZNIPI_Petrel            : 
TLFamily_CALI      .         Caliper                       : 
TLFamily_CILD      .         Conductivity                  : 
TLFamily_COLL      .         Net Reservoir Flag            : 
TLFamily_CSAT      .         Fluid Code                    : 
TLFamily_DEPT      .         Measured Depth                : 
TLFamily_GR        .         Russian Gamma Ray             : 
TLFamily_LLS       .         Lateral Log Resistivity       : 
TLFamily_NGLD      .         Neutron Gamma                 : 
TLFamily_PHIE      .         Effective Porosity            : 
TLFamily_PHIEN     .         Effective Porosity            : 
TLFamily_PHIT      .         Porosity                      : 
TLFamily_PRMB      .         Permeability                  : 
TLFamily_PRMB_DGR  .         Permeability                  : 
TLFamily_RT        .         Formation Resistivity         : 
TLFamily_SOIL_ARCHIE .         Oil Saturation                : 
TLFamily_SOIL_DW   .         Oil Saturation                : 
TLFamily_SP        .         Spontaneous Potential         : 
TLFamily_VSH_FIN   .         Shale Volume                  : 
TLFamily_VSH_GR    .         Shale Volume                  : 
TLFamily_VSH_SP    .         Shale Volume                  : 
~Curve Information
#_______________________________________________________________________________
#
#LOGNAME           .UNIT     LOG_ID                        : DESCRIPTION
#_______________________________________________________________________________
DEPT               .M                                      : Колонка глубины 
CALI               .м                                      : Каверномер 
CILD               .мСм/м                                  : Индукционный каротаж 
COLL               .unitless                               : Описание 
CSAT               .unitless                               : Описание 
GR                 .uR/h                                   : Гамма каротаж 
LLS                .Ohmm                                   : Боковой каротаж 
NGLD               .у.е.                                   : Показания зонда НГК-60 аппаратуры ДРСТ-3-90 
PHIE               .д.ед.                                  : Описание 
PHIEN              .д.ед.                                  :  
PHIT               .д.ед.                                  : Описание 
PRMB               .mD                                     :  
PRMB_DGR           .mD                                     :  
RT                 .ohmm                                   : УЭС пласта 
SOIL_ARCHIE        .д.ед.                                  :  
SOIL_DW            .д.ед.                                  :  
SP                 .мВ                                     : Потенциал самополяризации 
VSH_FIN            .д.ед.                                  : Описание 
VSH_GR             .д.ед.                                  : Shale volume 
VSH_SP             .д.ед.                                  : Shale Volume 
~Ascii
# ...
1138.6     0.207      197.494    -9999      -9999      6.743      4.656      1.028      0.231476   0.231476   0.2940676  54.2819    12.35705   5.063      0.6263658  0.6913167  31.292     0.1896715  0.2324069  0.1469362 
1138.8     0.207      202.655    -9999      -9999      6.868      4.83       1.038      0.2218002  0.2218002  0.2907346  35.9282    8.782409   4.934      0.6074839  0.6795503  31.941     0.2088922  0.2671808  0.1506036 
1139       0.207      198.784    -9999      -9999      7.012      4.956      1.048      0.2104933  0.2104933  0.2874016  22.18221   5.926126   5.031      0.5929189  0.6734771  32.236     0.2330554  0.3137372  0.1523736 
1139.2     0.207      193.623    -9999      -9999      6.943      5.303      1.049      0.2143441  0.2143441  0.2870683  26.14153   7.155392   5.165      0.6042084  0.6799417  31.882     0.2203763  0.2904952  0.1502575 
1139.4     0.207      188.462    1          2          6.4        5.587      1.056      0.2342287  0.2342287  0.2847352  61.04396   31.53935   5.306      0.6382396  0.6943131  31.41      0.1530499  0.1585194  0.1475803 
1139.6     0.207      182.011    1          2          6.387      5.903      1.068      0.2310721  0.2310721  0.2807356  53.35495   32.67955   5.494      0.6398717  0.6953833  30.878     0.1504954  0.1562373  0.1447535 
1139.8     0.207      171.689    1          2          6.418      6.345      1.082      0.2258389  0.2258389  0.2760694  42.68177   30.02598   5.824      0.6425341  0.6983561  30.465     0.1522136  0.1617345  0.1426927 
1140       0.207      163.948    1          2          6.293      7.039      1.091      0.2264984  0.2264984  0.2730697  43.8993    42.24725   6.099      0.6510776  0.7037357  30.229     0.1411252  0.1406846  0.1415659 
1140.2     0.207      160.077    1          2          6.2        7.955      1.086      0.2304064  0.2304064  0.2747362  51.8613    54.46719   6.247      0.6600838  0.7103972  30.288     0.1343328  0.1268214  0.1418442 
1140.4     0.207      161.367    1          2          6.237      8.207      1.095      0.2262415  0.2262415  0.2717365  43.421     49.23088   6.197      0.6533355  0.7051154  30.642     0.1378636  0.1321652  0.1435619 
1140.6     0.207      165.238    1          2          6.318      7.165      1.111      0.2181836  0.2181836  0.2664037  30.79266   39.45832   6.052      0.6382135  0.6935059  31.41      0.1461217  0.144663   0.1475803 
1140.8     0.207      170.399    1          2          6.387      6.124      1.127      0.2100904  0.2100904  0.2610709  21.80428   32.67955   5.869      0.6206785  0.680043   32.295     0.1544864  0.1562373  0.1527355 
1141       0.207      175.56     1          2          6.393      5.051      1.098      0.2179402  0.2179402  0.2707366  30.47474   32.14827   5.696      0.6274113  0.686859   33.771     0.1599889  0.1572865  0.1626914 
1141.2     0.207      178.14     1          2          6.381      4.104      1.099      0.2159171  0.2159171  0.2704033  27.9554    33.21962   5.614      0.6218077  0.6831135  35.306     0.1651099  0.1551951  0.1750247 
1141.4     0.207      180.721    1          2          6.437      4.861      1.095      0.2137852  0.2137852  0.2717365  25.52579   28.50731   5.533      0.6159147  0.6803813  36.487     0.1756099  0.1651989  0.1860209 
1141.6     0.207      180.721    1          2          6.5        5.208      1.102      0.2049989  0.2049989  0.2694034  17.54828   24.00005   5.533      0.601616   0.6730819  38.908     0.1951652  0.177226   0.2131044 
1141.8     0.207      175.56     1          2          6.575      4.23       1.101      0.2019099  0.2019099  0.2697367  15.38223   19.55382   5.696      0.6017757  0.6759812  39.321     0.2055358  0.1926909  0.2183807 
1142       0.207      171.023    1          2          6.543      5.019      1.088      0.2067154  0.2067154  0.2740696  18.88115   21.34009   5.851      0.6147354  0.6863488  39.616     0.2041036  0.1859341  0.2222732 
1142.2     0.207      166.528    1          2          6.425      7.134      1.066      0.2177012  0.2177012  0.2814022  30.16567   29.45726   6.005      0.6361868  0.7016439  39.675     0.1930332  0.1630023  0.2230642 
1142.4     0.207      161.367    1          2          6.343      9.217      1.046      0.2272361  0.2272361  0.2880682  45.30252   36.85346   6.197      0.6546574  0.715429   39.439     0.1843396  0.1487541  0.2199252 
1142.6     0.207      154.916    1          2          6.312      10.732     1.056      0.2258628  0.2258628  0.2847352  42.7253    40.11041   6.455      0.6594113  0.7185702  38.908     0.1784012  0.143698   0.2131044 
1142.8     0.207      152.335    1          2          6.25       8.933      1.081      0.2207605  0.2207605  0.2764027  34.36983   47.5132    6.564      0.6552848  0.7133304  38.081     0.1686129  0.1340957  0.20313   
1143       0.207      151.045    1          2          6.137      7.039      1.07       0.2304378  0.2304378  0.280069   51.93076   64.69612   6.621      0.6692724  0.7218129  36.133     0.1503976  0.1182149  0.1825804 
1143.2     0.207      147.174    1          2          5.975      4.83       1.027      0.2500648  0.2500648  0.2944009  119.9405   100.711    6.795      0.6957253  0.742266   34.716     0.1343517  0.09867137 0.170032  
1143.4     0.207      136.852    1          2          5.887      6.66       1.001      0.2616063  0.2616063  0.3030667  196.219    128.0798   7.307      0.7172556  0.7602148  33.653     0.1256376  0.08944573 0.1618294 
1143.6     0.207      126.531    1          2          5.887      8.933      0.995      0.2654583  0.2654583  0.3050665  231.2547   128.0798   7.903      0.7309176  0.7717284  31.941     0.1200247  0.08944573 0.1506036 
1143.8     0.207      116.208    1          2          5.887      10.953     0.995      0.2670403  0.2670403  0.3050665  247.3959   128.0798   8.605      0.7427862  0.7817913  30.111     0.1152309  0.08944573 0.141016  
1144       0.207      105.887    1          2          5.887      11.995     1.029      0.2564225  0.2564225  0.2937343  157.2985   128.0798   9.444      0.7449176  0.7834226  29.107     0.113066   0.08944573 0.1366864 
1144.2     0.207      103.306    1          2          5.906      12.121     1.066      0.2442197  0.2442197  0.2814022  93.47569   121.6014   9.68       0.7369168  0.776145   28.399     0.1126744  0.0913617  0.133987  
1144.4     0.207      98.145     1          2          6.1        11.616     1.105      0.2278515  0.2278515  0.2684035  46.50724   71.57736   10.189     0.7271714  0.769082   27.926     0.1228848  0.1134351  0.1323346 
1144.6     0.207      94.274     1          2          6.225      11.881     1.107      0.2245134  0.2245134  0.2677369  40.33579   50.87151   10.607     0.728807   0.7719297  27.69      0.1309804  0.1304078  0.1315529 
1144.8     0.207      91.694     1          2          6.15       11.881     1.103      0.2276362  0.2276362  0.2690701  46.08225   62.43885   10.906     0.7355229  0.7770306  27.572     0.1255571  0.1199416  0.1311725 
1145       0.207      94.274     1          2          6.031      11.499     1.118      0.2251585  0.2251585  0.2640706  41.46107   86.42464   10.607     0.7294839  0.7703925  27.454     0.1179153  0.1050317  0.1307988 
1145.2     0.207      98.145     6          6          6.018      10.772     1.152      0.2141364  0.2141364  0.2527384  25.91101   89.54903   10.189     0.7120137  0.7545668  27.336     0.1169757  0.1035196  0.1304318 
1145.4     0.207      101.506    1          2          6.037      10.772     1.102      0.230495   0.230495   0.2694034  52.05768   85.0196    9.862      0.7257324  0.7669316  27.218     0.1179042  0.105737   0.1300714 
1145.6     0.207      104.596    1          2          6.05       10.426     1.059      0.2446593  0.2446593  0.2837353  95.24477   82.05324   9.561      0.7357994  0.7759929  27.041     0.1184122  0.1072816  0.1295429 
1145.8     0.207      121.369    1          2          6.056      9.453      1.034      0.2529582  0.2529582  0.2920678  135.6931   80.71927   8.239      0.7248027  0.7660142  26.863     0.1185139  0.108002   0.1290258 
