~Version
 VERS              .         2.0                           : CWLS LOG ASCII STANDARD - VERSION 2.0
 WRAP              .         NO                            : ONE LINE PER DEPTH STEP
 DLM               .         SPACE                         : DELIMITING CHARACTER(SPACE TAB OR COMMA)
~Well Information
#_______________________________________________________________________________
#
#PARAMETER_NAME    .UNIT     VALUE                         : DESCRIPTION
#_______________________________________________________________________________
STRT               .M        850                           : First reference value
STOP               .M        1282                          : Last reference value
STEP               .M        0.2                           : Step increment
NULL               .         -9999                         : Missing value
COMP               .                                       : Company
WELL               .         1664                          : Well name
FLD                .         Узень                         : Field
LOC                .                                       : Location
CNTY               .                                       : County
STAT               .                                       : State
CTRY               .                                       : Country
SRVC               .                                       : Service Company
DATE               .                                       : Date
UWI                .                                       : Unique Well ID
Block              .         7                             : 
Category           .         Нефтяная                      : 
Condition          .         Ликвидированная               : 
Date               .         01.04.1975                    : 
EREF               .m        87.7                          : 100.8
Gorizont           .         15                            : 14
Interpretator      .         Бекбулатова А.А.              : 
Kupol              .         Основной                      : osnovnoi
Mud                .         0                             : 
Mud_density        .         0                             : 
Mud_resistivity    .         0                             : 
NGDU               .         НГДУ-2                        : 
ORIGINALWELLNAME   .         1664                          : 
Spud_date          .         1975                          : 1961
Viscosity          .         0                             : 
X                  .m        42026.6                       : 46154
Y                  .m        84148.2                       : 85761.93
YEAR               .         2018                          : 
Исправ_15гор       .         Исправ.15гор                  : 
~Parameter Information Block
#_______________________________________________________________________________
#
#PARAMETER_NAME    .UNIT     VALUE                         : DESCRIPTION
#_______________________________________________________________________________
SET                .         LQC_KAZNIPI_Petrel            : 
TLFamily_CALI      .         Caliper                       : 
TLFamily_CILD      .         Conductivity                  : 
TLFamily_COLL      .         Net Reservoir Flag            : 
TLFamily_CSAT      .         Fluid Code                    : 
TLFamily_DEPT      .         Measured Depth                : 
TLFamily_GR        .         Russian Gamma Ray             : 
TLFamily_LLS       .         Lateral Log Resistivity       : 
TLFamily_NGLD      .         Neutron Gamma                 : 
TLFamily_PHIE      .         Effective Porosity            : 
TLFamily_PHIEN     .         Effective Porosity            : 
TLFamily_PHIT      .         Porosity                      : 
TLFamily_PRMB      .         Permeability                  : 
TLFamily_PRMB_DGR  .         Permeability                  : 
TLFamily_RT        .         Formation Resistivity         : 
TLFamily_SOIL_ARCHIE .         Oil Saturation                : 
TLFamily_SOIL_DW   .         Oil Saturation                : 
TLFamily_SP        .         Spontaneous Potential         : 
TLFamily_VSH_FIN   .         Shale Volume                  : 
TLFamily_VSH_GR    .         Shale Volume                  : 
TLFamily_VSH_SP    .         Shale Volume                  : 
~Curve Information
#_______________________________________________________________________________
#
#LOGNAME           .UNIT     LOG_ID                        : DESCRIPTION
#_______________________________________________________________________________
DEPT               .M                                      : Колонка глубины 
CALI               .м                                      : Каверномер 
CILD               .мСм/м                                  : Индукционный каротаж 
COLL               .unitless                               : Описание 
CSAT               .unitless                               : Описание 
GR                 .uR/h                                   : Гамма каротаж 
LLS                .Ohmm                                   : Боковой каротаж 
NGLD               .у.е.                                   : Показания зонда НГК-60 аппаратуры ДРСТ-3-90 
PHIE               .д.ед.                                  : Описание 
PHIEN              .д.ед.                                  :  
PHIT               .д.ед.                                  : Описание 
PRMB               .mD                                     :  
PRMB_DGR           .mD                                     :  
RT                 .ohmm                                   : УЭС пласта 
SOIL_ARCHIE        .д.ед.                                  :  
SOIL_DW            .д.ед.                                  :  
SP                 .мВ                                     : Потенциал самополяризации 
VSH_FIN            .д.ед.                                  : Описание 
VSH_GR             .д.ед.                                  : Shale volume 
VSH_SP             .д.ед.                                  : Shale Volume 
~Ascii
# ...
1190.4     0.217      501.993    -9999      -9999      7.781      2.621      1.021      0.1967103  0.1967103  0.2964007  12.32284   2.284728   1.992      0.3423001  0.4833191  39.144     0.302092   0.4630097  0.3020923 
1190.6     0.216      509.735    -9999      -9999      7.881      2.798      1.042      0.1912459  0.1912459  0.2894014  9.761022   1.797316   1.962      0.3211457  0.4658573  38.908     0.297441   0.5106725  0.2974413 
1190.8     0.216      517.476    -9999      -9999      7.693      2.722      1.063      0.1850036  0.1850036  0.2824021  7.47952    2.821888   1.932      0.2961682  0.4464159  38.79      0.295147   0.4247601  0.2951467 
1191       0.216      525.218    6          6          7.443      2.629      1.086      0.1803057  0.1803057  0.2747362  6.121494   5.141207   1.904      0.275275   0.4272225  38.317     0.286153   0.3324777  0.2861532 
1191.2     0.217      535.54     1          2          7.212      2.494      1.045      0.1982152  0.1982152  0.2884015  13.13965   8.949332   1.867      0.3264767  0.4593374  37.609     0.273292   0.2651345  0.2732922 
1191.4     0.218      544.571    1          2          7.181      2.241      1.037      0.2060292  0.2060292  0.2910679  18.3366    9.640408   1.836      0.3436433  0.466332   36.723     0.2576931  0.2572025  0.2581836 
1191.6     0.218      552.313    1          2          7.187      2.004      1.04       0.2058811  0.2058811  0.290068   18.22115   9.502615   1.811      0.3389931  0.4614174  36.31      0.2551118  0.2587189  0.2515047 
1191.8     0.219      548.442    1          2          7.162      1.801      1.022      0.2101684  0.2101684  0.2960674  21.87691   10.0901    1.823      0.3527615  0.4741008  37.314     0.2603002  0.2524586  0.2681417 
1192       0.219      538.12     1          2          7.137      1.835      1.018      0.2100792  0.2100792  0.2974006  21.79387   10.71391   1.858      0.3582747  0.4803539  38.14      0.2646103  0.2463497  0.282871  
1192.2     0.22       530.379    1          2          7.143      2.021      0.994      0.2114557  0.2114557  0.3053998  23.11162   10.56077   1.885      0.3662198  0.4934231  40.089     0.2846791  0.2478022  0.321556  
1192.4     0.221      525.218    1          2          7.131      2.274      0.978      0.2072418  0.2072418  0.3107326  19.30984   10.86928   1.904      0.3580391  0.4969087  42.686     0.3136086  0.2449057  0.3823114 
1192.6     0.221      520.057    -9999      -9999      7.118      2.215      0.971      0.1688224  0.1688224  0.3130657  3.751093   11.21367   1.923      0.2360921  0.4587752  44.694     0.437101   0.241806   0.4371008 
1192.8     0.222      523.927    -9999      -9999      7.131      2.19       0.963      0.1541661  0.1541661  0.3157321  2.007649   10.86928   1.909      0.1703756  0.4401363  46.406     0.489594   0.2449057  0.489594  
1193       0.222      527.798    -9999      -9999      7.143      2.276      0.937      0.1720227  0.1720227  0.3243979  4.29968    10.56077   1.895      0.2432944  0.4703552  45.52      0.461743   0.2478022  0.4617428 
1193.2     0.221      534.249    -9999      -9999      7.137      2.367      0.938      0.1758075  0.1758075  0.3240646  5.052881   10.71391   1.872      0.2532353  0.4713244  45.107     0.449264   0.2463497  0.4492643 
1193.4     0.22       541.991    -9999      -9999      7.118      2.384      0.978      0.1676172  0.1676172  0.3107326  3.563162   11.21367   1.845      0.2162283  0.4433737  44.576     0.433683   0.241806   0.4336827 
1193.6     0.219      551.023    -9999      -9999      7.131      2.198      1.023      0.1634543  0.1634543  0.2957341  2.983511   10.86928   1.815      0.1926842  0.4159662  43.395     0.400848   0.2449057  0.4008484 
1193.8     0.218      556.184    6          6          7.143      2.029      1.064      0.1810135  0.1810135  0.2820688  6.3091     10.56077   1.798      0.258066   0.4206204  41.978     0.3062282  0.2478022  0.3646541 
1194       0.218      563.925    6          6          7.143      2.114      1.091      0.1747945  0.1747945  0.2730697  4.83922    10.56077   1.773      0.2300849  0.3966987  41.269     0.2978038  0.2478022  0.3478054 
1194.2     0.218      571.667    8          2          7.168      2.232      1.087      0.1764513  0.1764513  0.2744029  5.193558   9.945867   1.749      0.231486   0.3966483  40.915     0.2968229  0.2539472  0.3396986 
1194.4     0.219      575.537    8          2          7.006      2.359      1.053      0.1939335  0.1939335  0.2857351  10.94655   14.67112   1.738      0.2900885  0.4314688  40.915     0.2781866  0.2166747  0.3396986 
1194.6     0.219      579.408    8          2          6.918      1.885      1.047      0.1957095  0.1957095  0.2877349  11.80793   18.12042   1.726      0.2934091  0.4339605  41.742     0.2788647  0.1987752  0.3589542 
1194.8     0.219      581.989    8          2          6.981      1.843      1.04       0.1928418  0.1928418  0.290068   10.44856   15.57815   1.718      0.2827042  0.4318987  42.509     0.2946248  0.2114317  0.3778179 
1195       0.22       576.828    8          2          7.056      1.877      1.029      0.1908249  0.1908249  0.2937343  9.587327   13.01242   1.734      0.2792476  0.4362833  43.218     0.3118467  0.2275541  0.3961394 
1195.2     0.22       567.796    8          2          7.143      1.843      1.005      0.1923209  0.1923209  0.3017335  10.21898   10.56077   1.761      0.2893048  0.4512015  43.926     0.3315534  0.2478022  0.4153045 
1195.4     0.22       556.184    8          2          7.143      1.86       0.978      0.1980061  0.1980061  0.3107326  13.02302   10.56077   1.798      0.3138385  0.4725519  44.635     0.3415954  0.2478022  0.4353886 
1195.6     0.22       544.571    8          2          7.006      1.97       0.97       0.2020537  0.2020537  0.313399   15.47686   14.67112   1.836      0.3324099  0.4849397  45.402     0.3374099  0.2166747  0.4581452 
1195.8     0.221      534.249    8          2          7.037      2.088      0.985      0.19232    0.19232    0.3083995  10.21859   13.6194    1.872      0.309398   0.4745804  46.111     0.3517561  0.223357   0.4801552 
1196       0.221      525.218    -9999      -9999      7.168      2.215      1.008      0.1754999  0.1754999  0.3007336  4.987031   9.945867   1.904      0.2580207  0.4512592  46.878     0.379496   0.2539472  0.5050449 
1196.2     0.221      517.476    -9999      -9999      7.293      2.19       1.008      0.1664121  0.1664121  0.3007336  3.384647   7.368515   1.932      0.2281576  0.443595   47.528     0.4070349  0.2870344  0.5270355 
1196.4     0.22       513.605    -9999      -9999      7.131      2.173      0.989      0.1752359  0.1752359  0.3070663  4.931184   10.86928   1.947      0.2647925  0.4637796  48.295     0.3994862  0.2449057  0.5540667 
1196.6     0.22       509.735    -9999      -9999      6.993      2.198      0.954      0.1888026  0.1888026  0.3187318  8.795073   15.13598   1.962      0.3135006  0.493001   48.827     0.393725   0.2139324  0.5735177 
1196.8     0.22       507.154    -9999      -9999      7.125      2.148      0.922      0.1931399  0.1931399  0.3293974  10.58222   11.0269    1.972      0.3285512  0.5086563  49.063     0.4129016  0.2434701  0.5823331 
1197       0.221      507.154    -9999      -9999      7.25       2.046      0.911      0.1900983  0.1900983  0.3330637  9.294812   8.169409   1.972      0.3192042  0.5088053  49.299     0.4332283  0.2751923  0.5912644 
1197.2     0.223      508.444    -9999      -9999      7.368      1.953      0.9        0.1867064  0.1867064  0.33673    8.042919   6.154923   1.967      0.3076202  0.5079081  49.535     0.454617   0.3089216  0.6003124 
1197.4     0.225      512.315    -9999      -9999      7.462      1.936      0.902      0.1807459  0.1807459  0.3360634  6.237509   4.912076   1.952      0.2852128  0.4990512  49.594     0.470659   0.3387252  0.6025928 
1197.6     0.226      517.476    -9999      -9999      7.543      1.978      0.926      0.1681303  0.1681303  0.3280642  3.641994   4.044406   1.932      0.2350322  0.4743467  49.594     0.4846482  0.3667036  0.6025928 
