~Version
 VERS              .         2.0                           : CWLS LOG ASCII STANDARD - VERSION 2.0
 WRAP              .         NO                            : ONE LINE PER DEPTH STEP
 DLM               .         SPACE                         : DELIMITING CHARACTER(SPACE TAB OR COMMA)
~Well Information
#_______________________________________________________________________________
#
#PARAMETER_NAME    .UNIT     VALUE                         : DESCRIPTION
#_______________________________________________________________________________
STRT               .M        850                           : First reference value
STOP               .M        1282                          : Last reference value
STEP               .M        0.2                           : Step increment
NULL               .         -9999                         : Missing value
COMP               .                                       : Company
WELL               .         1664                          : Well name
FLD                .         Узень                         : Field
LOC                .                                       : Location
CNTY               .                                       : County
STAT               .                                       : State
CTRY               .                                       : Country
SRVC               .                                       : Service Company
DATE               .                                       : Date
UWI                .                                       : Unique Well ID
Block              .         7                             : 
Category           .         Нефтяная                      : 
Condition          .         Ликвидированная               : 
Date               .         01.04.1975                    : 
EREF               .m        87.7                          : 100.8
Gorizont           .         15                            : 14
Interpretator      .         Бекбулатова А.А.              : 
Kupol              .         Основной                      : osnovnoi
Mud                .         0                             : 
Mud_density        .         0                             : 
Mud_resistivity    .         0                             : 
NGDU               .         НГДУ-2                        : 
ORIGINALWELLNAME   .         1664                          : 
Spud_date          .         1975                          : 1961
Viscosity          .         0                             : 
X                  .m        42026.6                       : 46154
Y                  .m        84148.2                       : 85761.93
YEAR               .         2018                          : 
Исправ_15гор       .         Исправ.15гор                  : 
~Parameter Information Block
#_______________________________________________________________________________
#
#PARAMETER_NAME    .UNIT     VALUE                         : DESCRIPTION
#_______________________________________________________________________________
SET                .         LQC_KAZNIPI_Petrel            : 
TLFamily_CALI      .         Caliper                       : 
TLFamily_CILD      .         Conductivity                  : 
TLFamily_COLL      .         Net Reservoir Flag            : 
TLFamily_CSAT      .         Fluid Code                    : 
TLFamily_DEPT      .         Measured Depth                : 
TLFamily_GR        .         Russian Gamma Ray             : 
TLFamily_LLS       .         Lateral Log Resistivity       : 
TLFamily_NGLD      .         Neutron Gamma                 : 
TLFamily_PHIE      .         Effective Porosity            : 
TLFamily_PHIEN     .         Effective Porosity            : 
TLFamily_PHIT      .         Porosity                      : 
TLFamily_PRMB      .         Permeability                  : 
TLFamily_PRMB_DGR  .         Permeability                  : 
TLFamily_RT        .         Formation Resistivity         : 
TLFamily_SOIL_ARCHIE .         Oil Saturation                : 
TLFamily_SOIL_DW   .         Oil Saturation                : 
TLFamily_SP        .         Spontaneous Potential         : 
TLFamily_VSH_FIN   .         Shale Volume                  : 
TLFamily_VSH_GR    .         Shale Volume                  : 
TLFamily_VSH_SP    .         Shale Volume                  : 
~Curve Information
#_______________________________________________________________________________
#
#LOGNAME           .UNIT     LOG_ID                        : DESCRIPTION
#_______________________________________________________________________________
DEPT               .M                                      : Колонка глубины 
CALI               .м                                      : Каверномер 
CILD               .мСм/м                                  : Индукционный каротаж 
COLL               .unitless                               : Описание 
CSAT               .unitless                               : Описание 
GR                 .uR/h                                   : Гамма каротаж 
LLS                .Ohmm                                   : Боковой каротаж 
NGLD               .у.е.                                   : Показания зонда НГК-60 аппаратуры ДРСТ-3-90 
PHIE               .д.ед.                                  : Описание 
PHIEN              .д.ед.                                  :  
PHIT               .д.ед.                                  : Описание 
PRMB               .mD                                     :  
PRMB_DGR           .mD                                     :  
RT                 .ohmm                                   : УЭС пласта 
SOIL_ARCHIE        .д.ед.                                  :  
SOIL_DW            .д.ед.                                  :  
SP                 .мВ                                     : Потенциал самополяризации 
VSH_FIN            .д.ед.                                  : Описание 
VSH_GR             .д.ед.                                  : Shale volume 
VSH_SP             .д.ед.                                  : Shale Volume 
~Ascii
# ...
1168.2     0.208      276.199    1          2          6.65       5.284      1.128      0.1944767  0.1944767  0.2607376  11.20309   34.47081   3.621      0.4981717  0.584937   36.133     0.2007906  0.1528697  0.2487116 
1168.4     0.208      285.231    1          2          6.675      4.946      1.076      0.2131047  0.2131047  0.2780692  24.79552   32.46375   3.506      0.5295281  0.6089479  35.365     0.1968623  0.1566605  0.2370641 
1168.6     0.208      292.973    1          2          6.756      4.439      1.044      0.223163   0.223163   0.2887348  38.0783    26.72936   3.413      0.5423135  0.6196553  34.716     0.1987025  0.1696005  0.2278045 
1168.8     0.208      304.585    1          2          6.631      4.058      1.065      0.2210874  0.2210874  0.2817355  34.85249   36.07875   3.283      0.5300876  0.6051002  33.948     0.183782   0.1500502  0.2175138 
1169       0.208      313.617    1          2          6.687      3.678      1.066      0.2209387  0.2209387  0.2814022  34.63214   31.54234   3.189      0.5233586  0.5989342  33.181     0.1832227  0.1585133  0.207932  
1169.2     0.208      313.617    1          2          6.831      3.551      1.04       0.2282753  0.2282753  0.290068   47.35556   22.32705   3.189      0.5367286  0.6112996  31.764     0.1872505  0.182533   0.1919681 
1169.4     0.208      305.875    1          2          6.975      3.931      1.048      0.2188752  0.2188752  0.2874016  31.71443   15.80406   3.269      0.525002   0.6071337  32.945     0.2076559  0.2101924  0.2051195 
1169.6     0.208      295.553    1          2          6.668      4.735      1.078      0.2152     0.2152     0.2774026  27.11338   33.01364   3.383      0.5256368  0.602986   34.244     0.1884928  0.1555897  0.2213959 
1169.8     0.208      283.941    1          2          6.856      6.003      1.109      0.1963641  0.1963641  0.2670703  12.14219   21.02707   3.522      0.4958596  0.5866533  35.661     0.2142613  0.1870594  0.2414633 
1170       0.208      277.49     6          6          7.012      7.06       1.137      0.1783652  0.1783652  0.2577379  5.635254   14.46141   3.604      0.4577182  0.5658002  37.018     0.2405235  0.2179523  0.2630947 
1170.2     0.208      283.941    6          6          7.012      6.848      1.122      0.1793778  0.1793778  0.2627374  5.883975   14.46141   3.522      0.454526   0.5667162  38.376     0.2526048  0.2179523  0.2872572 
1170.4     0.208      291.682    1          2          6.968      5.58       1.054      0.1995358  0.1995358  0.2854018  13.90097   16.07176   3.428      0.4964949  0.5996405  39.616     0.2602     0.2087557  0.3116443 
1170.6     0.208      298.134    1          2          6.712      4.27       1.015      0.2249235  0.2249235  0.2984005  41.04756   29.70581   3.354      0.5417002  0.6248229  38.14      0.2226575  0.1624441  0.282871  
1170.8     0.209      299.424    1          2          6.756      3.424      1.033      0.2214949  0.2214949  0.2924011  35.46349   26.72936   3.34       0.534615   0.617119   36.841     0.2148672  0.1696005  0.2601339 
1171       0.208      302.004    1          2          6.887      3.593      1.033      0.2213257  0.2213257  0.2924011  35.20838   19.51971   3.311      0.5323954  0.6153225  35.424     0.2153802  0.1928283  0.237932  
1171.2     0.208      299.424    1          2          6.887      4.016      1.006      0.2334404  0.2334404  0.3014002  59.02574   19.51971   3.34       0.5554262  0.6320024  34.066     0.2059386  0.1928283  0.2190489 
1171.4     0.208      299.424    1          2          6.6        4.27       1.024      0.2378798  0.2378798  0.2954008  71.32938   38.86483   3.34       0.5626609  0.6306527  32.768     0.1743061  0.145561   0.2030511 
1171.6     0.208      300.714    1          2          6.662      4.396      1.031      0.236572   0.236572   0.2930677  67.45994   33.4924    3.325      0.5596269  0.6272553  31.351     0.171199   0.1546777  0.1877202 
1171.8     0.207      302.004    1          2          6.725      4.439      1.022      0.2400513  0.2400513  0.2960674  78.25106   28.79346   3.311      0.5643294  0.6309442  29.993     0.1697459  0.1645265  0.1749653 
1172       0.207      302.004    1          2          6.793      4.65       1.029      0.2376644  0.2376644  0.2937343  70.67725   24.45856   3.311      0.5605211  0.6276844  28.635     0.1699087  0.1758618  0.1639556 
1172.2     0.207      312.326    1          2          6.85       4.946      1.02       0.2393576  0.2393576  0.296734   75.96991   21.33199   3.202      0.5563148  0.6247412  28.339     0.1738679  0.1859629  0.1617729 
1172.4     0.207      322.648    1          2          6.85       5.031      0.981      0.2500943  0.2500943  0.3097327  120.091    21.33199   3.099      0.5663483  0.6347199  30.052     0.1807225  0.1859629  0.1754821 
1172.6     0.208      338.131    1          2          6.925      4.735      1.003      0.2386958  0.2386958  0.3024001  73.85545   17.8186    2.957      0.5383161  0.613291   31.173     0.1930434  0.2001432  0.1859437 
1172.8     0.209      361.356    1          2          6.993      4.396      1.007      0.2342966  0.2342966  0.3010669  61.22085   15.13598   2.767      0.5159218  0.596055   31.646     0.2023343  0.2139324  0.1907363 
1173       0.21       383.29     1          2          7.05       3.931      1.01       0.2251529  0.2251529  0.300067   41.45114   13.20112   2.609      0.4848241  0.5761715  34.716     0.2270124  0.2262202  0.2278045 
1173.2     0.211      405.224    -9999      -9999      7.093      3.086      1.034      0.2071721  0.2071721  0.2920678  19.25255   11.90696   2.468      0.4314612  0.5416821  37.904     0.2572596  0.2359548  0.2785644 
1173.4     0.212      431.029    -9999      -9999      7.168      2.537      0.999      0.2096018  0.2096018  0.3037333  21.35461   9.945867   2.32       0.4206341  0.5402395  39.852     0.285247   0.2539472  0.3165468 
1173.6     0.214      454.254    -9999      -9999      7.231      2.241      0.97       0.2096023  0.2096023  0.313399   21.35509   8.550483   2.201      0.4061414  0.5365921  41.742     0.3145354  0.2701166  0.3589542 
1173.8     0.219      476.188    -9999      -9999      7.287      2.241      0.95       0.2057919  0.2057919  0.320065   18.15198   7.475367   2.1        0.3831268  0.5279096  43.631     0.346282   0.2853519  0.4072122 
1174       0.225      499.413    -9999      -9999      7.381      2.241      0.934      0.2055162  0.2055162  0.3253978  17.93973   5.965889   2.002      0.3683991  0.5209454  43.867     0.3632777  0.3128816  0.4136738 
1174.2     0.23       522.637    -9999      -9999      7.593      2.072      0.937      0.1901343  0.1901343  0.3243979  9.309089   3.587153   1.913      0.3095443  0.4933695  44.399     0.4068593  0.3851157  0.4286029 
1174.4     0.221      529.088    -9999      -9999      7.818      1.945      0.936      0.1728244  0.1728244  0.3247312  4.449239   2.09063    1.89       0.2454177  0.4709523  44.812     0.4603236  0.4801029  0.4405442 
1174.6     0.213      520.057    -9999      -9999      7.968      1.776      0.914      0.1664664  0.1664664  0.3320638  3.392498   1.458686   1.923      0.2266844  0.4749824  45.048     0.5018103  0.5561131  0.4475076 
1174.8     0.218      480.059    -9999      -9999      8.137      2.156      0.914      0.1484819  0.1484819  0.3320638  1.575447   0.9724031  2.083      0.1771626  0.4729985  45.343     0.5563087  0.6562614  0.456356  
1175       0.224      416.837    -9999      -9999      8.012      3.551      0.954      0.1461453  0.1461453  0.3187318  1.426013   1.31253    2.399      0.2192198  0.493232   45.638     0.5229894  0.5806123  0.4653665 
1175.2     0.229      360.066    -9999      -9999      7.831      5.031      1.006      0.1437801  0.1437801  0.3014002  1.28918    2.026421   2.777      0.2605975  0.5093641  45.756     0.4776368  0.4862573  0.4690163 
1175.4     0.232      313.617    -9999      -9999      7.593      6.848      1.046      0.1506854  0.1506854  0.2880682  1.730679   3.587153   3.189      0.3348114  0.5377582  45.048     0.4163117  0.3851157  0.4475076 
