~Version
 VERS              .         2.0                           : CWLS LOG ASCII STANDARD - VERSION 2.0
 WRAP              .         NO                            : ONE LINE PER DEPTH STEP
 DLM               .         SPACE                         : DELIMITING CHARACTER(SPACE TAB OR COMMA)
~Well Information
#_______________________________________________________________________________
#
#PARAMETER_NAME    .UNIT     VALUE                         : DESCRIPTION
#_______________________________________________________________________________
STRT               .M        850                           : First reference value
STOP               .M        1282                          : Last reference value
STEP               .M        0.2                           : Step increment
NULL               .         -9999                         : Missing value
COMP               .                                       : Company
WELL               .         1664                          : Well name
FLD                .         Узень                         : Field
LOC                .                                       : Location
CNTY               .                                       : County
STAT               .                                       : State
CTRY               .                                       : Country
SRVC               .                                       : Service Company
DATE               .                                       : Date
UWI                .                                       : Unique Well ID
Block              .         7                             : 
Category           .         Нефтяная                      : 
Condition          .         Ликвидированная               : 
Date               .         01.04.1975                    : 
EREF               .m        87.7                          : 100.8
Gorizont           .         15                            : 14
Interpretator      .         Бекбулатова А.А.              : 
Kupol              .         Основной                      : osnovnoi
Mud                .         0                             : 
Mud_density        .         0                             : 
Mud_resistivity    .         0                             : 
NGDU               .         НГДУ-2                        : 
ORIGINALWELLNAME   .         1664                          : 
Spud_date          .         1975                          : 1961
Viscosity          .         0                             : 
X                  .m        42026.6                       : 46154
Y                  .m        84148.2                       : 85761.93
YEAR               .         2018                          : 
Исправ_15гор       .         Исправ.15гор                  : 
~Parameter Information Block
#_______________________________________________________________________________
#
#PARAMETER_NAME    .UNIT     VALUE                         : DESCRIPTION
#_______________________________________________________________________________
SET                .         LQC_KAZNIPI_Petrel            : 
TLFamily_CALI      .         Caliper                       : 
TLFamily_CILD      .         Conductivity                  : 
TLFamily_COLL      .         Net Reservoir Flag            : 
TLFamily_CSAT      .         Fluid Code                    : 
TLFamily_DEPT      .         Measured Depth                : 
TLFamily_GR        .         Russian Gamma Ray             : 
TLFamily_LLS       .         Lateral Log Resistivity       : 
TLFamily_NGLD      .         Neutron Gamma                 : 
TLFamily_PHIE      .         Effective Porosity            : 
TLFamily_PHIEN     .         Effective Porosity            : 
TLFamily_PHIT      .         Porosity                      : 
TLFamily_PRMB      .         Permeability                  : 
TLFamily_PRMB_DGR  .         Permeability                  : 
TLFamily_RT        .         Formation Resistivity         : 
TLFamily_SOIL_ARCHIE .         Oil Saturation                : 
TLFamily_SOIL_DW   .         Oil Saturation                : 
TLFamily_SP        .         Spontaneous Potential         : 
TLFamily_VSH_FIN   .         Shale Volume                  : 
TLFamily_VSH_GR    .         Shale Volume                  : 
TLFamily_VSH_SP    .         Shale Volume                  : 
~Curve Information
#_______________________________________________________________________________
#
#LOGNAME           .UNIT     LOG_ID                        : DESCRIPTION
#_______________________________________________________________________________
DEPT               .M                                      : Колонка глубины 
CALI               .м                                      : Каверномер 
CILD               .мСм/м                                  : Индукционный каротаж 
COLL               .unitless                               : Описание 
CSAT               .unitless                               : Описание 
GR                 .uR/h                                   : Гамма каротаж 
LLS                .Ohmm                                   : Боковой каротаж 
NGLD               .у.е.                                   : Показания зонда НГК-60 аппаратуры ДРСТ-3-90 
PHIE               .д.ед.                                  : Описание 
PHIEN              .д.ед.                                  :  
PHIT               .д.ед.                                  : Описание 
PRMB               .mD                                     :  
PRMB_DGR           .mD                                     :  
RT                 .ohmm                                   : УЭС пласта 
SOIL_ARCHIE        .д.ед.                                  :  
SOIL_DW            .д.ед.                                  :  
SP                 .мВ                                     : Потенциал самополяризации 
VSH_FIN            .д.ед.                                  : Описание 
VSH_GR             .д.ед.                                  : Shale volume 
VSH_SP             .д.ед.                                  : Shale Volume 
~Ascii
# ...
909.2000000000001 0.21       318.778    6          6          4.075      2.62       1.302      0.1333095  0.1333095  0.2027434  0.8248454  10.6022    3.137      0.24365    0.3872685  37.845     0.2104059  0.2474063  0.1734055 
909.4      0.21       291.682    6          6          4.075      2.872      1.35       0.1173111  0.1173111  0.186745   0.4169111  10.6022    3.428      0.1890374  0.3517587  37.845     0.2104059  0.2474063  0.1734055 
909.6      0.211      268.458    6          6          4.05       3.441      1.397      0.102023   0.102023   0.1710799  0.2172055  10.90096   3.725      0.119189   0.3068764  37.904     0.2092635  0.2446148  0.1739122 
909.8      0.211      243.943    6          6          4.037      5.477      1.447      0.08542653 0.08542653 0.1544149  0.1070199  11.05962   4.099      0.01703287 0.2458472  38.022     0.2090556  0.2431757  0.1749356 
910        0.211      224.589    6          6          4.081      7.86       1.516      0.06144843 0.06144843 0.1314172  0.03848859 10.53173   4.453      0          0.09282672 38.14      0.2120266  0.248081   0.1759721 
910.2000000000001 0.211      203.945    6          6          4.112      8.838      1.597      0.03378477 0.03378477 0.1044199  0.01182862 10.175     4.903      0          0          38.199     0.2140458  0.2515963  0.1764954 
910.4      0.211      187.172    6          6          4.062      8.838      1.66       0.01363152 0.01363152 0.08342201 0.005007798 10.75653   5.343      0          0          38.258     0.2114863  0.2459507  0.177022  
910.6      0.212      179.431    6          6          4.006      8.428      1.689      0.01       0.004896862 0.0737563  0.004289259 11.44736   5.573      0          0          38.317     0.208665   0.239778   0.1775519 
910.8      0.212      167.818    6          6          3.987      8.239      1.692      0.01       0.004236677 0.07275639 0.004289259 11.6917    5.959      0          0          38.317     0.2076355  0.2377191  0.1775519 
911        0.212      161.367    6          6          4          8.365      1.695      0.01       0.003004645 0.07175648 0.004289259 11.52397   6.197      0          0          38.317     0.2083389  0.2391259  0.1775519 
911.2000000000001 0.212      157.496    6          6          3.962      8.617      1.669      0.01243258 0.01243258 0.08042229 0.004758167 12.02116   6.349      0          0          38.258     0.2060294  0.2350369  0.177022  
911.4      0.212      160.077    6          6          3.95       8.838      1.621      0.02872851 0.02872851 0.09642068 0.0095341  12.18258   6.247      0          0          38.199     0.2051278  0.2337602  0.1764954 
911.6      0.212      169.109    6          6          3.95       8.649      1.573      0.04481328 0.04481328 0.1124191  0.01893253 12.18258   5.913      0          0.02363048 38.14      0.2048662  0.2337602  0.1759721 
911.8      0.212      184.592    6          6          3.962      7.544      1.535      0.05735381 0.05735381 0.1250845  0.03232137 12.02116   5.417      0          0.1294504  38.081     0.2052446  0.2350369  0.1754522 
912        0.212      209.106    6          6          3.906      5.871      1.45       0.08674283 0.08674283 0.153415   0.1131998  12.79323   4.782      0.0977091  0.3032345  38.022     0.2020368  0.229138   0.1749356 
912.2000000000001 0.212      249.104    6          6          3.825      4.388      1.347      0.1226064  0.1226064  0.1877449  0.5225469  13.99854   4.014      0.2753313  0.4134233  37.904     0.1973895  0.2208668  0.1739122 
912.4      0.212      298.134    1          3          3.756      3.409      1.258      0.1534773  0.1534773  0.2174086  1.949531   15.11444   3.354      0.3516587  0.4632403  37.845     0.1937311  0.2140568  0.1734055 
912.6      0.211      344.583    1          3          3.762      2.115      1.193      0.1752111  0.1752111  0.2390731  4.925991   15.01397   2.902      0.3816859  0.4833058  37.727     0.1935211  0.2146406  0.1724017 
912.8      0.211      400.063    1          3          3.825      1.61       1.144      0.1905975  0.1905975  0.2554048  9.494809   13.99854   2.5        0.3837466  0.4828107  37.668     0.1963857  0.2208668  0.1719046 
913        0.211      468.447    1          3          3.881      1.515      1.114      0.1998208  0.1998208  0.2654038  14.07096   13.15372   2.135      0.3631331  0.4634117  37.55      0.1987364  0.2265527  0.1709202 
913.2000000000001 0.21       535.54     1          3          3.9        1.42       1.122      0.196911   0.196911   0.2627374  12.42877   12.87884   1.867      0.3130369  0.419262   37.491     0.1994738  0.2285149  0.1704327 
913.4      0.21       574.247    1          3          3.775      1.326      1.101      0.2060699  0.2060699  0.2697367  18.36848   14.79858   1.741      0.3176976  0.418885   37.432     0.1929297  0.2159108  0.1699485 
913.6      0.21       602.633    1          3          3.631      1.372      1.095      0.2104819  0.2104819  0.2717365  22.17146   17.36742   1.659      0.3148335  0.4124777  37.314     0.1856199  0.2022502  0.1689895 
913.8      0.209      623.277    1          3          3.575      1.465      1.122      0.2023987  0.2023987  0.2627374  15.70628   18.48285   1.604      0.2797563  0.3806047  37.255     0.1828445  0.1971742  0.1685148 
914        0.209      637.469    1          3          3.675      1.496      1.119      0.2019657  0.2019657  0.2637373  15.41891   16.53843   1.569      0.2709024  0.3745573  37.196     0.1871865  0.2063299  0.1680432 
914.2000000000001 0.209      654.243    1          3          3.781      1.534      1.116      0.2012876  0.2012876  0.2647372  14.97936   14.70021   1.528      0.2596208  0.3667279  37.196     0.1922714  0.2164996  0.1680432 
914.4      0.209      664.565    1          3          3.868      1.521      1.093      0.2075147  0.2075147  0.2724031  19.53591   13.34518   1.505      0.2738591  0.3803617  37.196     0.1966315  0.2252198  0.1680432 
914.6      0.209      673.596    1          3          3.818      1.49       1.075      0.2143479  0.2143479  0.2784025  26.14581   14.10788   1.485      0.2896169  0.3923467  37.196     0.1941047  0.2201662  0.1680432 
914.8      0.209      680.047    1          3          3.725      1.458      1.061      0.2205157  0.2205157  0.2830687  34.01291   15.64434   1.47       0.3036439  0.4022689  37.196     0.1895546  0.211066   0.1680432 
915        0.21       685.208    1          3          3.687      1.446      1.049      0.2249546  0.2249546  0.2870683  41.10209   16.31929   1.459      0.3132105  0.4098406  37.314     0.1882232  0.2074568  0.1689895 
915.2000000000001 0.21       686.499    1          3          3.731      1.433      1.046      0.2251852  0.2251852  0.2880682  41.50824   15.54035   1.457      0.3133812  0.4108799  37.373     0.1905545  0.2116416  0.1694674 
915.4      0.21       686.499    1          3          3.706      1.427      1.052      0.2235794  0.2235794  0.2860684  38.76065   15.97825   1.457      0.3090881  0.4067143  37.373     0.1893605  0.2092536  0.1694674 
915.6      0.211      683.918    1          3          3.65       1.433      1.061      0.2214463  0.2214463  0.2830687  35.38996   17.00446   1.462      0.3044143  0.4016929  37.373     0.1867347  0.2040019  0.1694674 
915.8      0.211      682.628    1          3          3.681      1.433      1.068      0.2186362  0.2186362  0.2807356  31.39286   16.4285    1.465      0.2973105  0.396202   37.373     0.18818    0.2068926  0.1694674 
916        0.211      678.757    1          3          3.656      1.433      1.074      0.2169422  0.2169422  0.2787358  29.20477   16.89143   1.473      0.2943397  0.3933637  37.432     0.1872534  0.2045582  0.1699485 
916.2000000000001 0.211      674.887    1          3          3.6        1.408      1.079      0.2161228  0.2161228  0.2770693  28.20176   17.97631   1.482      0.2940309  0.3921348  37.432     0.1846864  0.1994243  0.1699485 
916.4      0.211      668.435    1          3          3.581      1.408      1.081      0.2157387  0.2157387  0.2764027  27.74361   18.35999   1.496      0.2960494  0.3936869  37.432     0.1838302  0.1977119  0.1699485 
