~Version
 VERS              .         2.0                           : CWLS LOG ASCII STANDARD - VERSION 2.0
 WRAP              .         NO                            : ONE LINE PER DEPTH STEP
 DLM               .         SPACE                         : DELIMITING CHARACTER(SPACE TAB OR COMMA)
~Well Information
#_______________________________________________________________________________
#
#PARAMETER_NAME    .UNIT     VALUE                         : DESCRIPTION
#_______________________________________________________________________________
STRT               .M        850                           : First reference value
STOP               .M        1282                          : Last reference value
STEP               .M        0.2                           : Step increment
NULL               .         -9999                         : Missing value
COMP               .                                       : Company
WELL               .         1664                          : Well name
FLD                .         Узень                         : Field
LOC                .                                       : Location
CNTY               .                                       : County
STAT               .                                       : State
CTRY               .                                       : Country
SRVC               .                                       : Service Company
DATE               .                                       : Date
UWI                .                                       : Unique Well ID
Block              .         7                             : 
Category           .         Нефтяная                      : 
Condition          .         Ликвидированная               : 
Date               .         01.04.1975                    : 
EREF               .m        87.7                          : 100.8
Gorizont           .         15                            : 14
Interpretator      .         Бекбулатова А.А.              : 
Kupol              .         Основной                      : osnovnoi
Mud                .         0                             : 
Mud_density        .         0                             : 
Mud_resistivity    .         0                             : 
NGDU               .         НГДУ-2                        : 
ORIGINALWELLNAME   .         1664                          : 
Spud_date          .         1975                          : 1961
Viscosity          .         0                             : 
X                  .m        42026.6                       : 46154
Y                  .m        84148.2                       : 85761.93
YEAR               .         2018                          : 
Исправ_15гор       .         Исправ.15гор                  : 
~Parameter Information Block
#_______________________________________________________________________________
#
#PARAMETER_NAME    .UNIT     VALUE                         : DESCRIPTION
#_______________________________________________________________________________
SET                .         LQC_KAZNIPI_Petrel            : 
TLFamily_CALI      .         Caliper                       : 
TLFamily_CILD      .         Conductivity                  : 
TLFamily_COLL      .         Net Reservoir Flag            : 
TLFamily_CSAT      .         Fluid Code                    : 
TLFamily_DEPT      .         Measured Depth                : 
TLFamily_GR        .         Russian Gamma Ray             : 
TLFamily_LLS       .         Lateral Log Resistivity       : 
TLFamily_NGLD      .         Neutron Gamma                 : 
TLFamily_PHIE      .         Effective Porosity            : 
TLFamily_PHIEN     .         Effective Porosity            : 
TLFamily_PHIT      .         Porosity                      : 
TLFamily_PRMB      .         Permeability                  : 
TLFamily_PRMB_DGR  .         Permeability                  : 
TLFamily_RT        .         Formation Resistivity         : 
TLFamily_SOIL_ARCHIE .         Oil Saturation                : 
TLFamily_SOIL_DW   .         Oil Saturation                : 
TLFamily_SP        .         Spontaneous Potential         : 
TLFamily_VSH_FIN   .         Shale Volume                  : 
TLFamily_VSH_GR    .         Shale Volume                  : 
TLFamily_VSH_SP    .         Shale Volume                  : 
~Curve Information
#_______________________________________________________________________________
#
#LOGNAME           .UNIT     LOG_ID                        : DESCRIPTION
#_______________________________________________________________________________
DEPT               .M                                      : Колонка глубины 
CALI               .м                                      : Каверномер 
CILD               .мСм/м                                  : Индукционный каротаж 
COLL               .unitless                               : Описание 
CSAT               .unitless                               : Описание 
GR                 .uR/h                                   : Гамма каротаж 
LLS                .Ohmm                                   : Боковой каротаж 
NGLD               .у.е.                                   : Показания зонда НГК-60 аппаратуры ДРСТ-3-90 
PHIE               .д.ед.                                  : Описание 
PHIEN              .д.ед.                                  :  
PHIT               .д.ед.                                  : Описание 
PRMB               .mD                                     :  
PRMB_DGR           .mD                                     :  
RT                 .ohmm                                   : УЭС пласта 
SOIL_ARCHIE        .д.ед.                                  :  
SOIL_DW            .д.ед.                                  :  
SP                 .мВ                                     : Потенциал самополяризации 
VSH_FIN            .д.ед.                                  : Описание 
VSH_GR             .д.ед.                                  : Shale volume 
VSH_SP             .д.ед.                                  : Shale Volume 
~Ascii
# ...
1086.8     0.241      358.775    -9999      -9999      6.237      2.172      0.976      0.1369525  0.1369525  0.3113992  0.9634995  3.567582   2.787      0.2190302  0.5048102  54.731     0.5286262  0.385977   0.6712754 
1087       0.242      361.356    -9999      -9999      6.137      2.304      0.974      0.1399787  0.1399787  0.3120658  1.096233   4.045561   2.767      0.2311615  0.507724   54.849     0.5214761  0.3666608  0.6762914 
1087.2     0.243      362.646    -9999      -9999      6.131      2.317      0.994      0.133083   0.133083   0.3053998  0.8169178  4.076196   2.758      0.1953497  0.4906928  54.908     0.522172   0.3655331  0.6788111 
1087.4     0.244      364.608    -9999      -9999      6.243      2.348      1.001      0.1271802  0.1271802  0.3030667  0.6351019  3.54077    2.743      0.1607736  0.4781444  54.908     0.5329894  0.3871678  0.6788111 
1087.6     0.244      366.517    -9999      -9999      6.393      2.184      0.969      0.1323147  0.1323147  0.3137323  0.7905841  2.932178   2.728      0.1871208  0.4954297  54.967     0.5497502  0.4181621  0.6813383 
1087.8     0.244      371.678    -9999      -9999      6.55       2.064      0.954      0.1306846  0.1306846  0.3187318  0.7374867  2.406915   2.691      0.1730141  0.4947357  55.085     0.56984    0.4532637  0.6864162 
1088       0.247      374.258    -9999      -9999      6.693      2.096      0.957      0.1244069  0.1244069  0.3177319  0.5642563  2.010834   2.672      0.1339101  0.4827536  55.026     0.5858332  0.487793   0.6838734 
1088.2     0.25       376.839    -9999      -9999      6.75       2.191      0.917      0.1349292  0.1349292  0.3310639  0.8838426  1.871765   2.654      0.1904766  0.5091028  55.085     0.5943475  0.5022788  0.6864162 
1088.4     0.253      378.129    -9999      -9999      6.668      2.115      0.962      0.1233473  0.1233473  0.3160654  0.5393236  2.075043   2.645      0.1232651  0.476757   55.085     0.5839942  0.4815722  0.6864162 
1088.6     0.256      379.419    -9999      -9999      6.625      2.001      0.966      0.1245869  0.1245869  0.3147322  0.5686047  2.190319   2.636      0.1294764  0.4763451  54.967     0.5761977  0.4710572  0.6813383 
1088.8     0.26       382        -9999      -9999      6.6        1.875      0.94       0.134244   0.134244   0.323398   0.8583847  2.260261   2.618      0.1816507  0.4974082  54.967     0.573194   0.4650497  0.6813383 
1089       0.268      383.29     -9999      -9999      6.568      1.875      0.93       0.1388273  0.1388273  0.326731   1.043704   2.353056   2.609      0.2039473  0.5059373  54.967     0.569405   0.4574718  0.6813383 
1089.2     0.264      380.71     -9999      -9999      6.506      1.919      0.917      0.1459421  0.1459421  0.3310639  1.413708   2.543823   2.627      0.2403106  0.5206673  54.908     0.5609752  0.4431393  0.6788111 
1089.4     0.253      374.258    -9999      -9999      6.468      1.989      0.919      0.1462712  0.1462712  0.3303973  1.433689   2.668313   2.672      0.2478184  0.5245192  54.967     0.5579579  0.4345777  0.6813383 
1089.6     0.247      367.807    -9999      -9999      6.381      2.033      0.924      0.148154   0.148154   0.3287308  1.553565   2.976754   2.719      0.2622126  0.5294089  54.908     0.5472024  0.4155938  0.6788111 
1089.8     0.244      362.356    -9999      -9999      6.275      2.058      0.919      0.1538683  0.1538683  0.3303973  1.982316   3.401137   2.76       0.2911306  0.5409734  54.849     0.5349362  0.3935812  0.6762914 
1090       0.238      357.485    -9999      -9999      6.218      2.102      0.934      0.1507417  0.1507417  0.3253978  1.734844   3.653835   2.797      0.2828376  0.5360893  54.849     0.5292608  0.3822302  0.6762914 
1090.2     0.232      343.292    -9999      -9999      6.2        2.184      0.949      0.1454896  0.1454896  0.3203983  1.38669    3.737472   2.913      0.2743122  0.5348408  54.967     0.5300262  0.3787141  0.6813383 
1090.4     0.227      329.1      -9999      -9999      6.187      2.273      0.976      0.137739   0.137739   0.3113992  0.9963633  3.799064   3.039      0.2538483  0.5267968  54.849     0.5262432  0.3761949  0.6762914 
1090.6     0.232      314.907    -9999      -9999      6.187      2.468      0.997      0.1315673  0.1315673  0.3043999  0.7657793  3.799064   3.176      0.2393577  0.5223837  54.731     0.5237352  0.3761949  0.6712754 
1090.8     0.231      300.714    -9999      -9999      6.231      2.661      1.019      0.1236391  0.1236391  0.2970673  0.5460764  3.594597   3.325      0.2141387  0.5149716  54.613     0.5255401  0.3847898  0.6662903 
1091       0.227      285.231    -9999      -9999      6.212      2.841      1.013      0.1258445  0.1258445  0.2990671  0.599935   3.681503   3.506      0.2451589  0.5327054  54.672     0.5249168  0.3810546  0.6687791 
1091.2     0.223      271.038    -9999      -9999      6.2        3.093      1.041      0.1164864  0.1164864  0.2897347  0.402503   3.737472   3.69       0.2117581  0.521924   54.731     0.5249948  0.3787141  0.6712754 
1091.4     0.226      267.168    -9999      -9999      6.187      3.725      1.086      0.1014904  0.1014904  0.2747362  0.2123277  3.799064   3.743      0.1171643  0.4839333  54.79      0.5249873  0.3761949  0.6737797 
1091.6     0.226      267.168    -9999      -9999      6.1        4.23       1.111      0.09503927 0.09503927 0.2664037  0.161256   4.238211   3.743      0.06519478 0.4611899  54.908     0.5192862  0.3597614  0.6788111 
1091.8     0.225      277.49     -9999      -9999      5.981      4.198      1.131      0.09105604 0.09105604 0.2597377  0.136062   4.922235   3.604      0.01229268 0.4333425  55.026     0.5111565  0.3384396  0.6838734 
1092       0.225      291.682    -9999      -9999      6.156      3.472      1.126      0.08705345 0.08705345 0.2614042  0.1147094  3.950062   3.428      0          0.4122989  55.085     0.5283356  0.370255   0.6864162 
1092.2     0.231      300.714    -9999      -9999      6.231      3.819      1.071      0.1021437  0.1021437  0.2797357  0.2183271  3.594597   3.325      0.07191838 0.4600202  55.203     0.5381575  0.3847898  0.6915252 
1092.4     0.244      305.875    -9999      -9999      6.337      3.22       1.047      0.1061685  0.1061685  0.2877349  0.2592129  3.146075   3.269      0.09545601 0.4725134  55.262     0.5502011  0.4063108  0.6940915 
1092.6     0.259      308.456    -9999      -9999      6.518      2.399      1.012      0.1108808  0.1108808  0.2994004  0.3169121  2.505731   3.242      0.1256338  0.4916256  55.321     0.5712717  0.4458779  0.6966654 
1092.8     0.271      313.617    -9999      -9999      6.712      2.367      0.957      0.121932   0.121932   0.3177319  0.507732   1.963366   3.189      0.1888227  0.523095   55.262     0.593333   0.4925746  0.6940915 
1093       0.262      325.229    -9999      -9999      6.893      2.519      0.905      0.1321945  0.1321945  0.3350635  0.7865408  1.563747   3.075      0.2309266  0.5440338  55.144     0.6147545  0.5405421  0.6889669 
1093.2     0.253      339.422    -9999      -9999      6.737      2.513      0.899      0.1427348  0.1427348  0.3370633  1.232969   1.902611   2.946      0.2660187  0.5487441  54.908     0.5888743  0.4989376  0.6788111 
1093.4     0.243      357.485    -9999      -9999      6.712      2.361      0.898      0.1453614  0.1453614  0.3373966  1.379124   1.963366   2.797      0.2597728  0.5402791  54.731     0.581925   0.4925746  0.6712754 
1093.6     0.251      379.419    -9999      -9999      6.837      2.14       0.906      0.1397674  0.1397674  0.3347302  1.086398   1.677819   2.636      0.2124267  0.5171279  54.376     0.5907964  0.5252224  0.6563705 
1093.8     0.259      398.773    -9999      -9999      6.968      1.963      0.904      0.1364139  0.1364139  0.3353968  0.941618   1.423026   2.508      0.1765798  0.5011652  54.081     0.6029785  0.5617619  0.6441951 
1094       0.266      419.417    -9999      -9999      7.068      1.768      0.871      0.1437201  0.1437201  0.3463957  1.285888   1.254897   2.384      0.1942125  0.5081984  53.904     0.6141685  0.5913562  0.6369807 
