~Version
 VERS              .         2.0                           : CWLS LOG ASCII STANDARD - VERSION 2.0
 WRAP              .         NO                            : ONE LINE PER DEPTH STEP
 DLM               .         SPACE                         : DELIMITING CHARACTER(SPACE TAB OR COMMA)
~Well Information
#_______________________________________________________________________________
#
#PARAMETER_NAME    .UNIT     VALUE                         : DESCRIPTION
#_______________________________________________________________________________
STRT               .M        850                           : First reference value
STOP               .M        1282                          : Last reference value
STEP               .M        0.2                           : Step increment
NULL               .         -9999                         : Missing value
COMP               .                                       : Company
WELL               .         1664                          : Well name
FLD                .         Узень                         : Field
LOC                .                                       : Location
CNTY               .                                       : County
STAT               .                                       : State
CTRY               .                                       : Country
SRVC               .                                       : Service Company
DATE               .                                       : Date
UWI                .                                       : Unique Well ID
Block              .         7                             : 
Category           .         Нефтяная                      : 
Condition          .         Ликвидированная               : 
Date               .         01.04.1975                    : 
EREF               .m        87.7                          : 100.8
Gorizont           .         15                            : 14
Interpretator      .         Бекбулатова А.А.              : 
Kupol              .         Основной                      : osnovnoi
Mud                .         0                             : 
Mud_density        .         0                             : 
Mud_resistivity    .         0                             : 
NGDU               .         НГДУ-2                        : 
ORIGINALWELLNAME   .         1664                          : 
Spud_date          .         1975                          : 1961
Viscosity          .         0                             : 
X                  .m        42026.6                       : 46154
Y                  .m        84148.2                       : 85761.93
YEAR               .         2018                          : 
Исправ_15гор       .         Исправ.15гор                  : 
~Parameter Information Block
#_______________________________________________________________________________
#
#PARAMETER_NAME    .UNIT     VALUE                         : DESCRIPTION
#_______________________________________________________________________________
SET                .         LQC_KAZNIPI_Petrel            : 
TLFamily_CALI      .         Caliper                       : 
TLFamily_CILD      .         Conductivity                  : 
TLFamily_COLL      .         Net Reservoir Flag            : 
TLFamily_CSAT      .         Fluid Code                    : 
TLFamily_DEPT      .         Measured Depth                : 
TLFamily_GR        .         Russian Gamma Ray             : 
TLFamily_LLS       .         Lateral Log Resistivity       : 
TLFamily_NGLD      .         Neutron Gamma                 : 
TLFamily_PHIE      .         Effective Porosity            : 
TLFamily_PHIEN     .         Effective Porosity            : 
TLFamily_PHIT      .         Porosity                      : 
TLFamily_PRMB      .         Permeability                  : 
TLFamily_PRMB_DGR  .         Permeability                  : 
TLFamily_RT        .         Formation Resistivity         : 
TLFamily_SOIL_ARCHIE .         Oil Saturation                : 
TLFamily_SOIL_DW   .         Oil Saturation                : 
TLFamily_SP        .         Spontaneous Potential         : 
TLFamily_VSH_FIN   .         Shale Volume                  : 
TLFamily_VSH_GR    .         Shale Volume                  : 
TLFamily_VSH_SP    .         Shale Volume                  : 
~Curve Information
#_______________________________________________________________________________
#
#LOGNAME           .UNIT     LOG_ID                        : DESCRIPTION
#_______________________________________________________________________________
DEPT               .M                                      : Колонка глубины 
CALI               .м                                      : Каверномер 
CILD               .мСм/м                                  : Индукционный каротаж 
COLL               .unitless                               : Описание 
CSAT               .unitless                               : Описание 
GR                 .uR/h                                   : Гамма каротаж 
LLS                .Ohmm                                   : Боковой каротаж 
NGLD               .у.е.                                   : Показания зонда НГК-60 аппаратуры ДРСТ-3-90 
PHIE               .д.ед.                                  : Описание 
PHIEN              .д.ед.                                  :  
PHIT               .д.ед.                                  : Описание 
PRMB               .mD                                     :  
PRMB_DGR           .mD                                     :  
RT                 .ohmm                                   : УЭС пласта 
SOIL_ARCHIE        .д.ед.                                  :  
SOIL_DW            .д.ед.                                  :  
SP                 .мВ                                     : Потенциал самополяризации 
VSH_FIN            .д.ед.                                  : Описание 
VSH_GR             .д.ед.                                  : Shale volume 
VSH_SP             .д.ед.                                  : Shale Volume 
~Ascii
# ...
1116.4     0.211      60.728     1          2          6.568      46.559     1.104      0.2064967  0.2064967  0.2687368  18.70585   19.93134   16.467     0.7627097  0.8108016  36.487     0.1886065  0.1911922  0.1860209 
1116.6     0.211      76.211     1          2          6.537      44.823     1.097      0.2063902  0.2063902  0.2710699  18.62109   21.69276   13.121     0.735901   0.7890646  38.435     0.1959991  0.1846938  0.2073045 
1116.8     0.211      100.725    1          2          6.587      37.879     1.091      0.1957313  0.1957313  0.2730697  11.81889   18.9232    9.928      0.6847509  0.7531677  42.923     0.2343588  0.1952876  0.27343   
1117       0.213      139.433    1          2          6.587      25.032     1.098      0.179026   0.179026   0.2707366  5.796343   18.9232    7.172      0.6031117  0.6972336  47.114     0.2779108  0.1952876  0.3605341 
1117.2     0.213      172.979    1          2          6.55       14.173     1.113      0.1637875  0.1637875  0.2657371  3.026214   20.93589   5.781      0.5254757  0.6465086  49.771     0.3089382  0.1873916  0.4304848 
1117.4     0.213      205.236    -9999      -9999      6.537      7.355      1.109      0.1560851  0.1560851  0.2670703  2.178878   21.69276   4.872      0.4637808  0.608632   51.661     0.3363188  0.1846938  0.4879439 
1117.6     0.213      228.46     -9999      -9999      6.556      3.883      1.099      0.14055    0.14055    0.2704033  1.123274   20.59553   4.377      0.382222   0.572966   54.79      0.3934948  0.18865    0.5983395 
1117.8     0.213      260.716    -9999      -9999      6.593      2.715      1.096      0.1259462  0.1259462  0.2714032  0.6025421  18.61556   3.836      0.2768681  0.5253677  56.915     0.4407788  0.196599   0.6849586 
1118       0.213      299.424    -9999      -9999      6.575      2.525      1.092      0.1179255  0.1179255  0.2727364  0.4279804  19.55382   3.34       0.1828064  0.480258   58.273     0.469124   0.1926909  0.7455571 
1118.2     0.213      332.97     -9999      -9999      6.537      2.336      1.089      0.1147465  0.1147465  0.2737363  0.3737159  21.69276   3.003      0.1202943  0.4475844  58.982     0.4817873  0.1846938  0.7788808 
1118.4     0.213      354.905    -9999      -9999      6.643      2.052      1.084      0.1139866  0.1139866  0.2754028  0.361798   16.23886   2.818      0.08839002 0.4305372  58.804     0.48914    0.2078758  0.7704043 
1118.6     0.213      353.614    -9999      -9999      6.768      1.894      1.071      0.1255978  0.1255978  0.2797357  0.5936546  11.54129   2.828      0.1636358  0.4569809  57.151     0.4670846  0.2389793  0.69519   
1118.8     0.213      338.131    -9999      -9999      6.918      1.894      1.063      0.1378094  0.1378094  0.2824021  0.9993597  7.661133   2.957      0.2445454  0.4902927  54.672     0.4381598  0.2825061  0.5938136 
1119       0.213      316.197    -9999      -9999      7.068      2.525      1.073      0.1376353  0.1376353  0.2790691  0.9919671  5.085483   3.163      0.2672403  0.5033046  52.723     0.4285874  0.3339605  0.5232142 
1119.2     0.212      299.424    -9999      -9999      7.231      4.009      1.093      0.1358377  0.1358377  0.2724031  0.9187579  3.257974   3.34       0.2775005  0.5069072  49.653     0.4138346  0.4005536  0.4271157 
1119.4     0.211      292.973    -9999      -9999      7.375      4.135      1.091      0.1409059  0.1409059  0.2730697  1.140452   2.198389   3.413      0.307252   0.5197729  45.815     0.4004965  0.4703503  0.3306426 
1119.6     0.211      286.521    -9999      -9999      7.206      3.819      1.071      0.167303   0.167303   0.2797357  3.515727   3.488251   3.49       0.4096934  0.5625683  43.926     0.3407052  0.3895375  0.2918729 
1119.8     0.21       271.038    1          2          6.975      3.504      1.061      0.1889639  0.1889639  0.2830687  8.855816   6.556442   3.69       0.4827873  0.5978474  42.686     0.285166   0.3010519  0.2692801 
1120       0.21       255.555    1          2          6.925      3.567      1.069      0.1919046  0.1919046  0.2804023  10.03917   7.516024   3.913      0.5035567  0.6097565  41.624     0.2681747  0.2847206  0.2516287 
1120.2     0.21       234.911    1          2          6.937      3.914      1.074      0.1915573  0.1915573  0.2787358  9.891524   7.273642   4.257      0.5220496  0.6242589  40.856     0.2641774  0.2885574  0.2397975 
1120.4     0.21       220.719    1          2          6.931      4.324      1.071      0.1944273  0.1944273  0.2797357  11.17954   7.393833   4.531      0.5418106  0.6387775  40.207     0.2585102  0.2866327  0.2303878 
1120.6     0.21       207.816    1          2          6.906      4.703      1.07       0.1974002  0.1974002  0.280069   12.6908    7.916441   4.812      0.5604152  0.6519092  39.616     0.2505114  0.2787497  0.2222732 
1120.8     0.21       197.494    1          2          6.906      4.861      1.075      0.1971242  0.1971242  0.2784025  12.54229   7.916441   5.063      0.5702564  0.6592582  38.967     0.2462978  0.2787497  0.2138459 
1121       0.21       187.172    1          2          6.912      4.893      1.082      0.195678   0.195678   0.2760694  11.79206   7.787741   5.343      0.5782796  0.6656486  38.376     0.2436103  0.2806216  0.2065989 
1121.2     0.21       184.592    1          2          7.012      5.051      1.085      0.1900109  0.1900109  0.2750695  9.260196   5.926126   5.417      0.5701292  0.6631813  37.963     0.2577534  0.3137372  0.2017695 
1121.4     0.21       184.592    1          2          7.118      5.208      1.092      0.1818385  0.1818385  0.2727364  6.535031   4.436204   5.417      0.5533506  0.6553363  37.609     0.2754483  0.3531163  0.1977802 
1121.6     0.209      185.882    1          2          7.218      5.398      1.101      0.1723895  0.1723895  0.2697367  4.367467   3.375753   5.38       0.5305949  0.644244   37.373     0.2949916  0.3947869  0.1951963 
1121.8     0.209      184.592    -9999      -9999      7.337      5.556      1.117      0.1582262  0.1582262  0.2644039  2.387211   2.438868   5.417      0.495828   0.6286172  37.137     0.3217507  0.4508294  0.1926719 
1122       0.209      189.753    1          2          6.831      5.019      1.145      0.181286   0.181286   0.2550715  6.382855   9.716526   5.27       0.5463462  0.6360343  36.959     0.2235924  0.2563778  0.1908069 
1122.2     0.209      192.333    1          2          6.9        4.135      1.113      0.1891629  0.1891629  0.2657371  8.931276   8.047269   5.199      0.5600524  0.6484926  36.605     0.2320431  0.2768902  0.1871959 
1122.4     0.209      194.914    1          2          6.975      4.324      1.074      0.1993035  0.1993035  0.2787358  13.76391   6.556442   5.13       0.5769696  0.66326    35.897     0.240704   0.3010519  0.1803562 
1122.6     0.209      196.204    1          2          6.881      4.766      1.04       0.2166292  0.2166292  0.290068   28.81752   8.475988   5.097      0.6054006  0.6811734  35.188     0.2225418  0.2710835  0.1740002 
1122.8     0.209      197.494    1          2          6.956      4.672      1.034      0.2155391  0.2155391  0.2920678  27.50837   6.905737   5.063      0.6024162  0.6807173  34.598     0.2319052  0.2947384  0.1690719 
1123       0.209      197.494    1          2          7.125      4.167      1.052      0.1998376  0.1998376  0.2860684  14.08104   4.352179   5.063      0.5753428  0.6665412  34.303     0.2613055  0.3558843  0.1667267 
1123.2     0.209      197.494    1          2          7.287      4.04       1.047      0.1895649  0.1895649  0.2877349  9.085714   2.795815   5.063      0.5553686  0.6604285  34.539     0.2974849  0.4263732  0.1685966 
1123.4     0.209      196.204    1          2          7.475      4.198      1.028      0.1780777  0.1780777  0.2940676  5.566598   1.672876   5.097      0.5319623  0.6573871  35.542     0.3514844  0.5258555  0.1771133 
1123.6     0.209      193.623    -9999      -9999      7.575      4.135      1.047      0.1606039  0.1606039  0.2877349  2.641989   1.272985   5.165      0.4910848  0.6407134  36.133     0.3852455  0.5879107  0.1825804 
