~Version
 VERS              .         2.0                           : CWLS LOG ASCII STANDARD - VERSION 2.0
 WRAP              .         NO                            : ONE LINE PER DEPTH STEP
 DLM               .         SPACE                         : DELIMITING CHARACTER(SPACE TAB OR COMMA)
~Well Information
#_______________________________________________________________________________
#
#PARAMETER_NAME    .UNIT     VALUE                         : DESCRIPTION
#_______________________________________________________________________________
STRT               .M        850                           : First reference value
STOP               .M        1282                          : Last reference value
STEP               .M        0.2                           : Step increment
NULL               .         -9999                         : Missing value
COMP               .                                       : Company
WELL               .         1664                          : Well name
FLD                .         Узень                         : Field
LOC                .                                       : Location
CNTY               .                                       : County
STAT               .                                       : State
CTRY               .                                       : Country
SRVC               .                                       : Service Company
DATE               .                                       : Date
UWI                .                                       : Unique Well ID
Block              .         7                             : 
Category           .         Нефтяная                      : 
Condition          .         Ликвидированная               : 
Date               .         01.04.1975                    : 
EREF               .m        87.7                          : 100.8
Gorizont           .         15                            : 14
Interpretator      .         Бекбулатова А.А.              : 
Kupol              .         Основной                      : osnovnoi
Mud                .         0                             : 
Mud_density        .         0                             : 
Mud_resistivity    .         0                             : 
NGDU               .         НГДУ-2                        : 
ORIGINALWELLNAME   .         1664                          : 
Spud_date          .         1975                          : 1961
Viscosity          .         0                             : 
X                  .m        42026.6                       : 46154
Y                  .m        84148.2                       : 85761.93
YEAR               .         2018                          : 
Исправ_15гор       .         Исправ.15гор                  : 
~Parameter Information Block
#_______________________________________________________________________________
#
#PARAMETER_NAME    .UNIT     VALUE                         : DESCRIPTION
#_______________________________________________________________________________
SET                .         LQC_KAZNIPI_Petrel            : 
TLFamily_CALI      .         Caliper                       : 
TLFamily_CILD      .         Conductivity                  : 
TLFamily_COLL      .         Net Reservoir Flag            : 
TLFamily_CSAT      .         Fluid Code                    : 
TLFamily_DEPT      .         Measured Depth                : 
TLFamily_GR        .         Russian Gamma Ray             : 
TLFamily_LLS       .         Lateral Log Resistivity       : 
TLFamily_NGLD      .         Neutron Gamma                 : 
TLFamily_PHIE      .         Effective Porosity            : 
TLFamily_PHIEN     .         Effective Porosity            : 
TLFamily_PHIT      .         Porosity                      : 
TLFamily_PRMB      .         Permeability                  : 
TLFamily_PRMB_DGR  .         Permeability                  : 
TLFamily_RT        .         Formation Resistivity         : 
TLFamily_SOIL_ARCHIE .         Oil Saturation                : 
TLFamily_SOIL_DW   .         Oil Saturation                : 
TLFamily_SP        .         Spontaneous Potential         : 
TLFamily_VSH_FIN   .         Shale Volume                  : 
TLFamily_VSH_GR    .         Shale Volume                  : 
TLFamily_VSH_SP    .         Shale Volume                  : 
~Curve Information
#_______________________________________________________________________________
#
#LOGNAME           .UNIT     LOG_ID                        : DESCRIPTION
#_______________________________________________________________________________
DEPT               .M                                      : Колонка глубины 
CALI               .м                                      : Каверномер 
CILD               .мСм/м                                  : Индукционный каротаж 
COLL               .unitless                               : Описание 
CSAT               .unitless                               : Описание 
GR                 .uR/h                                   : Гамма каротаж 
LLS                .Ohmm                                   : Боковой каротаж 
NGLD               .у.е.                                   : Показания зонда НГК-60 аппаратуры ДРСТ-3-90 
PHIE               .д.ед.                                  : Описание 
PHIEN              .д.ед.                                  :  
PHIT               .д.ед.                                  : Описание 
PRMB               .mD                                     :  
PRMB_DGR           .mD                                     :  
RT                 .ohmm                                   : УЭС пласта 
SOIL_ARCHIE        .д.ед.                                  :  
SOIL_DW            .д.ед.                                  :  
SP                 .мВ                                     : Потенциал самополяризации 
VSH_FIN            .д.ед.                                  : Описание 
VSH_GR             .д.ед.                                  : Shale volume 
VSH_SP             .д.ед.                                  : Shale Volume 
~Ascii
# ...
1012.8     0.228      411.676    -9999      -9999      6.062      1.534      1.007      0.105501   0.105501   0.3010669  0.2519372  1.16461    2.429      0          0.404428   56.915     0.592624   0.6096638  0.5755842 
1013       0.217      438.771    -9999      -9999      6.031      1.433      0.939      0.1313679  0.1313679  0.3237313  0.7592952  1.20544    2.279      0.1099961  0.4573926  56.62      0.5829193  0.6011457  0.5646929 
1013.2     0.256      450.383    -9999      -9999      5.962      1.465      0.865      0.159801   0.159801   0.3483955  2.553055   1.301533   2.22       0.2403247  0.5118294  56.502     0.5714985  0.5826105  0.5603865 
1013.4     0.275      452.964    -9999      -9999      5.887      1.528      0.815      0.1793287  0.1793287  0.3650605  5.871644   1.414689   2.208      0.3111514  0.5448539  56.561     0.5628238  0.5631114  0.5625362 
1013.6     0.286      455.544    -9999      -9999      6.006      1.591      0.853      0.1600762  0.1600762  0.3523951  2.5832     1.239407   2.195      0.2374205  0.5128567  56.797     0.5827845  0.5943629  0.5712062 
1013.8     0.276      461.995    -9999      -9999      6.112      1.37       0.874      0.1464284  0.1464284  0.3453958  1.443333   1.101649   2.165      0.170537   0.4865195  57.092     0.6029316  0.6236581  0.5822052 
1014       0.269      469.737    -9999      -9999      6.231      0.96       0.893      0.1314123  0.1314123  0.3390631  0.7607346  0.9651538  2.129      0.08137221 0.4549888  57.565     0.6292447  0.6582698  0.6002197 
1014.2     0.264      477.478    -9999      -9999      6.35       0.789      0.897      0.1210075  0.1210075  0.3377299  0.4881024  0.8455701  2.094      0.005239449 0.4326299  58.037     0.6567345  0.6948025  0.6186665 
1014.4     0.259      474.898    -9999      -9999      6.262      1.016      0.893      0.1248874  0.1248874  0.3390631  0.5759374  0.9324624  2.106      0.03480163 0.4419496  58.332     0.6490173  0.6675975  0.6304372 
1014.6     0.252      468.447    -9999      -9999      6.306      1.736      0.895      0.1200257  0.1200257  0.3383965  0.4680853  0.8879535  2.135      0.007230588 0.4372122  58.627     0.6617298  0.6810642  0.6423953 
1014.8     0.246      468.447    -9999      -9999      6.312      1.515      0.905      0.1147853  0.1147853  0.3350635  0.3743354  0.8820518  2.135      0          0.4246748  58.863     0.6675096  0.6829214  0.6520978 
1015       0.252      468.447    -9999      -9999      6.318      1.477      0.919      0.1085911  0.1085911  0.3303973  0.2874274  0.8761887  2.135      0          0.4081405  59.041     0.6721401  0.6847838  0.6594964 
1015.2     0.268      473.608    -9999      -9999      6.256      1.799      0.931      0.1073196  0.1073196  0.3263977  0.2722565  0.938702   2.111      0          0.3975751  59.1       0.6638729  0.6657819  0.6619639 
1015.4     0.274      469.737    -9999      -9999      6.175      1.989      0.947      0.1055438  0.1055438  0.3210649  0.2523978  1.027141   2.129      0          0.390119   59.159     0.6530942  0.641749   0.6644394 
1015.6     0.258      455.544    -9999      -9999      6.025      1.97       0.969      0.1051805  0.1051805  0.3137323  0.2485174  1.213506   2.195      0          0.3894627  59.159     0.6319751  0.5995108  0.6644394 
1015.8     0.242      441.351    -9999      -9999      5.925      1.856      0.972      0.1085701  0.1085701  0.3127324  0.2871702  1.356177   2.266      0          0.4044405  59.159     0.6186737  0.572908   0.6644394 
1016       0.229      429.739    -9999      -9999      5.875      1.686      0.974      0.1100246  0.1100246  0.3120658  0.3055493  1.433685   2.327      0          0.4142144  59.159     0.612246   0.5600526  0.6644394 
1016.2     0.227      419.417    -9999      -9999      5.812      1.793      0.985      0.1085537  0.1085537  0.3083995  0.2869691  1.537683   2.384      0          0.4140425  59.218     0.6055934  0.5442647  0.6669223 
1016.4     0.224      405.224    -9999      -9999      5.818      1.963      1.025      0.09497677 0.09497677 0.2950675  0.1608267  1.527462   2.468      0          0.3791911  59.218     0.6063356  0.5457489  0.6669223 
1016.6     0.221      391.032    -9999      -9999      5.806      2.418      1.082      0.07646777 0.07646777 0.2760694  0.07303428 1.547972   2.557      0          0.3147393  59.218     0.6048534  0.5427846  0.6669223 
1016.8     0.217      376.839    -9999      -9999      5.743      2.462      1.142      0.05899448 0.05899448 0.2560714  0.03466402 1.660261   2.654      0          0.2317591  59.218     0.5972028  0.5274834  0.6669223 
1017       0.215      365.227    -9999      -9999      5.668      2.967      1.198      0.04324262 0.04324262 0.2374066  0.01770583 1.804604   2.738      0          0.1270107  59.218     0.5883757  0.5098293  0.6669223 
1017.2     0.214      368.003    -9999      -9999      5.675      3.598      1.251      0.02489901 0.02489901 0.2197417  0.008097447 1.790618   2.718      0          0          59.277     0.5904323  0.5114517  0.669413  
1017.4     0.214      370.388    -9999      -9999      5.662      4.009      1.294      0.01188425 0.01188425 0.2054098  0.004648182 1.816681   2.7        0          0          59.159     0.586441   0.5084427  0.6644394 
1017.6     0.214      369.097    -9999      -9999      5.693      3.409      1.22       0.0361753  0.0361753  0.230074   0.01309822 1.755148   2.709      0          0.05842869 59.041     0.5875718  0.5156473  0.6594964 
1017.8     0.214      374.258    -9999      -9999      5.768      2.525      1.114      0.07018177 0.07018177 0.2654038  0.0558592  1.614758   2.672      0          0.2922381  58.804     0.5915819  0.533503   0.6496608 
1018       0.215      401.354    -9999      -9999      5.743      1.705      0.974      0.1206168  0.1206168  0.3120658  0.4800356  1.660261   2.492      0.08065382 0.4521225  58.391     0.5801486  0.5274834  0.6328137 
1018.2     0.218      443.932    -9999      -9999      5.85       1.496      0.88       0.1503347  0.1503347  0.343396   1.704991   1.474085   2.253      0.2043563  0.4997095  57.978     0.5850341  0.5537335  0.6163348 
1018.4     0.237      490.381    -9999      -9999      6          1.357      0.832      0.1644241  0.1644241  0.3593944  3.109508   1.247702   2.039      0.2287896  0.5057353  57.269     0.590819   0.5927464  0.5888916 
1018.6     0.248      521.347    -9999      -9999      6.156      1.193      0.83       0.1615503  0.1615503  0.360061   2.750816   1.049065   1.918      0.1940462  0.4875924  56.679     0.6015476  0.6362384  0.5668569 
1018.8     0.257      534.249    -9999      -9999      6.3        1.25       0.86       0.1469353  0.1469353  0.350062   1.474876   0.8938958  1.872      0.11463    0.4531517  56.266     0.6155356  0.679212   0.5518591 
1019       0.248      538.12     -9999      -9999      6.362      1.319      0.894      0.1344859  0.1344859  0.3387298  0.8672878  0.8343664  1.858      0.04028529 0.4210854  55.911     0.6189209  0.6985971  0.5392447 
1019.2     0.237      540.701    -9999      -9999      6.256      1.427      0.926      0.1305953  0.1305953  0.3280642  0.7346831  0.938702   1.849      0.01318518 0.4013845  55.675     0.5983906  0.6657819  0.5309992 
1019.4     0.228      540.701    -9999      -9999      6.3        1.452      0.949      0.1213868  0.1213868  0.3203983  0.4960622  0.8938958  1.849      0          0.3760348  55.557     0.6030651  0.679212   0.5269182 
1019.6     0.232      521.347    -9999      -9999      6.156      1.408      0.975      0.1198116  0.1198116  0.3117325  0.4638317  1.049065   1.919      0          0.3737276  55.557     0.5815783  0.6362384  0.5269182 
1019.8     0.237      478.769    -9999      -9999      6.15       1.566      1.022      0.1044321  0.1044321  0.2960674  0.2407096  1.056085   2.089      0          0.3484416  55.557     0.5807132  0.6345081  0.5269182 
1020       0.244      450.383    -9999      -9999      6.081      1.944      1.079      0.08832587 0.08832587 0.2770693  0.1211065  1.140272   2.22       0          0.3006175  55.616     0.5719498  0.6149442  0.5289553 
