~Version
 VERS              .         2.0                           : CWLS LOG ASCII STANDARD - VERSION 2.0
 WRAP              .         NO                            : ONE LINE PER DEPTH STEP
 DLM               .         SPACE                         : DELIMITING CHARACTER(SPACE TAB OR COMMA)
~Well Information
#_______________________________________________________________________________
#
#PARAMETER_NAME    .UNIT     VALUE                         : DESCRIPTION
#_______________________________________________________________________________
STRT               .M        850                           : First reference value
STOP               .M        1282                          : Last reference value
STEP               .M        0.2                           : Step increment
NULL               .         -9999                         : Missing value
COMP               .                                       : Company
WELL               .         1664                          : Well name
FLD                .         Узень                         : Field
LOC                .                                       : Location
CNTY               .                                       : County
STAT               .                                       : State
CTRY               .                                       : Country
SRVC               .                                       : Service Company
DATE               .                                       : Date
UWI                .                                       : Unique Well ID
Block              .         7                             : 
Category           .         Нефтяная                      : 
Condition          .         Ликвидированная               : 
Date               .         01.04.1975                    : 
EREF               .m        87.7                          : 100.8
Gorizont           .         15                            : 14
Interpretator      .         Бекбулатова А.А.              : 
Kupol              .         Основной                      : osnovnoi
Mud                .         0                             : 
Mud_density        .         0                             : 
Mud_resistivity    .         0                             : 
NGDU               .         НГДУ-2                        : 
ORIGINALWELLNAME   .         1664                          : 
Spud_date          .         1975                          : 1961
Viscosity          .         0                             : 
X                  .m        42026.6                       : 46154
Y                  .m        84148.2                       : 85761.93
YEAR               .         2018                          : 
Исправ_15гор       .         Исправ.15гор                  : 
~Parameter Information Block
#_______________________________________________________________________________
#
#PARAMETER_NAME    .UNIT     VALUE                         : DESCRIPTION
#_______________________________________________________________________________
SET                .         LQC_KAZNIPI_Petrel            : 
TLFamily_CALI      .         Caliper                       : 
TLFamily_CILD      .         Conductivity                  : 
TLFamily_COLL      .         Net Reservoir Flag            : 
TLFamily_CSAT      .         Fluid Code                    : 
TLFamily_DEPT      .         Measured Depth                : 
TLFamily_GR        .         Russian Gamma Ray             : 
TLFamily_LLS       .         Lateral Log Resistivity       : 
TLFamily_NGLD      .         Neutron Gamma                 : 
TLFamily_PHIE      .         Effective Porosity            : 
TLFamily_PHIEN     .         Effective Porosity            : 
TLFamily_PHIT      .         Porosity                      : 
TLFamily_PRMB      .         Permeability                  : 
TLFamily_PRMB_DGR  .         Permeability                  : 
TLFamily_RT        .         Formation Resistivity         : 
TLFamily_SOIL_ARCHIE .         Oil Saturation                : 
TLFamily_SOIL_DW   .         Oil Saturation                : 
TLFamily_SP        .         Spontaneous Potential         : 
TLFamily_VSH_FIN   .         Shale Volume                  : 
TLFamily_VSH_GR    .         Shale Volume                  : 
TLFamily_VSH_SP    .         Shale Volume                  : 
~Curve Information
#_______________________________________________________________________________
#
#LOGNAME           .UNIT     LOG_ID                        : DESCRIPTION
#_______________________________________________________________________________
DEPT               .M                                      : Колонка глубины 
CALI               .м                                      : Каверномер 
CILD               .мСм/м                                  : Индукционный каротаж 
COLL               .unitless                               : Описание 
CSAT               .unitless                               : Описание 
GR                 .uR/h                                   : Гамма каротаж 
LLS                .Ohmm                                   : Боковой каротаж 
NGLD               .у.е.                                   : Показания зонда НГК-60 аппаратуры ДРСТ-3-90 
PHIE               .д.ед.                                  : Описание 
PHIEN              .д.ед.                                  :  
PHIT               .д.ед.                                  : Описание 
PRMB               .mD                                     :  
PRMB_DGR           .mD                                     :  
RT                 .ohmm                                   : УЭС пласта 
SOIL_ARCHIE        .д.ед.                                  :  
SOIL_DW            .д.ед.                                  :  
SP                 .мВ                                     : Потенциал самополяризации 
VSH_FIN            .д.ед.                                  : Описание 
VSH_GR             .д.ед.                                  : Shale volume 
VSH_SP             .д.ед.                                  : Shale Volume 
~Ascii
# ...
1220       0.211      480.704    -9999      -9999      6.412      2.537      1.089      0.2291429  0.2291429  0.2737363  49.14071   61.0199    2.081      0.4358512  0.5032899  26.391     0.1351314  0.1210728  0.1491899 
1220.2     0.211      454.254    -9999      -9999      6.368      2.976      1.137      0.2136464  0.2136464  0.2577379  25.37511   67.81475   2.201      0.4159439  0.4848956  26.745     0.1336106  0.1159641  0.1512571 
1220.4     0.21       433.61     -9999      -9999      6.468      3.382      1.111      0.2198624  0.2198624  0.2664037  33.0783    53.34751   2.306      0.4426744  0.5122194  27.218     0.1410343  0.1279016  0.154167  
1220.6     0.21       412.966    -9999      -9999      6.606      3.728      1.117      0.2140343  0.2140343  0.2644039  25.79836   38.30928   2.422      0.4424694  0.5164925  27.926     0.1526352  0.1464193  0.1588512 
1220.8     0.21       394.902    -9999      -9999      6.737      3.889      1.122      0.2101949  0.2101949  0.2627374  21.90169   27.97619   2.532      0.4452932  0.5217327  26.863     0.1592197  0.1664723  0.1519671 
1221       0.21       380.71     -9999      -9999      6.731      3.974      1.145      0.2056964  0.2056964  0.2550715  18.07817   28.3819    2.627      0.4444285  0.5179793  23.026     0.1496215  0.1654965  0.1337465 
1221.2     0.21       374.258    1          2          6.575      3.855      1.173      0.2020436  0.2020436  0.2457391  15.47019   41.26761   2.672      0.4401703  0.5079618  18.893     0.1324107  0.1420388  0.1227825 
1221.4     0.21       371.678    1          2          6.418      3.627      1.137      0.2184346  0.2184346  0.2577379  31.12412   60.14769   2.691      0.4786766  0.5385264  14.524     0.1191009  0.1217867  0.1164151 
1221.6     0.209      374.258    1          2          6.412      3.45       1.154      0.2129686  0.2129686  0.2520718  24.65205   61.0199    2.672      0.4652672  0.5258493  14.111     0.1184945  0.1210728  0.1159162 
1221.8     0.209      384.58     1          2          6.45       3.323      1.14       0.2169122  0.2169122  0.256738   29.16747   55.70216   2.6        0.4669553  0.5280663  13.934     0.1206842  0.1256656  0.1157028 
1222       0.21       394.902    1          2          6.418      3.272      1.1        0.2308608  0.2308608  0.27007    52.87609   60.14769   2.532      0.4887994  0.5476437  14.052     0.1188159  0.1217867  0.1158451 
1222.2     0.21       409.095    1          2          6.45       3.272      1.122      0.2227586  0.2227586  0.2627374  37.4273    55.70216   2.444      0.4638161  0.5250617  14.701     0.1211478  0.1256656  0.11663   
1222.4     0.21       423.288    1          2          6.55       3.204      1.154      0.2098263  0.2098263  0.2520718  21.56006   43.81889   2.362      0.4260269  0.4924888  15.351     0.1280167  0.1386019  0.1174315 
1222.6     0.211      437.481    1          2          6.662      3.103      1.158      0.2057288  0.2057288  0.2507386  18.10316   33.4924    2.286      0.4070523  0.4781892  15.882     0.1363934  0.1546777  0.118109  
1222.8     0.211      454.254    1          2          6.768      3.052      1.157      0.2031388  0.2031388  0.2510719  16.20992   25.97068   2.201      0.3897176  0.4657512  16.472     0.145252   0.1716064  0.1188976 
1223       0.211      471.027    1          2          6.637      3.035      1.138      0.2126709  0.2126709  0.2574046  24.34106   35.56303   2.123      0.4035982  0.4741056  17.358     0.1355566  0.1509349  0.1201783 
1223.2     0.211      486.51     1          2          6.637      2.959      1.113      0.2207669  0.2207669  0.2657371  34.37927   35.56303   2.055      0.4138058  0.4834467  18.244     0.1362733  0.1509349  0.1216117 
1223.4     0.211      498.122    1          2          6.687      2.832      1.109      0.2206005  0.2206005  0.2670703  34.13611   31.54234   2.008      0.4070173  0.4787698  19.07      0.1408177  0.1585133  0.123122  
1223.6     0.211      509.735    1          2          6.793      2.731      1.106      0.2184115  0.2184115  0.2680702  31.09348   24.45856   1.962      0.3953041  0.4715939  20.015     0.1504809  0.1758618  0.1251    
1223.8     0.211      517.476    1          2          6.712      2.672      1.13       0.2122987  0.2122987  0.260071   23.95769   29.70581   1.932      0.3756695  0.451573   20.841     0.1447646  0.1624441  0.1270851 
1224       0.211      520.189    1          2          6.593      2.655      1.136      0.212847   0.212847   0.2580712  24.52454   39.52312   1.922      0.3755517  0.4483059  21.727     0.137043   0.1445661  0.12952   
1224.2     0.212      522.637    1          2          6.593      2.646      1.125      0.2160527  0.2160527  0.2617375  28.11756   39.52312   1.913      0.3822699  0.4549508  22.613     0.1384389  0.1445661  0.1323117 
1224.4     0.212      527.798    1          2          6.637      2.638      1.119      0.2167649  0.2167649  0.2637373  28.98475   35.56303   1.895      0.3812994  0.455522   23.026     0.1423407  0.1509349  0.1337465 
1224.6     0.213      530.379    1          2          6.637      2.604      1.086      0.2276934  0.2276934  0.2747362  46.19476   35.56303   1.885      0.4057708  0.4777876  23.144     0.1425539  0.1509349  0.1341729 
1224.8     0.213      532.959    1          2          6.593      2.587      1.086      0.2286364  0.2286364  0.2747362  48.09045   39.52312   1.876      0.4065747  0.4774562  23.321     0.1396964  0.1445661  0.1348267 
1225       0.213      536.83     1          2          6.731      2.663      1.121      0.2132545  0.2132545  0.2630707  24.95451   28.3819    1.863      0.3674031  0.4462413  23.734     0.1509581  0.1654965  0.1364196 
1225.2     0.213      539.41     1          2          6.718      2.714      1.122      0.2131095  0.2131095  0.2627374  24.80061   29.28118   1.854      0.3655881  0.4443331  23.97      0.1503877  0.1634019  0.1373736 
1225.4     0.214      543.281    1          2          6.581      2.706      1.127      0.2129353  0.2129353  0.2610709  24.61712   40.67772   1.841      0.3630365  0.4401337  26.332     0.1458653  0.1428763  0.1488544 
1225.6     0.215      547.152    1          2          6.556      2.596      1.098      0.2195273  0.2195273  0.2707366  32.60894   43.19255   1.828      0.3776616  0.4568556  29.52      0.1551796  0.1394191  0.1709401 
1225.8     0.216      552.313    1          2          6.687      2.308      1.076      0.2184111  0.2184111  0.2780692  31.09289   31.54234   1.811      0.3721455  0.4615029  32.768     0.1807822  0.1585133  0.2030511 
1226       0.216      557.474    1          2          6.825      1.995      1.05       0.2162103  0.2162103  0.286735   28.30722   22.65081   1.794      0.3637734  0.4662249  35.956     0.2137113  0.181463   0.2459596 
1226.2     0.217      560.054    1          2          6.968      1.818      1.037      0.206778   0.206778   0.2910679  18.93165   16.07176   1.786      0.3371813  0.4597273  39.144     0.255424   0.2087557  0.3020923 
1226.4     0.217      560.054    1          2          7.137      1.759      1.024      0.1931458  0.1931458  0.2954008  10.58491   10.71391   1.786      0.2966175  0.4491342  42.332     0.3098636  0.2463497  0.3733774 
1226.6     0.217      562.635    -9999      -9999      7.287      1.776      1.001      0.1797961  0.1797961  0.3030667  5.989867   7.475367   1.777      0.2495665  0.440068   45.52      0.3735473  0.2853519  0.4617428 
1226.8     0.217      565.215    -9999      -9999      7.437      1.801      0.992      0.1543407  0.1543407  0.3060664  2.02266    5.215763   1.769      0.1410348  0.4074669  49.24      0.4597748  0.3305289  0.5890207 
1227       0.217      565.215    -9999      -9999      7.412      1.835      1.011      0.1536832  0.1536832  0.2997337  1.966723   5.538216   1.769      0.1378347  0.3988498  48.531     0.4425773  0.322531   0.5626237 
1227.2     0.217      565.842    -9999      -9999      7.431      1.835      1.03       0.1518864  0.1518864  0.293401   1.821637   5.291391   1.767      0.1284957  0.3878217  47.587     0.4288323  0.3285916  0.5290729 
