~Version
 VERS              .         2.0                           : CWLS LOG ASCII STANDARD - VERSION 2.0
 WRAP              .         NO                            : ONE LINE PER DEPTH STEP
 DLM               .         SPACE                         : DELIMITING CHARACTER(SPACE TAB OR COMMA)
~Well Information
#_______________________________________________________________________________
#
#PARAMETER_NAME    .UNIT     VALUE                         : DESCRIPTION
#_______________________________________________________________________________
STRT               .M        850                           : First reference value
STOP               .M        1282                          : Last reference value
STEP               .M        0.2                           : Step increment
NULL               .         -9999                         : Missing value
COMP               .                                       : Company
WELL               .         1664                          : Well name
FLD                .         Узень                         : Field
LOC                .                                       : Location
CNTY               .                                       : County
STAT               .                                       : State
CTRY               .                                       : Country
SRVC               .                                       : Service Company
DATE               .                                       : Date
UWI                .                                       : Unique Well ID
Block              .         7                             : 
Category           .         Нефтяная                      : 
Condition          .         Ликвидированная               : 
Date               .         01.04.1975                    : 
EREF               .m        87.7                          : 100.8
Gorizont           .         15                            : 14
Interpretator      .         Бекбулатова А.А.              : 
Kupol              .         Основной                      : osnovnoi
Mud                .         0                             : 
Mud_density        .         0                             : 
Mud_resistivity    .         0                             : 
NGDU               .         НГДУ-2                        : 
ORIGINALWELLNAME   .         1664                          : 
Spud_date          .         1975                          : 1961
Viscosity          .         0                             : 
X                  .m        42026.6                       : 46154
Y                  .m        84148.2                       : 85761.93
YEAR               .         2018                          : 
Исправ_15гор       .         Исправ.15гор                  : 
~Parameter Information Block
#_______________________________________________________________________________
#
#PARAMETER_NAME    .UNIT     VALUE                         : DESCRIPTION
#_______________________________________________________________________________
SET                .         LQC_KAZNIPI_Petrel            : 
TLFamily_CALI      .         Caliper                       : 
TLFamily_CILD      .         Conductivity                  : 
TLFamily_COLL      .         Net Reservoir Flag            : 
TLFamily_CSAT      .         Fluid Code                    : 
TLFamily_DEPT      .         Measured Depth                : 
TLFamily_GR        .         Russian Gamma Ray             : 
TLFamily_LLS       .         Lateral Log Resistivity       : 
TLFamily_NGLD      .         Neutron Gamma                 : 
TLFamily_PHIE      .         Effective Porosity            : 
TLFamily_PHIEN     .         Effective Porosity            : 
TLFamily_PHIT      .         Porosity                      : 
TLFamily_PRMB      .         Permeability                  : 
TLFamily_PRMB_DGR  .         Permeability                  : 
TLFamily_RT        .         Formation Resistivity         : 
TLFamily_SOIL_ARCHIE .         Oil Saturation                : 
TLFamily_SOIL_DW   .         Oil Saturation                : 
TLFamily_SP        .         Spontaneous Potential         : 
TLFamily_VSH_FIN   .         Shale Volume                  : 
TLFamily_VSH_GR    .         Shale Volume                  : 
TLFamily_VSH_SP    .         Shale Volume                  : 
~Curve Information
#_______________________________________________________________________________
#
#LOGNAME           .UNIT     LOG_ID                        : DESCRIPTION
#_______________________________________________________________________________
DEPT               .M                                      : Колонка глубины 
CALI               .м                                      : Каверномер 
CILD               .мСм/м                                  : Индукционный каротаж 
COLL               .unitless                               : Описание 
CSAT               .unitless                               : Описание 
GR                 .uR/h                                   : Гамма каротаж 
LLS                .Ohmm                                   : Боковой каротаж 
NGLD               .у.е.                                   : Показания зонда НГК-60 аппаратуры ДРСТ-3-90 
PHIE               .д.ед.                                  : Описание 
PHIEN              .д.ед.                                  :  
PHIT               .д.ед.                                  : Описание 
PRMB               .mD                                     :  
PRMB_DGR           .mD                                     :  
RT                 .ohmm                                   : УЭС пласта 
SOIL_ARCHIE        .д.ед.                                  :  
SOIL_DW            .д.ед.                                  :  
SP                 .мВ                                     : Потенциал самополяризации 
VSH_FIN            .д.ед.                                  : Описание 
VSH_GR             .д.ед.                                  : Shale volume 
VSH_SP             .д.ед.                                  : Shale Volume 
~Ascii
# ...
931.4      0.211      178.14     -9999      -9999      4.937      5.84       1.344      0.03083868 0.03083868 0.1887448  0.01043194 4.066955   5.614      0          0.2105712  57.328     0.4785034  0.365872   0.5911348 
931.6      0.212      178.14     -9999      -9999      4.937      5.713      1.347      0.02177791 0.02177791 0.1877449  0.007088228 4.066955   5.614      0          0.1386731  58.568     0.5029303  0.365872   0.6399886 
931.8      0.212      180.721    -9999      -9999      4.937      5.208      1.354      0.01458978 0.01458978 0.1854118  0.005216705 4.066955   5.533      0          0.05264612 59.277     0.5176425  0.365872   0.669413  
932        0.212      182.011    -9999      -9999      4.937      4.672      1.353      0.01031825 0.01031825 0.1857451  0.004347874 4.066955   5.494      0          0          59.926     0.5315965  0.365872   0.6973211 
932.2000000000001 0.213      183.301    -9999      -9999      4.937      4.514      1.322      0.01719615 0.01719615 0.1960774  0.005830052 4.066955   5.456      0          0.1151126  60.399     0.5420644  0.365872   0.7182568 
932.4      0.213      183.301    -9999      -9999      4.956      4.23       1.285      0.02680843 0.02680843 0.2084095  0.008784461 3.981963   5.456      0          0.2309474  60.694     0.5503063  0.3690408  0.7315717 
932.6      0.213      183.301    -9999      -9999      4.987      3.63       1.276      0.02805728 0.02805728 0.2114092  0.009265034 3.847088   5.456      0          0.2473442  60.812     0.5556118  0.3742702  0.7369535 
932.8      0.213      182.011    -9999      -9999      5.025      3.188      1.278      0.02497443 0.02497443 0.2107426  0.008123534 3.687972   5.494      0          0.2279595  60.989     0.5629339  0.3807815  0.7450863 
933        0.213      180.721    -9999      -9999      5.037      4.198      1.29       0.01973044 0.01973044 0.206743   0.006495517 3.639105   5.533      0          0.1798342  61.107     0.5667048  0.3828612  0.7505483 
933.2000000000001 0.213      179.431    -9999      -9999      5.031      5.271      1.313      0.01132977 0.01132977 0.1990771  0.00453955 3.663458   5.573      0          0.07583416 61.225     0.5689313  0.3818199  0.7560427 
933.4      0.213      176.85     -9999      -9999      5.025      5.682      1.347      0.01       0          0.1877449  0.004289259 3.687972   5.655      0          0.01851135 61.284     0.5697918  0.3807815  0.7588022 
933.6      0.213      178.14     -9999      -9999      5.031      4.135      1.358      0.01       0          0.1840786  0.004289259 3.663458   5.614      0          0          61.402     0.5730826  0.3818199  0.7643452 
933.8      0.212      174.27     -9999      -9999      5.062      3.314      1.283      0.01906615 0.01906615 0.2090761  0.006314071 3.539373   5.738      0          0.1966451  61.402     0.5757877  0.3872302  0.7643452 
934        0.212      180.721    -9999      -9999      5.093      3.914      1.234      0.03357253 0.03357253 0.2254078  0.01172203 3.419488   5.533      0          0.3182761  61.52      0.581319   0.3927173  0.7699208 
934.2000000000001 0.212      178.14     -9999      -9999      5.125      4.735      1.255      0.02562519 0.02562519 0.2184085  0.008352158 3.299994   5.614      0          0.2614401  61.52      0.5841919  0.398463   0.7699208 
934.4      0.211      184.592    -9999      -9999      5.231      4.672      1.243      0.02545889 0.02545889 0.2224081  0.008293129 2.933203   5.417      0          0.2576797  61.638     0.5968158  0.4181025  0.775529  
934.6      0.211      205.236    -9999      -9999      5.368      5.114      1.202      0.03423354 0.03423354 0.2360734  0.01205719 2.51887    4.872      0          0.3017262  61.697     0.6116359  0.4449266  0.7783453 
934.8      0.211      228.46     -9999      -9999      5.387      6.503      1.175      0.04118662 0.04118662 0.2450725  0.01621937 2.466231   4.377      0          0.3165081  61.875     0.6178361  0.4487802  0.7868919 
935        0.212      241.363    -9999      -9999      5.493      5.429      1.142      0.0490125  0.0490125  0.2560714  0.02264585 2.192112   4.143      0          0.3510081  61.815     0.6274512  0.4708998  0.7840027 
935.2000000000001 0.212      250.394    -9999      -9999      5.668      3.662      1.074      0.06525353 0.06525353 0.2787358  0.04527012 1.804604   3.994      0          0.4274677  61.815     0.646916   0.5098293  0.7840027 
935.4      0.212      254.265    -9999      -9999      5.843      2.746      0.986      0.08809698 0.08809698 0.3080662  0.11993    1.4856     3.933      0.02428937 0.5099747  61.756     0.6665734  0.5519769  0.78117   
935.6      0.212      258.136    -9999      -9999      5.843      2.462      1.02       0.07676478 0.07676478 0.296734   0.07396531 1.4856     3.874      0          0.470595   61.756     0.6665734  0.5519769  0.78117   
935.8      0.212      259.426    -9999      -9999      5.712      2.652      1.049      0.07235654 0.07235654 0.2870683  0.06128817 1.718468   3.855      0          0.4469126  61.756     0.6506417  0.5201134  0.78117   
936        0.212      260.716    -9999      -9999      5.662      2.872      1.069      0.06761621 0.06761621 0.2804023  0.05006962 1.816681   3.836      0          0.4245078  61.756     0.6448063  0.5084427  0.78117   
936.2000000000001 0.211      260.716    -9999      -9999      5.625      3.062      1.09       0.0624801  0.0624801  0.273403   0.04021991 1.892955   3.836      0          0.4000336  61.697     0.6391603  0.4999753  0.7783453 
936.4      0.211      262.007    -9999      -9999      5.575      3.093      1.114      0.05679673 0.05679673 0.2654038  0.0315625  2.00114    3.817      0          0.3681871  61.638     0.6321427  0.4887564  0.775529  
936.6      0.211      263.297    -9999      -9999      5.556      2.904      1.139      0.04962002 0.04962002 0.2570713  0.02324027 2.043853   3.798      0          0.3264018  61.579     0.6286402  0.4845596  0.7727207 
936.8      0.211      260.716    -9999      -9999      5.525      2.715      1.137      0.05186575 0.05186575 0.2577379  0.02557629 2.115509   3.836      0          0.3393334  61.52      0.6238551  0.4777893  0.7699208 
937        0.211      256.846    -9999      -9999      5.568      2.872      1.178      0.03756667 0.03756667 0.2440726  0.01389901 2.016772   3.893      0          0.2555801  61.402     0.6257756  0.487206   0.7643452 
937.2000000000001 0.211      246.524    -9999      -9999      5.55       3.251      1.219      0.02592536 0.02592536 0.2304073  0.008459771 2.057529   4.056      0          0.1688488  61.225     0.6196423  0.4832418  0.7560427 
937.4      0.211      234.911    -9999      -9999      5.593      3.378      1.26       0.01159517 0.01159517 0.216742   0.004591226 1.9615     4.257      0          0.02067747 61.107     0.6216571  0.4927659  0.7505483 
937.6      0.211      222.009    -9999      -9999      5.475      3.251      1.305      0.01       0.001738024 0.2017435  0.004289259 2.236413   4.504      0          0          60.989     0.6060773  0.4670682  0.7450863 
937.8      0.21       207.816    -9999      -9999      5.293      3.409      1.346      0.01       0          0.1880782  0.004289259 2.737864   4.812      0          0          60.812     0.5834945  0.4300355  0.7369535 
938        0.21       197.494    -9999      -9999      5.118      5.903      1.395      0.01       0          0.1717465  0.004289259 3.325771   5.063      0          0          60.694     0.5643854  0.3971989  0.7315717 
938.2000000000001 0.21       193.623    -9999      -9999      5.1        8.333      1.45       0.01       0          0.153415   0.004289259 3.392985   5.165      0          0          60.517     0.558763   0.393967   0.7235589 
938.4      0.21       189.753    -9999      -9999      5.043      7.386      1.464      0.01       0          0.1487488  0.004289259 3.614915   5.27       0          0          60.458     0.5524046  0.3839052  0.720904  
938.6      0.21       191.043    -9999      -9999      5.081      4.482      1.37       0.01       0          0.180079   0.004289259 3.465405   5.234      0          0          60.399     0.5544205  0.3905841  0.7182568 
