~Version
 VERS              .         2.0                           : CWLS LOG ASCII STANDARD - VERSION 2.0
 WRAP              .         NO                            : ONE LINE PER DEPTH STEP
 DLM               .         SPACE                         : DELIMITING CHARACTER(SPACE TAB OR COMMA)
~Well Information
#_______________________________________________________________________________
#
#PARAMETER_NAME    .UNIT     VALUE                         : DESCRIPTION
#_______________________________________________________________________________
STRT               .M        850                           : First reference value
STOP               .M        1282                          : Last reference value
STEP               .M        0.2                           : Step increment
NULL               .         -9999                         : Missing value
COMP               .                                       : Company
WELL               .         1664                          : Well name
FLD                .         Узень                         : Field
LOC                .                                       : Location
CNTY               .                                       : County
STAT               .                                       : State
CTRY               .                                       : Country
SRVC               .                                       : Service Company
DATE               .                                       : Date
UWI                .                                       : Unique Well ID
Block              .         7                             : 
Category           .         Нефтяная                      : 
Condition          .         Ликвидированная               : 
Date               .         01.04.1975                    : 
EREF               .m        87.7                          : 100.8
Gorizont           .         15                            : 14
Interpretator      .         Бекбулатова А.А.              : 
Kupol              .         Основной                      : osnovnoi
Mud                .         0                             : 
Mud_density        .         0                             : 
Mud_resistivity    .         0                             : 
NGDU               .         НГДУ-2                        : 
ORIGINALWELLNAME   .         1664                          : 
Spud_date          .         1975                          : 1961
Viscosity          .         0                             : 
X                  .m        42026.6                       : 46154
Y                  .m        84148.2                       : 85761.93
YEAR               .         2018                          : 
Исправ_15гор       .         Исправ.15гор                  : 
~Parameter Information Block
#_______________________________________________________________________________
#
#PARAMETER_NAME    .UNIT     VALUE                         : DESCRIPTION
#_______________________________________________________________________________
SET                .         LQC_KAZNIPI_Petrel            : 
TLFamily_CALI      .         Caliper                       : 
TLFamily_CILD      .         Conductivity                  : 
TLFamily_COLL      .         Net Reservoir Flag            : 
TLFamily_CSAT      .         Fluid Code                    : 
TLFamily_DEPT      .         Measured Depth                : 
TLFamily_GR        .         Russian Gamma Ray             : 
TLFamily_LLS       .         Lateral Log Resistivity       : 
TLFamily_NGLD      .         Neutron Gamma                 : 
TLFamily_PHIE      .         Effective Porosity            : 
TLFamily_PHIEN     .         Effective Porosity            : 
TLFamily_PHIT      .         Porosity                      : 
TLFamily_PRMB      .         Permeability                  : 
TLFamily_PRMB_DGR  .         Permeability                  : 
TLFamily_RT        .         Formation Resistivity         : 
TLFamily_SOIL_ARCHIE .         Oil Saturation                : 
TLFamily_SOIL_DW   .         Oil Saturation                : 
TLFamily_SP        .         Spontaneous Potential         : 
TLFamily_VSH_FIN   .         Shale Volume                  : 
TLFamily_VSH_GR    .         Shale Volume                  : 
TLFamily_VSH_SP    .         Shale Volume                  : 
~Curve Information
#_______________________________________________________________________________
#
#LOGNAME           .UNIT     LOG_ID                        : DESCRIPTION
#_______________________________________________________________________________
DEPT               .M                                      : Колонка глубины 
CALI               .м                                      : Каверномер 
CILD               .мСм/м                                  : Индукционный каротаж 
COLL               .unitless                               : Описание 
CSAT               .unitless                               : Описание 
GR                 .uR/h                                   : Гамма каротаж 
LLS                .Ohmm                                   : Боковой каротаж 
NGLD               .у.е.                                   : Показания зонда НГК-60 аппаратуры ДРСТ-3-90 
PHIE               .д.ед.                                  : Описание 
PHIEN              .д.ед.                                  :  
PHIT               .д.ед.                                  : Описание 
PRMB               .mD                                     :  
PRMB_DGR           .mD                                     :  
RT                 .ohmm                                   : УЭС пласта 
SOIL_ARCHIE        .д.ед.                                  :  
SOIL_DW            .д.ед.                                  :  
SP                 .мВ                                     : Потенциал самополяризации 
VSH_FIN            .д.ед.                                  : Описание 
VSH_GR             .д.ед.                                  : Shale volume 
VSH_SP             .д.ед.                                  : Shale Volume 
~Ascii
# ...
879.6      0.213      438.771    -9999      -9999      6.468      1.755      0.938      0.1304413  0.1304413  0.3240646  0.7298734  0.7416272  2.279      0.1044922  0.456347   52.841     0.5867372  0.7330298  0.4404446 
879.8      0.211      433.61     -9999      -9999      6.487      1.736      0.952      0.1278002  0.1278002  0.3193984  0.6521212  0.7261286  2.306      0.09341976 0.4504552  52.192     0.5806005  0.7393788  0.4218222 
880        0.21       420.707    -9999      -9999      6.506      1.818      0.98       0.1231905  0.1231905  0.310066   0.5357285  0.7109535  2.377      0.07717006 0.440998   50.893     0.5662894  0.7457826  0.3867962 
880.2000000000001 0.21       392.322    -9999      -9999      6.343      2.816      1.01       0.1229651  0.1229651  0.300067   0.5306027  0.8521752  2.549      0.1055075  0.4484514  50.657     0.5366725  0.6925984  0.3807466 
880.4      0.21       367.807    -9999      -9999      6.125      2.367      1.02       0.1323479  0.1323479  0.296734   0.7917038  1.085844   2.719      0.1860371  0.4766285  50.185     0.4981396  0.6273488  0.3689305 
880.6      0.21       353.614    -9999      -9999      5.987      3.756      1.04       0.1340907  0.1340907  0.290068   0.8527917  1.265862   2.828      0.2099658  0.4820321  49.653     0.4726585  0.5892592  0.3560579 
880.8      0.21       361.356    -9999      -9999      5.981      4.419      1.07       0.1261764  0.1261764  0.280069   0.6084875  1.274333   2.767      0.1584094  0.4523804  49.181     0.4663411  0.5876566  0.3450255 
881        0.21       367.807    -9999      -9999      5.962      3.251      1.073      0.12799    0.12799    0.2790691  0.6574209  1.301533   2.719      0.1619514  0.4492933  48.649     0.4578155  0.5826105  0.3330204 
881.2000000000001 0.211      372.968    -9999      -9999      5.975      2.525      0.997      0.1538184  0.1538184  0.3043999  1.9781     1.28286    2.681      0.2812011  0.509988   48.354     0.4563076  0.5860584  0.3265567 
881.4      0.211      378.129    -9999      -9999      6.025      1.957      0.938      0.1718926  0.1718926  0.3240646  4.275887   1.213506   2.645      0.3433408  0.545226   48.177     0.4611272  0.5995108  0.3227437 
881.6      0.211      382        -9999      -9999      6.037      1.736      0.961      0.1643076  0.1643076  0.3163987  3.094089   1.197427   2.618      0.3137198  0.5279405  48         0.4608822  0.6027851  0.3189793 
881.8      0.211      382        -9999      -9999      5.918      1.831      0.982      0.1629475  0.1629475  0.3093994  2.919722   1.366771   2.618      0.3087336  0.5198895  47.882     0.4437936  0.5710906  0.3164965 
882        0.211      376.839    -9999      -9999      5.956      2.872      0.994      0.1568989  0.1568989  0.3053998  2.255831   1.310242   2.654      0.2901445  0.5122402  48         0.4500027  0.581026   0.3189793 
882.2000000000001 0.211      372.968    -9999      -9999      6.062      3.504      1.015      0.1449682  0.1449682  0.2984005  1.356193   1.16461    2.681      0.2431291  0.4925344  48.059     0.4649462  0.6096638  0.3202287 
882.4      0.211      384.58     -9999      -9999      6.106      4.009      1.049      0.1311919  0.1311919  0.2870683  0.7536153  1.10902    2.6        0.1623864  0.451792   48.177     0.4723528  0.6219619  0.3227437 
882.6      0.212      400.063    -9999      -9999      6.193      3.756      1.017      0.1370948  0.1370948  0.2977339  0.9693645  1.006795   2.5        0.1789128  0.462489   48.354     0.4867851  0.6470134  0.3265567 
882.8      0.212      411.676    -9999      -9999      6.3        2.62       0.966      0.1481432  0.1481432  0.3147322  1.552847   0.8938958  2.429      0.2220633  0.4884091  48.531     0.5048153  0.679212   0.3304185 
883        0.212      424.578    -9999      -9999      6.443      1.957      0.926      0.1526573  0.1526573  0.3280642  1.882532   0.7625255  2.355      0.2310543  0.4993799  48.886     0.5315359  0.724759   0.3383129 
883.2000000000001 0.213      434.9      -9999      -9999      6.537      1.862      0.88       0.1623363  0.1623363  0.343396   2.84459    0.6868724  2.299      0.2628636  0.518828   49.004     0.5486658  0.7563504  0.3409813 
883.4      0.213      442.642    -9999      -9999      6.587      1.818      0.912      0.1483621  0.1483621  0.3327304  1.567418   0.6497391  2.259      0.1961545  0.487875   49.122     0.5586917  0.7737115  0.3436719 
883.6      0.213      449.093    -9999      -9999      6.431      1.812      0.93       0.1506418  0.1506418  0.326731   1.727468   0.7727646  2.227      0.2014312  0.4812917  49.24      0.5336036  0.7208223  0.3463849 
883.8      0.213      451.673    -9999      -9999      6.425      1.818      0.945      0.1455144  0.1455144  0.3217315  1.388155   0.7779356  2.214      0.1747146  0.4678563  49.358     0.5339912  0.7188619  0.3491203 
884        0.213      451.673    -9999      -9999      6.562      1.843      0.965      0.1310116  0.1310116  0.3150655  0.7478446  0.6680481  2.214      0.0956922  0.4393755  49.417     0.557739   0.7649816  0.3504965 
884.2000000000001 0.213      451.673    -9999      -9999      6.643      1.862      0.915      0.1427217  0.1427217  0.3317305  1.232281   0.6105273  2.214      0.1606672  0.4741878  49.476     0.572754   0.7936296  0.3518783 
884.4      0.213      446.512    -9999      -9999      6.737      1.875      0.934      0.1351089  0.1351089  0.3253978  0.8906422  0.5499548  2.24       0.1244345  0.4600447  49.535     0.5766329  0.8        0.3532658 
884.6      0.213      436.19     -9999      -9999      6.818      1.862      0.951      0.1296718  0.1296718  0.3197317  0.7063079  0.5026027  2.293      0.1024486  0.4521721  49.476     0.5759392  0.8        0.3518783 
884.8      0.213      425.868    -9999      -9999      6.9        1.856      0.949      0.1305664  0.1305664  0.3203983  0.7337769  0.458817   2.348      0.1176758  0.4606968  49.417     0.5752482  0.8        0.3504965 
885        0.213      414.256    -9999      -9999      6.912      1.843      0.965      0.1261363  0.1261363  0.3150655  0.607447   0.4527377  2.414      0.1024983  0.4556119  49.181     0.5725127  0.8        0.3450255 
885.2000000000001 0.214      402.644    -9999      -9999      6.968      2.033      0.984      0.1204709  0.1204709  0.3087328  0.4770577  0.425415   2.484      0.07829442 0.4472179  49.004     0.5704907  0.8        0.3409813 
885.4      0.214      394.902    -9999      -9999      7.043      2.418      0.999      0.1165689  0.1165689  0.3037333  0.4039214  0.3913876  2.532      0.05996136 0.4401345  48.708     0.5671648  0.8        0.3343297 
885.6      0.214      397.483    -9999      -9999      7.1        2.481      0.963      0.1296387  0.1296387  0.3157321  0.7053134  0.3673589  2.516      0.140509   0.4727689  48.413     0.5639192  0.8        0.3278385 
885.8      0.214      396.193    -9999      -9999      7.162      2.222      0.976      0.1259377  0.1259377  0.3113992  0.6023227  0.3428942  2.524      0.1198632  0.4633204  48.236     0.5620046  0.8        0.3240093 
886        0.214      381.355    -9999      -9999      7.15       1.989      1.004      0.1166053  0.1166053  0.3020668  0.4045488  0.3474985  2.623      0.07566009 0.448052   48.236     0.5620046  0.8        0.3240093 
886.2000000000001 0.213      371.678    -9999      -9999      7.187      2.374      1.034      0.105762   0.105762   0.2920678  0.2547577  0.3334966  2.691      0.005662072 0.4234191  48.472     0.5645629  0.8        0.3291258 
886.4      0.214      383.29     -9999      -9999      7.206      2.929      1.004      0.1155478  0.1155478  0.3020668  0.3867078  0.3265274  2.609      0.06595355 0.4447584  48.531     0.5652093  0.8        0.3304185 
886.6      0.213      392.322    -9999      -9999      7.331      2.917      0.974      0.1253325  0.1253325  0.3120658  0.5869764  0.2841688  2.549      0.1202416  0.4657484  48.59      0.5658584  0.8        0.3317168 
886.8      0.214      402.644    -9999      -9999      7.506      2.304      0.96       0.1282486  0.1282486  0.316732   0.6647112  0.2339352  2.484      0.1271734  0.4683583  49.063     0.5711619  0.8        0.3423238 
