~Version
 VERS              .         2.0                           : CWLS LOG ASCII STANDARD - VERSION 2.0
 WRAP              .         NO                            : ONE LINE PER DEPTH STEP
 DLM               .         SPACE                         : DELIMITING CHARACTER(SPACE TAB OR COMMA)
~Well Information
#_______________________________________________________________________________
#
#PARAMETER_NAME    .UNIT     VALUE                         : DESCRIPTION
#_______________________________________________________________________________
STRT               .M        850                           : First reference value
STOP               .M        1282                          : Last reference value
STEP               .M        0.2                           : Step increment
NULL               .         -9999                         : Missing value
COMP               .                                       : Company
WELL               .         1664                          : Well name
FLD                .         Узень                         : Field
LOC                .                                       : Location
CNTY               .                                       : County
STAT               .                                       : State
CTRY               .                                       : Country
SRVC               .                                       : Service Company
DATE               .                                       : Date
UWI                .                                       : Unique Well ID
Block              .         7                             : 
Category           .         Нефтяная                      : 
Condition          .         Ликвидированная               : 
Date               .         01.04.1975                    : 
EREF               .m        87.7                          : 100.8
Gorizont           .         15                            : 14
Interpretator      .         Бекбулатова А.А.              : 
Kupol              .         Основной                      : osnovnoi
Mud                .         0                             : 
Mud_density        .         0                             : 
Mud_resistivity    .         0                             : 
NGDU               .         НГДУ-2                        : 
ORIGINALWELLNAME   .         1664                          : 
Spud_date          .         1975                          : 1961
Viscosity          .         0                             : 
X                  .m        42026.6                       : 46154
Y                  .m        84148.2                       : 85761.93
YEAR               .         2018                          : 
Исправ_15гор       .         Исправ.15гор                  : 
~Parameter Information Block
#_______________________________________________________________________________
#
#PARAMETER_NAME    .UNIT     VALUE                         : DESCRIPTION
#_______________________________________________________________________________
SET                .         LQC_KAZNIPI_Petrel            : 
TLFamily_CALI      .         Caliper                       : 
TLFamily_CILD      .         Conductivity                  : 
TLFamily_COLL      .         Net Reservoir Flag            : 
TLFamily_CSAT      .         Fluid Code                    : 
TLFamily_DEPT      .         Measured Depth                : 
TLFamily_GR        .         Russian Gamma Ray             : 
TLFamily_LLS       .         Lateral Log Resistivity       : 
TLFamily_NGLD      .         Neutron Gamma                 : 
TLFamily_PHIE      .         Effective Porosity            : 
TLFamily_PHIEN     .         Effective Porosity            : 
TLFamily_PHIT      .         Porosity                      : 
TLFamily_PRMB      .         Permeability                  : 
TLFamily_PRMB_DGR  .         Permeability                  : 
TLFamily_RT        .         Formation Resistivity         : 
TLFamily_SOIL_ARCHIE .         Oil Saturation                : 
TLFamily_SOIL_DW   .         Oil Saturation                : 
TLFamily_SP        .         Spontaneous Potential         : 
TLFamily_VSH_FIN   .         Shale Volume                  : 
TLFamily_VSH_GR    .         Shale Volume                  : 
TLFamily_VSH_SP    .         Shale Volume                  : 
~Curve Information
#_______________________________________________________________________________
#
#LOGNAME           .UNIT     LOG_ID                        : DESCRIPTION
#_______________________________________________________________________________
DEPT               .M                                      : Колонка глубины 
CALI               .м                                      : Каверномер 
CILD               .мСм/м                                  : Индукционный каротаж 
COLL               .unitless                               : Описание 
CSAT               .unitless                               : Описание 
GR                 .uR/h                                   : Гамма каротаж 
LLS                .Ohmm                                   : Боковой каротаж 
NGLD               .у.е.                                   : Показания зонда НГК-60 аппаратуры ДРСТ-3-90 
PHIE               .д.ед.                                  : Описание 
PHIEN              .д.ед.                                  :  
PHIT               .д.ед.                                  : Описание 
PRMB               .mD                                     :  
PRMB_DGR           .mD                                     :  
RT                 .ohmm                                   : УЭС пласта 
SOIL_ARCHIE        .д.ед.                                  :  
SOIL_DW            .д.ед.                                  :  
SP                 .мВ                                     : Потенциал самополяризации 
VSH_FIN            .д.ед.                                  : Описание 
VSH_GR             .д.ед.                                  : Shale volume 
VSH_SP             .д.ед.                                  : Shale Volume 
~Ascii
# ...
857.4      0.23       -9999      -9999      -9999      -9999      -9999      -9999      -9999      -9999      -9999      -9999      -9999      -9999      -9999      -9999      55.38      -4999.24   -9999      0.5208487 
857.6      0.23       -9999      -9999      -9999      -9999      -9999      -9999      -9999      -9999      -9999      -9999      -9999      -9999      -9999      -9999      55.38      -4999.24   -9999      0.5208487 
857.8      0.23       -9999      -9999      -9999      -9999      -9999      -9999      -9999      -9999      -9999      -9999      -9999      -9999      -9999      -9999      55.38      -4999.24   -9999      0.5208487 
858        0.228      -9999      -9999      -9999      -9999      -9999      -9999      -9999      -9999      -9999      -9999      -9999      -9999      -9999      -9999      55.321     -4999.241  -9999      0.5188392 
858.2000000000001 0.227      -9999      -9999      -9999      -9999      -9999      -9999      -9999      -9999      -9999      -9999      -9999      -9999      -9999      -9999      55.321     -4999.241  -9999      0.5188392 
858.4      0.226      -9999      -9999      -9999      -9999      -9999      -9999      -9999      -9999      -9999      -9999      -9999      -9999      -9999      -9999      55.262     -4999.242  -9999      0.5168368 
858.6      0.225      -9999      -9999      -9999      -9999      -9999      -9999      -9999      -9999      -9999      -9999      -9999      -9999      -9999      -9999      55.203     -4999.243  -9999      0.514841  
858.8      0.226      -9999      -9999      -9999      -9999      -9999      -9999      -9999      -9999      -9999      -9999      -9999      -9999      -9999      -9999      55.144     -4999.244  -9999      0.5128523 
859        0.226      -9999      -9999      -9999      -9999      -9999      -9999      -9999      -9999      -9999      -9999      -9999      -9999      -9999      -9999      55.085     -4999.245  -9999      0.5108703 
859.2000000000001 0.227      -9999      -9999      -9999      -9999      -9999      -9999      -9999      -9999      -9999      -9999      -9999      -9999      -9999      -9999      55.085     -4999.245  -9999      0.5108703 
859.4      0.226      -9999      -9999      -9999      -9999      -9999      -9999      -9999      -9999      -9999      -9999      -9999      -9999      -9999      -9999      55.026     -4999.246  -9999      0.5088952 
859.6      0.225      -9999      -9999      -9999      -9999      -9999      -9999      -9999      -9999      -9999      -9999      -9999      -9999      -9999      -9999      54.967     -4999.247  -9999      0.5069268 
859.8      0.223      -9999      -9999      -9999      -9999      -9999      -9999      -9999      -9999      -9999      -9999      -9999      -9999      -9999      -9999      54.908     -4999.248  -9999      0.5049654 
860        0.222      -9999      -9999      -9999      -9999      -9999      0.809      1          1          0.3670603  9323613800000000.0000000 -9999      -9999      -9999      -9999      54.967     -4999.247  -9999      0.5069268 
860.2000000000001 0.222      349.744    -9999      -9999      6.925      -9999      0.828      0.1447599  0.1447599  0.3607276  1.344195   0.4462424  2.859      0.2646988  0.5634667  55.026     0.6544476  0.8        0.5088952 
860.4      0.223      340.712    -9999      -9999      6.925      -9999      0.854      0.1380259  0.1380259  0.3520618  1.008633   0.4462424  2.935      0.2429295  0.5548033  54.672     0.6485935  0.8        0.497187  
860.6      0.223      329.1      -9999      -9999      7.006      -9999      0.882      0.1302781  0.1302781  0.3427294  0.7248105  0.4078201  3.039      0.2167661  0.5455489  54.376     0.6437918  0.8        0.4875836 
860.8      0.224      317.487    -9999      -9999      6.912      -9999      0.915      0.1208308  0.1208308  0.3317305  0.4844371  0.4527377  3.15       0.177653   0.5317693  54.081     0.63909    0.8        0.47818   
861        0.223      303.295    -9999      -9999      6.643      -9999      0.95       0.1117407  0.1117407  0.320065   0.3287513  0.6105273  3.297      0.1383266  0.5185182  53.786     0.6312857  0.7936296  0.4689417 
861.2000000000001 0.223      289.102    -9999      -9999      6.55       -9999      0.983      0.1079478  0.1079478  0.3090661  0.2796491  0.6770182  3.459      0.1317808  0.5132738  53.432     0.6094494  0.7608265  0.4580722 
861.4      0.222      278.78     -9999      -9999      6.487      -9999      1.017      0.1022031  0.1022031  0.2977339  0.2188807  0.7261286  3.587      0.1048229  0.5008387  53.018     0.5925176  0.7393788  0.4456565 
861.6      0.221      268.458    -9999      -9999      6.493      -9999      1.066      0.08724914 0.08724914 0.2814022  0.1156708  0.721302   3.725      0          0.4633769  52.664     0.5883426  0.7413951  0.4352902 
861.8      0.221      260.716    -9999      -9999      6.493      -9999      1.1        0.07758979 0.07758979 0.27007    0.07661418 0.721302   3.836      0          0.4348687  52.31      0.5832734  0.7413951  0.4251516 
862        0.223      251.685    -9999      -9999      6.493      -9999      1.094      0.08068419 0.08068419 0.2720698  0.08742286 0.721302   3.973      0          0.45452    52.074     0.5799564  0.7413951  0.4185178 
862.2000000000001 0.228      245.233    -9999      -9999      6.462      -9999      1.066      0.09253598 0.09253598 0.2814022  0.1449269  0.7465902  4.078      0.08093089 0.4972807  51.897     0.5723219  0.7310362  0.4136075 
862.4      0.235      237.492    -9999      -9999      6.4        -9999      1.05       0.1022819  0.1022819  0.286735   0.2196172  0.7998571  4.211      0.17028    0.5280148  51.661     0.5589489  0.7107509  0.4071469 
862.6      0.246      229.75     -9999      -9999      6.275      -9999      1.047      0.1100186  0.1100186  0.2877349  0.3054705  0.9190844  4.353      0.2333595  0.5486624  51.601     0.5385342  0.6715484  0.4055201 
862.8      0.238      224.589    -9999      -9999      6.156      -9999      1.07       0.1073794  0.1073794  0.280069   0.2729517  1.049065   4.453      0.2252759  0.5419925  51.779     0.5233017  0.6362384  0.410365  
863        0.226      222.009    -9999      -9999      6.037      -9999      1.049      0.1190945  0.1190945  0.2870683  0.4498593  1.197427   4.504      0.2958599  0.5682371  51.956     0.5090116  0.6027851  0.4152381 
863.2000000000001 0.22       222.009    -9999      -9999      5.912      -9999      1.065      0.1176118  0.1176118  0.2817355  0.4222927  1.375917   4.504      0.2881348  0.5610689  52.31      0.4973446  0.5695375  0.4251516 
863.4      0.22       222.009    -9999      -9999      5.8        -9999      1.075      0.1172637  0.1172637  0.2784025  0.4160702  1.558331   4.504      0.2862949  0.5572724  52.664     0.4882993  0.5413084  0.4352902 
863.6      0.221      227.17     -9999      -9999      5.775      -9999      1.101      0.108183   0.108183   0.2697367  0.2824681  1.602243   4.402      0.2261182  0.5294241  52.959     0.4895568  0.5352008  0.4439128 
863.8      0.223      232.331    -9999      -9999      5.843      -9999      1.082      0.1100005  0.1100005  0.2760694  0.3052354  1.4856     4.304      0.2291659  0.5339066  53.314     0.503239   0.5519769  0.4545011 
864        0.224      233.621    -9999      -9999      5.918      2.91       1.105      0.09740027 0.09740027 0.2684035  0.1783394  1.366771   4.28       0.1407551  0.5028774  53.668     0.5181916  0.5710906  0.4652925 
864.2000000000001 0.223      228.46     -9999      -9999      5.981      3.226      1.095      0.0961805  0.0961805  0.2717365  0.1692989  1.274333   4.377      0.14036    0.5101621  54.022     0.5319878  0.5876566  0.4763191 
864.4      0.221      219.428    -9999      -9999      6.062      3.693      1.062      0.1020021  0.1020021  0.2827354  0.2170122  1.16461    4.557      0.198553   0.5416977  54.317     0.5476767  0.6096638  0.4856896 
864.6      0.22       220.719    -9999      -9999      6.137      3.952      1.058      0.09795484 0.09795484 0.2840686  0.1826078  1.071456   4.531      0.167556   0.5352383  54.672     0.5639811  0.6307752  0.497187  
