~Version
 VERS              .         2.0                           : CWLS LOG ASCII STANDARD - VERSION 2.0
 WRAP              .         NO                            : ONE LINE PER DEPTH STEP
 DLM               .         SPACE                         : DELIMITING CHARACTER(SPACE TAB OR COMMA)
~Well Information
#_______________________________________________________________________________
#
#PARAMETER_NAME    .UNIT     VALUE                         : DESCRIPTION
#_______________________________________________________________________________
STRT               .M        850                           : First reference value
STOP               .M        1282                          : Last reference value
STEP               .M        0.2                           : Step increment
NULL               .         -9999                         : Missing value
COMP               .                                       : Company
WELL               .         1664                          : Well name
FLD                .         Узень                         : Field
LOC                .                                       : Location
CNTY               .                                       : County
STAT               .                                       : State
CTRY               .                                       : Country
SRVC               .                                       : Service Company
DATE               .                                       : Date
UWI                .                                       : Unique Well ID
Block              .         7                             : 
Category           .         Нефтяная                      : 
Condition          .         Ликвидированная               : 
Date               .         01.04.1975                    : 
EREF               .m        87.7                          : 100.8
Gorizont           .         15                            : 14
Interpretator      .         Бекбулатова А.А.              : 
Kupol              .         Основной                      : osnovnoi
Mud                .         0                             : 
Mud_density        .         0                             : 
Mud_resistivity    .         0                             : 
NGDU               .         НГДУ-2                        : 
ORIGINALWELLNAME   .         1664                          : 
Spud_date          .         1975                          : 1961
Viscosity          .         0                             : 
X                  .m        42026.6                       : 46154
Y                  .m        84148.2                       : 85761.93
YEAR               .         2018                          : 
Исправ_15гор       .         Исправ.15гор                  : 
~Parameter Information Block
#_______________________________________________________________________________
#
#PARAMETER_NAME    .UNIT     VALUE                         : DESCRIPTION
#_______________________________________________________________________________
SET                .         LQC_KAZNIPI_Petrel            : 
TLFamily_CALI      .         Caliper                       : 
TLFamily_CILD      .         Conductivity                  : 
TLFamily_COLL      .         Net Reservoir Flag            : 
TLFamily_CSAT      .         Fluid Code                    : 
TLFamily_DEPT      .         Measured Depth                : 
TLFamily_GR        .         Russian Gamma Ray             : 
TLFamily_LLS       .         Lateral Log Resistivity       : 
TLFamily_NGLD      .         Neutron Gamma                 : 
TLFamily_PHIE      .         Effective Porosity            : 
TLFamily_PHIEN     .         Effective Porosity            : 
TLFamily_PHIT      .         Porosity                      : 
TLFamily_PRMB      .         Permeability                  : 
TLFamily_PRMB_DGR  .         Permeability                  : 
TLFamily_RT        .         Formation Resistivity         : 
TLFamily_SOIL_ARCHIE .         Oil Saturation                : 
TLFamily_SOIL_DW   .         Oil Saturation                : 
TLFamily_SP        .         Spontaneous Potential         : 
TLFamily_VSH_FIN   .         Shale Volume                  : 
TLFamily_VSH_GR    .         Shale Volume                  : 
TLFamily_VSH_SP    .         Shale Volume                  : 
~Curve Information
#_______________________________________________________________________________
#
#LOGNAME           .UNIT     LOG_ID                        : DESCRIPTION
#_______________________________________________________________________________
DEPT               .M                                      : Колонка глубины 
CALI               .м                                      : Каверномер 
CILD               .мСм/м                                  : Индукционный каротаж 
COLL               .unitless                               : Описание 
CSAT               .unitless                               : Описание 
GR                 .uR/h                                   : Гамма каротаж 
LLS                .Ohmm                                   : Боковой каротаж 
NGLD               .у.е.                                   : Показания зонда НГК-60 аппаратуры ДРСТ-3-90 
PHIE               .д.ед.                                  : Описание 
PHIEN              .д.ед.                                  :  
PHIT               .д.ед.                                  : Описание 
PRMB               .mD                                     :  
PRMB_DGR           .mD                                     :  
RT                 .ohmm                                   : УЭС пласта 
SOIL_ARCHIE        .д.ед.                                  :  
SOIL_DW            .д.ед.                                  :  
SP                 .мВ                                     : Потенциал самополяризации 
VSH_FIN            .д.ед.                                  : Описание 
VSH_GR             .д.ед.                                  : Shale volume 
VSH_SP             .д.ед.                                  : Shale Volume 
~Ascii
# ...
1035       0.267      503.283    -9999      -9999      7.237      1.364      0.784      0.1669928  0.1669928  0.3753928  3.469521   1.014672   1.987      0.2298518  0.5155795  53.432     0.6315152  0.6449575  0.618073  
1035.2     0.257      526.508    -9999      -9999      7.331      1.218      0.788      0.1611655  0.1611655  0.3740596  2.70604    0.9015658  1.899      0.1885887  0.4967667  53.314     0.6451336  0.6768465  0.6134207 
1035.4     0.248      543.281    -9999      -9999      7.143      1.035      0.782      0.1734408  0.1734408  0.3760594  4.567749   1.141969   1.841      0.2276798  0.5043927  53.314     0.6139958  0.6145709  0.6134207 
1035.6     0.25       553.603    -9999      -9999      7.212      1.01       0.785      0.168401   0.168401   0.3750595  3.684292   1.047074   1.806      0.200418   0.4931963  53.373     0.6262377  0.6367322  0.6157432 
1035.8     0.261      558.764    -9999      -9999      7.318      1.136      0.793      0.1598587  0.1598587  0.3723931  2.559346   0.9164233  1.79       0.1598294  0.4786421  53.373     0.6440436  0.6723441  0.6157432 
1036       0.268      563.925    -9999      -9999      7.393      1.313      0.808      0.1497341  0.1497341  0.3673936  1.661869   0.8339543  1.773      0.1065693  0.4587863  53.491     0.6595742  0.698738   0.6204104 
1036.2     0.272      566.506    -9999      -9999      7.181      1.383      0.819      0.1579576  0.1579576  0.3637273  2.360025   1.088691   1.765      0.1454075  0.4647574  53.491     0.6235445  0.6266785  0.6204104 
1036.4     0.274      566.506    -9999      -9999      7.068      1.338      0.801      0.1690102  0.1690102  0.3697267  3.781265   1.254897   1.765      0.1942929  0.4834379  53.609     0.6082318  0.5913562  0.6251073 
1036.6     0.279      566.506    -9999      -9999      7.012      1.275      0.786      0.1763857  0.1763857  0.3747262  5.179049   1.346439   1.765      0.2237162  0.4959334  53.668     0.6010317  0.5745964  0.6274669 
1036.8     0.284      566.506    -9999      -9999      6.956      1.319      0.811      0.1703497  0.1703497  0.3663937  4.003569   1.444659   1.765      0.1998135  0.4820589  53.727     0.5940728  0.5583115  0.6298342 
1037       0.291      563.925    -9999      -9999      7.025      1.465      0.796      0.1716354  0.1716354  0.3713932  4.229246   1.32461    1.773      0.2067221  0.4890228  53.786     0.6053265  0.5784443  0.6322088 
1037.2     0.279      558.764    -9999      -9999      7.118      1.509      0.814      0.160181   0.160181   0.3653938  2.594773   1.178435   1.79       0.161302   0.4727794  53.904     0.6218569  0.6067331  0.6369807 
1037.4     0.268      552.313    -9999      -9999      7.218      1.446      0.837      0.1468456  0.1468456  0.3577279  1.469246   1.039204   1.811      0.1002803  0.4514672  53.963     0.6390373  0.6386967  0.639378  
1037.6     0.262      545.862    -9999      -9999      7.268      1.338      0.853      0.1383757  0.1383757  0.3523951  1.023793   0.9758842  1.832      0.05761351 0.4373561  54.022     0.6485436  0.6553046  0.6417827 
1037.8     0.255      544.571    -9999      -9999      7.375      1.269      0.867      0.1272055  0.1272055  0.3477289  0.635788   0.8530437  1.836      0          0.4158016  54.081     0.6682528  0.6923105  0.6441951 
1038       0.248      548.442    -9999      -9999      7.475      1.212      0.842      0.1291209  0.1291209  0.3560614  0.6899055  0.7522573  1.823      0          0.4256699  54.14      0.6876986  0.7287824  0.6466149 
1038.2     0.238      560.054    -9999      -9999      7.45       1.212      0.821      0.1376537  0.1376537  0.3630607  0.9927479  0.7762787  1.786      0.04194525 0.439879   54.14      0.6830515  0.719488   0.6466149 
1038.4     0.26       574.247    -9999      -9999      7.306      1.244      0.814      0.1484469  0.1484469  0.3653938  1.573096   0.9303544  1.741      0.09209922 0.450209   54.14      0.6574148  0.6682147  0.6466149 
1038.6     0.279      581.989    -9999      -9999      7.181      1.231      0.81       0.1566336  0.1566336  0.366727   2.230446   1.088691   1.718      0.1281464  0.4585967  54.14      0.6366467  0.6266785  0.6466149 
1038.8     0.273      589.73     -9999      -9999      7.125      1.174      0.804      0.1619632  0.1619632  0.3687268  2.799688   1.168108   1.696      0.1480504  0.4636583  54.081     0.6265563  0.6089175  0.6441951 
1039       0.267      596.181    -9999      -9999      7.218      1.143      0.798      0.1594475  0.1594475  0.3707266  2.514855   1.039204   1.677      0.1317772  0.4593246  54.022     0.6402397  0.6386967  0.6417827 
1039.2     0.264      606.503    -9999      -9999      7.331      1.193      0.794      0.1552783  0.1552783  0.3720598  2.105179   0.9015658  1.649      0.1044607  0.4506427  53.904     0.6569136  0.6768465  0.6369807 
1039.4     0.26       614.245    -9999      -9999      7.431      1.244      0.789      0.1518487  0.1518487  0.3737263  1.818714   0.7950462  1.628      0.08136141 0.444147   53.786     0.6723564  0.7125039  0.6322088 
1039.6     0.259      620.696    -9999      -9999      7.356      1.256      0.787      0.1573479  0.1573479  0.3743929  2.299445   0.8736676  1.611      0.10499    0.4490832  53.727     0.6577121  0.68559    0.6298342 
1039.8     0.265      625.857    -9999      -9999      7.262      1.237      0.803      0.1577354  0.1577354  0.3690601  2.337762   0.983274   1.598      0.1035032  0.4423232  53.668     0.6403779  0.653289   0.6274669 
1040       0.266      631.018    -9999      -9999      7.218      1.212      0.826      0.1524772  0.1524772  0.3613942  1.868126   1.039204   1.585      0.07309004 0.4254301  53.668     0.6330818  0.6386967  0.6274669 
1040.2     0.261      633.599    -9999      -9999      7.193      1.187      0.825      0.1541545  0.1541545  0.3617275  2.006659   1.072389   1.578      0.07997108 0.426811   53.668     0.6290091  0.6305512  0.6274669 
1040.4     0.264      632.308    -9999      -9999      7.1        1.168      0.803      0.166338   0.166338   0.3690601  3.373971   1.20541    1.582      0.1399704  0.450484   53.668     0.6143094  0.6011519  0.6274669 
1040.6     0.27       628.438    -9999      -9999      7.006      1.149      0.782      0.1780106  0.1780106  0.3760594  5.55067    1.356635   1.591      0.1914554  0.4720927  53.668     0.600148   0.5728291  0.6274669 
1040.8     0.273      628.438    -9999      -9999      7.181      1.168      0.778      0.1704586  0.1704586  0.3773926  4.022211   1.088691   1.591      0.1603442  0.4645696  53.668     0.6270728  0.6266785  0.6274669 
1041       0.279      632.308    -9999      -9999      7.368      1.206      0.789      0.1563728  0.1563728  0.3737263  2.205779   0.8605843  1.582      0.09242767 0.4421555  53.668     0.6586469  0.6898269  0.6274669 
1041.2     0.285      637.469    -9999      -9999      6.962      1.181      0.802      0.1734557  0.1734557  0.3693934  4.570664   1.433802   1.569      0.1675731  0.4571606  53.668     0.5937505  0.560034   0.6274669 
1041.4     0.283      641.34     -9999      -9999      7.112      1.105      0.815      0.1617254  0.1617254  0.3650605  2.771436   1.187358   1.559      0.1125677  0.4367631  53.668     0.6161669  0.604867   0.6274669 
1041.6     0.274      646.501    -9999      -9999      7.1        1.023      0.814      0.1626717  0.1626717  0.3653938  2.885575   1.20541    1.547      0.1138582  0.436136   53.668     0.6143094  0.6011519  0.6274669 
1041.8     0.264      651.662    -9999      -9999      7.031      1.073      0.796      0.1721234  0.1721234  0.3713932  4.318181   1.314655   1.535      0.1533038  0.4514244  53.668     0.6038479  0.5802289  0.6274669 
1042       0.273      656.823    -9999      -9999      6.981      1.13       0.786      0.1774921  0.1774921  0.3747262  5.429291   1.399955   1.522      0.1723569  0.4584692  53.727     0.597679   0.5655237  0.6298342 
1042.2     0.281      659.404    -9999      -9999      6.962      1.124      0.777      0.1810059  0.1810059  0.3777259  6.307039   1.433802   1.517      0.1851103  0.464258   53.786     0.5961214  0.560034   0.6322088 
