~Version
 VERS              .         2.0                           : CWLS LOG ASCII STANDARD - VERSION 2.0
 WRAP              .         NO                            : ONE LINE PER DEPTH STEP
 DLM               .         SPACE                         : DELIMITING CHARACTER(SPACE TAB OR COMMA)
~Well Information
#_______________________________________________________________________________
#
#PARAMETER_NAME    .UNIT     VALUE                         : DESCRIPTION
#_______________________________________________________________________________
STRT               .M        850                           : First reference value
STOP               .M        1282                          : Last reference value
STEP               .M        0.2                           : Step increment
NULL               .         -9999                         : Missing value
COMP               .                                       : Company
WELL               .         1664                          : Well name
FLD                .         Узень                         : Field
LOC                .                                       : Location
CNTY               .                                       : County
STAT               .                                       : State
CTRY               .                                       : Country
SRVC               .                                       : Service Company
DATE               .                                       : Date
UWI                .                                       : Unique Well ID
Block              .         7                             : 
Category           .         Нефтяная                      : 
Condition          .         Ликвидированная               : 
Date               .         01.04.1975                    : 
EREF               .m        87.7                          : 100.8
Gorizont           .         15                            : 14
Interpretator      .         Бекбулатова А.А.              : 
Kupol              .         Основной                      : osnovnoi
Mud                .         0                             : 
Mud_density        .         0                             : 
Mud_resistivity    .         0                             : 
NGDU               .         НГДУ-2                        : 
ORIGINALWELLNAME   .         1664                          : 
Spud_date          .         1975                          : 1961
Viscosity          .         0                             : 
X                  .m        42026.6                       : 46154
Y                  .m        84148.2                       : 85761.93
YEAR               .         2018                          : 
Исправ_15гор       .         Исправ.15гор                  : 
~Parameter Information Block
#_______________________________________________________________________________
#
#PARAMETER_NAME    .UNIT     VALUE                         : DESCRIPTION
#_______________________________________________________________________________
SET                .         LQC_KAZNIPI_Petrel            : 
TLFamily_CALI      .         Caliper                       : 
TLFamily_CILD      .         Conductivity                  : 
TLFamily_COLL      .         Net Reservoir Flag            : 
TLFamily_CSAT      .         Fluid Code                    : 
TLFamily_DEPT      .         Measured Depth                : 
TLFamily_GR        .         Russian Gamma Ray             : 
TLFamily_LLS       .         Lateral Log Resistivity       : 
TLFamily_NGLD      .         Neutron Gamma                 : 
TLFamily_PHIE      .         Effective Porosity            : 
TLFamily_PHIEN     .         Effective Porosity            : 
TLFamily_PHIT      .         Porosity                      : 
TLFamily_PRMB      .         Permeability                  : 
TLFamily_PRMB_DGR  .         Permeability                  : 
TLFamily_RT        .         Formation Resistivity         : 
TLFamily_SOIL_ARCHIE .         Oil Saturation                : 
TLFamily_SOIL_DW   .         Oil Saturation                : 
TLFamily_SP        .         Spontaneous Potential         : 
TLFamily_VSH_FIN   .         Shale Volume                  : 
TLFamily_VSH_GR    .         Shale Volume                  : 
TLFamily_VSH_SP    .         Shale Volume                  : 
~Curve Information
#_______________________________________________________________________________
#
#LOGNAME           .UNIT     LOG_ID                        : DESCRIPTION
#_______________________________________________________________________________
DEPT               .M                                      : Колонка глубины 
CALI               .м                                      : Каверномер 
CILD               .мСм/м                                  : Индукционный каротаж 
COLL               .unitless                               : Описание 
CSAT               .unitless                               : Описание 
GR                 .uR/h                                   : Гамма каротаж 
LLS                .Ohmm                                   : Боковой каротаж 
NGLD               .у.е.                                   : Показания зонда НГК-60 аппаратуры ДРСТ-3-90 
PHIE               .д.ед.                                  : Описание 
PHIEN              .д.ед.                                  :  
PHIT               .д.ед.                                  : Описание 
PRMB               .mD                                     :  
PRMB_DGR           .mD                                     :  
RT                 .ohmm                                   : УЭС пласта 
SOIL_ARCHIE        .д.ед.                                  :  
SOIL_DW            .д.ед.                                  :  
SP                 .мВ                                     : Потенциал самополяризации 
VSH_FIN            .д.ед.                                  : Описание 
VSH_GR             .д.ед.                                  : Shale volume 
VSH_SP             .д.ед.                                  : Shale Volume 
~Ascii
# ...
961        0.235      370.388    -9999      -9999      5.4        2.109      0.896      0.1379173  0.1379173  0.3380632  1.00397    2.43085    2.7        0.2121522  0.52355    61.343     0.6065028  0.4514361  0.7615695 
961.2000000000001 0.23       380.71     -9999      -9999      5.487      1.869      0.856      0.1487057  0.1487057  0.3513952  1.590552   2.206781   2.627      0.2526218  0.5415093  61.284     0.6142107  0.4696192  0.7588022 
961.4      0.238      391.032    -9999      -9999      5.562      1.635      0.821      0.157688   0.157688   0.3630607  2.333042   2.030268   2.557      0.2807821  0.5545141  61.284     0.6223415  0.4858809  0.7588022 
961.6      0.25       397.483    -9999      -9999      5.625      1.487      0.843      0.1480298  0.1480298  0.3557281  1.54536    1.892955   2.516      0.2342943  0.534339   61.284     0.6293887  0.4999753  0.7588022 
961.8      0.261      402.644    -9999      -9999      5.693      1.484      0.867      0.1374447  0.1374447  0.3477289  0.9839392  1.755148   2.484      0.1782616  0.5114874  61.284     0.6372247  0.5156473  0.7588022 
962        0.268      402.644    -9999      -9999      5.787      1.869      0.874      0.131403   0.131403   0.3453958  0.760433   1.581013   2.484      0.1454509  0.5013692  61.284     0.648463   0.5381238  0.7588022 
962.2000000000001 0.221      401.354    -9999      -9999      5.712      2.071      0.898      0.1263755  0.1263755  0.3373966  0.6136767  1.718468   2.492      0.1172501  0.4875209  61.284     0.6394578  0.5201134  0.7588022 
962.4      0.228      394.902    -9999      -9999      5.606      2.14       0.92       0.1230741  0.1230741  0.330064   0.533076   1.933358   2.532      0.1033867  0.479456   61.284     0.6272421  0.4956821  0.7588022 
962.6      0.238      389.741    -9999      -9999      5.7        1.85       0.944      0.1115099  0.1115099  0.3220648  0.3255304  1.741544   2.566      0.02902068 0.4560445  61.284     0.6380452  0.5172882  0.7588022 
962.8      0.238      384.58     -9999      -9999      5.7        1.976      0.94       0.1128431  0.1128431  0.323398   0.3445766  1.741544   2.6        0.04493741 0.4632947  61.284     0.6380452  0.5172882  0.7588022 
963        0.228      378.129    -9999      -9999      5.7        2.304      0.94       0.1128431  0.1128431  0.323398   0.3445766  1.741544   2.645      0.05259707 0.4678799  61.284     0.6380452  0.5172882  0.7588022 
963.2000000000001 0.221      372.968    -9999      -9999      5.55       2.197      0.949      0.1150044  0.1150044  0.3203983  0.3778498  2.057529   2.681      0.07401641 0.4717854  61.343     0.6224056  0.4832418  0.7615695 
963.4      0.216      367.807    -9999      -9999      5.375      2.052      0.959      0.1177598  0.1177598  0.3170653  0.4249676  2.499347   2.719      0.09888687 0.4763435  61.343     0.603956   0.4463425  0.7615695 
963.6      0.221      361.356    -9999      -9999      5.256      1.919      0.978      0.1152994  0.1152994  0.3107326  0.382634   2.852814   2.767      0.08966856 0.4701491  61.343     0.5922217  0.4228738  0.7615695 
963.8      0.226      353.614    -9999      -9999      5.25       2.279      0.972      0.117489   0.117489   0.3127324  0.420087   2.871904   2.828      0.1135794  0.4815419  61.343     0.5916467  0.4217238  0.7615695 
964        0.235      349.744    -9999      -9999      5.237      2.885      0.976      0.1165652  0.1165652  0.3113992  0.4038573  2.913705   2.859      0.1120184  0.481483   61.343     0.5904061  0.4192427  0.7615695 
964.2000000000001 0.228      344.583    -9999      -9999      5.231      2.828      1.006      0.1067543  0.1067543  0.3014002  0.2657705  2.933203   2.902      0.04804249 0.4577618  61.343     0.589836   0.4181025  0.7615695 
964.4      0.221      342.002    -9999      -9999      5.162      2.506      1.015      0.1054237  0.1054237  0.2984005  0.2511081  3.167025   2.924      0.04099124 0.4538887  61.402     0.5847782  0.4052112  0.7643452 
964.6      0.219      339.422    -9999      -9999      5.056      2.064      0.992      0.1157709  0.1157709  0.3060664  0.3904058  3.563055   2.946      0.1191926  0.4822304  61.461     0.576653   0.3861772  0.7671288 
964.8      0.226      342.002    -9999      -9999      5.031      2.412      0.974      0.1224893  0.1224893  0.3120658  0.519944   3.663458   2.924      0.1584664  0.4970142  61.461     0.5744743  0.3818199  0.7671288 
965        0.233      348.453    -9999      -9999      5.143      2.569      0.997      0.1115379  0.1115379  0.3043999  0.3259199  3.234623   2.87       0.07892105 0.4665431  61.461     0.5844303  0.4017317  0.7671288 
965.2000000000001 0.224      356.195    -9999      -9999      5.262      2.342      1.017      0.1011932  0.1011932  0.2977339  0.2096533  2.833851   2.807      0          0.4337837  61.461     0.5955779  0.424027   0.7671288 
965.4      0.221      360.066    -9999      -9999      5.375      2.342      0.987      0.1075101  0.1075101  0.3077329  0.2744775  2.499347   2.777      0.03412271 0.4544808  61.461     0.6067356  0.4463425  0.7671288 
965.6      0.221      360.066    -9999      -9999      5.35       2.563      0.957      0.1178794  0.1178794  0.3177319  0.4271408  2.569777   2.777      0.1085566  0.4827282  61.52      0.6056135  0.4413064  0.7699208 
965.8      0.218      362.646    -9999      -9999      5.262      2.563      0.969      0.1167309  0.1167309  0.3137323  0.4067222  2.833851   2.758      0.09802117 0.4748704  61.52      0.5969739  0.424027   0.7699208 
966        0.215      365.227    -9999      -9999      5.3        2.437      0.967      0.1161803  0.1161803  0.3143989  0.3972822  2.716643   2.738      0.09120061 0.4727903  61.52      0.6006624  0.431404   0.7699208 
966.2000000000001 0.216      370.388    -9999      -9999      5.412      2.273      0.938      0.1216719  0.1216719  0.3240646  0.5021309  2.39864    2.7        0.1212873  0.4878377  61.579     0.6133112  0.4539016  0.7727207 
966.4      0.221      380.71     -9999      -9999      5.475      1.982      0.913      0.1278319  0.1278319  0.3323971  0.6530037  2.236413   2.627      0.1473874  0.4981196  61.579     0.6198944  0.4670682  0.7727207 
966.6      0.228      391.032    -9999      -9999      5.368      1.824      0.899      0.1361515  0.1361515  0.3370633  0.9311379  2.51887    2.557      0.1826528  0.5071753  61.579     0.6088237  0.4449266  0.7727207 
966.8      0.241      398.773    -9999      -9999      5.275      1.944      0.899      0.1391859  0.1391859  0.3370633  1.059786   2.793196   2.508      0.1908809  0.5063761  61.579     0.5996286  0.4265364  0.7727207 
967        0.251      403.934    -9999      -9999      5.25       1.951      0.916      0.1343139  0.1343139  0.3313972  0.8609476  2.871904   2.476      0.1603334  0.4912404  61.579     0.5972222  0.4217238  0.7727207 
967.2000000000001 0.236      409.095    -9999      -9999      5.25       1.799      0.918      0.1336473  0.1336473  0.3307306  0.8368158  2.871904   2.444      0.1515234  0.4863342  61.579     0.5972222  0.4217238  0.7727207 
967.4      0.232      407.805    -9999      -9999      5.318      1.635      0.937      0.1251334  0.1251334  0.3243979  0.5820126  2.662829   2.452      0.1028364  0.4682872  61.579     0.6038318  0.4349429  0.7727207 
967.6      0.238      402.644    -9999      -9999      5.231      1.521      0.953      0.1221159  0.1221159  0.3190651  0.5117298  2.933203   2.484      0.08911785 0.4613796  61.638     0.5968158  0.4181025  0.775529  
967.8      0.245      396.193    -9999      -9999      5.087      1.831      0.96       0.1241476  0.1241476  0.316732   0.5580494  3.44237    2.524      0.1088204  0.46633    61.638     0.5835891  0.3916492  0.775529  
968        0.248      388.451    -9999      -9999      5.168      2.367      0.968      0.1190611  0.1190611  0.3140656  0.4492202  3.145972   2.574      0.08421997 0.4606156  61.638     0.5909226  0.4063163  0.775529  
968.2000000000001 0.247      378.129    -9999      -9999      5.287      2.658      0.94       0.1246728  0.1246728  0.323398   0.5706916  2.756184   2.645      0.1313893  0.4863598  61.638     0.6021975  0.428866   0.775529  
