~Version
 VERS              .         2.0                           : CWLS LOG ASCII STANDARD - VERSION 2.0
 WRAP              .         NO                            : ONE LINE PER DEPTH STEP
 DLM               .         SPACE                         : DELIMITING CHARACTER(SPACE TAB OR COMMA)
~Well Information
#_______________________________________________________________________________
#
#PARAMETER_NAME    .UNIT     VALUE                         : DESCRIPTION
#_______________________________________________________________________________
STRT               .M        850                           : First reference value
STOP               .M        1282                          : Last reference value
STEP               .M        0.2                           : Step increment
NULL               .         -9999                         : Missing value
COMP               .                                       : Company
WELL               .         1664                          : Well name
FLD                .         Узень                         : Field
LOC                .                                       : Location
CNTY               .                                       : County
STAT               .                                       : State
CTRY               .                                       : Country
SRVC               .                                       : Service Company
DATE               .                                       : Date
UWI                .                                       : Unique Well ID
Block              .         7                             : 
Category           .         Нефтяная                      : 
Condition          .         Ликвидированная               : 
Date               .         01.04.1975                    : 
EREF               .m        87.7                          : 100.8
Gorizont           .         15                            : 14
Interpretator      .         Бекбулатова А.А.              : 
Kupol              .         Основной                      : osnovnoi
Mud                .         0                             : 
Mud_density        .         0                             : 
Mud_resistivity    .         0                             : 
NGDU               .         НГДУ-2                        : 
ORIGINALWELLNAME   .         1664                          : 
Spud_date          .         1975                          : 1961
Viscosity          .         0                             : 
X                  .m        42026.6                       : 46154
Y                  .m        84148.2                       : 85761.93
YEAR               .         2018                          : 
Исправ_15гор       .         Исправ.15гор                  : 
~Parameter Information Block
#_______________________________________________________________________________
#
#PARAMETER_NAME    .UNIT     VALUE                         : DESCRIPTION
#_______________________________________________________________________________
SET                .         LQC_KAZNIPI_Petrel            : 
TLFamily_CALI      .         Caliper                       : 
TLFamily_CILD      .         Conductivity                  : 
TLFamily_COLL      .         Net Reservoir Flag            : 
TLFamily_CSAT      .         Fluid Code                    : 
TLFamily_DEPT      .         Measured Depth                : 
TLFamily_GR        .         Russian Gamma Ray             : 
TLFamily_LLS       .         Lateral Log Resistivity       : 
TLFamily_NGLD      .         Neutron Gamma                 : 
TLFamily_PHIE      .         Effective Porosity            : 
TLFamily_PHIEN     .         Effective Porosity            : 
TLFamily_PHIT      .         Porosity                      : 
TLFamily_PRMB      .         Permeability                  : 
TLFamily_PRMB_DGR  .         Permeability                  : 
TLFamily_RT        .         Formation Resistivity         : 
TLFamily_SOIL_ARCHIE .         Oil Saturation                : 
TLFamily_SOIL_DW   .         Oil Saturation                : 
TLFamily_SP        .         Spontaneous Potential         : 
TLFamily_VSH_FIN   .         Shale Volume                  : 
TLFamily_VSH_GR    .         Shale Volume                  : 
TLFamily_VSH_SP    .         Shale Volume                  : 
~Curve Information
#_______________________________________________________________________________
#
#LOGNAME           .UNIT     LOG_ID                        : DESCRIPTION
#_______________________________________________________________________________
DEPT               .M                                      : Колонка глубины 
CALI               .м                                      : Каверномер 
CILD               .мСм/м                                  : Индукционный каротаж 
COLL               .unitless                               : Описание 
CSAT               .unitless                               : Описание 
GR                 .uR/h                                   : Гамма каротаж 
LLS                .Ohmm                                   : Боковой каротаж 
NGLD               .у.е.                                   : Показания зонда НГК-60 аппаратуры ДРСТ-3-90 
PHIE               .д.ед.                                  : Описание 
PHIEN              .д.ед.                                  :  
PHIT               .д.ед.                                  : Описание 
PRMB               .mD                                     :  
PRMB_DGR           .mD                                     :  
RT                 .ohmm                                   : УЭС пласта 
SOIL_ARCHIE        .д.ед.                                  :  
SOIL_DW            .д.ед.                                  :  
SP                 .мВ                                     : Потенциал самополяризации 
VSH_FIN            .д.ед.                                  : Описание 
VSH_GR             .д.ед.                                  : Shale volume 
VSH_SP             .д.ед.                                  : Shale Volume 
~Ascii
# ...
1242.2     0.214      534.249    1          2          6.55       2.9        1.127      0.2112217  0.2112217  0.2610709  22.88214   43.81889   1.872      0.3635449  0.4428828  28.576     0.1510582  0.1386019  0.1635145 
1242.4     0.215      517.476    1          2          6.418      3.737      1.146      0.2052542  0.2052542  0.2547382  17.74045   60.14769   1.932      0.3570481  0.4369909  30.347     0.1499513  0.1217867  0.178116  
1242.6     0.215      511.025    1          2          6.45       4.211      1.106      0.2149302  0.2149302  0.2680702  26.80317   55.70216   1.957      0.3860476  0.4673045  32.177     0.1610305  0.1256656  0.1963954 
1242.8     0.216      516.186    1          2          6.681      3.23       1.145      0.1931803  0.1931803  0.2550715  10.60051   31.99972   1.937      0.3230084  0.4235993  33.948     0.187549   0.1575842  0.2175138 
1243       0.216      529.088    1          2          6.531      2.553      1.08       0.2143002  0.2143002  0.276736   26.09257   45.86288   1.89       0.3743311  0.4671597  35.72      0.1891995  0.1360455  0.2423536 
1243.2     0.216      539.41     1          2          6.75       2.249      0.999      0.2311624  0.2311624  0.3037333  53.56067   27.11699   1.854      0.4089637  0.5062435  37.491     0.2199119  0.1686063  0.2712175 
1243.4     0.217      541.991    1          2          6.987      2.122      0.974      0.2265441  0.2265441  0.3120658  43.98498   15.35548   1.845      0.3971084  0.5086438  39.321     0.2591567  0.2126783  0.305635  
1243.6     0.217      541.991    1          2          7.143      2.038      0.983      0.2114638  0.2114638  0.3090661  23.11964   10.56077   1.845      0.3598301  0.4915447  41.092     0.2957645  0.2478022  0.3437268 
1243.8     0.217      539.41     -9999      -9999      7.118      1.902      0.953      0.1325617  0.1325617  0.3190651  0.798956   6.436853   1.854      0.05446607 0.410216   42.863     0.5651617  0.3033233  0.5651617 
1244       0.218      544.571    -9999      -9999      7.075      1.902      0.914      0.1375567  0.1375567  0.3320638  0.9886466  7.191352   1.836      0.08023918 0.4299053  43.513     0.5894156  0.2899011  0.5894156 
1244.2     0.219      548.442    -9999      -9999      7.081      1.987      0.882      0.1429856  0.1429856  0.3427294  1.246228   7.080986   1.823      0.1077597  0.4471484  43.926     0.6052843  0.2917377  0.6052843 
1244.4     0.222      556.184    -9999      -9999      7.143      2.08       0.898      0.1307314  0.1307314  0.3373966  0.7389593  6.035135   1.798      0.02907254 0.4188142  44.458     0.6262582  0.3114107  0.6262582 
1244.6     0.227      562.635    -9999      -9999      7.156      2.114      0.905      0.1188754  0.1188754  0.3350635  0.4456763  5.836254   1.777      0          0.3921992  45.166     0.6551154  0.3157011  0.6551154 
1244.8     0.233      571.667    -9999      -9999      7.018      1.902      0.906      0.1103299  0.1103299  0.3347302  0.3095533  8.329506   1.749      0          0.3705311  45.756     0.6800009  0.2730201  0.6800009 
1245       0.237      576.828    -9999      -9999      6.912      1.742      0.938      0.09032081 0.09032081 0.3240646  0.1318617  10.94666   1.734      0          0.3084902  46.406     0.7083145  0.2441973  0.7083145 
1245.2     0.231      584.569    -9999      -9999      6.912      1.657      0.963      0.07323406 0.07323406 0.3157321  0.0636254  10.94666   1.711      0          0.2419402  46.996     0.7348425  0.2441973  0.7348425 
1245.4     0.226      592.311    -9999      -9999      7.062      1.615      0.937      0.07377984 0.07377984 0.3243979  0.06512378 7.436415   1.688      0          0.2526368  47.528     0.7594487  0.2859614  0.7594487 
1245.6     0.222      600.052    -9999      -9999      7.143      1.615      0.949      0.06332654 0.06332654 0.3203983  0.04169838 6.035135   1.667      0          0.2057126  47.941     0.7790053  0.3114107  0.7790053 
1245.8     0.22       601.342    -9999      -9999      7.225      1.64       0.955      0.05757954 0.05757954 0.3183985  0.03263403 4.885308   1.663      0          0.1790915  48.177     0.7903605  0.3394819  0.7903605 
1246       0.22       606.503    -9999      -9999      7.337      1.674      0.969      0.05196971 0.05196971 0.3137323  0.02568994 3.660266   1.649      0          0.1428369  48.236     0.79322    0.3819558  0.79322   
1246.2     0.219      611.664    -9999      -9999      7.406      1.683      0.986      0.04724723 0.04724723 0.3080662  0.02100349 3.063867   1.635      0          0.1051999  48.177     0.7903605  0.4107277  0.7903605 
1246.4     0.22       614.245    -9999      -9999      7.437      1.691      0.984      0.05166103 0.05166103 0.3087328  0.02535395 2.82857    1.628      0          0.1257568  47.941     0.7790053  0.4243501  0.7790053 
1246.6     0.22       616.825    -9999      -9999      7.537      1.699      0.994      0.05295127 0.05295127 0.3053998  0.02678823 2.185852   1.621      0          0.1228923  47.646     0.7649955  0.47145    0.7649955 
1246.8     0.22       619.406    -9999      -9999      7.65       1.725      0.99       0.05793467 0.05793467 0.306733   0.03313208 1.633512   1.614      0          0.1456536  47.41      0.7539343  0.5309935  0.7539343 
1247       0.22       620.696    -9999      -9999      7.637      1.759      1.032      0.04755877 0.04755877 0.2927344  0.02128442 1.689177   1.611      0          0.06570466 47.173     0.7429565  0.5237774  0.7429565 
1247.2     0.221      620.696    -9999      -9999      7.512      1.801      1.052      0.04357035 0.04357035 0.2860684  0.01795505 2.33135    1.611      0          0.0274853  46.996     0.7348425  0.4592063  0.7348425 
1247.4     0.221      620.696    -9999      -9999      7.518      1.869      1.038      0.05000842 0.05000842 0.2907346  0.02362845 2.29557    1.611      0          0.07376021 46.878     0.7294733  0.4621154  0.7294733 
1247.6     0.221      620.696    -9999      -9999      7.5        1.919      1.047      0.04964672 0.04964672 0.2877349  0.02326675 2.40459    1.611      0          0.06490609 46.701     0.7214793  0.4534427  0.7214793 
1247.8     0.22       619.406    -9999      -9999      7.393      1.928      1.037      0.04499445 0.04499445 0.2910679  0.01907939 3.168273   1.614      0          0.04877109 47.232     0.7456772  0.4051459  0.7456772 
1248       0.22       615.535    -9999      -9999      7.231      1.835      1.024      0.03925909 0.03925909 0.2954008  0.01493935 4.810333   1.625      0          0.02954761 47.882     0.7761869  0.3416326  0.7761869 
1248.2     0.219      612.955    -9999      -9999      7.343      1.759      0.984      0.0469702  0.0469702  0.3087328  0.02075678 3.604092   1.631      0          0.1041623  48.236     0.79322    0.3843756  0.79322   
1248.4     0.219      610.374    -9999      -9999      7.456      1.733      0.99       0.04402408 0.04402408 0.306733   0.01830589 2.693377   1.638      0          0.08670307 48.295     0.7960876  0.4329218  0.7960876 
1248.6     0.219      606.503    -9999      -9999      7.556      1.716      0.977      0.0493033  0.0493033  0.3110659  0.02292846 2.081379   1.649      0          0.1252062  48.236     0.79322    0.4809731  0.79322   
1248.8     0.219      605.213    -9999      -9999      7.575      1.716      0.983      0.04918801 0.04918801 0.3090661  0.02281599 1.981901   1.652      0          0.1213044  48.118     0.7875094  0.4906883  0.7875094 
1249       0.22       602.633    -9999      -9999      7.643      1.708      0.985      0.05039502 0.05039502 0.3083995  0.02402128 1.663253   1.659      0          0.1274452  48         0.7818317  0.5270957  0.7818317 
1249.2     0.219      602.633    -9999      -9999      7.681      1.716      -9999      -9999      -9999      -9999      -9999      -9999      1.659      -9999      -9999      47.764     0.7705749  0.548605   0.7705749 
1249.4     0.219      601.342    -9999      -9999      7.7        1.708      -9999      -9999      -9999      -9999      -9999      -9999      1.663      -9999      -9999      47.469     0.7566875  0.5596863  0.7566875 
