~Version
 VERS              .         2.0                           : CWLS LOG ASCII STANDARD - VERSION 2.0
 WRAP              .         NO                            : ONE LINE PER DEPTH STEP
 DLM               .         SPACE                         : DELIMITING CHARACTER(SPACE TAB OR COMMA)
~Well Information
#_______________________________________________________________________________
#
#PARAMETER_NAME    .UNIT     VALUE                         : DESCRIPTION
#_______________________________________________________________________________
STRT               .M        850                           : First reference value
STOP               .M        1282                          : Last reference value
STEP               .M        0.2                           : Step increment
NULL               .         -9999                         : Missing value
COMP               .                                       : Company
WELL               .         1664                          : Well name
FLD                .         Узень                         : Field
LOC                .                                       : Location
CNTY               .                                       : County
STAT               .                                       : State
CTRY               .                                       : Country
SRVC               .                                       : Service Company
DATE               .                                       : Date
UWI                .                                       : Unique Well ID
Block              .         7                             : 
Category           .         Нефтяная                      : 
Condition          .         Ликвидированная               : 
Date               .         01.04.1975                    : 
EREF               .m        87.7                          : 100.8
Gorizont           .         15                            : 14
Interpretator      .         Бекбулатова А.А.              : 
Kupol              .         Основной                      : osnovnoi
Mud                .         0                             : 
Mud_density        .         0                             : 
Mud_resistivity    .         0                             : 
NGDU               .         НГДУ-2                        : 
ORIGINALWELLNAME   .         1664                          : 
Spud_date          .         1975                          : 1961
Viscosity          .         0                             : 
X                  .m        42026.6                       : 46154
Y                  .m        84148.2                       : 85761.93
YEAR               .         2018                          : 
Исправ_15гор       .         Исправ.15гор                  : 
~Parameter Information Block
#_______________________________________________________________________________
#
#PARAMETER_NAME    .UNIT     VALUE                         : DESCRIPTION
#_______________________________________________________________________________
SET                .         LQC_KAZNIPI_Petrel            : 
TLFamily_CALI      .         Caliper                       : 
TLFamily_CILD      .         Conductivity                  : 
TLFamily_COLL      .         Net Reservoir Flag            : 
TLFamily_CSAT      .         Fluid Code                    : 
TLFamily_DEPT      .         Measured Depth                : 
TLFamily_GR        .         Russian Gamma Ray             : 
TLFamily_LLS       .         Lateral Log Resistivity       : 
TLFamily_NGLD      .         Neutron Gamma                 : 
TLFamily_PHIE      .         Effective Porosity            : 
TLFamily_PHIEN     .         Effective Porosity            : 
TLFamily_PHIT      .         Porosity                      : 
TLFamily_PRMB      .         Permeability                  : 
TLFamily_PRMB_DGR  .         Permeability                  : 
TLFamily_RT        .         Formation Resistivity         : 
TLFamily_SOIL_ARCHIE .         Oil Saturation                : 
TLFamily_SOIL_DW   .         Oil Saturation                : 
TLFamily_SP        .         Spontaneous Potential         : 
TLFamily_VSH_FIN   .         Shale Volume                  : 
TLFamily_VSH_GR    .         Shale Volume                  : 
TLFamily_VSH_SP    .         Shale Volume                  : 
~Curve Information
#_______________________________________________________________________________
#
#LOGNAME           .UNIT     LOG_ID                        : DESCRIPTION
#_______________________________________________________________________________
DEPT               .M                                      : Колонка глубины 
CALI               .м                                      : Каверномер 
CILD               .мСм/м                                  : Индукционный каротаж 
COLL               .unitless                               : Описание 
CSAT               .unitless                               : Описание 
GR                 .uR/h                                   : Гамма каротаж 
LLS                .Ohmm                                   : Боковой каротаж 
NGLD               .у.е.                                   : Показания зонда НГК-60 аппаратуры ДРСТ-3-90 
PHIE               .д.ед.                                  : Описание 
PHIEN              .д.ед.                                  :  
PHIT               .д.ед.                                  : Описание 
PRMB               .mD                                     :  
PRMB_DGR           .mD                                     :  
RT                 .ohmm                                   : УЭС пласта 
SOIL_ARCHIE        .д.ед.                                  :  
SOIL_DW            .д.ед.                                  :  
SP                 .мВ                                     : Потенциал самополяризации 
VSH_FIN            .д.ед.                                  : Описание 
VSH_GR             .д.ед.                                  : Shale volume 
VSH_SP             .д.ед.                                  : Shale Volume 
~Ascii
# ...
983.2000000000001 0.238      369.097    -9999      -9999      5.668      1.761      0.922      0.1396774  0.1396774  0.3293974  1.082239   1.804604   2.709      0.222022   0.5187075  58.568     0.574909   0.5098293  0.6399886 
983.4      0.227      356.195    -9999      -9999      5.731      1.837      0.958      0.1256343  0.1256343  0.3173986  0.5945808  1.682555   2.807      0.160918   0.4967973  58.509     0.5811038  0.5246182  0.6375894 
983.6      0.221      345.873    -9999      -9999      5.762      2.229      0.993      0.1127423  0.1127423  0.3057331  0.343098   1.625564   2.891      0.09061294 0.4719965  58.509     0.5848207  0.532052   0.6375894 
983.8      0.219      336.841    -9999      -9999      5.812      2.79       1.032      0.09772851 0.09772851 0.2927344  0.1808536  1.537683   2.969      0          0.4365693  58.509     0.590927   0.5442647  0.6375894 
984        0.218      344.583    -9999      -9999      5.881      2.91       1.049      0.08920536 0.08920536 0.2870683  0.1257355  1.424155   2.902      0          0.4044768  58.509     0.5995846  0.5615799  0.6375894 
984.2000000000001 0.219      348.453    -9999      -9999      5.931      3.011      1.047      0.08695205 0.08695205 0.2877349  0.1142144  1.347163   2.87       0          0.3969363  58.627     0.6084328  0.5744704  0.6423953 
984.4      0.22       363.936    -9999      -9999      5.812      2.854      0.989      0.1092563  0.1092563  0.3070663  0.2956986  1.537683   2.748      0.04287781 0.4539289  58.923     0.5994243  0.5442647  0.654584  
984.6      0.226      374.258    -9999      -9999      5.762      2.557      0.948      0.123719   0.123719   0.3207316  0.5479405  1.625564   2.672      0.129717   0.4848239  59.1       0.597008   0.532052   0.6619639 
984.8      0.237      384.58     -9999      -9999      5.787      2.235      0.903      0.1356608  0.1356608  0.3357301  0.9118537  1.581013   2.6        0.18647    0.5093898  59.395     0.6062706  0.5381238  0.6744175 
985        0.253      394.902    -9999      -9999      5.843      1.919      0.868      0.1433738  0.1433738  0.3473956  1.267033   1.4856     2.532      0.2150203  0.5232369  59.631     0.618248   0.5519769  0.6845192 
985.2000000000001 0.263      405.224    -9999      -9999      5.931      1.717      0.841      0.1473979  0.1473979  0.3563947  1.504267   1.347163   2.468      0.2244574  0.5296516  59.808     0.6333236  0.5744704  0.6921769 
985.4      0.265      411.676    -9999      -9999      6.05       1.799      0.839      0.1415288  0.1415288  0.3570613  1.171158   1.180248   2.429      0.1904923  0.5193868  59.985     0.6531287  0.6063523  0.699905  
985.6      0.262      421.998    -9999      -9999      6.156      1.9        0.841      0.1346443  0.1346443  0.3563947  0.8731655  1.049065   2.37       0.1447469  0.5040342  60.162     0.671971   0.6362384  0.7077035 
985.8      0.253      434.9      -9999      -9999      6.256      1.862      0.858      0.122805   0.122805   0.3507286  0.5269932  0.938702   2.299      0.06004556 0.4743553  60.339     0.6906775  0.6657819  0.7155731 
986        0.247      449.093    -9999      -9999      6.35       1.742      0.873      0.1121375  0.1121375  0.3457291  0.3343622  0.8455701  2.227      0          0.4436814  60.458     0.7078532  0.6948025  0.720904  
986.2000000000001 0.25       463.286    -9999      -9999      6.231      1.622      0.86       0.1216209  0.1216209  0.350062   0.5010391  0.9651538  2.158      0.02350353 0.4549409  60.576     0.6922458  0.6582698  0.7262219 
986.4      0.262      478.769    -9999      -9999      6.287      1.616      0.84       0.1254907  0.1254907  0.356728   0.5909504  0.9069066  2.089      0.03518216 0.4587272  60.576     0.700719   0.6752161  0.7262219 
986.6      0.274      498.122    -9999      -9999      6.293      1.736      0.825      0.1301864  0.1301864  0.3617275  0.7219822  0.9008784  2.008      0.04805992 0.4598967  60.576     0.7016397  0.6770574  0.7262219 
986.8      0.26       517.476    -9999      -9999      6.156      1.648      0.832      0.1345884  0.1345884  0.3593944  0.8710887  1.049065   1.932      0.05833916 0.4535547  60.576     0.6812302  0.6362384  0.7262219 
987        0.245      539.41     -9999      -9999      6.012      1.477      0.837      0.1400034  0.1400034  0.3577279  1.097387   1.231169   1.854      0.07237364 0.4483795  60.517     0.6597713  0.5959837  0.7235589 
987.2000000000001 0.261      551.023    -9999      -9999      5.906      1.332      0.832      0.1467271  0.1467271  0.3593944  1.461842   1.385124   1.815      0.1005795  0.4535239  60.458     0.6444463  0.5679886  0.720904  
987.4      0.271      527.798    -9999      -9999      5.862      1.218      0.843      0.1453507  0.1453507  0.3557281  1.378497   1.454553   1.895      0.1113365  0.4598349  60.399     0.6375073  0.5567577  0.7182568 
987.6      0.282      499.413    -9999      -9999      5.906      1.294      0.883      0.1301656  0.1301656  0.3423961  0.7213414  1.385124   2.002      0.04658945 0.4395639  60.399     0.6431227  0.5679886  0.7182568 
987.8      0.272      473.608    -9999      -9999      5.937      1.926      0.949      0.1072826  0.1072826  0.3203983  0.2718272  1.338208   2.111      0          0.3901267  60.339     0.645805   0.5760369  0.7155731 
988        0.236      455.544    -9999      -9999      5.912      2.449      1.012      0.08735716 0.08735716 0.2994004  0.116205   1.375917   2.195      0          0.3295214  60.339     0.6425553  0.5695375  0.7155731 
988.2000000000001 0.217      445.222    -9999      -9999      5.906      2.62       1.068      0.06894793 0.06894793 0.2807356  0.05299575 1.385124   2.246      0          0.2530353  60.339     0.6417809  0.5679886  0.7155731 
988.4      0.227      440.061    -9999      -9999      5.912      2.367      1.07       0.06802574 0.06802574 0.280069   0.05095182 1.375917   2.272      0          0.2529955  60.339     0.6425553  0.5695375  0.7155731 
988.6      0.235      437.481    -9999      -9999      5.937      2.14       1.039      0.07728564 0.07728564 0.2904013  0.07562678 1.338208   2.286      0          0.3021085  60.339     0.645805   0.5760369  0.7155731 
988.8      0.254      441.351    -9999      -9999      5.95       1.843      1.015      0.08472236 0.08472236 0.2984005  0.1038536  1.31901    2.266      0          0.3319401  60.339     0.6475095  0.5794458  0.7155731 
989        0.277      452.964    -9999      -9999      5.956      1.667      0.946      0.1074593  0.1074593  0.3213982  0.2738835  1.310242   2.208      0          0.405227   60.339     0.6482996  0.581026   0.7155731 
989.2000000000001 0.287      463.286    -9999      -9999      5.975      1.509      0.896      0.123294   0.123294   0.3380632  0.5380984  1.28286    2.158      0.0350548  0.4451422  60.339     0.6508158  0.5860584  0.7155731 
989.4      0.282      473.608    -9999      -9999      5.993      1.471      0.873      0.1301666  0.1301666  0.3457291  0.7213722  1.257448   2.111      0.07002202 0.4576112  60.339     0.6532196  0.5908661  0.7155731 
989.6      0.277      483.93     -9999      -9999      6.006      1.503      0.863      0.1329227  0.1329227  0.3490621  0.81135    1.239407   2.066      0.07755858 0.4591736  60.339     0.654968   0.5943629  0.7155731 
989.8      0.271      494.252    -9999      -9999      6.031      1.515      0.853      0.1351365  0.1351365  0.3523951  0.89169    1.20544    2.023      0.08171528 0.4599861  60.339     0.6583594  0.6011457  0.7155731 
990        0.266      508.444    -9999      -9999      6.05       1.439      0.841      0.1378342  0.1378342  0.3563947  1.000418   1.180248   1.967      0.08541954 0.4601474  60.399     0.6623046  0.6063523  0.7182568 
990.2000000000001 0.264      520.057    -9999      -9999      6.056      1.357      0.824      0.1432275  0.1432275  0.3620608  1.259152   1.172403   1.923      0.1060479  0.4669208  60.399     0.6631314  0.6080059  0.7182568 
990.4      0.262      529.088    -9999      -9999      6.05       1.319      0.819      0.1451668  0.1451668  0.3637273  1.367726   1.180248   1.89       0.1092523  0.4664674  60.399     0.6623046  0.6063523  0.7182568 
