~Version
 VERS              .         2.0                           : CWLS LOG ASCII STANDARD - VERSION 2.0
 WRAP              .         NO                            : ONE LINE PER DEPTH STEP
 DLM               .         SPACE                         : DELIMITING CHARACTER(SPACE TAB OR COMMA)
~Well Information
#_______________________________________________________________________________
#
#PARAMETER_NAME    .UNIT     VALUE                         : DESCRIPTION
#_______________________________________________________________________________
STRT               .M        886                           : First reference value
STOP               .M        1240                          : Last reference value
STEP               .M        0.1                           : Step increment
NULL               .         -9999                         : Missing value
COMP               .                                       : Company
WELL               .         1868                          : Well name
FLD                .         УЗЕНЬ                         : Field
LOC                .                                       : Location
CNTY               .                                       : County
STAT               .                                       : State
CTRY               .                                       : Country
SRVC               .         SCH                           : Service Company
DATE               .         04/09/2010                    : Date
UWI                .                                       : Unique Well ID
Block              .         7                             : 
Category           .         Нефтяная                      : 
Condition          .         В работе                      : 
Date               .         13.01.1984                    : 
EREF               .m        85.4                          : 100.8
Gorizont           .         14                            : 14
Interpretator      .         Ткачева И.Г.                  : 
Kupol              .         Основной                      : osnovnoi
Mud                .         0                             : 
Mud_density        .         0                             : 
Mud_resistivity    .         0                             : 
NGDU               .         НГДУ-2                        : 
ORIGINALWELLNAME   .         1868                          : 
Spud_date          .         1972                          : 1961
Uslovie            .         14                            : 
Viscosity          .         0                             : 
X                  .m        42512.4                       : 46154
Y                  .m        84495.93                      : 85761.93
YEAR               .         2019                          : 
~Parameter Information Block
#_______________________________________________________________________________
#
#PARAMETER_NAME    .UNIT     VALUE                         : DESCRIPTION
#_______________________________________________________________________________
SET                .         LQC_KAZNIPI_Petrel            : 
PBBOTTOM           .M        1240                          : Глубина подошвы планшета
PBSCALE            .         1 _ 500                       : Вертикальный масштаб планшета
PBTOP              .M        886                           : Глубина кровли планшета
TLFamily_CALI      .         Caliper                       : 
TLFamily_COLL      .         Net Reservoir Flag            : 
TLFamily_CSAT      .         Fluid Code                    : 
TLFamily_DEPT      .         Measured Depth                : 
TLFamily_GR        .         Russian Gamma Ray             : 
TLFamily_GZ1       .         Gradient 045                  : 
TLFamily_GZ2       .         Gradient 105                  : 
TLFamily_GZ3       .         Gradient 225                  : 
TLFamily_GZ4       .         Gradient 425                  : 
TLFamily_GZ5       .         Gradient 850                  : 
TLFamily_LLS       .         Lateral Log Resistivity       : 
TLFamily_MINV      .         Micro Gradient Resistivity    : 
TLFamily_MNOR      .         Micro Resistivity             : 
TLFamily_NGLD      .         Neutron Gamma                 : 
TLFamily_OGZ       .         Gradient Inverted 225         : 
TLFamily_PHIE      .         Effective Porosity            : 
TLFamily_PHIEN     .         Effective Porosity            : 
TLFamily_PHIT      .         Porosity                      : 
TLFamily_PRMB      .         Permeability                  : 
TLFamily_PRMB_DGR  .         Permeability                  : 
TLFamily_RT        .         Formation Resistivity         : 
TLFamily_SOIL_ARCHIE .         Oil Saturation                : 
TLFamily_SOIL_DW   .         Oil Saturation                : 
TLFamily_SP        .         Spontaneous Potential         : 
TLFamily_VSH_FIN   .         Shale Volume                  : 
TLFamily_VSH_GR    .         Shale Volume                  : 
TLFamily_VSH_SP    .         Shale Volume                  : 
~Curve Information
#_______________________________________________________________________________
#
#LOGNAME           .UNIT     LOG_ID                        : DESCRIPTION
#_______________________________________________________________________________
DEPT               .M                                      : Колонка глубины 
CALI               .м                                      : Каверномер 
COLL               .unitless                               : Описание 
CSAT               .unitless                               : Описание 
GR                 .uR/h                                   : Гамма каротаж 
GZ1                .Ohmm                                   : Градиент-зонд  длиной 0.45м 
GZ2                .Ohmm                                   : Градиент-зонд  длиной 1.05м 
GZ3                .Ohmm                                   : Градиент-зонд  длиной 2.25м 
GZ4                .Ohmm                                   : Градиент-зонд  длиной 4.5м 
GZ5                .Ohmm                                   : Градиент-зонд  длиной 8.5м 
LLS                .Ohmm                                   :  
MINV               .Ohmm                                   : Микро-градиент зонд 
MNOR               .Ohmm                                   : Микро-потенциал зонд 
NGLD               .у.е.                                   : Показания зонда НГК-60 аппаратуры ДРСТ-3-90 
OGZ                .Ohmm                                   : Обращенный градиент-зонд 
PHIE               .v/v                                    : Описание 
PHIEN              .v/v                                    :  
PHIT               .v/v                                    : Описание 
PRMB               .mD                                     :  
PRMB_DGR           .mD                                     :  
RT                 .ohmm                                   : УЭС пласта 
SOIL_ARCHIE        .v/v                                    :  
SOIL_DW            .v/v                                    :  
SP                 .мВ                                     : Потенциал самополяризации 
VSH_FIN            .v/v                                    : Описание 
VSH_GR             .v/v                                    : Shale volume 
VSH_SP             .v/v                                    : Shale Volume 
~Ascii
# ...
1237       0.23818    -9999      -9999      -9999      1.135      1.472      1.612      0.956      1.18       1.13       0.877      0.94       -9999      1.43       -9999      -9999      -9999      -9999      -9999      1.389      -9999      -9999      68.834     0.565434   -9999      0.5654337 
1237.1     0.23818    -9999      -9999      -9999      1.146      1.491      1.623      0.981      1.196      1.13       0.896      0.934      -9999      1.426      -9999      -9999      -9999      -9999      -9999      1.381      -9999      -9999      68.961     0.57086    -9999      0.5708598 
1237.2     0.23818    -9999      -9999      -9999      1.157      1.507      1.632      1.008      1.214      1.13       0.916      0.929      -9999      1.423      -9999      -9999      -9999      -9999      -9999      1.374      -9999      -9999      69.088     0.576331   -9999      0.5763311 
1237.3     0.23818    -9999      -9999      -9999      1.168      1.52       1.639      1.036      1.233      1.124      0.935      0.922      -9999      1.423      -9999      -9999      -9999      -9999      -9999      1.366      -9999      -9999      69.152     0.579446   -9999      0.5794462 
1237.4     0.23818    -9999      -9999      -9999      1.178      1.53       1.644      1.064      1.254      1.118      0.947      0.912      -9999      1.424      -9999      -9999      -9999      -9999      -9999      1.36       -9999      -9999      69.215     0.582316   -9999      0.5823161 
1237.5     0.23818    -9999      -9999      -9999      1.186      1.54       1.648      1.09       1.274      1.112      0.945      0.899      -9999      1.426      -9999      -9999      -9999      -9999      -9999      1.355      -9999      -9999      69.215     0.582316   -9999      0.5823161 
1237.6     0.23818    -9999      -9999      -9999      1.191      1.549      1.651      1.116      1.29       1.105      0.921      0.882      -9999      1.431      -9999      -9999      -9999      -9999      -9999      1.353      -9999      -9999      69.215     0.582316   -9999      0.5823161 
1237.7     0.23818    -9999      -9999      -9999      1.193      1.558      1.651      1.141      1.302      1.099      0.875      0.862      -9999      1.439      -9999      -9999      -9999      -9999      -9999      1.351      -9999      -9999      69.342     0.588139   -9999      0.5881392 
1237.8     0.23818    -9999      -9999      -9999      1.192      1.564      1.651      1.165      1.31       1.092      0.812      0.841      -9999      1.449      -9999      -9999      -9999      -9999      -9999      1.35       -9999      -9999      69.469     0.594012   -9999      0.5940118 
1237.9     0.23818    -9999      -9999      -9999      1.19       1.567      1.648      1.188      1.315      1.086      0.745      0.819      -9999      1.461      -9999      -9999      -9999      -9999      -9999      1.351      -9999      -9999      69.469     0.594012   -9999      0.5940118 
1238       0.23818    -9999      -9999      -9999      1.186      1.564      1.645      1.208      1.316      1.08       0.685      0.798      -9999      1.473      -9999      -9999      -9999      -9999      -9999      1.354      -9999      -9999      69.469     0.594012   -9999      0.5940118 
1238.1     0.23818    -9999      -9999      -9999      1.181      1.558      1.64       1.226      1.315      1.08       0.635      0.774      -9999      1.486      -9999      -9999      -9999      -9999      -9999      1.359      -9999      -9999      69.469     0.594012   -9999      0.5940118 
1238.2     0.23818    -9999      -9999      -9999      1.174      1.548      1.635      1.24       1.31       1.08       0.595      0.749      -9999      1.497      -9999      -9999      -9999      -9999      -9999      1.37       -9999      -9999      69.469     0.594012   -9999      0.5940118 
1238.3     0.23818    -9999      -9999      -9999      1.168      1.536      1.63       1.25       1.302      1.08       0.559      0.722      -9999      1.508      -9999      -9999      -9999      -9999      -9999      1.391      -9999      -9999      69.469     0.594012   -9999      0.5940118 
1238.4     0.23818    -9999      -9999      -9999      1.162      1.524      1.627      1.257      1.292      1.08       0.525      0.695      -9999      1.516      -9999      -9999      -9999      -9999      -9999      1.426      -9999      -9999      69.469     0.594012   -9999      0.5940118 
1238.5     0.23818    -9999      -9999      -9999      1.155      1.512      1.624      1.26       1.281      1.08       0.495      0.672      -9999      1.524      -9999      -9999      -9999      -9999      -9999      1.475      -9999      -9999      69.469     0.594012   -9999      0.5940118 
1238.6     0.23818    -9999      -9999      -9999      1.149      1.5        1.619      1.259      1.268      1.08       0.474      0.654      -9999      1.532      -9999      -9999      -9999      -9999      -9999      1.531      -9999      -9999      69.469     0.594012   -9999      0.5940118 
1238.7     0.23818    -9999      -9999      -9999      1.143      1.491      1.614      1.254      1.256      1.086      0.461      0.641      -9999      1.54       -9999      -9999      -9999      -9999      -9999      1.583      -9999      -9999      69.406     0.591092   -9999      0.5910922 
1238.8     0.23818    -9999      -9999      -9999      1.135      1.484      1.607      1.246      1.244      1.092      0.454      0.633      -9999      1.549      -9999      -9999      -9999      -9999      -9999      1.614      -9999      -9999      69.342     0.588139   -9999      0.5881392 
1238.9     0.23818    -9999      -9999      -9999      1.127      1.481      1.601      1.235      1.234      1.118      0.45       0.631      -9999      1.558      -9999      -9999      -9999      -9999      -9999      1.615      -9999      -9999      69.279     0.585244   -9999      0.5852444 
1239       0.23818    -9999      -9999      -9999      1.118      1.481      1.594      1.22       1.225      1.143      0.455      0.64       -9999      1.566      -9999      -9999      -9999      -9999      -9999      1.587      -9999      -9999      69.215     0.582316   -9999      0.5823161 
1239.1     0.23818    -9999      -9999      -9999      1.109      1.483      1.585      1.201      1.217      1.226      0.474      0.663      -9999      1.571      -9999      -9999      -9999      -9999      -9999      1.54       -9999      -9999      69.151     0.579401   -9999      0.5794008 
1239.2     0.2385     -9999      -9999      -9999      1.101      1.483      1.576      1.181      1.21       1.308      0.51       0.701      -9999      1.574      -9999      -9999      -9999      -9999      -9999      1.486      -9999      -9999      69.088     0.576543   -9999      0.5765428 
1239.3     0.23882    -9999      -9999      -9999      1.096      1.482      1.567      1.162      1.201      1.34       0.556      0.748      -9999      1.575      -9999      -9999      -9999      -9999      -9999      1.438      -9999      -9999      69.025     0.573697   -9999      0.5736973 
1239.4     0.23882    -9999      -9999      -9999      1.094      1.479      1.559      1.146      1.191      1.372      0.602      0.796      -9999      1.575      -9999      -9999      -9999      -9999      -9999      1.4        -9999      -9999      68.961     0.570819   -9999      0.5708188 
1239.5     0.23882    -9999      -9999      -9999      1.093      1.476      1.554      1.133      1.179      1.296      0.643      0.838      -9999      1.575      -9999      -9999      -9999      -9999      -9999      1.375      -9999      -9999      68.961     0.570819   -9999      0.5708188 
1239.6     0.23882    -9999      -9999      -9999      1.093      1.472      1.55       1.122      1.167      1.219      0.682      0.872      -9999      1.574      -9999      -9999      -9999      -9999      -9999      1.361      -9999      -9999      68.961     0.570819   -9999      0.5708188 
