~Version
 VERS              .         2.0                           : CWLS LOG ASCII STANDARD - VERSION 2.0
 WRAP              .         NO                            : ONE LINE PER DEPTH STEP
 DLM               .         SPACE                         : DELIMITING CHARACTER(SPACE TAB OR COMMA)
~Well Information
#_______________________________________________________________________________
#
#PARAMETER_NAME    .UNIT     VALUE                         : DESCRIPTION
#_______________________________________________________________________________
STRT               .M        886                           : First reference value
STOP               .M        1240                          : Last reference value
STEP               .M        0.1                           : Step increment
NULL               .         -9999                         : Missing value
COMP               .                                       : Company
WELL               .         1868                          : Well name
FLD                .         УЗЕНЬ                         : Field
LOC                .                                       : Location
CNTY               .                                       : County
STAT               .                                       : State
CTRY               .                                       : Country
SRVC               .         SCH                           : Service Company
DATE               .         04/09/2010                    : Date
UWI                .                                       : Unique Well ID
Block              .         7                             : 
Category           .         Нефтяная                      : 
Condition          .         В работе                      : 
Date               .         13.01.1984                    : 
EREF               .m        85.4                          : 100.8
Gorizont           .         14                            : 14
Interpretator      .         Ткачева И.Г.                  : 
Kupol              .         Основной                      : osnovnoi
Mud                .         0                             : 
Mud_density        .         0                             : 
Mud_resistivity    .         0                             : 
NGDU               .         НГДУ-2                        : 
ORIGINALWELLNAME   .         1868                          : 
Spud_date          .         1972                          : 1961
Uslovie            .         14                            : 
Viscosity          .         0                             : 
X                  .m        42512.4                       : 46154
Y                  .m        84495.93                      : 85761.93
YEAR               .         2019                          : 
~Parameter Information Block
#_______________________________________________________________________________
#
#PARAMETER_NAME    .UNIT     VALUE                         : DESCRIPTION
#_______________________________________________________________________________
SET                .         LQC_KAZNIPI_Petrel            : 
PBBOTTOM           .M        1240                          : Глубина подошвы планшета
PBSCALE            .         1 _ 500                       : Вертикальный масштаб планшета
PBTOP              .M        886                           : Глубина кровли планшета
TLFamily_CALI      .         Caliper                       : 
TLFamily_COLL      .         Net Reservoir Flag            : 
TLFamily_CSAT      .         Fluid Code                    : 
TLFamily_DEPT      .         Measured Depth                : 
TLFamily_GR        .         Russian Gamma Ray             : 
TLFamily_GZ1       .         Gradient 045                  : 
TLFamily_GZ2       .         Gradient 105                  : 
TLFamily_GZ3       .         Gradient 225                  : 
TLFamily_GZ4       .         Gradient 425                  : 
TLFamily_GZ5       .         Gradient 850                  : 
TLFamily_LLS       .         Lateral Log Resistivity       : 
TLFamily_MINV      .         Micro Gradient Resistivity    : 
TLFamily_MNOR      .         Micro Resistivity             : 
TLFamily_NGLD      .         Neutron Gamma                 : 
TLFamily_OGZ       .         Gradient Inverted 225         : 
TLFamily_PHIE      .         Effective Porosity            : 
TLFamily_PHIEN     .         Effective Porosity            : 
TLFamily_PHIT      .         Porosity                      : 
TLFamily_PRMB      .         Permeability                  : 
TLFamily_PRMB_DGR  .         Permeability                  : 
TLFamily_RT        .         Formation Resistivity         : 
TLFamily_SOIL_ARCHIE .         Oil Saturation                : 
TLFamily_SOIL_DW   .         Oil Saturation                : 
TLFamily_SP        .         Spontaneous Potential         : 
TLFamily_VSH_FIN   .         Shale Volume                  : 
TLFamily_VSH_GR    .         Shale Volume                  : 
TLFamily_VSH_SP    .         Shale Volume                  : 
~Curve Information
#_______________________________________________________________________________
#
#LOGNAME           .UNIT     LOG_ID                        : DESCRIPTION
#_______________________________________________________________________________
DEPT               .M                                      : Колонка глубины 
CALI               .м                                      : Каверномер 
COLL               .unitless                               : Описание 
CSAT               .unitless                               : Описание 
GR                 .uR/h                                   : Гамма каротаж 
GZ1                .Ohmm                                   : Градиент-зонд  длиной 0.45м 
GZ2                .Ohmm                                   : Градиент-зонд  длиной 1.05м 
GZ3                .Ohmm                                   : Градиент-зонд  длиной 2.25м 
GZ4                .Ohmm                                   : Градиент-зонд  длиной 4.5м 
GZ5                .Ohmm                                   : Градиент-зонд  длиной 8.5м 
LLS                .Ohmm                                   :  
MINV               .Ohmm                                   : Микро-градиент зонд 
MNOR               .Ohmm                                   : Микро-потенциал зонд 
NGLD               .у.е.                                   : Показания зонда НГК-60 аппаратуры ДРСТ-3-90 
OGZ                .Ohmm                                   : Обращенный градиент-зонд 
PHIE               .v/v                                    : Описание 
PHIEN              .v/v                                    :  
PHIT               .v/v                                    : Описание 
PRMB               .mD                                     :  
PRMB_DGR           .mD                                     :  
RT                 .ohmm                                   : УЭС пласта 
SOIL_ARCHIE        .v/v                                    :  
SOIL_DW            .v/v                                    :  
SP                 .мВ                                     : Потенциал самополяризации 
VSH_FIN            .v/v                                    : Описание 
VSH_GR             .v/v                                    : Shale volume 
VSH_SP             .v/v                                    : Shale Volume 
~Ascii
# ...
910.3      0.23754    1          3          2.459      1.384      1.514      1.5        1.091      1.34       0.984      0.751      0.868      1.007      1.287      0.2344093  0.2344093  0.26706    61.45837   343.7446   1.258      0.2896128  0.3488142  61.659     0.09894166 0.05977017 0.1381132 
910.4      0.23754    1          3          2.479      1.366      1.517      1.496      1.074      1.331      1.003      0.785      0.873      1.003      1.278      0.2359364  0.2359364  0.26874    65.66621   334.7122   1.294      0.3029765  0.3620405  61.722     0.09940478 0.0604236  0.138386  
910.5      0.23754    1          3          2.505      1.347      1.503      1.492      1.061      1.327      1.067      0.823      0.878      1          1.274      0.237063   0.237063   0.27       68.81625   323.3239   1.34       0.3170778  0.3760032  61.722     0.09980916 0.06128375 0.1383346 
910.6      0.23754    1          3          2.532      1.329      1.476      1.487      1.052      1.328      1.13       0.867      0.885      1          1.275      0.2369219  0.2369219  0.27       68.32182   311.9076   1.389      0.3280734  0.3869218  61.722     0.1002366  0.06218995 0.1382833 
910.7000000000001 0.23754    1          3          2.552      1.311      1.445      1.481      1.049      1.332      1.168      0.916      0.896      1.001      1.279      0.2363982  0.2363982  0.26958    66.74487   303.7118   1.429      0.3356282  0.3944257  61.722     0.1005509  0.06286983 0.138232  
910.8      0.23786    1          3          2.554      1.294      1.422      1.475      1.053      1.337      1.206      0.962      0.91       1.004      1.287      0.2351354  0.2351354  0.26832    63.19501   302.9041   1.452      0.3374576  0.3962263  61.722     0.1005596  0.06293823 0.1381809 
910.9      0.23818    1          3          2.535      1.276      1.417      1.469      1.065      1.341      1.194      0.99       0.922      1.006      1.297      0.2344105  0.2344105  0.26748    61.24054   310.6643   1.454      0.3360728  0.3947459  61.722     0.1002107  0.06229146 0.1381298 
911        0.23818    1          3          2.498      1.259      1.429      1.466      1.083      1.344      1.181      0.981      0.931      1.006      1.308      0.2346236  0.2346236  0.26748    61.78016   326.3514   1.435      0.3324724  0.3909803  61.722     0.09956493 0.06105097 0.1380789 
911.1      0.23818    1          3          2.45       1.247      1.455      1.464      1.107      1.348      1.124      0.93       0.941      1.005      1.319      0.2352572  0.2352572  0.2679     63.59953   347.8883   1.4        0.3263947  0.3847302  61.786     0.09891751 0.05947843 0.1383566 
911.2000000000001 0.23818    1          3          2.402      1.248      1.489      1.465      1.132      1.352      1.067      0.85       0.96       1.003      1.33       0.2363046  0.2363046  0.26874    66.62447   370.8467   1.361      0.3201468  0.3783235  61.849     0.09828901 0.05794639 0.1386316 
911.3      0.23818    1          3          2.361      1.271      1.527      1.468      1.154      1.357      1.048      0.77       0.991      1.002      1.338      0.2369439  0.2369439  0.26916    68.41385   391.653    1.324      0.3128701  0.3709664  61.849     0.09762444 0.05666907 0.1385798 
911.4      0.23818    1          3          2.33       1.32       1.565      1.471      1.171      1.361      1.029      0.715      1.029      1.002      1.346      0.2371088  0.2371088  0.26916    68.82854   408.1561   1.292      0.3052976  0.3633867  61.849     0.09712505 0.05572201 0.1385281 
911.5      0.23818    1          3          2.313      1.389      1.599      1.474      1.178      1.362      1.01       0.691      1.056      1.005      1.352      0.2359418  0.2359418  0.2679     65.41991   417.4995   1.268      0.2960768  0.3542729  61.849     0.09684292 0.05520939 0.1384764 
911.6      0.23818    1          3          2.308      1.462      1.623      1.477      1.176      1.361      0.991      0.691      1.059      1.01       1.359      0.2338751  0.2338751  0.2658     59.85      420.288    1.248      0.2852957  0.3436923  61.849     0.09674221 0.05505952 0.1384249 
911.7000000000001 0.23818    1          3          2.313      1.518      1.63       1.482      1.163      1.356      0.978      0.7        1.032      1.015      1.364      0.231704   0.231704   0.2637     54.64704   417.4995   1.235      0.2760199  0.3346432  61.913     0.09695759 0.05520939 0.1387058 
911.8      0.23818    1          3          2.321      1.541      1.617      1.487      1.141      1.35       0.965      0.712      0.986      1.02       1.368      0.2295184  0.2295184  0.2616     49.8645    413.0762   1.23       0.2687322  0.3275619  61.976     0.09721704 0.05545004 0.138984  
911.9      0.23818    1          3          2.328      1.529      1.585      1.492      1.112      1.343      0.978      0.727      0.94       1.025      1.369      0.2273922  0.2273922  0.2595     45.50132   409.2443   1.234      0.2638434  0.3228327  61.976     0.09729654 0.05566146 0.1389316 
912        0.23818    1          3          2.329      1.491      1.537      1.496      1.081      1.335      0.991      0.743      0.907      1.029      1.368      0.2257158  0.2257158  0.25782    42.31784   408.6998   1.246      0.2623707  0.3214167  61.976     0.09728551 0.05569172 0.1388793 
912.1      0.23818    1          3          2.324      1.443      1.484      1.499      1.052      1.324      1.004      0.76       0.891      1.03       1.364      0.2252737  0.2252737  0.2574     41.60022   411.4296   1.265      0.266455   0.3253904  62.04      0.09735247 0.05554054 0.1391644 
912.2000000000001 0.23818    1          3          2.318      1.398      1.433      1.5        1.029      1.308      1.016      0.774      0.886      1.029      1.359      0.2256769  0.2256769  0.25782    42.39354   414.7294   1.289      0.2741391  0.332884   62.103     0.09740326 0.05535967 0.1394469 
912.3      0.23818    1          3          2.319      1.365      1.392      1.501      1.015      1.289      1.054      0.784      0.889      1.027      1.355      0.2265208  0.2265208  0.25866    43.89285   414.1776   1.315      0.2831634  0.3417558  62.103     0.09739171 0.05538977 0.1393936 
912.4      0.23818    1          3          2.332      1.343      1.363      1.504      1.01       1.268      1.092      0.792      0.897      1.026      1.354      0.2268847  0.2268847  0.25908    44.5243    407.0706   1.34       0.2903844  0.3489418  62.103     0.09756158 0.05578263 0.1393405 
912.5      0.23818    1          3          2.357      1.332      1.343      1.508      1.015      1.247      1.099      0.798      0.909      1.027      1.357      0.2263475  0.2263475  0.25866    43.46194   393.7442   1.357      0.2930327  0.3517398  62.103     0.09791674 0.05654597 0.1392875 
912.6      0.2385     1          3          2.388      1.33       1.33       1.513      1.028      1.228      1.105      0.803      0.922      1.031      1.364      0.2245176  0.2245176  0.25698    40.15678   377.824    1.367      0.2903961  0.3494173  62.103     0.09837081 0.05750703 0.1392346 
912.7000000000001 0.23882    1          3          2.416      1.338      1.322      1.518      1.048      1.213      1.105      0.807      0.931      1.038      1.375      0.2213845  0.2213845  0.25404    35.18666   363.9984   1.367      0.2817526  0.3412158  62.167     0.09895605 0.05838911 0.139523  
912.8      0.23882    1          3          2.434      1.356      1.318      1.521      1.073      1.204      1.105      0.812      0.934      1.047      1.389      0.2174626  0.2174626  0.25026    29.81683   355.3787   1.357      0.2680772  0.3280304  62.23      0.09938597 0.0589633  0.1398086 
912.9      0.23882    1          3          2.444      1.383      1.317      1.524      1.099      1.2        1.08       0.82       0.933      1.055      1.406      0.2140012  0.2140012  0.2469     25.76703   350.6786   1.339      0.2532274  0.3136361  62.294     0.09969353 0.05928473 0.1401023 
