~Version
 VERS              .         2.0                           : CWLS LOG ASCII STANDARD - VERSION 2.0
 WRAP              .         NO                            : ONE LINE PER DEPTH STEP
 DLM               .         SPACE                         : DELIMITING CHARACTER(SPACE TAB OR COMMA)
~Well Information
#_______________________________________________________________________________
#
#PARAMETER_NAME    .UNIT     VALUE                         : DESCRIPTION
#_______________________________________________________________________________
STRT               .M        886                           : First reference value
STOP               .M        1240                          : Last reference value
STEP               .M        0.1                           : Step increment
NULL               .         -9999                         : Missing value
COMP               .                                       : Company
WELL               .         1868                          : Well name
FLD                .         УЗЕНЬ                         : Field
LOC                .                                       : Location
CNTY               .                                       : County
STAT               .                                       : State
CTRY               .                                       : Country
SRVC               .         SCH                           : Service Company
DATE               .         04/09/2010                    : Date
UWI                .                                       : Unique Well ID
Block              .         7                             : 
Category           .         Нефтяная                      : 
Condition          .         В работе                      : 
Date               .         13.01.1984                    : 
EREF               .m        85.4                          : 100.8
Gorizont           .         14                            : 14
Interpretator      .         Ткачева И.Г.                  : 
Kupol              .         Основной                      : osnovnoi
Mud                .         0                             : 
Mud_density        .         0                             : 
Mud_resistivity    .         0                             : 
NGDU               .         НГДУ-2                        : 
ORIGINALWELLNAME   .         1868                          : 
Spud_date          .         1972                          : 1961
Uslovie            .         14                            : 
Viscosity          .         0                             : 
X                  .m        42512.4                       : 46154
Y                  .m        84495.93                      : 85761.93
YEAR               .         2019                          : 
~Parameter Information Block
#_______________________________________________________________________________
#
#PARAMETER_NAME    .UNIT     VALUE                         : DESCRIPTION
#_______________________________________________________________________________
SET                .         LQC_KAZNIPI_Petrel            : 
PBBOTTOM           .M        1240                          : Глубина подошвы планшета
PBSCALE            .         1 _ 500                       : Вертикальный масштаб планшета
PBTOP              .M        886                           : Глубина кровли планшета
TLFamily_CALI      .         Caliper                       : 
TLFamily_COLL      .         Net Reservoir Flag            : 
TLFamily_CSAT      .         Fluid Code                    : 
TLFamily_DEPT      .         Measured Depth                : 
TLFamily_GR        .         Russian Gamma Ray             : 
TLFamily_GZ1       .         Gradient 045                  : 
TLFamily_GZ2       .         Gradient 105                  : 
TLFamily_GZ3       .         Gradient 225                  : 
TLFamily_GZ4       .         Gradient 425                  : 
TLFamily_GZ5       .         Gradient 850                  : 
TLFamily_LLS       .         Lateral Log Resistivity       : 
TLFamily_MINV      .         Micro Gradient Resistivity    : 
TLFamily_MNOR      .         Micro Resistivity             : 
TLFamily_NGLD      .         Neutron Gamma                 : 
TLFamily_OGZ       .         Gradient Inverted 225         : 
TLFamily_PHIE      .         Effective Porosity            : 
TLFamily_PHIEN     .         Effective Porosity            : 
TLFamily_PHIT      .         Porosity                      : 
TLFamily_PRMB      .         Permeability                  : 
TLFamily_PRMB_DGR  .         Permeability                  : 
TLFamily_RT        .         Formation Resistivity         : 
TLFamily_SOIL_ARCHIE .         Oil Saturation                : 
TLFamily_SOIL_DW   .         Oil Saturation                : 
TLFamily_SP        .         Spontaneous Potential         : 
TLFamily_VSH_FIN   .         Shale Volume                  : 
TLFamily_VSH_GR    .         Shale Volume                  : 
TLFamily_VSH_SP    .         Shale Volume                  : 
~Curve Information
#_______________________________________________________________________________
#
#LOGNAME           .UNIT     LOG_ID                        : DESCRIPTION
#_______________________________________________________________________________
DEPT               .M                                      : Колонка глубины 
CALI               .м                                      : Каверномер 
COLL               .unitless                               : Описание 
CSAT               .unitless                               : Описание 
GR                 .uR/h                                   : Гамма каротаж 
GZ1                .Ohmm                                   : Градиент-зонд  длиной 0.45м 
GZ2                .Ohmm                                   : Градиент-зонд  длиной 1.05м 
GZ3                .Ohmm                                   : Градиент-зонд  длиной 2.25м 
GZ4                .Ohmm                                   : Градиент-зонд  длиной 4.5м 
GZ5                .Ohmm                                   : Градиент-зонд  длиной 8.5м 
LLS                .Ohmm                                   :  
MINV               .Ohmm                                   : Микро-градиент зонд 
MNOR               .Ohmm                                   : Микро-потенциал зонд 
NGLD               .у.е.                                   : Показания зонда НГК-60 аппаратуры ДРСТ-3-90 
OGZ                .Ohmm                                   : Обращенный градиент-зонд 
PHIE               .v/v                                    : Описание 
PHIEN              .v/v                                    :  
PHIT               .v/v                                    : Описание 
PRMB               .mD                                     :  
PRMB_DGR           .mD                                     :  
RT                 .ohmm                                   : УЭС пласта 
SOIL_ARCHIE        .v/v                                    :  
SOIL_DW            .v/v                                    :  
SP                 .мВ                                     : Потенциал самополяризации 
VSH_FIN            .v/v                                    : Описание 
VSH_GR             .v/v                                    : Shale volume 
VSH_SP             .v/v                                    : Shale Volume 
~Ascii
# ...
931.9      0.24453    -9999      -9999      3.915      2.825      6.194      8.241      5.389      4.141      2.731      1.66       2.163      1.157      5.198      0.06277912 0.06277912 0.17464    0.03768616 22.13662   3.589      0          0.1541642  81.725     0.3389724  0.1831725  0.4947723 
932        0.24453    -9999      -9999      3.891      2.789      6.225      8.221      5.446      4.227      3.048      1.692      2.118      1.166      5.301      0.05934691 0.05934691 0.17032    0.0323651  22.96834   3.487      0          0.1092602  81.661     0.3362821  0.1804345  0.4921296 
932.1      0.24485    -9999      -9999      3.852      2.726      6.186      8.193      5.509      4.338      3.525      1.807      2.029      1.178      5.444      0.05473419 0.05473419 0.16456    0.02652874 24.38704   3.435      0          0.05495613 81.598     0.3328055  0.1760722  0.4895388 
932.2000000000001 0.24517    -9999      -9999      3.797      2.625      6          8.157      5.56       4.47       4.001      1.952      1.941      1.191      5.613      0.04991171 0.04991171 0.15832    0.02157598 26.53795   3.484      0          0.005469755 81.534     0.32851    0.1700989  0.486921  
932.3      0.24517    -9999      -9999      3.731      2.504      5.691      8.111      5.595      4.618      3.874      2.078      1.919      1.202      5.816      0.04578936 0.04578936 0.15304    0.01840469 29.37091   3.66       0          0          81.534     0.3250019  0.1631979  0.4868059 
932.4      0.24517    -9999      -9999      3.666      2.404      5.366      8.048      5.634      4.775      3.747      2.171      2.001      1.211      6.074      0.04256465 0.04256465 0.14872    0.01627919 32.45638   3.94       0          0          81.534     0.3216829  0.1566751  0.4866908 
932.5      0.24517    -9999      -9999      3.614      2.362      5.144      7.965      5.707      4.934      3.747      2.243      2.174      1.216      6.387      0.04101359 0.04101359 0.14632    0.01542071 35.15653   4.247      0          0          81.534     0.3191104  0.1516451  0.4865757 
932.6      0.24517    -9999      -9999      3.579      2.394      5.088      7.857      5.836      5.088      3.747      2.3        2.385      1.22       6.719      0.03965611 0.03965611 0.1444     0.01467109 37.09931   4.503      0          0.003330504 81.534     0.3174057  0.1483507  0.4864606 
932.7000000000001 0.24517    -9999      -9999      3.559      2.487      5.182      7.728      6.026      5.233      3.779      2.319      2.577      1.223      7.004      0.03894442 0.03894442 0.14296    0.01407503 38.25731   4.656      0          0.005102501 81.471     0.3151987  0.1465005  0.4838968 
932.8      0.24517    -9999      -9999      3.545      2.613      5.361      7.579      6.265      5.361      3.81       2.261      2.715      1.226      7.175      0.03814326 0.03814326 0.14152    0.01344169 39.08932   4.716      0          0          81.407     0.3132629  0.1452191  0.4813067 
932.9      0.24517    -9999      -9999      3.53       2.748      5.55       7.419      6.532      5.466      3.715      2.129      2.794      1.227      7.206      0.03790653 0.03790653 0.14104    0.01339903 40.0009    4.723      0          0          81.407     0.3125257  0.1438586  0.4811928 
933        0.24517    -9999      -9999      3.514      2.873      5.698      7.258      6.803      5.54       3.619      1.977      2.816      1.225      7.117      0.03912245 0.03912245 0.142      0.01422949 40.99667   4.709      0          0.008309462 81.407     0.3117501  0.1424214  0.4810789 
933.1      0.24517    -9999      -9999      3.502      2.977      5.783      7.108      7.054      5.581      3.524      1.871      2.768      1.217      6.962      0.04355752 0.04355752 0.14584    0.01706043 41.7597    4.689      0          0.05692611 81.344     0.3099469  0.1413529  0.4785408 
933.2000000000001 0.24517    -9999      -9999      3.507      3.046      5.809      6.978      7.259      5.586      3.429      1.835      2.627      1.205      6.794      0.04966732 0.04966732 0.1516     0.02196433 41.44006   4.654      0          0.1169916  81.28      0.3088869  0.1417971  0.4759766 
933.3      0.24517    -9999      -9999      3.535      3.076      5.797      6.865      7.388      5.56       3.334      1.849      2.397      1.193      6.643      0.05503124 0.05503124 0.15736    0.02786836 39.69469   4.593      0          0.1646265  81.28      0.3100872  0.1443107  0.4758638 
933.4      0.24517    -9999      -9999      3.584      3.074      5.776      6.755      7.421      5.507      3.239      1.887      2.127      1.181      6.51       0.06006629 0.06006629 0.16312    0.03487542 36.81533   4.508      0          0.2026982  81.28      0.312284   0.148817   0.475751  
933.5      0.24517    -9999      -9999      3.641      3.053      5.777      6.637      7.356      5.437      3.366      1.955      1.884      1.173      6.383      0.06303065 0.06303065 0.16696    0.03988926 33.72761   4.409      0          0.2202975  81.28      0.3149374  0.1542363  0.4756385 
933.6      0.24517    -9999      -9999      3.689      3.023      5.818      6.507      7.21       5.358      3.492      2.084      1.712      1.166      6.255      0.06563102 0.06563102 0.17032    0.04482298 31.32919   4.316      0          0.2338241  81.28      0.3172393  0.1589528  0.4755258 
933.7000000000001 0.24517    -9999      -9999      3.716      2.987      5.895      6.372      7.013      5.278      3.461      2.281      1.615      1.16       6.132      0.06767751 0.06767751 0.1732     0.04989693 30.05583   4.251      0          0.2465865  81.344     0.3197652  0.1616689  0.4778614 
933.8      0.24517    -9999      -9999      3.723      2.943      5.986      6.242      6.801      5.204      3.429      2.496      1.585      1.153      6.021      0.07053935 0.07053935 0.17656    0.05729757 29.73424   4.224      0          0.2659627  81.407     0.3212747  0.1623807  0.4801687 
933.9      0.24517    -9999      -9999      3.72       2.89       6.064      6.125      6.6        5.143      3.08       2.64       1.622      1.146      5.93       0.07396849 0.07396849 0.17992    0.06605383 29.87164   4.221      0          0.2865273  81.407     0.3210651  0.1620753  0.480055  
934        0.24517    -9999      -9999      3.724      2.834      6.11       6.027      6.43       5.098      2.731      2.638      1.741      1.138      5.856      0.07776005 0.07776005 0.18376    0.07716671 29.68858   4.211      0          0.3074899  81.407     0.321212   0.1624826  0.4799413 
934.1      0.24517    -9999      -9999      3.745      2.788      6.118      5.952      6.3        5.075      2.795      2.482      1.938      1.13       5.768      0.08085579 0.08085579 0.1876     0.08892577 28.74575   4.155      0          0.3224423  81.471     0.3234673  0.1646379  0.4822967 
934.2000000000001 0.24549    -9999      -9999      3.786      2.761      6.084      5.9        6.21       5.073      2.858      2.249      2.159      1.123      5.676      0.08312382 0.08312382 0.19096    0.09887441 26.99039   4.04       0          0.3280725  81.534     0.3267763  0.1689288  0.4846237 
934.3      0.2458     -9999      -9999      3.842      2.744      5.998      5.87       6.144      5.09       3.366      2.056      2.311      1.12       5.593      0.08317484 0.08317484 0.1924     0.09991448 24.76472   3.899      0          0.3199927  81.598     0.3309853  0.1749708  0.4869999 
934.4      0.2458     -9999      -9999      3.903      2.71       5.858      5.855      6.079      5.121      3.874      1.999      2.318      1.12       5.487      0.08166093 0.08166093 0.1924     0.094297   22.54865   3.799      0          0.3069187  81.661     0.3355729  0.1817984  0.4893475 
934.5      0.2458     -9999      -9999      3.959      2.638      5.703      5.852      5.995      5.156      3.683      2.103      2.184      1.126      5.366      0.07772712 0.07772712 0.18952    0.07880063 20.68925   3.805      0          0.2872127  81.661     0.3387662  0.1883006  0.4892318 
