~Version
 VERS              .         2.0                           : CWLS LOG ASCII STANDARD - VERSION 2.0
 WRAP              .         NO                            : ONE LINE PER DEPTH STEP
 DLM               .         SPACE                         : DELIMITING CHARACTER(SPACE TAB OR COMMA)
~Well Information
#_______________________________________________________________________________
#
#PARAMETER_NAME    .UNIT     VALUE                         : DESCRIPTION
#_______________________________________________________________________________
STRT               .M        886                           : First reference value
STOP               .M        1240                          : Last reference value
STEP               .M        0.1                           : Step increment
NULL               .         -9999                         : Missing value
COMP               .                                       : Company
WELL               .         1868                          : Well name
FLD                .         УЗЕНЬ                         : Field
LOC                .                                       : Location
CNTY               .                                       : County
STAT               .                                       : State
CTRY               .                                       : Country
SRVC               .         SCH                           : Service Company
DATE               .         04/09/2010                    : Date
UWI                .                                       : Unique Well ID
Block              .         7                             : 
Category           .         Нефтяная                      : 
Condition          .         В работе                      : 
Date               .         13.01.1984                    : 
EREF               .m        85.4                          : 100.8
Gorizont           .         14                            : 14
Interpretator      .         Ткачева И.Г.                  : 
Kupol              .         Основной                      : osnovnoi
Mud                .         0                             : 
Mud_density        .         0                             : 
Mud_resistivity    .         0                             : 
NGDU               .         НГДУ-2                        : 
ORIGINALWELLNAME   .         1868                          : 
Spud_date          .         1972                          : 1961
Uslovie            .         14                            : 
Viscosity          .         0                             : 
X                  .m        42512.4                       : 46154
Y                  .m        84495.93                      : 85761.93
YEAR               .         2019                          : 
~Parameter Information Block
#_______________________________________________________________________________
#
#PARAMETER_NAME    .UNIT     VALUE                         : DESCRIPTION
#_______________________________________________________________________________
SET                .         LQC_KAZNIPI_Petrel            : 
PBBOTTOM           .M        1240                          : Глубина подошвы планшета
PBSCALE            .         1 _ 500                       : Вертикальный масштаб планшета
PBTOP              .M        886                           : Глубина кровли планшета
TLFamily_CALI      .         Caliper                       : 
TLFamily_COLL      .         Net Reservoir Flag            : 
TLFamily_CSAT      .         Fluid Code                    : 
TLFamily_DEPT      .         Measured Depth                : 
TLFamily_GR        .         Russian Gamma Ray             : 
TLFamily_GZ1       .         Gradient 045                  : 
TLFamily_GZ2       .         Gradient 105                  : 
TLFamily_GZ3       .         Gradient 225                  : 
TLFamily_GZ4       .         Gradient 425                  : 
TLFamily_GZ5       .         Gradient 850                  : 
TLFamily_LLS       .         Lateral Log Resistivity       : 
TLFamily_MINV      .         Micro Gradient Resistivity    : 
TLFamily_MNOR      .         Micro Resistivity             : 
TLFamily_NGLD      .         Neutron Gamma                 : 
TLFamily_OGZ       .         Gradient Inverted 225         : 
TLFamily_PHIE      .         Effective Porosity            : 
TLFamily_PHIEN     .         Effective Porosity            : 
TLFamily_PHIT      .         Porosity                      : 
TLFamily_PRMB      .         Permeability                  : 
TLFamily_PRMB_DGR  .         Permeability                  : 
TLFamily_RT        .         Formation Resistivity         : 
TLFamily_SOIL_ARCHIE .         Oil Saturation                : 
TLFamily_SOIL_DW   .         Oil Saturation                : 
TLFamily_SP        .         Spontaneous Potential         : 
TLFamily_VSH_FIN   .         Shale Volume                  : 
TLFamily_VSH_GR    .         Shale Volume                  : 
TLFamily_VSH_SP    .         Shale Volume                  : 
~Curve Information
#_______________________________________________________________________________
#
#LOGNAME           .UNIT     LOG_ID                        : DESCRIPTION
#_______________________________________________________________________________
DEPT               .M                                      : Колонка глубины 
CALI               .м                                      : Каверномер 
COLL               .unitless                               : Описание 
CSAT               .unitless                               : Описание 
GR                 .uR/h                                   : Гамма каротаж 
GZ1                .Ohmm                                   : Градиент-зонд  длиной 0.45м 
GZ2                .Ohmm                                   : Градиент-зонд  длиной 1.05м 
GZ3                .Ohmm                                   : Градиент-зонд  длиной 2.25м 
GZ4                .Ohmm                                   : Градиент-зонд  длиной 4.5м 
GZ5                .Ohmm                                   : Градиент-зонд  длиной 8.5м 
LLS                .Ohmm                                   :  
MINV               .Ohmm                                   : Микро-градиент зонд 
MNOR               .Ohmm                                   : Микро-потенциал зонд 
NGLD               .у.е.                                   : Показания зонда НГК-60 аппаратуры ДРСТ-3-90 
OGZ                .Ohmm                                   : Обращенный градиент-зонд 
PHIE               .v/v                                    : Описание 
PHIEN              .v/v                                    :  
PHIT               .v/v                                    : Описание 
PRMB               .mD                                     :  
PRMB_DGR           .mD                                     :  
RT                 .ohmm                                   : УЭС пласта 
SOIL_ARCHIE        .v/v                                    :  
SOIL_DW            .v/v                                    :  
SP                 .мВ                                     : Потенциал самополяризации 
VSH_FIN            .v/v                                    : Описание 
VSH_GR             .v/v                                    : Shale volume 
VSH_SP             .v/v                                    : Shale Volume 
~Ascii
# ...
1026.4     0.34613    -9999      -9999      6.781      1.054      1.616      1.863      2.047      1.879      0.94       0.599      0.527      0.863      1.49       0.1888796  0.1888796  0.31576    7.76777    4.093953   1.186      0.1062999  0.3310307  75.311     0.384486   0.3648848  0.4040872 
1026.5     0.30994    -9999      -9999      6.868      1.067      1.623      1.838      1.998      1.857      0.946      0.582      0.51       0.856      1.476      0.189765   0.189765   0.31912    8.087219   3.708641   1.191      0.1119927  0.3380138  75.311     0.3919849  0.3799135  0.4040562 
1026.6     0.27723    -9999      -9999      6.959      1.066      1.626      1.81       1.932      1.833      0.952      0.565      0.488      0.848      1.465      0.190907   0.190907   0.32296    8.518589   3.344359   1.195      0.1183942  0.3455613  75.311     0.4001606  0.3962961  0.4040252 
1026.7     0.2566     -9999      -9999      7.045      1.053      1.626      1.78       1.862      1.808      0.959      0.553      0.468      0.84       1.457      0.1920905  0.1920905  0.3268     8.988829   3.033039   1.198      0.1245368  0.3527408  75.311     0.4082106  0.4124272  0.403994  
1026.8     0.2566     -9999      -9999      7.123      1.032      1.626      1.752      1.799      1.785      0.965      0.558      0.459      0.833      1.452      0.192948   0.192948   0.33016    9.333869   2.775815   1.194      0.126709   0.3568349  75.311     0.415794   0.4276249  0.403963  
1026.9     0.2566     -9999      -9999      7.192      1.008      1.627      1.727      1.751      1.764      0.965      0.578      0.465      0.828      1.448      0.1930579  0.1930579  0.33256    9.367802   2.566517   1.183      0.1232494  0.3567852  75.311     0.4227336  0.4415351  0.403932  
1027       0.2566     -9999      -9999      7.251      0.986      1.628      1.7        1.718      1.743      0.965      0.595      0.478      0.824      1.445      0.1929614  0.1929614  0.33448    9.297092   2.400115   1.166      0.1165555  0.3541248  75.311     0.4288444  0.4537877  0.4039011 
1027.1     0.2566     -9999      -9999      7.292      0.973      1.631      1.678      1.696      1.722      0.939      0.593      0.488      0.82       1.44       0.1937934  0.1937934  0.3364     9.459533   2.290876   1.149      0.1120976  0.3521595  75.247     0.4321413  0.4625019  0.4017808 
1027.2     0.2566     -9999      -9999      7.302      0.971      1.631      1.666      1.68       1.7        0.914      0.571      0.485      0.813      1.435      0.1971412  0.1971412  0.33976    10.73109   2.264994   1.137      0.1196029  0.3565815  75.184     0.432178   0.4646526  0.3997034 
1027.3     0.2566     -9999      -9999      7.269      0.981      1.62       1.656      1.661      1.678      0.889      0.546      0.468      0.805      1.429      0.2018081  0.2018081  0.3436     13.27012   2.351528   1.139      0.1395843  0.3678897  75.248     0.4296724  0.4575931  0.4017517 
1027.4     0.2566     -9999      -9999      7.192      0.997      1.59       1.647      1.633      1.657      0.864      0.539      0.44       0.795      1.422      0.2089235  0.2089235  0.3484     18.22639   2.566517   1.154      0.1718321  0.386286   75.311     0.422656   0.4415351  0.403777  
1027.5     0.2566     -9999      -9999      7.082      1.012      1.533      1.64       1.589      1.637      0.908      0.557      0.411      0.786      1.416      0.2168732  0.2168732  0.35272    25.58026   2.90818    1.177      0.2060912  0.4058516  75.311     0.4116569  0.4195677  0.403746  
1027.6     0.2566     -9999      -9999      6.955      1.016      1.452      1.635      1.529      1.616      0.952      0.589      0.395      0.78       1.41       0.2237194  0.2237194  0.3556     34.25896   3.359592   1.201      0.2348777  0.422037   75.311     0.3996382  0.3955613  0.4037151 
1027.7     0.2566     -9999      -9999      6.83       1.002      1.358      1.631      1.458      1.595      0.978      0.623      0.401      0.777      1.403      0.2288418  0.2288418  0.35704    42.61961   3.872266   1.215      0.2540778  0.4320372  75.311     0.3884794  0.3732746  0.4036841 
1027.8     0.2566     -9999      -9999      6.72       0.969      1.269      1.628      1.388      1.573      1.003      0.654      0.427      0.777      1.397      0.2319112  0.2319112  0.35704    48.57556   4.387754   1.218      0.2636439  0.4358238  75.311     0.3791782  0.3547033  0.4036532 
1027.9     0.2566     -9999      -9999      6.636      0.922      1.203      1.627      1.329      1.551      0.991      0.679      0.463      0.778      1.391      0.2336732  0.2336732  0.35656    52.36134   4.827141   1.206      0.265133   0.4343289  75.311     0.3723843  0.3411463  0.4036222 
1028       0.2566     -9999      -9999      6.585      0.872      1.169      1.627      1.288      1.531      0.978      0.692      0.496      0.783      1.385      0.2325945  0.2325945  0.35416    50.01395   5.115109   1.188      0.2569101  0.4266813  75.311     0.3683803  0.3331694  0.4035913 
1028.1     0.2566     -9999      -9999      6.562      0.827      1.166      1.627      1.265      1.514      0.952      0.683      0.517      0.789      1.38       0.2303031  0.2303031  0.35128    45.33115   5.250539   1.165      0.2434408  0.4158465  75.311     0.3665966  0.3296332  0.4035601 
1028.2     0.2566     -9999      -9999      6.549      0.796      1.188      1.626      1.257      1.501      0.927      0.648      0.52       0.796      1.376      0.2272753  0.2272753  0.34792    39.78756   5.328664   1.143      0.2275801  0.4036044  75.311     0.3655901  0.3276511  0.4035291 
1028.3     0.2566     -9999      -9999      6.526      0.78       1.225      1.623      1.257      1.492      0.908      0.593      0.501      0.802      1.375      0.2249742  0.2249742  0.34504    35.94341   5.469745   1.125      0.2145303  0.3932516  75.311     0.3638359  0.3241736  0.4034982 
1028.4     0.2566     -9999      -9999      6.485      0.776      1.27       1.619      1.26       1.488      0.889      0.535      0.466      0.805      1.376      0.2245471  0.2245471  0.3436     35.08763   5.730566   1.114      0.2091453  0.3881127  75.311     0.3607665  0.3180657  0.4034673 
1028.5     0.26295    -9999      -9999      6.437      0.78       1.316      1.614      1.264      1.488      0.883      0.488      0.424      0.805      1.38       0.2257079  0.2257079  0.3436     36.54586   6.051767   1.107      0.2097717  0.3872519  75.311     0.3572487  0.311061   0.4034363 
1028.6     0.2693     -9999      -9999      6.402      0.79       1.358      1.609      1.265      1.491      0.876      0.456      0.388      0.804      1.384      0.2270197  0.2270197  0.34408    38.22604   6.297268   1.106      0.2126879  0.3886582  75.311     0.3547282  0.3060509  0.4034054 
1028.7     0.2693     -9999      -9999      6.392      0.804      1.392      1.604      1.263      1.494      0.883      0.439      0.365      0.804      1.389      0.2272585  0.2272585  0.34408    38.20292   6.369222   1.106      0.2126444  0.3886425  75.311     0.3540044  0.3046344  0.4033745 
1028.8     0.28073    -9999      -9999      6.402      0.821      1.415      1.601      1.257      1.496      0.889      0.434      0.354      0.806      1.394      0.2260699  0.2260699  0.34312    35.98494   6.297268   1.106      0.208311   0.3860587  75.311     0.3546972  0.3060509  0.4033435 
1028.9     0.29215    -9999      -9999      6.415      0.838      1.423      1.598      1.248      1.497      0.889      0.439      0.354      0.811      1.398      0.2230235  0.2230235  0.34072    31.86412   6.204941   1.105      0.1989996  0.3799686  75.375     0.356656   0.3079023  0.4054097 
1029       0.3039     -9999      -9999      6.421      0.856      1.416      1.593      1.234      1.498      0.889      0.455      0.358      0.817      1.405      0.2196647  0.2196647  0.33784    27.88472   6.162784   1.101      0.1875186  0.3720503  75.438     0.358107   0.3087606  0.4074535 
