~Version
 VERS              .         2.0                           : CWLS LOG ASCII STANDARD - VERSION 2.0
 WRAP              .         NO                            : ONE LINE PER DEPTH STEP
 DLM               .         SPACE                         : DELIMITING CHARACTER(SPACE TAB OR COMMA)
~Well Information
#_______________________________________________________________________________
#
#PARAMETER_NAME    .UNIT     VALUE                         : DESCRIPTION
#_______________________________________________________________________________
STRT               .M        886                           : First reference value
STOP               .M        1240                          : Last reference value
STEP               .M        0.1                           : Step increment
NULL               .         -9999                         : Missing value
COMP               .                                       : Company
WELL               .         1868                          : Well name
FLD                .         УЗЕНЬ                         : Field
LOC                .                                       : Location
CNTY               .                                       : County
STAT               .                                       : State
CTRY               .                                       : Country
SRVC               .         SCH                           : Service Company
DATE               .         04/09/2010                    : Date
UWI                .                                       : Unique Well ID
Block              .         7                             : 
Category           .         Нефтяная                      : 
Condition          .         В работе                      : 
Date               .         13.01.1984                    : 
EREF               .m        85.4                          : 100.8
Gorizont           .         14                            : 14
Interpretator      .         Ткачева И.Г.                  : 
Kupol              .         Основной                      : osnovnoi
Mud                .         0                             : 
Mud_density        .         0                             : 
Mud_resistivity    .         0                             : 
NGDU               .         НГДУ-2                        : 
ORIGINALWELLNAME   .         1868                          : 
Spud_date          .         1972                          : 1961
Uslovie            .         14                            : 
Viscosity          .         0                             : 
X                  .m        42512.4                       : 46154
Y                  .m        84495.93                      : 85761.93
YEAR               .         2019                          : 
~Parameter Information Block
#_______________________________________________________________________________
#
#PARAMETER_NAME    .UNIT     VALUE                         : DESCRIPTION
#_______________________________________________________________________________
SET                .         LQC_KAZNIPI_Petrel            : 
PBBOTTOM           .M        1240                          : Глубина подошвы планшета
PBSCALE            .         1 _ 500                       : Вертикальный масштаб планшета
PBTOP              .M        886                           : Глубина кровли планшета
TLFamily_CALI      .         Caliper                       : 
TLFamily_COLL      .         Net Reservoir Flag            : 
TLFamily_CSAT      .         Fluid Code                    : 
TLFamily_DEPT      .         Measured Depth                : 
TLFamily_GR        .         Russian Gamma Ray             : 
TLFamily_GZ1       .         Gradient 045                  : 
TLFamily_GZ2       .         Gradient 105                  : 
TLFamily_GZ3       .         Gradient 225                  : 
TLFamily_GZ4       .         Gradient 425                  : 
TLFamily_GZ5       .         Gradient 850                  : 
TLFamily_LLS       .         Lateral Log Resistivity       : 
TLFamily_MINV      .         Micro Gradient Resistivity    : 
TLFamily_MNOR      .         Micro Resistivity             : 
TLFamily_NGLD      .         Neutron Gamma                 : 
TLFamily_OGZ       .         Gradient Inverted 225         : 
TLFamily_PHIE      .         Effective Porosity            : 
TLFamily_PHIEN     .         Effective Porosity            : 
TLFamily_PHIT      .         Porosity                      : 
TLFamily_PRMB      .         Permeability                  : 
TLFamily_PRMB_DGR  .         Permeability                  : 
TLFamily_RT        .         Formation Resistivity         : 
TLFamily_SOIL_ARCHIE .         Oil Saturation                : 
TLFamily_SOIL_DW   .         Oil Saturation                : 
TLFamily_SP        .         Spontaneous Potential         : 
TLFamily_VSH_FIN   .         Shale Volume                  : 
TLFamily_VSH_GR    .         Shale Volume                  : 
TLFamily_VSH_SP    .         Shale Volume                  : 
~Curve Information
#_______________________________________________________________________________
#
#LOGNAME           .UNIT     LOG_ID                        : DESCRIPTION
#_______________________________________________________________________________
DEPT               .M                                      : Колонка глубины 
CALI               .м                                      : Каверномер 
COLL               .unitless                               : Описание 
CSAT               .unitless                               : Описание 
GR                 .uR/h                                   : Гамма каротаж 
GZ1                .Ohmm                                   : Градиент-зонд  длиной 0.45м 
GZ2                .Ohmm                                   : Градиент-зонд  длиной 1.05м 
GZ3                .Ohmm                                   : Градиент-зонд  длиной 2.25м 
GZ4                .Ohmm                                   : Градиент-зонд  длиной 4.5м 
GZ5                .Ohmm                                   : Градиент-зонд  длиной 8.5м 
LLS                .Ohmm                                   :  
MINV               .Ohmm                                   : Микро-градиент зонд 
MNOR               .Ohmm                                   : Микро-потенциал зонд 
NGLD               .у.е.                                   : Показания зонда НГК-60 аппаратуры ДРСТ-3-90 
OGZ                .Ohmm                                   : Обращенный градиент-зонд 
PHIE               .v/v                                    : Описание 
PHIEN              .v/v                                    :  
PHIT               .v/v                                    : Описание 
PRMB               .mD                                     :  
PRMB_DGR           .mD                                     :  
RT                 .ohmm                                   : УЭС пласта 
SOIL_ARCHIE        .v/v                                    :  
SOIL_DW            .v/v                                    :  
SP                 .мВ                                     : Потенциал самополяризации 
VSH_FIN            .v/v                                    : Описание 
VSH_GR             .v/v                                    : Shale volume 
VSH_SP             .v/v                                    : Shale Volume 
~Ascii
# ...
1096.6     0.25088    -9999      -9999      8.438      1.491      2.592      3.116      1.18       0.481      1.651      0.941      0.961      0.865      3.234      0.1241904  0.1241904  0.3194     0.3746288  1.90475    1.995      0          0.3949854  82.423     0.5915443  0.4987088  0.6843797 
1096.7     0.25152    -9999      -9999      8.465      1.353      2.321      3.078      0.998      0.422      1.651      0.976      0.967      0.87       3.767      0.1203431  0.1203431  0.3172     0.3710102  1.829918   2.03       0          0.3972869  82.423     0.596536   0.5069376  0.6861344 
1096.8     0.25215    -9999      -9999      8.462      1.261      2.094      3.055      0.845      0.376      1.651      0.993      0.96       0.871      4.394      0.119765   0.119765   0.31676    0.398571   1.838087   2.054      0          0.4033749  82.423     0.5969546  0.5060166  0.6878927 
1096.9     0.24898    -9999      -9999      8.433      1.215      1.905      3.03       0.721      0.341      1.651      0.983      0.949      0.868      5.011      0.1227949  0.1227949  0.31808    0.4700769  1.918939   2.078      0          0.4151281  82.36      0.591773   0.4971997  0.6863463 
1097       0.2458     -9999      -9999      8.397      1.204      1.757      2.998      0.627      0.315      1.778      0.945      0.942      0.863      5.527      0.1270289  0.1270289  0.32028    0.6100708  2.02427    2.118      0.04634383 0.4332106  82.296     0.5856093  0.4864683  0.6847504 
1097.1     0.24421    -9999      -9999      8.381      1.212      1.651      2.967      0.56       0.296      1.905      0.89       0.937      0.858      5.912      0.1313561  0.1313561  0.32248    0.9055082  2.072924   2.191      0.1175072  0.4590706  82.105     0.5791635  0.4817731  0.6765539 
1097.2     0.24263    -9999      -9999      8.41       1.225      1.585      2.93       0.513      0.282      2.127      0.835      0.929      0.856      6.198      0.132157   0.132157   0.32336    1.550879   1.985583   2.31       0.2033686  0.4910848  81.915     0.5794029  0.4903165  0.6684895 
1097.3     0.2493     -9999      -9999      8.492      1.234      1.55       2.889      0.482      0.274      2.349      0.794      0.921      0.857      6.45       0.1294469  0.1294469  0.32292    3.078586   1.75803    2.475      0.2949497  0.5268068  81.661     0.5862821  0.5153019  0.6572622 
1097.4     0.25596    -9999      -9999      8.611      1.242      1.539      2.847      0.463      0.271      2.508      0.773      0.924      0.859      6.722      0.1240342  0.1240342  0.32204    6.722037   1.473369   2.672      0.3796732  0.5622363  81.407     0.6000175  0.5538433  0.6461918 
1097.5     0.25596    -9999      -9999      8.737      1.254      1.548      2.807      0.452      0.273      2.667      0.77       0.951      0.862      7.037      0.1151855  0.1151855  0.32072    14.17067   1.222037   2.88       0.446989   0.5924491  81.407     0.6228317  0.5977984  0.6478649 
1097.6     0.25596    -9999      -9999      8.837      1.281      1.577      2.773      0.449      0.281      2.731      0.779      0.997      0.864      7.394      0.1078654  0.1078654  0.31984    26.76704   1.053461   3.071      0.4959836  0.6160409  81.407     0.6423472  0.6351528  0.6495417 
1097.7     0.25723    1          2          8.89       1.329      1.629      2.748      0.452      0.292      2.794      0.797      1.044      0.866      7.777      0.1099381  0.1099381  0.31896    42.51865   0.9737589  3.231      0.5285212  0.6325724  80.582     0.6333997  0.6558881  0.6109113 
1097.8     0.2585     1          2          8.889      1.399      1.705      2.736      0.463      0.305      2.794      0.827      1.078      0.868      8.165      0.1285947  0.1285947  0.31808    57.32329   0.9752063  3.356      0.5490094  0.6434495  79.756     0.574198   0.6554906  0.5741985 
1097.9     0.2566     1          2          8.845      1.482      1.804      2.742      0.485      0.32       2.794      0.874      1.102      0.87       8.538      0.1611549  0.1611549  0.3172     68.35397   1.041025   3.462      0.5622937  0.6509657  77.28      0.472864   0.6382402  0.4728636 
1098       0.25469    1          2          8.778      1.564      1.928      2.776      0.526      0.339      3.08       0.934      1.136      0.873      8.895      0.1877948  0.1877948  0.31588    74.49505   1.149883   3.585      0.5725746  0.6574318  74.803     0.388137   0.6128402  0.3881368 
1098.1     0.2531     1          2          8.71       1.631      2.082      2.855      0.597      0.362      3.365      0.991      1.2        0.878      9.27       0.2024779  0.2024779  0.31368    76.17272   1.272009   3.763      0.5829782  0.6646613  73.025     0.336976   0.5880947  0.3369761 
1098.2     0.25152    1          2          8.655      1.681      2.278      2.99       0.71       0.389      3.81       1.025      1.291      0.882      9.716      0.2152478  0.2152478  0.31192    79.15543   1.380215   4.029      0.5974509  0.6754345  71.247     0.292946   0.5688126  0.2929457 
1098.3     0.25088    1          2          8.614      1.721      2.524      3.185      0.875      0.421      4.254001   1.027      1.386      0.886      10.263     0.2189035  0.2189035  0.31016    82.64961   1.466822   4.393      0.6148759  0.6887614  70.485     0.276535   0.5548514  0.2765346 
1098.4     0.25024    1          2          8.58       1.764      2.812      3.42       1.095      0.455      4.731      1.007      1.456      0.889      10.88      0.2226351  0.2226351  0.30884    87.6995    1.542752   4.836      0.6336911  0.7033849  69.723     0.261227   0.5435338  0.2612272 
1098.5     0.25024    1          2          8.542      1.82       3.114      3.662      1.367      0.49       5.207      0.986      1.486      0.891      11.473     0.2215304  0.2215304  0.30796    93.78875   1.632274   5.313      0.651477   0.7173406  69.723     0.261908   0.5311578  0.261908  
1098.6     0.25024    1          2          8.495      1.875      3.386      3.874      1.685      0.525      5.302      0.981      1.479      0.891      11.933     0.221305   0.221305   0.30796    102.4616   1.750218   5.753      0.6667124  0.7293248  69.723     0.262591   0.5162398  0.262591  
1098.7     0.24993    1          2          8.438      1.89       3.605      4.034      2.043      0.561      5.397      0.987      1.446      0.89       12.19      0.2264775  0.2264775  0.3084     112.163    1.90475    6.08       0.6776632  0.7378516  68.961     0.24825    0.4987088  0.2482499 
1098.8     0.24961    1          2          8.381      1.816      3.784      4.186      2.441      0.598      4.826      0.985      1.397      0.886      12.246     0.2326318  0.2326318  0.31016    127.5929   2.072924   6.159      0.6829656  0.7416524  68.199     0.234934   0.4817731  0.2349338 
1098.9     0.24929    1          2          8.335      1.624      3.965      4.317      2.877      0.637      4.254001   0.962      1.335      0.88       12.161     0.2379586  0.2379586  0.3128     148.3162   2.219409   6.235      0.6885868  0.7458968  67.691     0.226792   0.4685261  0.2267924 
1099       0.24897    1          2          8.314      1.327      4.185      4.448      3.349      0.679      4.572      0.921      1.27       0.873      11.93      0.2435912  0.2435912  0.31588    173.8398   2.289682   6.22       0.692145   0.7484714  67.183     0.219057   0.4626003  0.2190569 
1099.1     0.24865    1          2          8.322      0.982      4.441      4.653      3.851      0.723      4.889999   0.881      1.214      0.867      11.708     0.2483396  0.2483396  0.31852    199.3766   2.262656   6.115      0.6929938  0.7487678  66.738     0.212668   0.4648487  0.2126683 
1099.2     0.24834    1          2          8.35       0.661      4.698      4.954      4.371      0.769      5.366      0.861      1.185      0.864      11.598     0.2516673  0.2516673  0.31984    216.7709   2.170539   6.043      0.6932815  0.7486304  66.294     0.206584   0.4728054  0.2065837 
