~Version
 VERS              .         2.0                           : CWLS LOG ASCII STANDARD - VERSION 2.0
 WRAP              .         NO                            : ONE LINE PER DEPTH STEP
 DLM               .         SPACE                         : DELIMITING CHARACTER(SPACE TAB OR COMMA)
~Well Information
#_______________________________________________________________________________
#
#PARAMETER_NAME    .UNIT     VALUE                         : DESCRIPTION
#_______________________________________________________________________________
STRT               .M        886                           : First reference value
STOP               .M        1240                          : Last reference value
STEP               .M        0.1                           : Step increment
NULL               .         -9999                         : Missing value
COMP               .                                       : Company
WELL               .         1868                          : Well name
FLD                .         УЗЕНЬ                         : Field
LOC                .                                       : Location
CNTY               .                                       : County
STAT               .                                       : State
CTRY               .                                       : Country
SRVC               .         SCH                           : Service Company
DATE               .         04/09/2010                    : Date
UWI                .                                       : Unique Well ID
Block              .         7                             : 
Category           .         Нефтяная                      : 
Condition          .         В работе                      : 
Date               .         13.01.1984                    : 
EREF               .m        85.4                          : 100.8
Gorizont           .         14                            : 14
Interpretator      .         Ткачева И.Г.                  : 
Kupol              .         Основной                      : osnovnoi
Mud                .         0                             : 
Mud_density        .         0                             : 
Mud_resistivity    .         0                             : 
NGDU               .         НГДУ-2                        : 
ORIGINALWELLNAME   .         1868                          : 
Spud_date          .         1972                          : 1961
Uslovie            .         14                            : 
Viscosity          .         0                             : 
X                  .m        42512.4                       : 46154
Y                  .m        84495.93                      : 85761.93
YEAR               .         2019                          : 
~Parameter Information Block
#_______________________________________________________________________________
#
#PARAMETER_NAME    .UNIT     VALUE                         : DESCRIPTION
#_______________________________________________________________________________
SET                .         LQC_KAZNIPI_Petrel            : 
PBBOTTOM           .M        1240                          : Глубина подошвы планшета
PBSCALE            .         1 _ 500                       : Вертикальный масштаб планшета
PBTOP              .M        886                           : Глубина кровли планшета
TLFamily_CALI      .         Caliper                       : 
TLFamily_COLL      .         Net Reservoir Flag            : 
TLFamily_CSAT      .         Fluid Code                    : 
TLFamily_DEPT      .         Measured Depth                : 
TLFamily_GR        .         Russian Gamma Ray             : 
TLFamily_GZ1       .         Gradient 045                  : 
TLFamily_GZ2       .         Gradient 105                  : 
TLFamily_GZ3       .         Gradient 225                  : 
TLFamily_GZ4       .         Gradient 425                  : 
TLFamily_GZ5       .         Gradient 850                  : 
TLFamily_LLS       .         Lateral Log Resistivity       : 
TLFamily_MINV      .         Micro Gradient Resistivity    : 
TLFamily_MNOR      .         Micro Resistivity             : 
TLFamily_NGLD      .         Neutron Gamma                 : 
TLFamily_OGZ       .         Gradient Inverted 225         : 
TLFamily_PHIE      .         Effective Porosity            : 
TLFamily_PHIEN     .         Effective Porosity            : 
TLFamily_PHIT      .         Porosity                      : 
TLFamily_PRMB      .         Permeability                  : 
TLFamily_PRMB_DGR  .         Permeability                  : 
TLFamily_RT        .         Formation Resistivity         : 
TLFamily_SOIL_ARCHIE .         Oil Saturation                : 
TLFamily_SOIL_DW   .         Oil Saturation                : 
TLFamily_SP        .         Spontaneous Potential         : 
TLFamily_VSH_FIN   .         Shale Volume                  : 
TLFamily_VSH_GR    .         Shale Volume                  : 
TLFamily_VSH_SP    .         Shale Volume                  : 
~Curve Information
#_______________________________________________________________________________
#
#LOGNAME           .UNIT     LOG_ID                        : DESCRIPTION
#_______________________________________________________________________________
DEPT               .M                                      : Колонка глубины 
CALI               .м                                      : Каверномер 
COLL               .unitless                               : Описание 
CSAT               .unitless                               : Описание 
GR                 .uR/h                                   : Гамма каротаж 
GZ1                .Ohmm                                   : Градиент-зонд  длиной 0.45м 
GZ2                .Ohmm                                   : Градиент-зонд  длиной 1.05м 
GZ3                .Ohmm                                   : Градиент-зонд  длиной 2.25м 
GZ4                .Ohmm                                   : Градиент-зонд  длиной 4.5м 
GZ5                .Ohmm                                   : Градиент-зонд  длиной 8.5м 
LLS                .Ohmm                                   :  
MINV               .Ohmm                                   : Микро-градиент зонд 
MNOR               .Ohmm                                   : Микро-потенциал зонд 
NGLD               .у.е.                                   : Показания зонда НГК-60 аппаратуры ДРСТ-3-90 
OGZ                .Ohmm                                   : Обращенный градиент-зонд 
PHIE               .v/v                                    : Описание 
PHIEN              .v/v                                    :  
PHIT               .v/v                                    : Описание 
PRMB               .mD                                     :  
PRMB_DGR           .mD                                     :  
RT                 .ohmm                                   : УЭС пласта 
SOIL_ARCHIE        .v/v                                    :  
SOIL_DW            .v/v                                    :  
SP                 .мВ                                     : Потенциал самополяризации 
VSH_FIN            .v/v                                    : Описание 
VSH_GR             .v/v                                    : Shale volume 
VSH_SP             .v/v                                    : Shale Volume 
~Ascii
# ...
1050.7     0.29914    -9999      -9999      7.587      1.265      2.059      2.021      1.476      1.595      1.359      1.13       1.072      0.929      2.127      0.1081351  0.1081351  0.28408    0.2185425  1.638477   1.576      0          0.2235161  79.058     0.5331665  0.5303359  0.535997  
1050.8     0.30867    -9999      -9999      7.45       1.307      2.117      2.028      1.491      1.624      1.283      1.116      1.051      0.932      2.125      0.1116478  0.1116478  0.28264    0.2555718  1.914432   1.556      0          0.2257255  79.121     0.5181583  0.4976773  0.5386394 
1050.9     0.31819    -9999      -9999      7.331      1.355      2.154      2.036      1.506      1.652      1.264      1.1        1.029      0.937      2.117      0.1132135  0.1132135  0.28024    0.2761199  2.191582   1.544      0          0.2231937  79.185     0.5061409  0.4709463  0.5413356 
1051       0.31089    -9999      -9999      7.253      1.402      2.162      2.046      1.52       1.68       1.245      1.087      1.005      0.942      2.105      0.1131354  0.1131354  0.27784    0.2787662  2.394667   1.536      0          0.2174579  79.248     0.499105   0.4542089  0.544001  
1051.1     0.30358    -9999      -9999      7.22       1.443      2.143      2.054      1.531      1.704      1.238      1.083      0.986      0.946      2.093      0.1119053  0.1119053  0.27592    0.2683009  2.486156   1.536      0          0.21161    79.312     0.4970142  0.4473081  0.5467204 
1051.2     0.30358    -9999      -9999      7.221      1.471      2.108      2.061      1.539      1.722      1.232      1.095      0.975      0.947      2.085      0.1109474  0.1109474  0.27544    0.2607694  2.483331   1.545      0          0.2112576  79.375     0.4984623  0.4475157  0.5494089 
1051.3     0.30358    -9999      -9999      7.234      1.486      2.071      2.063      1.543      1.73       1.226      1.121      0.971      0.944      2.083      0.1119475  0.1119475  0.27688    0.2698473  2.446922   1.567      0          0.2215331  79.375     0.4997954  0.4502229  0.5493678 
1051.4     0.30358    -9999      -9999      7.24       1.484      2.042      2.06       1.545      1.727      1.219      1.145      0.968      0.938      2.088      0.1146272  0.1146272  0.27976    0.300166   2.430299   1.605      0          0.2421993  79.375     0.5004023  0.4514778  0.5493268 
1051.5     0.30358    -9999      -9999      7.235      1.469      2.028      2.054      1.544      1.711      1.219      1.152      0.96       0.934      2.098      0.1167266  0.1167266  0.28168    0.3264563  2.444144   1.656      0          0.2619776  79.375     0.4998588  0.4504318  0.5492857 
1051.6     0.30199    -9999      -9999      7.227      1.442      2.027      2.044      1.54       1.684      1.219      1.139      0.953      0.933      2.113      0.1174887  0.1174887  0.28216    0.3364412  2.46646    1.715      0          0.2772261  79.375     0.4990039  0.4487632  0.5492446 
1051.7     0.30041    -9999      -9999      7.232      1.409      2.033      2.033      1.535      1.647      1.264      1.122      0.959      0.937      2.131      0.1149442  0.1149442  0.28024    0.3084633  2.45249    1.77       0          0.2806877  79.439     0.5008964  0.4498053  0.5519875 
1051.8     0.29692    -9999      -9999      7.258      1.374      2.043      2.022      1.53       1.603      1.308      1.122      0.988      0.945      2.153      0.1097563  0.1097563  0.2764     0.253574   2.381102   1.809      0          0.2710833  79.502     0.5049809  0.4552638  0.5546979 
1051.9     0.29343    -9999      -9999      7.304      1.342      2.053      2.011      1.526      1.559      1.372      1.157      1.044      0.955      2.176      0.1033428  0.1033428  0.2716     0.1943501  2.259853   1.821      0          0.2491382  79.502     0.5098702  0.4650839  0.5546565 
1052       0.29184    -9999      -9999      7.355      1.317      2.059      2.001      1.523      1.52       1.435      1.226      1.12       0.964      2.197      0.09719235 0.09719235 0.26728    0.1507325  2.13263    1.802      0          0.220531   79.502     0.5154172  0.4762193  0.5546151 
1052.1     0.29025    -9999      -9999      7.391      1.3        2.061      1.992      1.523      1.49       1.486      1.312      1.202      0.969      2.208      0.09347583 0.09347583 0.26488    0.1294838  2.047162   1.759      0          0.1956003  79.502     0.5194066  0.4842396  0.5545737 
1052.2     0.29025    -9999      -9999      7.393      1.294      2.058      1.982      1.523      1.469      1.537      1.384      1.269      0.969      2.208      0.09340846 0.09340846 0.26488    0.1298364  2.042514   1.699      0          0.181721   79.502     0.5196108  0.4846892  0.5545322 
1052.3     0.29025    -9999      -9999      7.359      1.3        2.049      1.973      1.526      1.453      1.48       1.412      1.295      0.966      2.194      0.09656079 0.09656079 0.26632    0.1465345  2.122959   1.634      0          0.1774807  79.439     0.5144218  0.4771039  0.5517398 
1052.4     0.28962    -9999      -9999      7.298      1.318      2.036      1.966      1.53       1.439      1.422      1.383      1.267      0.959      2.17       0.1025833  0.1025833  0.26968    0.1873484  2.275312   1.574      0          0.1861595  79.375     0.5063535  0.4637911  0.5489159 
1052.5     0.28898    -9999      -9999      7.233      1.347      2.019      1.961      1.535      1.424      1.359      1.31       1.192      0.951      2.143      0.1087034  0.1087034  0.27352    0.2461349  2.449704   1.524      0          0.1985909  79.375     0.4994442  0.450014   0.5488746 
1052.6     0.29819    -9999      -9999      7.177      1.385      2.003      1.958      1.54       1.41       1.295      1.227      1.098      0.942      2.119      0.1149344  0.1149344  0.27784    0.3262267  2.610632   1.485      0          0.2137571  79.375     0.4936533  0.4384732  0.5488335 
1052.7     0.3074     -9999      -9999      7.138      1.43       1.992      1.958      1.544      1.398      1.245      1.173      1.021      0.932      2.097      0.1210384  0.1210384  0.28264    0.4306953  2.728911   1.455      0          0.2304128  79.375     0.4897017  0.430611   0.5487925 
1052.8     0.31375    -9999      -9999      7.108      1.476      1.989      1.962      1.546      1.387      1.194      1.161      0.984      0.923      2.079      0.1263472  0.1263472  0.28696    0.5497913  2.823529   1.434      0          0.2454835  79.375     0.4867054  0.4246593  0.5487514 
1052.9     0.32009    -9999      -9999      7.078      1.518      2          1.968      1.546      1.375      1.175      1.183      0.986      0.917      2.065      0.1306523  0.1306523  0.28984    0.6585587  2.921427   1.421      0          0.2561369  79.312     0.482387   0.4187899  0.545984  
1053       0.31565    -9999      -9999      7.041      1.547      2.028      1.978      1.542      1.361      1.156      1.216      1.009      0.916      2.061      0.13277    0.13277    0.29032    0.7166018  3.046856   1.419      0          0.2606366  79.248     0.4774243  0.4116625  0.5431862 
1053.1     0.31121    -9999      -9999      7          1.556      2.068      1.994      1.533      1.345      1.143      1.243      1.034      0.919      2.074      0.1330694  0.1330694  0.28888    0.7200466  3.192143   1.434      0          0.2624616  79.184     0.4721534  0.4039062  0.5404006 
1053.2     0.31121    -9999      -9999      6.968      1.543      2.109      2.017      1.516      1.328      1.13       1.257      1.046      0.925      2.109      0.131622   0.131622   0.286      0.6709758  3.310336   1.474      0          0.2644464  79.121     0.4678122  0.3979542  0.5376703 
1053.3     0.31121    -9999      -9999      6.956      1.511      2.14       2.045      1.493      1.315      1.118      1.255      1.035      0.934      2.16       0.1281151  0.1281151  0.28168    0.5725303  3.355777   1.548      0          0.2673647  79.058     0.4653482  0.3957448  0.5349516 
