~Version
 VERS              .         2.0                           : CWLS LOG ASCII STANDARD - VERSION 2.0
 WRAP              .         NO                            : ONE LINE PER DEPTH STEP
 DLM               .         SPACE                         : DELIMITING CHARACTER(SPACE TAB OR COMMA)
~Well Information
#_______________________________________________________________________________
#
#PARAMETER_NAME    .UNIT     VALUE                         : DESCRIPTION
#_______________________________________________________________________________
STRT               .M        886                           : First reference value
STOP               .M        1240                          : Last reference value
STEP               .M        0.1                           : Step increment
NULL               .         -9999                         : Missing value
COMP               .                                       : Company
WELL               .         1868                          : Well name
FLD                .         УЗЕНЬ                         : Field
LOC                .                                       : Location
CNTY               .                                       : County
STAT               .                                       : State
CTRY               .                                       : Country
SRVC               .         SCH                           : Service Company
DATE               .         04/09/2010                    : Date
UWI                .                                       : Unique Well ID
Block              .         7                             : 
Category           .         Нефтяная                      : 
Condition          .         В работе                      : 
Date               .         13.01.1984                    : 
EREF               .m        85.4                          : 100.8
Gorizont           .         14                            : 14
Interpretator      .         Ткачева И.Г.                  : 
Kupol              .         Основной                      : osnovnoi
Mud                .         0                             : 
Mud_density        .         0                             : 
Mud_resistivity    .         0                             : 
NGDU               .         НГДУ-2                        : 
ORIGINALWELLNAME   .         1868                          : 
Spud_date          .         1972                          : 1961
Uslovie            .         14                            : 
Viscosity          .         0                             : 
X                  .m        42512.4                       : 46154
Y                  .m        84495.93                      : 85761.93
YEAR               .         2019                          : 
~Parameter Information Block
#_______________________________________________________________________________
#
#PARAMETER_NAME    .UNIT     VALUE                         : DESCRIPTION
#_______________________________________________________________________________
SET                .         LQC_KAZNIPI_Petrel            : 
PBBOTTOM           .M        1240                          : Глубина подошвы планшета
PBSCALE            .         1 _ 500                       : Вертикальный масштаб планшета
PBTOP              .M        886                           : Глубина кровли планшета
TLFamily_CALI      .         Caliper                       : 
TLFamily_COLL      .         Net Reservoir Flag            : 
TLFamily_CSAT      .         Fluid Code                    : 
TLFamily_DEPT      .         Measured Depth                : 
TLFamily_GR        .         Russian Gamma Ray             : 
TLFamily_GZ1       .         Gradient 045                  : 
TLFamily_GZ2       .         Gradient 105                  : 
TLFamily_GZ3       .         Gradient 225                  : 
TLFamily_GZ4       .         Gradient 425                  : 
TLFamily_GZ5       .         Gradient 850                  : 
TLFamily_LLS       .         Lateral Log Resistivity       : 
TLFamily_MINV      .         Micro Gradient Resistivity    : 
TLFamily_MNOR      .         Micro Resistivity             : 
TLFamily_NGLD      .         Neutron Gamma                 : 
TLFamily_OGZ       .         Gradient Inverted 225         : 
TLFamily_PHIE      .         Effective Porosity            : 
TLFamily_PHIEN     .         Effective Porosity            : 
TLFamily_PHIT      .         Porosity                      : 
TLFamily_PRMB      .         Permeability                  : 
TLFamily_PRMB_DGR  .         Permeability                  : 
TLFamily_RT        .         Formation Resistivity         : 
TLFamily_SOIL_ARCHIE .         Oil Saturation                : 
TLFamily_SOIL_DW   .         Oil Saturation                : 
TLFamily_SP        .         Spontaneous Potential         : 
TLFamily_VSH_FIN   .         Shale Volume                  : 
TLFamily_VSH_GR    .         Shale Volume                  : 
TLFamily_VSH_SP    .         Shale Volume                  : 
~Curve Information
#_______________________________________________________________________________
#
#LOGNAME           .UNIT     LOG_ID                        : DESCRIPTION
#_______________________________________________________________________________
DEPT               .M                                      : Колонка глубины 
CALI               .м                                      : Каверномер 
COLL               .unitless                               : Описание 
CSAT               .unitless                               : Описание 
GR                 .uR/h                                   : Гамма каротаж 
GZ1                .Ohmm                                   : Градиент-зонд  длиной 0.45м 
GZ2                .Ohmm                                   : Градиент-зонд  длиной 1.05м 
GZ3                .Ohmm                                   : Градиент-зонд  длиной 2.25м 
GZ4                .Ohmm                                   : Градиент-зонд  длиной 4.5м 
GZ5                .Ohmm                                   : Градиент-зонд  длиной 8.5м 
LLS                .Ohmm                                   :  
MINV               .Ohmm                                   : Микро-градиент зонд 
MNOR               .Ohmm                                   : Микро-потенциал зонд 
NGLD               .у.е.                                   : Показания зонда НГК-60 аппаратуры ДРСТ-3-90 
OGZ                .Ohmm                                   : Обращенный градиент-зонд 
PHIE               .v/v                                    : Описание 
PHIEN              .v/v                                    :  
PHIT               .v/v                                    : Описание 
PRMB               .mD                                     :  
PRMB_DGR           .mD                                     :  
RT                 .ohmm                                   : УЭС пласта 
SOIL_ARCHIE        .v/v                                    :  
SOIL_DW            .v/v                                    :  
SP                 .мВ                                     : Потенциал самополяризации 
VSH_FIN            .v/v                                    : Описание 
VSH_GR             .v/v                                    : Shale volume 
VSH_SP             .v/v                                    : Shale Volume 
~Ascii
# ...
1191.1     0.22993    8          2          7.65       1.82       2.478      2.627      2.077      0.819      1.587      0.816      1.17       1.104      1.569      0.1725136  0.1725136  0.26672    1.698287   2.571561   1.904      0.1504918  0.3724917  46.609     0.2854739  0.4411813  0.1297665 
1191.2     0.23025    8          2          7.699      1.803      2.419      2.569      1.979      0.795      1.549      0.814      1.146      1.092      1.545      0.1738125  0.1738125  0.27056    1.66785    2.370533   1.846      0.1359452  0.3674732  46.736     0.2931741  0.4560916  0.1302567 
1191.3     0.23056    8          2          7.739      1.786      2.353      2.517      1.875      0.773      1.48       0.816      1.125      1.08       1.531      0.1753366  0.1753366  0.2744     1.611679   2.218135   1.786      0.1183245  0.3610376  47.117     0.3001922  0.4686361  0.1317484 
1191.4     0.23056    8          2          7.75       1.767      2.283      2.472      1.771      0.753      1.41       0.819      1.114      1.07       1.524      0.1776931  0.1776931  0.2776     1.558099   2.17797    1.734      0.1018515  0.3547164  47.498     0.3027481  0.4721459  0.1333503 
1191.5     0.23088    8          2          7.728      1.745      2.209      2.429      1.674      0.731      1.366      0.822      1.114      1.063      1.517      0.1810823  0.1810823  0.27984    1.503343   2.259039   1.694      0.08746155 0.348874   47.498     0.2992659  0.4651524  0.1333794 
1191.6     0.23119    8          2          7.689      1.719      2.134      2.382      1.592      0.708      1.321      0.823      1.124      1.061      1.511      0.1837212  0.1837212  0.28048    1.357463   2.41024    1.667      0.06735083 0.3403247  47.498     0.2932084  0.4530084  0.1334084 
1191.7     0.23119    8          2          7.661      1.692      2.057      2.327      1.527      0.684      1.321      0.821      1.137      1.065      1.505      0.182889   0.182889   0.2792     1.062421   2.524998   1.651      0.02953633 0.3247491  48.705     0.2918515  0.4444854  0.1392175 
1191.8     0.23119    -9999      -9999      7.664      1.665      1.981      2.261      1.481      0.662      1.321      0.817      1.148      1.074      1.485      0.1786821  0.1786821  0.27632    0.706522   2.512445   1.64       0          0.2992366  49.911     0.2958723  0.4453909  0.1463536 
1191.9     0.23119    -9999      -9999      7.705      1.638      1.905      2.185      1.452      0.642      1.315      0.813      1.154      1.084      1.459      0.1723805  0.1723805  0.27312    0.4238268  2.347023   1.63       0          0.265561   50.8       0.3052711  0.4579516  0.1525907 
1192       0.23119    -9999      -9999      7.776      1.61       1.829      2.104      1.437      0.628      1.308      0.814      1.154      1.092      1.429      0.1649136  0.1649136  0.27056    0.2489209  2.085904   1.619      0          0.227382   51.689     0.3201406  0.4805468  0.1597343 
1192.1     0.23119    -9999      -9999      7.856      1.58       1.754      2.023      1.435      0.621      1.295      0.829      1.15       1.098      1.399      0.1567136  0.1567136  0.26864    0.1518474  1.826326   1.605      0          0.1871693  52.896     0.3391708  0.5073445  0.1709969 
1192.2     0.23119    -9999      -9999      7.924      1.547      1.684      1.95       1.442      0.621      1.283      0.863      1.149      1.1        1.373      0.1499363  0.1499363  0.268      0.1035172  1.631247   1.589      0          0.1526155  54.102     0.3577689  0.5312943  0.1842434 
1192.3     0.23151    -9999      -9999      7.966      1.511      1.621      1.891      1.459      0.63       1.277      0.911      1.156      1.101      1.354      0.1436557  0.1436557  0.26768    0.07763013 1.521313   1.569      0          0.1222586  55.69      0.3758312  0.5466485  0.2050139 
1192.4     0.23183    -9999      -9999      7.981      1.476      1.57       1.847      1.485      0.645      1.27       0.96       1.172      1.101      1.347      0.138615   0.138615   0.26768    0.06426674 1.483874   1.55       0          0.09966014 57.277     0.3911061  0.5522389  0.2299733 
1192.5     0.23183    -9999      -9999      7.982      1.443      1.532      1.813      1.518      0.667      1.238      0.987      1.189      1.104      1.35       0.137574   0.137574   0.26672    0.05449075 1.481412   1.538      0          0.07793563 57.277     0.3913514  0.5526136  0.2300893 
1192.6     0.23183    -9999      -9999      7.984      1.415      1.508      1.782      1.557      0.694      1.206      0.981      1.198      1.11       1.359      0.1355111  0.1355111  0.2648     0.04630857 1.476497   1.546      0          0.05905216 57.277     0.3917845  0.5533639  0.2302051 
1192.7     0.23215    -9999      -9999      7.994      1.392      1.492      1.751      1.598      0.726      1.194      0.946      1.19       1.119      1.363      0.1295548  0.1295548  0.26192    0.03885202 1.452173   1.585      0          0.0445992  58.103     0.4011066  0.5571302  0.245083  
1192.8     0.23247    -9999      -9999      8.002      1.372      1.483      1.719      1.637      0.761      1.181      0.905      1.167      1.131      1.36       0.1225441  0.1225441  0.25808    0.03272559 1.433002   1.655      0          0.03568381 58.928     0.4107148  0.5601617  0.2612679 
1192.9     0.23247    -9999      -9999      7.994      1.354      1.478      1.686      1.669      0.798      1.283      0.88       1.14       1.145      1.356      0.1174601  0.1174601  0.2536     0.02844987 1.452173   1.746      0          0.03268747 59.246     0.4125452  0.5571302  0.2679602 
1193       0.23247    -9999      -9999      7.959      1.338      1.479      1.657      1.689      0.833      1.384      0.881      1.123      1.156      1.369      0.1149607  0.1149607  0.25008    0.02759981 1.539107   1.836      0          0.04364656 59.563     0.4094523  0.544059   0.2748455 
1193.1     0.23279    -9999      -9999      7.901      1.33       1.485      1.631      1.692      0.865      1.511      0.902      1.128      1.163      1.416      0.1166099  0.1166099  0.24784    0.02988315 1.694778   1.904      0          0.0646036  59.436     0.3976669  0.5230698  0.272264  
1193.2     0.2331     -9999      -9999      7.839      1.335      1.498      1.609      1.675      0.891      1.638      0.927      1.153      1.168      1.509      0.1189854  0.1189854  0.24624    0.03337576 1.878636   1.935      0          0.08088458 59.309     0.38562    0.5015278  0.2697121 
1193.3     0.23374    -9999      -9999      7.799      1.359      1.515      1.591      1.639      0.909      1.6        0.944      1.19       1.17       1.646      0.1211929  0.1211929  0.2456     0.03677493 2.00771    1.935      0          0.09019274 59.119     0.3769912  0.4881027  0.2658796 
1193.4     0.23437    -9999      -9999      7.8        1.399      1.535      1.576      1.589      0.917      1.562      0.95       1.225      1.17       1.81       0.1217627  0.1217627  0.2456     0.03776714 2.004376   1.926      0          0.09101743 58.928     0.3752645  0.488434   0.2620949 
1193.5     0.23501    -9999      -9999      7.849      1.446      1.555      1.56       1.529      0.916      1.524      0.951      1.25       1.17       1.976      0.1190163  0.1190163  0.2456     0.03437166 1.847687   1.916      0          0.07805884 58.928     0.3835872  0.5049413  0.262233  
1193.6     0.23564    -9999      -9999      7.932      1.49       1.572      1.543      1.465      0.91       1.486      0.953      1.266      1.168      2.118      0.1148081  0.1148081  0.24624    0.02891083 1.609711   1.894      0          0.0538711  58.928     0.3982784  0.5341854  0.2623715 
1193.7     0.23596    -9999      -9999      8.02       1.521      1.587      1.522      1.4        0.899      1.493      0.959      1.276      1.163      2.228      0.1115974  0.1115974  0.24784    0.02417921 1.390786   1.874      0          0.03048225 58.738     0.4128565  0.5670433  0.2586697 
