~Version
 VERS              .         2.0                           : CWLS LOG ASCII STANDARD - VERSION 2.0
 WRAP              .         NO                            : ONE LINE PER DEPTH STEP
 DLM               .         SPACE                         : DELIMITING CHARACTER(SPACE TAB OR COMMA)
~Well Information
#_______________________________________________________________________________
#
#PARAMETER_NAME    .UNIT     VALUE                         : DESCRIPTION
#_______________________________________________________________________________
STRT               .M        886                           : First reference value
STOP               .M        1240                          : Last reference value
STEP               .M        0.1                           : Step increment
NULL               .         -9999                         : Missing value
COMP               .                                       : Company
WELL               .         1868                          : Well name
FLD                .         УЗЕНЬ                         : Field
LOC                .                                       : Location
CNTY               .                                       : County
STAT               .                                       : State
CTRY               .                                       : Country
SRVC               .         SCH                           : Service Company
DATE               .         04/09/2010                    : Date
UWI                .                                       : Unique Well ID
Block              .         7                             : 
Category           .         Нефтяная                      : 
Condition          .         В работе                      : 
Date               .         13.01.1984                    : 
EREF               .m        85.4                          : 100.8
Gorizont           .         14                            : 14
Interpretator      .         Ткачева И.Г.                  : 
Kupol              .         Основной                      : osnovnoi
Mud                .         0                             : 
Mud_density        .         0                             : 
Mud_resistivity    .         0                             : 
NGDU               .         НГДУ-2                        : 
ORIGINALWELLNAME   .         1868                          : 
Spud_date          .         1972                          : 1961
Uslovie            .         14                            : 
Viscosity          .         0                             : 
X                  .m        42512.4                       : 46154
Y                  .m        84495.93                      : 85761.93
YEAR               .         2019                          : 
~Parameter Information Block
#_______________________________________________________________________________
#
#PARAMETER_NAME    .UNIT     VALUE                         : DESCRIPTION
#_______________________________________________________________________________
SET                .         LQC_KAZNIPI_Petrel            : 
PBBOTTOM           .M        1240                          : Глубина подошвы планшета
PBSCALE            .         1 _ 500                       : Вертикальный масштаб планшета
PBTOP              .M        886                           : Глубина кровли планшета
TLFamily_CALI      .         Caliper                       : 
TLFamily_COLL      .         Net Reservoir Flag            : 
TLFamily_CSAT      .         Fluid Code                    : 
TLFamily_DEPT      .         Measured Depth                : 
TLFamily_GR        .         Russian Gamma Ray             : 
TLFamily_GZ1       .         Gradient 045                  : 
TLFamily_GZ2       .         Gradient 105                  : 
TLFamily_GZ3       .         Gradient 225                  : 
TLFamily_GZ4       .         Gradient 425                  : 
TLFamily_GZ5       .         Gradient 850                  : 
TLFamily_LLS       .         Lateral Log Resistivity       : 
TLFamily_MINV      .         Micro Gradient Resistivity    : 
TLFamily_MNOR      .         Micro Resistivity             : 
TLFamily_NGLD      .         Neutron Gamma                 : 
TLFamily_OGZ       .         Gradient Inverted 225         : 
TLFamily_PHIE      .         Effective Porosity            : 
TLFamily_PHIEN     .         Effective Porosity            : 
TLFamily_PHIT      .         Porosity                      : 
TLFamily_PRMB      .         Permeability                  : 
TLFamily_PRMB_DGR  .         Permeability                  : 
TLFamily_RT        .         Formation Resistivity         : 
TLFamily_SOIL_ARCHIE .         Oil Saturation                : 
TLFamily_SOIL_DW   .         Oil Saturation                : 
TLFamily_SP        .         Spontaneous Potential         : 
TLFamily_VSH_FIN   .         Shale Volume                  : 
TLFamily_VSH_GR    .         Shale Volume                  : 
TLFamily_VSH_SP    .         Shale Volume                  : 
~Curve Information
#_______________________________________________________________________________
#
#LOGNAME           .UNIT     LOG_ID                        : DESCRIPTION
#_______________________________________________________________________________
DEPT               .M                                      : Колонка глубины 
CALI               .м                                      : Каверномер 
COLL               .unitless                               : Описание 
CSAT               .unitless                               : Описание 
GR                 .uR/h                                   : Гамма каротаж 
GZ1                .Ohmm                                   : Градиент-зонд  длиной 0.45м 
GZ2                .Ohmm                                   : Градиент-зонд  длиной 1.05м 
GZ3                .Ohmm                                   : Градиент-зонд  длиной 2.25м 
GZ4                .Ohmm                                   : Градиент-зонд  длиной 4.5м 
GZ5                .Ohmm                                   : Градиент-зонд  длиной 8.5м 
LLS                .Ohmm                                   :  
MINV               .Ohmm                                   : Микро-градиент зонд 
MNOR               .Ohmm                                   : Микро-потенциал зонд 
NGLD               .у.е.                                   : Показания зонда НГК-60 аппаратуры ДРСТ-3-90 
OGZ                .Ohmm                                   : Обращенный градиент-зонд 
PHIE               .v/v                                    : Описание 
PHIEN              .v/v                                    :  
PHIT               .v/v                                    : Описание 
PRMB               .mD                                     :  
PRMB_DGR           .mD                                     :  
RT                 .ohmm                                   : УЭС пласта 
SOIL_ARCHIE        .v/v                                    :  
SOIL_DW            .v/v                                    :  
SP                 .мВ                                     : Потенциал самополяризации 
VSH_FIN            .v/v                                    : Описание 
VSH_GR             .v/v                                    : Shale volume 
VSH_SP             .v/v                                    : Shale Volume 
~Ascii
# ...
1212.7     0.2331     8          2          7.412      1.243      1.575      1.561      0.935      1.218      1.442      0.95       1.206      0.991      1.753      0.1974731  0.1974731  0.30288    24.00049   3.818579   1.806      0.3557055  0.4808395  57.912     0.3194149  0.3754086  0.2634212 
1212.8     0.2331     8          2          7.379      1.3        1.634      1.569      0.937      1.212      1.448      0.96       1.207      0.994      1.786      0.1987518  0.1987518  0.30192    23.66669   4.033756   1.804      0.3545009  0.4792512  57.658     0.312631   0.3670986  0.2581634 
1212.9     0.2331     8          2          7.336      1.361      1.693      1.573      0.938      1.208      1.448      0.967      1.208      0.998      1.819      0.1998523  0.1998523  0.30064    23.13977   4.332434   1.798      0.3520856  0.476543   57.468     0.3054173  0.3565457  0.2542889 
1213       0.23247    8          2          7.301      1.418      1.751      1.575      0.938      1.207      1.448      0.97       1.21       1.003      1.851      0.2002625  0.2002625  0.29904    22.42873   4.591796   1.782      0.3473949  0.4717945  57.277     0.2993258  0.3481806  0.250471  
1213.1     0.23183    8          2          7.286      1.465      1.808      1.576      0.938      1.208      1.441      0.97       1.215      1.008      1.879      0.1996623  0.1996623  0.29744    21.81864   4.707656   1.758      0.3414691  0.4658484  57.15      0.2962961  0.3446558  0.2479365 
1213.2     0.23151    8          2          7.3        1.501      1.858      1.576      0.938      1.209      1.435      0.967      1.222      1.013      1.902      0.1979322  0.1979322  0.29584    21.25562   4.599431   1.726      0.3340753  0.4585594  57.023     0.2966902  0.3479445  0.2454359 
1213.3     0.23119    8          2          7.341      1.527      1.9        1.575      0.938      1.21       1.385      0.966      1.227      1.02       1.923      0.1944802  0.1944802  0.2936     20.12068   4.296597   1.696      0.3249612  0.4499532  56.896     0.3003632  0.3577571  0.2429694 
1213.4     0.23119    8          2          7.4        1.545      1.93       1.572      0.938      1.208      1.334      0.972      1.232      1.03       1.944      0.1892712  0.1892712  0.2904     18.22085   3.895463   1.677      0.3147118  0.4406873  56.769     0.306451   0.3723652  0.2405367 
1213.5     0.23119    8          2          7.462      1.558      1.947      1.568      0.938      1.204      1.309      0.986      1.236      1.041      1.967      0.1831299  0.1831299  0.28688    16.21524   3.514225   1.677      0.3066853  0.4335486  56.769     0.3143944  0.3883594  0.2404293 
1213.6     0.23119    8          2          7.516      1.567      1.952      1.563      0.937      1.199      1.283      1.003      1.244      1.053      1.994      0.1769169  0.1769169  0.28304    14.20977   3.212708   1.698      0.3014423  0.42898    56.769     0.3215853  0.4028485  0.2403221 
1213.7     0.23119    8          2          7.555      1.575      1.946      1.557      0.934      1.196      1.34       1.018      1.253      1.061      2.028      0.1727807  0.1727807  0.28048    13.17787   3.011166   1.729      0.3019729  0.4290071  56.706     0.3263617  0.4136479  0.2390754 
1213.8     0.23119    8          2          7.578      1.581      1.933      1.551      0.93       1.193      1.397      1.027      1.263      1.066      2.074      0.1703147  0.1703147  0.27888    13.02493   2.898286   1.761      0.307121   0.4319963  56.642     0.3289859  0.420152   0.2378197 
1213.9     0.23119    8          2          7.583      1.588      1.917      1.545      0.925      1.192      1.429      1.029      1.269      1.065      2.132      0.1707889  0.1707889  0.2792     14.11698   2.874312   1.785      0.3171748  0.4384233  56.515     0.3285185  0.4215795  0.2354575 
1214       0.23119    8          2          7.575      1.594      1.901      1.542      0.92       1.191      1.46       1.023      1.271      1.063      2.194      0.1721897  0.1721897  0.27984    15.26853   2.912767   1.799      0.325077   0.4434833  56.388     0.326213   0.4192978  0.2331281 
1214.1     0.23119    8          2          7.562      1.601      1.888      1.54       0.916      1.188      1.447      1.012      1.268      1.06       2.244      0.1741361  0.1741361  0.2808     16.74374   2.976353   1.805      0.3323597  0.4479745  56.261     0.323224   0.4156167  0.2308314 
1214.2     0.23151    8          2          7.554      1.609      1.88       1.542      0.913      1.185      1.435      0.994      1.258      1.059      2.268      0.1752008  0.1752008  0.28112    17.80003   3.016171   1.81       0.3372844  0.4507108  56.134     0.3209671  0.4133674  0.2285668 
1214.3     0.23183    8          2          7.557      1.621      1.879      1.547      0.909      1.18       1.442      0.971      1.241      1.061      2.26       0.1747903  0.1747903  0.28048    18.03953   3.001176   1.815      0.3390203  0.451088   56.007     0.3202719  0.4142095  0.2263343 
1214.4     0.23215    8          2          7.564      1.638      1.883      1.556      0.905      1.175      1.448      0.944      1.217      1.063      2.225      0.1741881  0.1741881  0.27984    18.12571   2.96648    1.82       0.3401853  0.4512369  55.88      0.3201574  0.416181   0.2241339 
1214.5     0.23247    8          2          7.561      1.659      1.89       1.573      0.9        1.172      1.461      0.916      1.189      1.065      2.178      0.1737037  0.1737037  0.2792     18.0955    2.981302   1.823      0.3405858  0.4509133  55.88      0.3196858  0.4153349  0.2240369 
1214.6     0.23247    8          2          7.535      1.683      1.898      1.602      0.896      1.173      1.473      0.888      1.164      1.064      2.132      0.1752377  0.1752377  0.27952    18.72528   3.112889   1.819      0.3421394  0.4515687  55.88      0.316007   0.4080741  0.2239399 
1214.7     0.23247    8          2          7.486      1.707      1.905      1.648      0.896      1.182      1.467      0.864      1.148      1.061      2.094      0.178924   0.178924   0.28048    19.81085   3.376872   1.808      0.3439187  0.4524609  55.69      0.3077455  0.3947335  0.2207576 
1214.8     0.23247    8          2          7.431      1.727      1.913      1.716      0.901      1.203      1.46       0.846      1.141      1.059      2.066      0.1824656  0.1824656  0.28112    20.4884    3.699936   1.792      0.3433454  0.4516197  55.499     0.2989528  0.3802783  0.2176273 
1214.9     0.23247    8          2          7.384      1.741      1.921      1.808      0.913      1.243      1.435      0.835      1.143      1.059      2.052      0.1847768  0.1847768  0.28112    20.2921    4.000392   1.781      0.3408242  0.4496799  55.372     0.2919492  0.3683457  0.2155527 
1215       0.23247    8          2          7.355      1.747      1.932      1.919      0.934      1.305      1.41       0.831      1.148      1.061      2.063      0.1856579  0.1856579  0.28048    19.11058   4.197827   1.784      0.3374482  0.4478524  55.245     0.2873397  0.3611707  0.2135087 
1215.1     0.23247    8          2          7.335      1.747      1.943      2.041      0.966      1.392      1.397      0.834      1.15       1.064      2.113      0.1861461  0.1861461  0.27952    17.30974   4.339638   1.813      0.3359542  0.4486022  54.991     0.2829513  0.356304   0.2095987 
1215.2     0.23215    8          2          7.311      1.742      1.955      2.16       1.011      1.502      1.384      0.84       1.147      1.067      2.212      0.1867617  0.1867617  0.27856    15.34893   4.516151   1.883      0.3397278  0.4547187  54.737     0.2781765  0.3505504  0.2058027 
1215.3     0.23183    8          2          7.267      1.731      1.966      2.271      1.075      1.631      1.442      0.847      1.142      1.069      2.36       0.1881357  0.1881357  0.27792    12.93593   4.858608   2.007      0.3478972  0.4666902  54.61      0.2720737  0.3402424  0.203905  
