~Version
 VERS              .         2.0                           : CWLS LOG ASCII STANDARD - VERSION 2.0
 WRAP              .         NO                            : ONE LINE PER DEPTH STEP
 DLM               .         SPACE                         : DELIMITING CHARACTER(SPACE TAB OR COMMA)
~Well Information
#_______________________________________________________________________________
#
#PARAMETER_NAME    .UNIT     VALUE                         : DESCRIPTION
#_______________________________________________________________________________
STRT               .M        886                           : First reference value
STOP               .M        1240                          : Last reference value
STEP               .M        0.1                           : Step increment
NULL               .         -9999                         : Missing value
COMP               .                                       : Company
WELL               .         1868                          : Well name
FLD                .         УЗЕНЬ                         : Field
LOC                .                                       : Location
CNTY               .                                       : County
STAT               .                                       : State
CTRY               .                                       : Country
SRVC               .         SCH                           : Service Company
DATE               .         04/09/2010                    : Date
UWI                .                                       : Unique Well ID
Block              .         7                             : 
Category           .         Нефтяная                      : 
Condition          .         В работе                      : 
Date               .         13.01.1984                    : 
EREF               .m        85.4                          : 100.8
Gorizont           .         14                            : 14
Interpretator      .         Ткачева И.Г.                  : 
Kupol              .         Основной                      : osnovnoi
Mud                .         0                             : 
Mud_density        .         0                             : 
Mud_resistivity    .         0                             : 
NGDU               .         НГДУ-2                        : 
ORIGINALWELLNAME   .         1868                          : 
Spud_date          .         1972                          : 1961
Uslovie            .         14                            : 
Viscosity          .         0                             : 
X                  .m        42512.4                       : 46154
Y                  .m        84495.93                      : 85761.93
YEAR               .         2019                          : 
~Parameter Information Block
#_______________________________________________________________________________
#
#PARAMETER_NAME    .UNIT     VALUE                         : DESCRIPTION
#_______________________________________________________________________________
SET                .         LQC_KAZNIPI_Petrel            : 
PBBOTTOM           .M        1240                          : Глубина подошвы планшета
PBSCALE            .         1 _ 500                       : Вертикальный масштаб планшета
PBTOP              .M        886                           : Глубина кровли планшета
TLFamily_CALI      .         Caliper                       : 
TLFamily_COLL      .         Net Reservoir Flag            : 
TLFamily_CSAT      .         Fluid Code                    : 
TLFamily_DEPT      .         Measured Depth                : 
TLFamily_GR        .         Russian Gamma Ray             : 
TLFamily_GZ1       .         Gradient 045                  : 
TLFamily_GZ2       .         Gradient 105                  : 
TLFamily_GZ3       .         Gradient 225                  : 
TLFamily_GZ4       .         Gradient 425                  : 
TLFamily_GZ5       .         Gradient 850                  : 
TLFamily_LLS       .         Lateral Log Resistivity       : 
TLFamily_MINV      .         Micro Gradient Resistivity    : 
TLFamily_MNOR      .         Micro Resistivity             : 
TLFamily_NGLD      .         Neutron Gamma                 : 
TLFamily_OGZ       .         Gradient Inverted 225         : 
TLFamily_PHIE      .         Effective Porosity            : 
TLFamily_PHIEN     .         Effective Porosity            : 
TLFamily_PHIT      .         Porosity                      : 
TLFamily_PRMB      .         Permeability                  : 
TLFamily_PRMB_DGR  .         Permeability                  : 
TLFamily_RT        .         Formation Resistivity         : 
TLFamily_SOIL_ARCHIE .         Oil Saturation                : 
TLFamily_SOIL_DW   .         Oil Saturation                : 
TLFamily_SP        .         Spontaneous Potential         : 
TLFamily_VSH_FIN   .         Shale Volume                  : 
TLFamily_VSH_GR    .         Shale Volume                  : 
TLFamily_VSH_SP    .         Shale Volume                  : 
~Curve Information
#_______________________________________________________________________________
#
#LOGNAME           .UNIT     LOG_ID                        : DESCRIPTION
#_______________________________________________________________________________
DEPT               .M                                      : Колонка глубины 
CALI               .м                                      : Каверномер 
COLL               .unitless                               : Описание 
CSAT               .unitless                               : Описание 
GR                 .uR/h                                   : Гамма каротаж 
GZ1                .Ohmm                                   : Градиент-зонд  длиной 0.45м 
GZ2                .Ohmm                                   : Градиент-зонд  длиной 1.05м 
GZ3                .Ohmm                                   : Градиент-зонд  длиной 2.25м 
GZ4                .Ohmm                                   : Градиент-зонд  длиной 4.5м 
GZ5                .Ohmm                                   : Градиент-зонд  длиной 8.5м 
LLS                .Ohmm                                   :  
MINV               .Ohmm                                   : Микро-градиент зонд 
MNOR               .Ohmm                                   : Микро-потенциал зонд 
NGLD               .у.е.                                   : Показания зонда НГК-60 аппаратуры ДРСТ-3-90 
OGZ                .Ohmm                                   : Обращенный градиент-зонд 
PHIE               .v/v                                    : Описание 
PHIEN              .v/v                                    :  
PHIT               .v/v                                    : Описание 
PRMB               .mD                                     :  
PRMB_DGR           .mD                                     :  
RT                 .ohmm                                   : УЭС пласта 
SOIL_ARCHIE        .v/v                                    :  
SOIL_DW            .v/v                                    :  
SP                 .мВ                                     : Потенциал самополяризации 
VSH_FIN            .v/v                                    : Описание 
VSH_GR             .v/v                                    : Shale volume 
VSH_SP             .v/v                                    : Shale Volume 
~Ascii
886.0      0.29597    -9999      -9999      7.724      1.728      3.092      6.288      4.715      0.869      2.311      0.833      0.618      0.904      4.927      0.1138667  0.1138667  0.31032    0.3949975  1.043423   2.724      0.08808726 0.4667521  79.121     0.5953131  0.6376408  0.5529854 
886.1      0.28168    -9999      -9999      7.756      1.62       3.03       5.916      4.509      0.838      2.483      0.944      0.762      0.905      4.594      0.1118197  0.1118197  0.3099     0.3619754  1.004937   2.974      0.1112283  0.4859675  79.121     0.6002434  0.6475015  0.5529854 
886.2000000000001 0.26739    -9999      -9999      7.786      1.526      2.954      5.593      4.337      0.82       2.654      1.032      0.9        0.907      4.32       0.1094315  0.1094315  0.30906    0.3269222  0.9701468  3.17       0.1214     0.4974872  79.121     0.6049348  0.6568842  0.5529854 
886.3      0.26644    -9999      -9999      7.791      1.464      2.912      5.332      4.198      0.822      2.731      1.08       1.007      0.911      4.137      0.1075631  0.1075631  0.30738    0.3017014  0.9644669  3.288      0.1234497  0.5018651  79.121     0.6055058  0.6584612  0.5525505 
886.4      0.26549    -9999      -9999      7.753      1.444      2.944      5.134      4.114      0.851      2.807      1.063      1.082      0.918      4.051      0.1066567  0.1066567  0.30444    0.2900884  1.008484   3.322      0.1212482  0.499844   79.121     0.5993434  0.6465705  0.5521163 
886.5      0.28073    -9999      -9999      7.674      1.463      3.055      4.984      4.107      0.905      2.693      0.978      1.131      0.927      4.057      0.1069144  0.1069144  0.30066    0.2931207  1.106529   3.288      0.1187155  0.493582   79.121     0.5871078  0.6225333  0.5516823 
886.6      0.29597    -9999      -9999      7.579      1.509      3.215      4.858      4.191      0.977      2.578      0.857      1.148      0.935      4.156      0.1082006  0.1082006  0.2973     0.3096507  1.237136   3.205      0.1171413  0.4854765  79.121     0.5730286  0.5948083  0.551249  
886.7000000000001 0.29597    -9999      -9999      7.499      1.57       3.37       4.737      4.361      1.058      2.47       0.753      1.125      0.941      4.343      0.109446   0.109446   0.29478    0.3268392  1.359006   3.099      0.1119695  0.4760167  79.121     0.5616182  0.5724208  0.5508156 
886.8      0.29597    -9999      -9999      7.454      1.637      3.464      4.617      4.585      1.135      2.362      0.7        1.069      0.944      4.597      0.1102739  0.1102739  0.29352    0.3396031  1.43276    2.995      0.1039083  0.4670635  79.121     0.5552914  0.5602002  0.5503825 
886.9      0.31153    -9999      -9999      7.44       1.708      3.464      4.51       4.812      1.201      2.28       0.696      1.003      0.945      4.867      0.1109945  0.1109945  0.2931     0.3453896  1.456512   2.921      0.09609757 0.4605415  79.058     0.5518348  0.5564517  0.547218  
887        0.32708    -9999      -9999      7.434      1.777      3.372      4.435      4.979      1.248      2.197      0.721      0.947      0.944      5.083      0.1122049  0.1122049  0.29352    0.3592582  1.466812   2.901      0.09958708 0.4607637  78.994     0.5494398  0.5548529  0.5440266 
887.1      0.33121    -9999      -9999      7.417      1.829      3.216      4.404      5.034      1.277      2.242      0.772      0.909      0.944      5.19       0.1130189  0.1130189  0.29352    0.375182   1.496393   2.96       0.114937   0.4678748  78.994     0.546973   0.5503478  0.5435982 
887.2000000000001 0.33534    -9999      -9999      7.39       1.848      3.041      4.416      4.947      1.289      2.286      0.867      0.887      0.945      5.172      0.1138377  0.1138377  0.2931     0.3918802  1.544603   3.106      0.1413544  0.4817185  78.994     0.543219   0.5432678  0.5431701 
887.3      0.31343    -9999      -9999      7.371      1.829      2.884      4.459      4.729      1.29       2.591      1.027      0.885      0.947      5.058      0.114334   0.114334   0.29226    0.396115   1.579457   3.336      0.1712312  0.4993823  78.93      0.5391697  0.5383402  0.5399991 
887.4      0.29152    -9999      -9999      7.385      1.777      2.767      4.522      4.42       1.291      2.896      1.249      0.915      0.95       4.899      0.1129892  0.1129892  0.291      0.3702989  1.553699   3.619      0.1927239  0.5156302  78.867     0.5394268  0.5419668  0.5368869 
887.5      0.27184    -9999      -9999      7.44       1.712      2.708      4.6        4.077      1.302      3.182      1.497      0.998      0.951      4.738      0.110249   0.110249   0.29058    0.3323862  1.456512   3.911      0.206282   0.5298557  78.867     0.5464575  0.5564517  0.5364634 
887.6      0.25215    -9999      -9999      7.523      1.651      2.724      4.693      3.758      1.335      3.467      1.712      1.144      0.953      4.595      0.1057506  0.1057506  0.28974    0.2768723  1.321235   4.162      0.2024753  0.5369874  78.867     0.5575438  0.579047   0.5360405 
887.7000000000001 0.25215    -9999      -9999      7.608      1.607      2.84       4.803      3.506      1.397      3.613      1.83       1.336      0.954      4.477      0.1018657  0.1018657  0.28932    0.2326036  1.195711   4.335      0.1907772  0.5396366  78.804     0.5680434  0.6031381  0.5329486 
887.8      0.25215    -9999      -9999      7.668      1.591      3.067      4.927      3.35       1.492      3.759      1.809      1.524      0.955      4.392      0.09905516 0.09905516 0.2889     0.2048858  1.114354   4.401      0.1758494  0.5379752  78.74      0.5752874  0.6207448  0.52983   
887.9      0.25755    -9999      -9999      7.694      1.612      3.387      5.049      3.301      1.62       3.601      1.658      1.644      0.957      4.349      0.09743508 0.09743508 0.28806    0.1904345  1.080841   4.365      0.1601902  0.532401   78.677     0.5776513  0.6285328  0.5267697 
888        0.26295    -9999      -9999      7.693      1.676      3.742      5.16       3.351      1.776      3.442      1.43       1.649      0.959      4.346      0.0971541  0.0971541  0.28722    0.187682   1.082111   4.245      0.146567   0.5243626  78.613     0.5759573  0.6282315  0.5236831 
888.1      0.27311    -9999      -9999      7.677      1.778      4.048      5.251      3.475      1.952      3.264      1.188      1.541      0.96       4.37       0.09802619 0.09802619 0.2868     0.194578   1.102637   4.075      0.1364907  0.5155228  78.55      0.5720419  0.6234297  0.5206541 
888.2000000000001 0.28326    -9999      -9999      7.65       1.898      4.236      5.324      3.632      2.138      3.086      0.973      1.368      0.958      4.401      0.1006936  0.1006936  0.28764    0.2177182  1.138162   3.886      0.1369133  0.5093338  78.486     0.5665044  0.6154095  0.5175992 
888.3      0.29342    -9999      -9999      7.605      2.003      4.278      5.378      3.774      2.325      2.94       0.798      1.194      0.953      4.426      0.1054628  0.1054628  0.28974    0.2661575  1.199931   3.699      0.1507364  0.5073552  78.422     0.5584157  0.6022711  0.5145603 
888.4      0.30358    -9999      -9999      7.538      2.061      4.204      5.413      3.857      2.505      2.794      0.661      1.053      0.945      4.445      0.1124571  0.1124571  0.2931     0.3572672  1.298163   3.522      0.1771068  0.5099556  78.359     0.5474028  0.5832275  0.5115782 
888.5      0.31851    -9999      -9999      7.452      2.06       4.083      5.426      3.859      2.668      2.674      0.565      0.95       0.934      4.462      0.1210321  0.1210321  0.29772    0.5211818  1.43613    3.36       0.2119138  0.5166016  78.359     0.5354178  0.5596632  0.5111724 
888.6      0.33343    -9999      -9999      7.367      2.013      3.987      5.42       3.79       2.809      2.553      0.516      0.87       0.921      4.483      0.1302475  0.1302475  0.30318    0.7799944  1.586893   3.212      0.2455237  0.5244452  78.359     0.5240378  0.5373086  0.5107669 
