~Version
 VERS              .         2.0                           : CWLS LOG ASCII STANDARD - VERSION 2.0
 WRAP              .         NO                            : ONE LINE PER DEPTH STEP
 DLM               .         SPACE                         : DELIMITING CHARACTER(SPACE TAB OR COMMA)
~Well Information
#_______________________________________________________________________________
#
#PARAMETER_NAME    .UNIT     VALUE                         : DESCRIPTION
#_______________________________________________________________________________
STRT               .M        886                           : First reference value
STOP               .M        1240                          : Last reference value
STEP               .M        0.1                           : Step increment
NULL               .         -9999                         : Missing value
COMP               .                                       : Company
WELL               .         1868                          : Well name
FLD                .         УЗЕНЬ                         : Field
LOC                .                                       : Location
CNTY               .                                       : County
STAT               .                                       : State
CTRY               .                                       : Country
SRVC               .         SCH                           : Service Company
DATE               .         04/09/2010                    : Date
UWI                .                                       : Unique Well ID
Block              .         7                             : 
Category           .         Нефтяная                      : 
Condition          .         В работе                      : 
Date               .         13.01.1984                    : 
EREF               .m        85.4                          : 100.8
Gorizont           .         14                            : 14
Interpretator      .         Ткачева И.Г.                  : 
Kupol              .         Основной                      : osnovnoi
Mud                .         0                             : 
Mud_density        .         0                             : 
Mud_resistivity    .         0                             : 
NGDU               .         НГДУ-2                        : 
ORIGINALWELLNAME   .         1868                          : 
Spud_date          .         1972                          : 1961
Uslovie            .         14                            : 
Viscosity          .         0                             : 
X                  .m        42512.4                       : 46154
Y                  .m        84495.93                      : 85761.93
YEAR               .         2019                          : 
~Parameter Information Block
#_______________________________________________________________________________
#
#PARAMETER_NAME    .UNIT     VALUE                         : DESCRIPTION
#_______________________________________________________________________________
SET                .         LQC_KAZNIPI_Petrel            : 
PBBOTTOM           .M        1240                          : Глубина подошвы планшета
PBSCALE            .         1 _ 500                       : Вертикальный масштаб планшета
PBTOP              .M        886                           : Глубина кровли планшета
TLFamily_CALI      .         Caliper                       : 
TLFamily_COLL      .         Net Reservoir Flag            : 
TLFamily_CSAT      .         Fluid Code                    : 
TLFamily_DEPT      .         Measured Depth                : 
TLFamily_GR        .         Russian Gamma Ray             : 
TLFamily_GZ1       .         Gradient 045                  : 
TLFamily_GZ2       .         Gradient 105                  : 
TLFamily_GZ3       .         Gradient 225                  : 
TLFamily_GZ4       .         Gradient 425                  : 
TLFamily_GZ5       .         Gradient 850                  : 
TLFamily_LLS       .         Lateral Log Resistivity       : 
TLFamily_MINV      .         Micro Gradient Resistivity    : 
TLFamily_MNOR      .         Micro Resistivity             : 
TLFamily_NGLD      .         Neutron Gamma                 : 
TLFamily_OGZ       .         Gradient Inverted 225         : 
TLFamily_PHIE      .         Effective Porosity            : 
TLFamily_PHIEN     .         Effective Porosity            : 
TLFamily_PHIT      .         Porosity                      : 
TLFamily_PRMB      .         Permeability                  : 
TLFamily_PRMB_DGR  .         Permeability                  : 
TLFamily_RT        .         Formation Resistivity         : 
TLFamily_SOIL_ARCHIE .         Oil Saturation                : 
TLFamily_SOIL_DW   .         Oil Saturation                : 
TLFamily_SP        .         Spontaneous Potential         : 
TLFamily_VSH_FIN   .         Shale Volume                  : 
TLFamily_VSH_GR    .         Shale Volume                  : 
TLFamily_VSH_SP    .         Shale Volume                  : 
~Curve Information
#_______________________________________________________________________________
#
#LOGNAME           .UNIT     LOG_ID                        : DESCRIPTION
#_______________________________________________________________________________
DEPT               .M                                      : Колонка глубины 
CALI               .м                                      : Каверномер 
COLL               .unitless                               : Описание 
CSAT               .unitless                               : Описание 
GR                 .uR/h                                   : Гамма каротаж 
GZ1                .Ohmm                                   : Градиент-зонд  длиной 0.45м 
GZ2                .Ohmm                                   : Градиент-зонд  длиной 1.05м 
GZ3                .Ohmm                                   : Градиент-зонд  длиной 2.25м 
GZ4                .Ohmm                                   : Градиент-зонд  длиной 4.5м 
GZ5                .Ohmm                                   : Градиент-зонд  длиной 8.5м 
LLS                .Ohmm                                   :  
MINV               .Ohmm                                   : Микро-градиент зонд 
MNOR               .Ohmm                                   : Микро-потенциал зонд 
NGLD               .у.е.                                   : Показания зонда НГК-60 аппаратуры ДРСТ-3-90 
OGZ                .Ohmm                                   : Обращенный градиент-зонд 
PHIE               .v/v                                    : Описание 
PHIEN              .v/v                                    :  
PHIT               .v/v                                    : Описание 
PRMB               .mD                                     :  
PRMB_DGR           .mD                                     :  
RT                 .ohmm                                   : УЭС пласта 
SOIL_ARCHIE        .v/v                                    :  
SOIL_DW            .v/v                                    :  
SP                 .мВ                                     : Потенциал самополяризации 
VSH_FIN            .v/v                                    : Описание 
VSH_GR             .v/v                                    : Shale volume 
VSH_SP             .v/v                                    : Shale Volume 
~Ascii
# ...
1072.3     0.29406    -9999      -9999      6.916      1.624      1.964      2.446      1.455      1.557      2.369      0.976      1.343      0.807      3.519      0.2107775  0.2107775  0.34264    20.16768   3.511804   3.132      0.48678    0.6254452  75.946     0.3995833  0.3884686  0.4106979 
1072.4     0.28803    -9999      -9999      6.837      1.59       1.906      2.555      1.504      1.559      2.476      1.004      1.401      0.813      3.446      0.2102094  0.2102094  0.33976    19.44619   3.841592   3.01       0.4752465  0.6153599  75.946     0.3925776  0.3744887  0.4106664 
1072.5     0.28199    -9999      -9999      6.751      1.525      1.897      2.662      1.572      1.578      2.515      1.027      1.441      0.819      3.351      0.2097514  0.2097514  0.33688    18.82415   4.235901   2.834      0.4584643  0.6009816  75.946     0.3852382  0.3598415  0.410635  
1072.6     0.27627    -9999      -9999      6.66       1.447      1.947      2.757      1.652      1.617      2.553      1.031      1.467      0.824      3.245      0.2098111  0.2098111  0.33448    18.64611   4.697294   2.634      0.4390162  0.5841557  75.946     0.3777846  0.344966   0.4106033 
1072.7     0.27056    -9999      -9999      6.562      1.38       2.054      2.827      1.739      1.674      2.636      0.996      1.477      0.827      3.135      0.2109062  0.2109062  0.33304    19.34087   5.250539   2.445      0.4211629  0.5679893  75.946     0.3701025  0.3296332  0.4105718 
1072.8     0.26739    -9999      -9999      6.454      1.34       2.21       2.868      1.827      1.742      2.718      0.913      1.465      0.826      3.031      0.2140494  0.2140494  0.33352    21.91908   5.936001   2.294      0.4108425  0.5568989  75.946     0.3620322  0.313524   0.4105403 
1072.9     0.26421    -9999      -9999      6.34       1.337      2.392      2.876      1.916      1.815      2.496      0.797      1.425      0.821      2.951      0.2184192  0.2184192  0.33592    26.96133   6.756855   2.192      0.4099825  0.5527856  76.073     0.3560631  0.2973732  0.414753  
1073       0.26041    -9999      -9999      6.228      1.375      2.584      2.857      2.006      1.887      2.273      0.675      1.355      0.812      2.908      0.2245217  0.2245217  0.34024    35.65461   7.673764   2.141      0.418821   0.5563477  76.2       0.3506616  0.2823161  0.4190072 
1073.1     0.2566     -9999      -9999      6.13       1.448      2.773      2.818      2.093      1.955      2.076      0.572      1.261      0.801      2.905      0.2318774  0.2318774  0.34552    48.15199   8.577571   2.126      0.4325793  0.5644146  76.2       0.3443715  0.2697679  0.4189751 
1073.2     0.2566     -9999      -9999      6.062      1.546      2.957      2.772      2.172      2.011      1.88       0.5        1.153      0.79       2.93       0.238545   0.238545   0.3508     62.95654   9.266538   2.135      0.4469211  0.5739577  76.2       0.3401666  0.2613903  0.418943  
1073.3     0.2566     -9999      -9999      6.036      1.656      3.134      2.729      2.232      2.046      1.766      0.465      1.042      0.78       2.968      0.2435085  0.2435085  0.3556     77.61942   9.544358   2.151      0.458693   0.5824856  76.264     0.3396714  0.2582563  0.4210865 
1073.4     0.2566     -9999      -9999      6.059      1.772      3.29       2.701      2.259      2.056      1.651      0.464      0.938      0.773      3.006      0.2460616  0.2460616  0.35896    86.45729   9.298176   2.169      0.4657075  0.5882956  76.327     0.3421164  0.2610268  0.4232059 
1073.5     0.2566     -9999      -9999      6.126      1.888      3.408      2.695      2.243      2.043      1.664      0.487      0.853      0.77       3.036      0.2461472  0.2461472  0.3604     85.65487   8.616642   2.189      0.4675856  0.5909988  76.327     0.3462207  0.2692678  0.4231735 
1073.6     0.26454    -9999      -9999      6.218      2.005      3.472      2.711      2.186      2.013      1.676      0.518      0.795      0.77       3.059      0.2442152  0.2442152  0.3604     78.0976    7.761451   2.219      0.4668203  0.5922807  76.327     0.3520753  0.2810094  0.4231412 
1073.7     0.27247    -9999      -9999      6.315      2.114      3.482      2.746      2.102      1.977      1.708      0.539      0.773      0.772      3.08       0.2404054  0.2404054  0.35944    67.88097   6.951529   2.265      0.4655479  0.5935261  76.454     0.3607108  0.2939441  0.4274776 
1073.8     0.28136    -9999      -9999      6.394      2.202      3.451      2.798      2.008      1.942      1.74       0.54       0.785      0.775      3.1        0.2364324  0.2364324  0.358      58.63764   6.354764   2.324      0.4651988  0.5953661  76.581     0.3683867  0.3049172  0.4318562 
1073.9     0.29025    -9999      -9999      6.447      2.25       3.398      2.872      1.922      1.912      1.74       0.524      0.817      0.778      3.121      0.233376   0.233376   0.35656    51.80585   5.983396   2.385      0.4658651  0.5975753  76.645     0.3732848  0.3125075  0.4340622 
1074       0.29374    -9999      -9999      6.472      2.248      3.336      2.969      1.849      1.887      1.74       0.511      0.848      0.78       3.139      0.2314545  0.2314545  0.3556     47.94419   5.815834   2.433      0.4671757  0.599643   76.708     0.3761985  0.3161532  0.4362438 
1074.1     0.29723    -9999      -9999      6.477      2.199      3.269      3.081      1.791      1.865      1.747      0.526      0.861      0.781      3.154      0.2308589  0.2308589  0.35512    46.0927    5.782891   2.458      0.4678527  0.6007097  76.708     0.3765488  0.3168874  0.4362102 
1074.2     0.29723    -9999      -9999      6.47       2.115      3.204      3.191      1.746      1.845      1.753      0.579      0.852      0.784      3.164      0.2295939  0.2295939  0.35368    42.92949   5.829066   2.46       0.4646397  0.5987135  76.708     0.3760184  0.3158599  0.4361769 
1074.3     0.29723    -9999      -9999      6.456      2.016      3.149      3.275      1.709      1.825      1.848      0.655      0.833      0.788      3.171      0.2276439  0.2276439  0.35176    39.35879   5.922526   2.45       0.4593703  0.5951101  76.772     0.3761095  0.313815   0.438404  
1074.4     0.29406    -9999      -9999      6.438      1.916      3.112      3.318      1.681      1.809      1.943      0.72       0.82       0.793      3.174      0.2253111  0.2253111  0.34936    35.48162   6.044894   2.431      0.4522074  0.5900644  76.835     0.3759057  0.3112054  0.4406059 
1074.5     0.29088    -9999      -9999      6.42       1.826      3.087      3.317      1.659      1.8        1.994      0.751      0.813      0.799      3.175      0.2228637  0.2228637  0.34648    31.3713    6.169791   2.402      0.4427836  0.5833554  76.835     0.3745948  0.3086174  0.4405723 
1074.6     0.28707    -9999      -9999      6.41       1.751      3.06       3.284      1.647      1.803      2.045      0.749      0.809      0.804      3.176      0.220705   0.220705   0.34408    28.1302    6.240289   2.362      0.432591   0.576089   76.835     0.3738638  0.3071889  0.4405386 
1074.7     0.28326    -9999      -9999      6.413      1.692      3.014      3.239      1.644      1.818      1.975      0.742      0.807      0.809      3.179      0.2174911  0.2174911  0.34168    24.94111   6.219056   2.314      0.4205019  0.567637   76.962     0.37633    0.3076168  0.4450431 
1074.8     0.28009    -9999      -9999      6.424      1.648      2.95       3.195      1.651      1.842      1.905      0.75       0.817      0.812      3.186      0.2150411  0.2150411  0.34024    22.90019   6.141814   2.263      0.4095796  0.56002    77.089     0.3793905  0.3091906  0.4495904 
1074.9     0.27691    -9999      -9999      6.432      1.615      2.887      3.158      1.667      1.868      1.95       0.77       0.848      0.813      3.198      0.2139934  0.2139934  0.33976    22.05206   6.086242   2.221      0.4021846  0.5547531  77.153     0.3811109  0.3103403  0.4518816 
