~Version
 VERS              .         2.0                           : CWLS LOG ASCII STANDARD - VERSION 2.0
 WRAP              .         NO                            : ONE LINE PER DEPTH STEP
 DLM               .         SPACE                         : DELIMITING CHARACTER(SPACE TAB OR COMMA)
~Well Information
#_______________________________________________________________________________
#
#PARAMETER_NAME    .UNIT     VALUE                         : DESCRIPTION
#_______________________________________________________________________________
STRT               .M        886                           : First reference value
STOP               .M        1240                          : Last reference value
STEP               .M        0.1                           : Step increment
NULL               .         -9999                         : Missing value
COMP               .                                       : Company
WELL               .         1868                          : Well name
FLD                .         УЗЕНЬ                         : Field
LOC                .                                       : Location
CNTY               .                                       : County
STAT               .                                       : State
CTRY               .                                       : Country
SRVC               .         SCH                           : Service Company
DATE               .         04/09/2010                    : Date
UWI                .                                       : Unique Well ID
Block              .         7                             : 
Category           .         Нефтяная                      : 
Condition          .         В работе                      : 
Date               .         13.01.1984                    : 
EREF               .m        85.4                          : 100.8
Gorizont           .         14                            : 14
Interpretator      .         Ткачева И.Г.                  : 
Kupol              .         Основной                      : osnovnoi
Mud                .         0                             : 
Mud_density        .         0                             : 
Mud_resistivity    .         0                             : 
NGDU               .         НГДУ-2                        : 
ORIGINALWELLNAME   .         1868                          : 
Spud_date          .         1972                          : 1961
Uslovie            .         14                            : 
Viscosity          .         0                             : 
X                  .m        42512.4                       : 46154
Y                  .m        84495.93                      : 85761.93
YEAR               .         2019                          : 
~Parameter Information Block
#_______________________________________________________________________________
#
#PARAMETER_NAME    .UNIT     VALUE                         : DESCRIPTION
#_______________________________________________________________________________
SET                .         LQC_KAZNIPI_Petrel            : 
PBBOTTOM           .M        1240                          : Глубина подошвы планшета
PBSCALE            .         1 _ 500                       : Вертикальный масштаб планшета
PBTOP              .M        886                           : Глубина кровли планшета
TLFamily_CALI      .         Caliper                       : 
TLFamily_COLL      .         Net Reservoir Flag            : 
TLFamily_CSAT      .         Fluid Code                    : 
TLFamily_DEPT      .         Measured Depth                : 
TLFamily_GR        .         Russian Gamma Ray             : 
TLFamily_GZ1       .         Gradient 045                  : 
TLFamily_GZ2       .         Gradient 105                  : 
TLFamily_GZ3       .         Gradient 225                  : 
TLFamily_GZ4       .         Gradient 425                  : 
TLFamily_GZ5       .         Gradient 850                  : 
TLFamily_LLS       .         Lateral Log Resistivity       : 
TLFamily_MINV      .         Micro Gradient Resistivity    : 
TLFamily_MNOR      .         Micro Resistivity             : 
TLFamily_NGLD      .         Neutron Gamma                 : 
TLFamily_OGZ       .         Gradient Inverted 225         : 
TLFamily_PHIE      .         Effective Porosity            : 
TLFamily_PHIEN     .         Effective Porosity            : 
TLFamily_PHIT      .         Porosity                      : 
TLFamily_PRMB      .         Permeability                  : 
TLFamily_PRMB_DGR  .         Permeability                  : 
TLFamily_RT        .         Formation Resistivity         : 
TLFamily_SOIL_ARCHIE .         Oil Saturation                : 
TLFamily_SOIL_DW   .         Oil Saturation                : 
TLFamily_SP        .         Spontaneous Potential         : 
TLFamily_VSH_FIN   .         Shale Volume                  : 
TLFamily_VSH_GR    .         Shale Volume                  : 
TLFamily_VSH_SP    .         Shale Volume                  : 
~Curve Information
#_______________________________________________________________________________
#
#LOGNAME           .UNIT     LOG_ID                        : DESCRIPTION
#_______________________________________________________________________________
DEPT               .M                                      : Колонка глубины 
CALI               .м                                      : Каверномер 
COLL               .unitless                               : Описание 
CSAT               .unitless                               : Описание 
GR                 .uR/h                                   : Гамма каротаж 
GZ1                .Ohmm                                   : Градиент-зонд  длиной 0.45м 
GZ2                .Ohmm                                   : Градиент-зонд  длиной 1.05м 
GZ3                .Ohmm                                   : Градиент-зонд  длиной 2.25м 
GZ4                .Ohmm                                   : Градиент-зонд  длиной 4.5м 
GZ5                .Ohmm                                   : Градиент-зонд  длиной 8.5м 
LLS                .Ohmm                                   :  
MINV               .Ohmm                                   : Микро-градиент зонд 
MNOR               .Ohmm                                   : Микро-потенциал зонд 
NGLD               .у.е.                                   : Показания зонда НГК-60 аппаратуры ДРСТ-3-90 
OGZ                .Ohmm                                   : Обращенный градиент-зонд 
PHIE               .v/v                                    : Описание 
PHIEN              .v/v                                    :  
PHIT               .v/v                                    : Описание 
PRMB               .mD                                     :  
PRMB_DGR           .mD                                     :  
RT                 .ohmm                                   : УЭС пласта 
SOIL_ARCHIE        .v/v                                    :  
SOIL_DW            .v/v                                    :  
SP                 .мВ                                     : Потенциал самополяризации 
VSH_FIN            .v/v                                    : Описание 
VSH_GR             .v/v                                    : Shale volume 
VSH_SP             .v/v                                    : Shale Volume 
~Ascii
# ...
1120.9     0.24295    1          2          6.422      2.561      5.747      8.919      4.694      5.21       5.049      1.121      1.531      1.106      12.468     0.1715424  0.1715424  0.21336    4.60317    37.97263   6.261      0.5655428  0.6346229  53.086     0.12672    0.146948   0.1267196 
1121       0.24263    1          2          6.504      2.694      6.061      8.986      4.786      5.301      5.017      1.132      1.533      1.107      12.47      0.1712219  0.1712219  0.21292    4.310936   33.62083   6.23       0.5611421  0.631951   52.959     0.126358   0.1544362  0.126358  
1121.1     0.24263    1          2          6.586      2.828      6.374      9.077      4.884      5.393      4.985      1.132      1.531      1.108      12.492     0.1708983  0.1708983  0.21248    4.024628   29.76779   6.196      0.5563937  0.6290867  52.832     0.126005   0.1623059  0.1260047 
1121.2     0.24263    1          2          6.655      2.954      6.677      9.189      4.99       5.486      4.953      1.121      1.526      1.108      12.53      0.1710125  0.1710125  0.21248    3.846875   26.86983   6.165      0.5529283  0.6271876  52.705     0.125659   0.1692379  0.1256593 
1121.3     0.24263    1          2          6.707      3.064      6.964      9.313      5.11       5.581      4.922      1.103      1.52       1.109      12.58      0.170625   0.170625   0.21204    3.645741   24.87385   6.141      0.5491896  0.6248876  52.642     0.1255     0.1746569  0.1255004 
1121.4     0.24263    1          2          6.74       3.153      7.229      9.444      5.251      5.678      4.889999   1.089      1.514      1.111      12.636     0.1697978  0.1697978  0.21116    3.435615   23.68477   6.125      0.5453579  0.6222695  52.578     0.12534    0.1781856  0.1253405 
1121.5     0.24263    1          2          6.757      3.22       7.471      9.592      5.411      5.776      4.889999   1.085      1.509      1.114      12.693     0.1684715  0.1684715  0.20984    3.216953   23.09457   6.117      0.5413836  0.6193035  52.578     0.125359   0.1800311  0.1253593 
1121.6     0.24263    1          2          6.759      3.267      7.689      9.775      5.586      5.871      4.889999   1.09       1.505      1.118      12.743     0.1667053  0.1667053  0.20808    2.987945   23.02611   6.112      0.5369784  0.6157754  52.578     0.125378   0.1802495  0.1253781 
1121.7     0.24263    1          2          6.751      3.297      7.883      10.009     5.77       5.961      4.889999   1.1        1.503      1.121      12.781     0.1654945  0.1654945  0.20676    2.847345   23.30118   6.107      0.5339937  0.6132149  52.451     0.125047   0.1793776  0.1250469 
1121.8     0.24263    1          2          6.732      3.316      8.054      10.289     5.953      6.042      4.889999   1.109      1.503      1.125      12.803     0.1638414  0.1638414  0.205      2.695674   23.9677    6.099      0.5304727  0.6099325  52.324     0.124723   0.1773237  0.1247232 
1121.9     0.24263    1          2          6.703      3.33       8.199      10.596     6.132      6.115      4.889999   1.113      1.505      1.128      12.805     0.1626257  0.1626257  0.20368    2.619875   25.02196   6.08       0.5280778  0.6073164  52.197     0.124407   0.174234   0.1244068 
1122       0.24263    1          2          6.671      3.342      8.314      10.906     6.302      6.185      4.889999   1.11       1.507      1.13       12.784     0.161848   0.161848   0.2028     2.597852   26.23919   6.051      0.5265089  0.605278   52.07      0.124097   0.1708871  0.1240975 
1122.1     0.24263    1          2          6.651      3.356      8.397      11.196     6.466      6.255      4.858      1.1        1.506      1.131      12.735     0.1614555  0.1614555  0.20236    2.598172   27.02986   6.018      0.5252997  0.6037487  52.006     0.123953   0.1688281  0.1239528 
1122.2     0.24263    1          2          6.655      3.372      8.447      11.448     6.626      6.323      4.826      1.082      1.503      1.129      12.657     0.1623821  0.1623821  0.20324    2.692793   26.86983   5.991      0.5264554  0.60462    51.943     0.123812   0.1692379  0.123812  
1122.3     0.24263    1          2          6.686      3.387      8.464      11.651     6.784      6.382      4.763      1.059      1.499      1.123      12.552     0.1650679  0.1650679  0.20588    2.936479   25.66142   5.984      0.5313396  0.6091053  51.88      0.123673   0.1724479  0.1236727 
1122.4     0.24263    1          2          6.733      3.401      8.449      11.798     6.937      6.423      4.699      1.036      1.499      1.115      12.427     0.1686341  0.1686341  0.2094     3.275389   23.93216   6.003      0.5383441  0.6156889  51.816     0.123533   0.1774312  0.1235325 
1122.5     0.24263    1          2          6.776      3.41       8.406      11.896     7.082      6.439      4.763      1.018      1.505      1.106      12.294     0.1725889  0.1725889  0.21336    3.723993   22.45232   6.046      0.5470473  0.6236501  51.816     0.123549   0.1821164  0.123549  
1122.6     0.24263    1          2          6.798      3.411      8.343      11.959     7.216      6.43       4.826      1.01       1.518      1.097      12.163     0.1765435  0.1765435  0.21732    4.299977   21.73096   6.103      0.5567462  0.632074   51.816     0.123565   0.1845611  0.1235655 
1122.7     0.24263    1          2          6.789      3.401      8.276      12.001     7.335      6.401      4.889999   1.011      1.534      1.09       12.039     0.1796684  0.1796684  0.2204     4.907695   22.02321   6.159      0.5654534  0.6391577  51.753     0.123429   0.1835571  0.1234288 
1122.8     0.24263    1          2          6.753      3.378      8.219      12.031     7.438      6.362      4.953      1.02       1.551      1.086      11.917     0.181474   0.181474   0.22216    5.420579   23.2321    6.205      0.5719256  0.6439738  51.689     0.123291   0.1795952  0.1232912 
1122.9     0.24263    1          2          6.703      3.343      8.19       12.049     7.525      6.322      4.985      1.032      1.564      1.084      11.784     0.1823982  0.1823982  0.22304    5.833883   25.02196   6.234      0.5764406  0.6469707  51.626     0.123157   0.174234   0.1231573 
1123       0.24263    1          2          6.655      3.306      8.195      12.056     7.597      6.288      5.017      1.047      1.572      1.083      11.624     0.1828824  0.1828824  0.22348    6.147564   26.86983   6.244      0.5792693  0.6486247  51.562     0.123023   0.1692379  0.1230225 
1123.1     0.24263    1          2          6.628      3.278      8.236      12.049     7.654      6.265      5.017      1.06       1.576      1.082      11.433     0.1832676  0.1832676  0.22392    6.36837    27.96861   6.237      0.5807221  0.6494638  51.626     0.123189   0.1664908  0.1231894 
1123.2     0.24263    1          2          6.642      3.27       8.308      12.031     7.699      6.253      5.017      1.069      1.576      1.078      11.217     0.1849725  0.1849725  0.22568    6.750322   27.39338   6.218      0.5828578  0.6514732  51.689     0.123356   0.1679096  0.123356  
1123.3     0.24263    1          2          6.71       3.285      8.403      12.003     7.736      6.255      4.985      1.075      1.575      1.072      10.986     0.1875561  0.1875561  0.22832    7.117955   24.76331   6.186      0.5843109  0.6536986  51.753     0.123527   0.1749748  0.1235273 
1123.4     0.24263    1          2          6.828      3.321      8.509      11.967     7.769      6.271      4.953      1.078      1.573      1.064      10.758     0.1910197  0.1910197  0.23184    7.457876   20.78447   6.15       0.5853188  0.6563423  51.816     0.123698   0.1879479  0.1236983 
1123.5     0.24263    1          2          6.975      3.37       8.615      11.924     7.801      6.297      4.922      1.08       1.569      1.058      10.55      0.1936541  0.1936541  0.23448    7.301443   16.70991   6.107      0.5829749  0.6568167  51.816     0.123715   0.2054627  0.123715  
