~Version
 VERS              .         2.0                           : CWLS LOG ASCII STANDARD - VERSION 2.0
 WRAP              .         NO                            : ONE LINE PER DEPTH STEP
 DLM               .         SPACE                         : DELIMITING CHARACTER(SPACE TAB OR COMMA)
~Well Information
#_______________________________________________________________________________
#
#PARAMETER_NAME    .UNIT     VALUE                         : DESCRIPTION
#_______________________________________________________________________________
STRT               .M        886                           : First reference value
STOP               .M        1240                          : Last reference value
STEP               .M        0.1                           : Step increment
NULL               .         -9999                         : Missing value
COMP               .                                       : Company
WELL               .         1868                          : Well name
FLD                .         УЗЕНЬ                         : Field
LOC                .                                       : Location
CNTY               .                                       : County
STAT               .                                       : State
CTRY               .                                       : Country
SRVC               .         SCH                           : Service Company
DATE               .         04/09/2010                    : Date
UWI                .                                       : Unique Well ID
Block              .         7                             : 
Category           .         Нефтяная                      : 
Condition          .         В работе                      : 
Date               .         13.01.1984                    : 
EREF               .m        85.4                          : 100.8
Gorizont           .         14                            : 14
Interpretator      .         Ткачева И.Г.                  : 
Kupol              .         Основной                      : osnovnoi
Mud                .         0                             : 
Mud_density        .         0                             : 
Mud_resistivity    .         0                             : 
NGDU               .         НГДУ-2                        : 
ORIGINALWELLNAME   .         1868                          : 
Spud_date          .         1972                          : 1961
Uslovie            .         14                            : 
Viscosity          .         0                             : 
X                  .m        42512.4                       : 46154
Y                  .m        84495.93                      : 85761.93
YEAR               .         2019                          : 
~Parameter Information Block
#_______________________________________________________________________________
#
#PARAMETER_NAME    .UNIT     VALUE                         : DESCRIPTION
#_______________________________________________________________________________
SET                .         LQC_KAZNIPI_Petrel            : 
PBBOTTOM           .M        1240                          : Глубина подошвы планшета
PBSCALE            .         1 _ 500                       : Вертикальный масштаб планшета
PBTOP              .M        886                           : Глубина кровли планшета
TLFamily_CALI      .         Caliper                       : 
TLFamily_COLL      .         Net Reservoir Flag            : 
TLFamily_CSAT      .         Fluid Code                    : 
TLFamily_DEPT      .         Measured Depth                : 
TLFamily_GR        .         Russian Gamma Ray             : 
TLFamily_GZ1       .         Gradient 045                  : 
TLFamily_GZ2       .         Gradient 105                  : 
TLFamily_GZ3       .         Gradient 225                  : 
TLFamily_GZ4       .         Gradient 425                  : 
TLFamily_GZ5       .         Gradient 850                  : 
TLFamily_LLS       .         Lateral Log Resistivity       : 
TLFamily_MINV      .         Micro Gradient Resistivity    : 
TLFamily_MNOR      .         Micro Resistivity             : 
TLFamily_NGLD      .         Neutron Gamma                 : 
TLFamily_OGZ       .         Gradient Inverted 225         : 
TLFamily_PHIE      .         Effective Porosity            : 
TLFamily_PHIEN     .         Effective Porosity            : 
TLFamily_PHIT      .         Porosity                      : 
TLFamily_PRMB      .         Permeability                  : 
TLFamily_PRMB_DGR  .         Permeability                  : 
TLFamily_RT        .         Formation Resistivity         : 
TLFamily_SOIL_ARCHIE .         Oil Saturation                : 
TLFamily_SOIL_DW   .         Oil Saturation                : 
TLFamily_SP        .         Spontaneous Potential         : 
TLFamily_VSH_FIN   .         Shale Volume                  : 
TLFamily_VSH_GR    .         Shale Volume                  : 
TLFamily_VSH_SP    .         Shale Volume                  : 
~Curve Information
#_______________________________________________________________________________
#
#LOGNAME           .UNIT     LOG_ID                        : DESCRIPTION
#_______________________________________________________________________________
DEPT               .M                                      : Колонка глубины 
CALI               .м                                      : Каверномер 
COLL               .unitless                               : Описание 
CSAT               .unitless                               : Описание 
GR                 .uR/h                                   : Гамма каротаж 
GZ1                .Ohmm                                   : Градиент-зонд  длиной 0.45м 
GZ2                .Ohmm                                   : Градиент-зонд  длиной 1.05м 
GZ3                .Ohmm                                   : Градиент-зонд  длиной 2.25м 
GZ4                .Ohmm                                   : Градиент-зонд  длиной 4.5м 
GZ5                .Ohmm                                   : Градиент-зонд  длиной 8.5м 
LLS                .Ohmm                                   :  
MINV               .Ohmm                                   : Микро-градиент зонд 
MNOR               .Ohmm                                   : Микро-потенциал зонд 
NGLD               .у.е.                                   : Показания зонда НГК-60 аппаратуры ДРСТ-3-90 
OGZ                .Ohmm                                   : Обращенный градиент-зонд 
PHIE               .v/v                                    : Описание 
PHIEN              .v/v                                    :  
PHIT               .v/v                                    : Описание 
PRMB               .mD                                     :  
PRMB_DGR           .mD                                     :  
RT                 .ohmm                                   : УЭС пласта 
SOIL_ARCHIE        .v/v                                    :  
SOIL_DW            .v/v                                    :  
SP                 .мВ                                     : Потенциал самополяризации 
VSH_FIN            .v/v                                    : Описание 
VSH_GR             .v/v                                    : Shale volume 
VSH_SP             .v/v                                    : Shale Volume 
~Ascii
# ...
1142.5     0.24771    -9999      -9999      7.516      1.042      1.391      2.672      1.08       2.003      1.283      0.854      1.099      0.971      1.52       0.1796055  0.1796055  0.27276    7.826763   7.485373   1.63       0.2308263  0.3899669  64.389     0.2822862  0.2851961  0.2793763 
1142.6     0.24771    -9999      -9999      7.541      1.06       1.404      2.67       1.095      2.118      1.41       0.86       1.095      0.969      1.623      0.1796109  0.1796109  0.27364    9.044223   7.212687   1.768      0.2711591  0.4195768  64.389     0.2849366  0.2895506  0.2803225 
1142.7     0.24771    -9999      -9999      7.567      1.078      1.462      2.665      1.151      2.252      1.531      0.879      1.094      0.973      1.736      0.1771655  0.1771655  0.27188    9.147587   6.939623   1.914      0.2986569  0.4405067  64.326     0.2870136  0.2941498  0.2798774 
1142.8     0.24676    -9999      -9999      7.604      1.099      1.569      2.653      1.239      2.399      1.651      0.901      1.082      0.983      1.846      0.1717416  0.1717416  0.26748    7.984753   6.568759   2.063      0.3128335  0.4524971  64.262     0.2901162  0.3008212  0.2794112 
1142.9     0.2458     -9999      -9999      7.658      1.131      1.715      2.633      1.351      2.553      1.778      0.914      1.051      0.996      1.942      0.1618253  0.1618253  0.26176    6.306522   6.062781   2.204      0.3161259  0.4573973  64.897     0.3028324  0.3108301  0.2948346 
1143       0.2458     -9999      -9999      7.722      1.185      1.879      2.608      1.479      2.702      1.905      0.912      1          1.009      2.012      0.1513677  0.1513677  0.25604    4.803505   5.513326   2.321      0.3113242  0.4569664  65.532     0.3171888  0.3231248  0.3112529 
1143.1     0.2458     -9999      -9999      7.78       1.269      2.03       2.583      1.615      2.834      1.994      0.895      0.933      1.018      2.047      0.1420626  0.1420626  0.25208    3.878991   5.058519   2.397      0.3042319  0.4546748  66.294     0.3333859  0.3346863  0.3320856 
1143.2     0.24485    -9999      -9999      7.816      1.375      2.136      2.562      1.752      2.931      2.083      0.864      0.859      1.022      2.045      0.1353987  0.1353987  0.25032    3.461249   4.795299   2.408      0.2960577  0.4503143  67.056     0.3482466  0.3420695  0.3544236 
1143.3     0.24389    -9999      -9999      7.826      1.481      2.178      2.545      1.879      2.975      1.994      0.819      0.783      1.018      2.044      0.134145   0.134145   0.25208    3.583801   4.724642   2.335      0.2888407  0.4450139  67.564     0.3573789  0.3441492  0.3706086 
1143.4     0.24453    -9999      -9999      7.821      1.549      2.151      2.528      1.981      2.955      1.905      0.766      0.712      1.009      2.001      0.1354827  0.1354827  0.25604    3.871661   4.759839   2.181      0.2725401  0.433092   68.072     0.3653252  0.3431078  0.3875426 
1143.5     0.24517    -9999      -9999      7.821      1.555      2.065      2.507      2.038      2.871      1.594      0.714      0.655      0.998      1.921      0.1401     0.1401     0.26088    4.230553   4.759839   1.969      0.2448373  0.4123386  68.072     0.366      0.3431078  0.3888921 
1143.6     0.24739    -9999      -9999      7.846      1.495      1.938      2.482      2.03       2.733      1.283      0.676      0.621      0.989      1.812      0.1429722  0.1429722  0.26484    4.266515   4.586442   1.74       0.2005318  0.3802982  68.072     0.3692964  0.3483466  0.3902463 
1143.7     0.24961    -9999      -9999      7.905      1.388      1.79       2.457      1.951      2.56       1.143      0.665      0.617      0.982      1.685      0.140669   0.140669   0.26792    3.951584   4.201854   1.535      0.1442898  0.3416205  68.644     0.3856092  0.3610293  0.4101891 
1143.8     0.25564    -9999      -9999      7.988      1.262      1.638      2.437      1.809      2.372      1.003      0.689      0.643      0.977      1.553      0.1363484  0.1363484  0.27012    3.415162   3.71479    1.38       0.08439717 0.3031153  69.215     0.4053686  0.3796566  0.4310805 
1143.9     0.26167    -9999      -9999      8.069      1.143      1.499      2.425      1.631      2.187      0.972      0.747      0.691      0.973      1.431      0.1317217  0.1317217  0.27188    2.906544   3.293949   1.28       0.03234659 0.2723919  69.723     0.4247222  0.3987614  0.450683  
1144       0.26167    -9999      -9999      8.12       1.046      1.382      2.417      1.45       2.019      0.94       0.822      0.743      0.969      1.327      0.1280452  0.1280452  0.27364    2.582055   3.053792   1.226      0          0.2541506  70.231     0.4411964  0.4112805  0.4711125 
1144.1     0.26167    -9999      -9999      8.129      0.977      1.295      2.405      1.294      1.878      0.946      0.888      0.782      0.965      1.246      0.1259238  0.1259238  0.2754     2.32709    3.013266   1.204      0          0.2455125  70.739     0.4529583  0.4135301  0.4923866 
1144.2     0.26549    -9999      -9999      8.099      0.939      1.237      2.381      1.177      1.77       0.952      0.92       0.796      0.962      1.186      0.1248206  0.1248206  0.27672    2.130575   3.150482   1.201      0          0.2426789  71.247     0.4603012  0.4060786  0.5145237 
1144.3     0.2693     -9999      -9999      8.056      0.925      1.205      2.358      1.103      1.694      0.965      0.911      0.789      0.961      1.147      0.1236283  0.1236283  0.27716    1.985646   3.358131   1.208      0          0.2423939  71.692     0.4652476  0.3956316  0.5348636 
1144.4     0.26803    -9999      -9999      8.026      0.928      1.19       2.335      1.065      1.648      0.978      0.875      0.776      0.96       1.128      0.1217797  0.1217797  0.2776     1.796706   3.511052   1.218      0          0.2416592  72.136     0.4721826  0.3885026  0.5558627 
1144.5     0.26676    -9999      -9999      8.024      0.941      1.186      2.269      1.055      1.63       0.985      0.838      0.775      0.961      1.132      0.1211067  0.1211067  0.27716    1.499038   3.521491   1.226      0          0.2350696  72.136     0.4728886  0.388032   0.5577453 
1144.6     0.26485    -9999      -9999      8.052      0.958      1.188      2.187      1.066      1.633      0.991      0.824      0.795      0.963      1.163      0.1188193  0.1188193  0.27628    1.178568   3.378128   1.235      0          0.2249156  72.136     0.4771535  0.3946736  0.5596334 
1144.7     0.26295    -9999      -9999      8.091      0.974      1.192      2.104      1.092      1.654      0.991      0.849      0.832      0.969      1.212      0.1129056  0.1129056  0.27364    0.8597791  3.188121   1.244      0          0.2074293  72.327     0.4870738  0.4041142  0.5700335 
1144.8     0.26231    -9999      -9999      8.117      0.989      1.199      2.032      1.131      1.687      0.991      0.909      0.876      0.978      1.268      0.1061506  0.1061506  0.26968    0.6184502  3.067422   1.255      0          0.1862795  72.517     0.4955435  0.4105332  0.5805539 
1144.9     0.26167    -9999      -9999      8.115      1.003      1.211      1.973      1.18       1.727      1.01       0.989      0.912      0.988      1.315      0.1015102  0.1015102  0.26528    0.4654869  3.076542   1.27       0          0.166719   72.517     0.4962721  0.4100359  0.5825084 
1145       0.26167    -9999      -9999      8.089      1.014      1.233      1.923      1.24       1.771      1.029      1.064      0.934      0.999      1.347      0.0974046  0.0974046  0.26044    0.3622176  3.197598   1.289      0          0.1483014  72.517     0.4940467  0.4036247  0.5844686 
1145.1     0.26167    -9999      -9999      8.058      1.024      1.266      1.872      1.31       1.817      1.048      1.112      0.942      1.008      1.368      0.09435993 0.09435993 0.25648    0.2962093  3.348177   1.31       0          0.1342694  72.517     0.4912729  0.3961114  0.5864344 
