~Version
 VERS              .         2.0                           : CWLS LOG ASCII STANDARD - VERSION 2.0
 WRAP              .         NO                            : ONE LINE PER DEPTH STEP
 DLM               .         SPACE                         : DELIMITING CHARACTER(SPACE TAB OR COMMA)
~Well Information
#_______________________________________________________________________________
#
#PARAMETER_NAME    .UNIT     VALUE                         : DESCRIPTION
#_______________________________________________________________________________
STRT               .M        886                           : First reference value
STOP               .M        1240                          : Last reference value
STEP               .M        0.1                           : Step increment
NULL               .         -9999                         : Missing value
COMP               .                                       : Company
WELL               .         1868                          : Well name
FLD                .         УЗЕНЬ                         : Field
LOC                .                                       : Location
CNTY               .                                       : County
STAT               .                                       : State
CTRY               .                                       : Country
SRVC               .         SCH                           : Service Company
DATE               .         04/09/2010                    : Date
UWI                .                                       : Unique Well ID
Block              .         7                             : 
Category           .         Нефтяная                      : 
Condition          .         В работе                      : 
Date               .         13.01.1984                    : 
EREF               .m        85.4                          : 100.8
Gorizont           .         14                            : 14
Interpretator      .         Ткачева И.Г.                  : 
Kupol              .         Основной                      : osnovnoi
Mud                .         0                             : 
Mud_density        .         0                             : 
Mud_resistivity    .         0                             : 
NGDU               .         НГДУ-2                        : 
ORIGINALWELLNAME   .         1868                          : 
Spud_date          .         1972                          : 1961
Uslovie            .         14                            : 
Viscosity          .         0                             : 
X                  .m        42512.4                       : 46154
Y                  .m        84495.93                      : 85761.93
YEAR               .         2019                          : 
~Parameter Information Block
#_______________________________________________________________________________
#
#PARAMETER_NAME    .UNIT     VALUE                         : DESCRIPTION
#_______________________________________________________________________________
SET                .         LQC_KAZNIPI_Petrel            : 
PBBOTTOM           .M        1240                          : Глубина подошвы планшета
PBSCALE            .         1 _ 500                       : Вертикальный масштаб планшета
PBTOP              .M        886                           : Глубина кровли планшета
TLFamily_CALI      .         Caliper                       : 
TLFamily_COLL      .         Net Reservoir Flag            : 
TLFamily_CSAT      .         Fluid Code                    : 
TLFamily_DEPT      .         Measured Depth                : 
TLFamily_GR        .         Russian Gamma Ray             : 
TLFamily_GZ1       .         Gradient 045                  : 
TLFamily_GZ2       .         Gradient 105                  : 
TLFamily_GZ3       .         Gradient 225                  : 
TLFamily_GZ4       .         Gradient 425                  : 
TLFamily_GZ5       .         Gradient 850                  : 
TLFamily_LLS       .         Lateral Log Resistivity       : 
TLFamily_MINV      .         Micro Gradient Resistivity    : 
TLFamily_MNOR      .         Micro Resistivity             : 
TLFamily_NGLD      .         Neutron Gamma                 : 
TLFamily_OGZ       .         Gradient Inverted 225         : 
TLFamily_PHIE      .         Effective Porosity            : 
TLFamily_PHIEN     .         Effective Porosity            : 
TLFamily_PHIT      .         Porosity                      : 
TLFamily_PRMB      .         Permeability                  : 
TLFamily_PRMB_DGR  .         Permeability                  : 
TLFamily_RT        .         Formation Resistivity         : 
TLFamily_SOIL_ARCHIE .         Oil Saturation                : 
TLFamily_SOIL_DW   .         Oil Saturation                : 
TLFamily_SP        .         Spontaneous Potential         : 
TLFamily_VSH_FIN   .         Shale Volume                  : 
TLFamily_VSH_GR    .         Shale Volume                  : 
TLFamily_VSH_SP    .         Shale Volume                  : 
~Curve Information
#_______________________________________________________________________________
#
#LOGNAME           .UNIT     LOG_ID                        : DESCRIPTION
#_______________________________________________________________________________
DEPT               .M                                      : Колонка глубины 
CALI               .м                                      : Каверномер 
COLL               .unitless                               : Описание 
CSAT               .unitless                               : Описание 
GR                 .uR/h                                   : Гамма каротаж 
GZ1                .Ohmm                                   : Градиент-зонд  длиной 0.45м 
GZ2                .Ohmm                                   : Градиент-зонд  длиной 1.05м 
GZ3                .Ohmm                                   : Градиент-зонд  длиной 2.25м 
GZ4                .Ohmm                                   : Градиент-зонд  длиной 4.5м 
GZ5                .Ohmm                                   : Градиент-зонд  длиной 8.5м 
LLS                .Ohmm                                   :  
MINV               .Ohmm                                   : Микро-градиент зонд 
MNOR               .Ohmm                                   : Микро-потенциал зонд 
NGLD               .у.е.                                   : Показания зонда НГК-60 аппаратуры ДРСТ-3-90 
OGZ                .Ohmm                                   : Обращенный градиент-зонд 
PHIE               .v/v                                    : Описание 
PHIEN              .v/v                                    :  
PHIT               .v/v                                    : Описание 
PRMB               .mD                                     :  
PRMB_DGR           .mD                                     :  
RT                 .ohmm                                   : УЭС пласта 
SOIL_ARCHIE        .v/v                                    :  
SOIL_DW            .v/v                                    :  
SP                 .мВ                                     : Потенциал самополяризации 
VSH_FIN            .v/v                                    : Описание 
VSH_GR             .v/v                                    : Shale volume 
VSH_SP             .v/v                                    : Shale Volume 
~Ascii
# ...
980.5      0.29914    -9999      -9999      6.721      1.249      2.02       0.668      1.823      1.921      1.404      1.066      0.825      1.044      2.389      0.02188032 0.02188032 0.22888    0.007603705 0.9913313  1.78       0          0          84.201     0.6272717  0.6511156  0.6034278 
980.6      0.30518    -9999      -9999      6.636      1.286      1.986      0.711      1.864      1.933      1.397      1.115      0.875      1.044      2.416      0.02681015 0.02681015 0.22888    0.009399923 1.112562   1.775      0          0          84.201     0.6123328  0.6211528  0.6035129 
980.7000000000001 0.31121    -9999      -9999      6.562      1.321      1.951      0.781      1.905      1.949      1.429      1.16       0.933      1.043      2.443      0.0313946  0.0313946  0.22936    0.01148053 1.230114   1.782      0          0          84.201     0.5998952  0.5961923  0.6035981 
980.8      0.30962    -9999      -9999      6.515      1.346      1.93       0.876      1.942      1.969      1.46       1.192      0.977      1.043      2.469      0.03391002 0.03391002 0.22936    0.01285403 1.311145   1.801      0          0          84.201     0.5922727  0.5808626  0.6036828 
980.9      0.30803    -9999      -9999      6.503      1.359      1.93       0.984      1.974      1.991      1.492      1.212      1.004      1.044      2.49       0.03453967 0.03453967 0.22888    0.01298471 1.332676   1.83       0          0          84.138     0.58891    0.5770121  0.600808  
981        0.30803    -9999      -9999      6.521      1.358      1.947      1.092      2          2.011      1.524      1.228      1.028      1.046      2.507      0.0331053  0.0331053  0.22792    0.01196936 1.300511   1.864      0          0          84.074     0.5903476  0.5827974  0.5978977 
981.1      0.30803    -9999      -9999      6.55       1.343      1.969      1.198      2.021      2.023      1.55       1.239      1.061      1.052      2.52       0.02865331 0.02865331 0.22504    0.009852819 1.250313   1.897      0          0          84.074     0.5951111  0.5922405  0.5979818 
981.2000000000001 0.30359    -9999      -9999      6.569      1.32       1.985      1.309      2.035      2.024      1.575      1.235      1.102      1.059      2.53       0.02424493 0.02424493 0.22168    0.00809646 1.218482   1.927      0          0          84.074     0.5982881  0.5985098  0.5980663 
981.3      0.29914    -9999      -9999      6.569      1.295      1.989      1.437      2.039      2.014      1.581      1.196      1.134      1.066      2.537      0.02037667 0.02037667 0.21832    0.0069418  1.218482   1.955      0          0          84.138     0.5998283  0.5985098  0.6011468 
981.4      0.29787    -9999      -9999      6.552      1.276      1.987      1.583      2.035      1.993      1.587      1.114      1.136      1.072      2.54       0.01792003 0.01792003 0.21544    0.006331958 1.246925   1.984      0          0          84.201     0.5985453  0.5928972  0.6041934 
981.5      0.2966     -9999      -9999      6.534      1.269      1.989      1.738      2.022      1.966      1.626      1.004      1.098      1.074      2.537      0.01791717 0.01791717 0.21448    0.006292916 1.277765   2.019      0          0          84.201     0.595645   0.5870117  0.6042783 
981.6      0.30391    -9999      -9999      6.531      1.275      2.002      1.884      2.003      1.936      1.664      0.899      1.021      1.072      2.525      0.01902399 0.01902399 0.21544    0.00657229 1.282978   2.069      0          0          84.201     0.5952     0.5860366  0.6043634 
981.7000000000001 0.31121    -9999      -9999      6.55       1.293      2.025      2.005      1.982      1.907      1.759      0.83       0.921      1.066      2.505      0.0208663  0.0208663  0.21832    0.007089762 1.250313   2.143      0          0          84.201     0.5983446  0.5922405  0.6044487 
981.8      0.31883    -9999      -9999      6.578      1.318      2.045      2.09       1.96       1.879      1.854      0.811      0.824      1.059      2.483      0.02268394 0.02268394 0.22168    0.007647461 1.203687   2.246      0          0          84.201     0.6030183  0.6015028  0.6045339 
981.9      0.32645    -9999      -9999      6.596      1.346      2.048      2.138      1.938      1.853      1.994      0.842      0.757      1.052      2.461      0.02503484 0.02503484 0.22504    0.008435986 1.174635   2.381      0          0          84.201     0.6060762  0.6075336  0.6046187 
982        0.32645    -9999      -9999      6.582      1.371      2.026      2.156      1.913      1.827      2.134      0.91       0.737      1.047      2.443      0.0281956  0.0281956  0.22744    0.009632871 1.197171   2.536      0          0          84.201     0.6037709  0.6028377  0.604704  
982.1      0.32645    -9999      -9999      6.534      1.388      1.985      2.156      1.887      1.803      2.413      1.002      0.765      1.046      2.429      0.03127284 0.03127284 0.22792    0.01096044 1.277765   2.669      0          0.0150944  84.201     0.5959005  0.5870117  0.6047893 
982.2000000000001 0.31978    -9999      -9999      6.465      1.39       1.943      2.145      1.859      1.782      2.692      1.095      0.824      1.048      2.419      0.03393287 0.03393287 0.22696    0.01225505 1.403215   2.709      0          0.03810852 84.201     0.5849307  0.5649869  0.6048746 
982.3      0.31311    -9999      -9999      6.394      1.374      1.923      2.132      1.831      1.766      2.057      1.169      0.891      1.052      2.414      0.035596   0.035596   0.22504    0.01312781 1.545172   2.589      0          0.02126002 84.201     0.5740727  0.5431859  0.6049594 
982.4      0.30867    -9999      -9999      6.331      1.339      1.941      2.12       1.804      1.757      1.422      1.21       0.938      1.057      2.417      0.03625739 0.03625739 0.22264    0.01347456 1.683116   2.289      0          0          84.201     0.5647957  0.5245468  0.6050447 
982.5      0.30422    -9999      -9999      6.278      1.291      1.994      2.113      1.781      1.755      0.953      1.227      0.955      1.061      2.429      0.03682874 0.03682874 0.22072    0.01378202 1.808657   1.864      0          0          84.201     0.5572463  0.5093626  0.60513   
982.6      0.302      -9999      -9999      6.227      1.24       2.061      2.114      1.76       1.756      0.483      1.241      0.949      1.064      2.45       0.03771705 0.03771705 0.21928    0.01428357 1.938292   1.416      0          0          84.201     0.5501907  0.4951665  0.605215  
982.7000000000001 0.29978    -9999      -9999      6.171      1.197      2.117      2.125      1.742      1.756      0.483      1.267      0.945      1.065      2.478      0.03971983 0.03971983 0.2188     0.015524   2.091366   1.046      0          0          84.201     0.5426671  0.4800339  0.6053003 
982.8      0.29946    -9999      -9999      6.105      1.168      2.137      2.144      1.728      1.754      0.483      1.301      0.968      1.063      2.508      0.04351076 0.04351076 0.21976    0.01819716 2.287363   0.8        0          0          84.201     0.5340887  0.4627917  0.6053856 
982.9      0.29914    -9999      -9999      6.028      1.155      2.117      2.168      1.717      1.75       0.483      1.332      1.02       1.059      2.536      0.04860689 0.04860689 0.22168    0.02253667 2.539364   0.672      0          0          84.201     0.524464   0.443457   0.605471  
983        0.29914    -9999      -9999      5.941      1.156      2.072      2.193      1.71       1.743      0.483      1.355      1.089      1.053      2.561      0.05491734 0.05491734 0.22456    0.0293166  2.85765    0.621      0          0          84.201     0.5140687  0.4225815  0.605556  
983.1      0.29914    -9999      -9999      5.847      1.163      2.028      2.22       1.708      1.735      0.483      1.372      1.153      1.045      2.584      0.06228285 0.06228285 0.2284     0.03979848 3.246531   0.606      0          0          84.201     0.5033854  0.4011294  0.6056413 
