~Version
 VERS              .         2.0                           : CWLS LOG ASCII STANDARD - VERSION 2.0
 WRAP              .         NO                            : ONE LINE PER DEPTH STEP
 DLM               .         SPACE                         : DELIMITING CHARACTER(SPACE TAB OR COMMA)
~Well Information
#_______________________________________________________________________________
#
#PARAMETER_NAME    .UNIT     VALUE                         : DESCRIPTION
#_______________________________________________________________________________
STRT               .M        886                           : First reference value
STOP               .M        1240                          : Last reference value
STEP               .M        0.1                           : Step increment
NULL               .         -9999                         : Missing value
COMP               .                                       : Company
WELL               .         1868                          : Well name
FLD                .         УЗЕНЬ                         : Field
LOC                .                                       : Location
CNTY               .                                       : County
STAT               .                                       : State
CTRY               .                                       : Country
SRVC               .         SCH                           : Service Company
DATE               .         04/09/2010                    : Date
UWI                .                                       : Unique Well ID
Block              .         7                             : 
Category           .         Нефтяная                      : 
Condition          .         В работе                      : 
Date               .         13.01.1984                    : 
EREF               .m        85.4                          : 100.8
Gorizont           .         14                            : 14
Interpretator      .         Ткачева И.Г.                  : 
Kupol              .         Основной                      : osnovnoi
Mud                .         0                             : 
Mud_density        .         0                             : 
Mud_resistivity    .         0                             : 
NGDU               .         НГДУ-2                        : 
ORIGINALWELLNAME   .         1868                          : 
Spud_date          .         1972                          : 1961
Uslovie            .         14                            : 
Viscosity          .         0                             : 
X                  .m        42512.4                       : 46154
Y                  .m        84495.93                      : 85761.93
YEAR               .         2019                          : 
~Parameter Information Block
#_______________________________________________________________________________
#
#PARAMETER_NAME    .UNIT     VALUE                         : DESCRIPTION
#_______________________________________________________________________________
SET                .         LQC_KAZNIPI_Petrel            : 
PBBOTTOM           .M        1240                          : Глубина подошвы планшета
PBSCALE            .         1 _ 500                       : Вертикальный масштаб планшета
PBTOP              .M        886                           : Глубина кровли планшета
TLFamily_CALI      .         Caliper                       : 
TLFamily_COLL      .         Net Reservoir Flag            : 
TLFamily_CSAT      .         Fluid Code                    : 
TLFamily_DEPT      .         Measured Depth                : 
TLFamily_GR        .         Russian Gamma Ray             : 
TLFamily_GZ1       .         Gradient 045                  : 
TLFamily_GZ2       .         Gradient 105                  : 
TLFamily_GZ3       .         Gradient 225                  : 
TLFamily_GZ4       .         Gradient 425                  : 
TLFamily_GZ5       .         Gradient 850                  : 
TLFamily_LLS       .         Lateral Log Resistivity       : 
TLFamily_MINV      .         Micro Gradient Resistivity    : 
TLFamily_MNOR      .         Micro Resistivity             : 
TLFamily_NGLD      .         Neutron Gamma                 : 
TLFamily_OGZ       .         Gradient Inverted 225         : 
TLFamily_PHIE      .         Effective Porosity            : 
TLFamily_PHIEN     .         Effective Porosity            : 
TLFamily_PHIT      .         Porosity                      : 
TLFamily_PRMB      .         Permeability                  : 
TLFamily_PRMB_DGR  .         Permeability                  : 
TLFamily_RT        .         Formation Resistivity         : 
TLFamily_SOIL_ARCHIE .         Oil Saturation                : 
TLFamily_SOIL_DW   .         Oil Saturation                : 
TLFamily_SP        .         Spontaneous Potential         : 
TLFamily_VSH_FIN   .         Shale Volume                  : 
TLFamily_VSH_GR    .         Shale Volume                  : 
TLFamily_VSH_SP    .         Shale Volume                  : 
~Curve Information
#_______________________________________________________________________________
#
#LOGNAME           .UNIT     LOG_ID                        : DESCRIPTION
#_______________________________________________________________________________
DEPT               .M                                      : Колонка глубины 
CALI               .м                                      : Каверномер 
COLL               .unitless                               : Описание 
CSAT               .unitless                               : Описание 
GR                 .uR/h                                   : Гамма каротаж 
GZ1                .Ohmm                                   : Градиент-зонд  длиной 0.45м 
GZ2                .Ohmm                                   : Градиент-зонд  длиной 1.05м 
GZ3                .Ohmm                                   : Градиент-зонд  длиной 2.25м 
GZ4                .Ohmm                                   : Градиент-зонд  длиной 4.5м 
GZ5                .Ohmm                                   : Градиент-зонд  длиной 8.5м 
LLS                .Ohmm                                   :  
MINV               .Ohmm                                   : Микро-градиент зонд 
MNOR               .Ohmm                                   : Микро-потенциал зонд 
NGLD               .у.е.                                   : Показания зонда НГК-60 аппаратуры ДРСТ-3-90 
OGZ                .Ohmm                                   : Обращенный градиент-зонд 
PHIE               .v/v                                    : Описание 
PHIEN              .v/v                                    :  
PHIT               .v/v                                    : Описание 
PRMB               .mD                                     :  
PRMB_DGR           .mD                                     :  
RT                 .ohmm                                   : УЭС пласта 
SOIL_ARCHIE        .v/v                                    :  
SOIL_DW            .v/v                                    :  
SP                 .мВ                                     : Потенциал самополяризации 
VSH_FIN            .v/v                                    : Описание 
VSH_GR             .v/v                                    : Shale volume 
VSH_SP             .v/v                                    : Shale Volume 
~Ascii
# ...
1002.1     0.31501    -9999      -9999      5.939      0.871      1.473      1.938      1.549      1.754      0.889      0.591      0.474      0.932      1.82       0.1222573  0.1222573  0.28264    0.682809   2.865418   1.113      0          0.1482684  81.153     0.4860083  0.4221134  0.5499033 
1002.2     0.30867    -9999      -9999      6          0.883      1.388      1.919      1.536      1.74       0.876      0.58       0.443      0.934      1.872      0.1205984  0.1205984  0.28168    0.5982077  2.637728   1.111      0          0.137848   80.899     0.488126   0.4366283  0.5396237 
1002.3     0.30232    -9999      -9999      6.057      0.897      1.319      1.893      1.518      1.722      0.876      0.556      0.422      0.934      1.941      0.1190696  0.1190696  0.28168    0.5432429  2.441349   1.117      0          0.13433    80.772     0.4927588  0.4506423  0.5348752 
1002.4     0.29788    -9999      -9999      6.102      0.909      1.271      1.859      1.496      1.705      0.876      0.531      0.413      0.933      2.027      0.1184493  0.1184493  0.28216    0.5098869  2.296695   1.137      0          0.1390316  80.645     0.4960931  0.462023   0.5301632 
1002.5     0.29343    -9999      -9999      6.132      0.915      1.24       1.819      1.472      1.692      0.921      0.513      0.417      0.932      2.126      0.1175438  0.1175438  0.28264    0.4891548  2.205054   1.171      0          0.1500121  80.645     0.5002916  0.4697692  0.530814  
1002.6     0.2893     -9999      -9999      6.144      0.915      1.224      1.776      1.448      1.69       0.965      0.507      0.432      0.933      2.232      0.116439   0.116439   0.28216    0.4642257  2.16943    1.215      0          0.1615001  80.645     0.5021849  0.472904   0.5314658 
1002.7     0.28517    -9999      -9999      6.135      0.911      1.212      1.733      1.425      1.704      1.016      0.512      0.449      0.937      2.336      0.1147996  0.1147996  0.28024    0.429639   2.196093   1.269      0          0.1713386  80.645     0.5013347  0.470551   0.5321183 
1002.8     0.28771    -9999      -9999      6.106      0.904      1.2        1.693      1.407      1.733      1.067      0.517      0.463      0.945      2.436      0.1120898  0.1120898  0.2764     0.3792153  2.284261   1.33       0          0.1758954  80.645     0.4979098  0.4630483  0.5327712 
1002.9     0.29025    -9999      -9999      6.065      0.9        1.183      1.659      1.394      1.776      1.093      0.515      0.467      0.956      2.533      0.1084185  0.1084185  0.27112    0.3212484  2.414983   1.405      0          0.1780428  80.645     0.493035   0.4526448  0.5334252 
1003       0.29025    -9999      -9999      6.025      0.899      1.165      1.634      1.387      1.827      1.118      0.507      0.464      0.967      2.63       0.104668   0.104668   0.26584    0.271765   2.549723   1.505      0          0.18523    80.645     0.4884001  0.4427203  0.5340798 
1003.1     0.29025    -9999      -9999      6          0.903      1.152      1.618      1.383      1.878      1.264      0.505      0.467      0.977      2.719      0.1003163  0.1003163  0.26104    0.2288063  2.637728   1.636      0          0.198327   80.709     0.4870414  0.4366283  0.5374545 
1003.2     0.28835    -9999      -9999      5.99       0.91       1.154      1.613      1.38       1.919      1.41       0.528      0.494      0.985      2.784      0.09632161 0.09632161 0.2572     0.1959546  2.673775   1.802      0          0.2188332  80.772     0.4875103  0.434215   0.5408055 
1003.3     0.28644    -9999      -9999      5.987      0.921      1.18       1.622      1.377      1.946      1.569      0.591      0.563      0.99       2.801      0.0939313  0.0939313  0.2548     0.1764895  2.684684   1.996      0          0.2465739  80.772     0.4874809  0.4334937  0.5414681 
1003.4     0.28009    -9999      -9999      5.974      0.941      1.236      1.645      1.376      1.953      1.727      0.685      0.678      0.991      2.762      0.09385543 0.09385543 0.25432    0.1756012  2.732476   2.197      0          0.280682   80.772     0.4862563  0.4303815  0.5421311 
1003.5     0.27374    -9999      -9999      5.94       0.977      1.323      1.674      1.382      1.941      1.981      0.772      0.821      0.989      2.676      0.0960315  0.0960315  0.25528    0.1922733  2.86153    2.374      0          0.315044   80.772     0.4825712  0.4223473  0.5427951 
1003.6     0.26803    -9999      -9999      5.883      1.035      1.435      1.699      1.403      1.914      2.235      0.806      0.954      0.983      2.569      0.100969   0.100969   0.25816    0.2368405  3.091709   2.484      0          0.3466436  80.772     0.4763365  0.4092133  0.5434598 
1003.7     0.26231    -9999      -9999      5.81       1.116      1.565      1.715      1.445      1.877      2.153      0.765      1.026      0.973      2.471      0.1083365  0.1083365  0.26296    0.3235939  3.413738   2.498      0.01562988 0.3718801  80.772     0.468556   0.3929873  0.5441248 
1003.8     0.26676    -9999      -9999      5.73       1.217      1.695      1.718      1.507      1.836      2.07       0.672      1.003      0.96       2.41       0.1172789  0.1172789  0.2692     0.4729765  3.805292   2.408      0.06339169 0.3873596  80.772     0.4603671  0.3759433  0.544791  
1003.9     0.2712     -9999      -9999      5.654      1.324      1.806      1.712      1.582      1.797      1.842      0.568      0.888      0.947      2.409      0.1259675  0.1259675  0.27544    0.6836718  4.218793   2.234      0.08671521 0.3891269  80.772     0.4529471  0.3604366  0.5454575 
1004       0.2712     -9999      -9999      5.591      1.418      1.875      1.702      1.659      1.762      1.613      0.49       0.721      0.938      2.476      0.132218   0.132218   0.27976    0.8906275  4.595418   2.014      0.07962607 0.3740754  80.772     0.4470968  0.3480685  0.5461251 
1004.1     0.2712     -9999      -9999      5.55       1.476      1.893      1.687      1.718      1.73       1.378      0.446      0.555      0.934      2.601      0.1353181  0.1353181  0.28168    1.014649   4.8584     1.791      0.04628786 0.3446746  80.772     0.4435208  0.3402483  0.5467933 
1004.2     0.29343    -9999      -9999      5.536      1.48       1.866      1.67       1.744      1.702      1.143      0.432      0.432      0.937      2.758      0.1342018  0.1342018  0.28024    0.9653941  4.951608   1.603      0          0.302858   80.772     0.4425402  0.3376184  0.5474619 
1004.3     0.31565    -9999      -9999      5.544      1.427      1.814      1.651      1.728      1.675      1.086      0.442      0.37       0.946      2.915      0.1295237  0.1295237  0.27592    0.7890787  4.898129   1.474      0          0.256071   80.772     0.4436252  0.3391187  0.5481316 
1004.4     0.30581    -9999      -9999      5.562      1.332      1.756      1.63       1.67       1.649      1.029      0.473      0.362      0.959      3.046      0.1226121  0.1226121  0.26968    0.5867064  4.779911   1.409      0          0.212269   80.772     0.4456604  0.3425187  0.5488021 
1004.5     0.29597    -9999      -9999      5.577      1.221      1.71       1.612      1.585      1.624      1.08       0.515      0.391      0.972      3.143      0.1157896  0.1157896  0.26344    0.4385462  4.683575   1.397      0          0.180166   80.772     0.4474255  0.3453782  0.5494729 
1004.6     0.28803    -9999      -9999      5.579      1.125      1.682      1.597      1.491      1.598      1.13       0.55       0.43       0.984      3.21       0.1098555  0.1098555  0.25768    0.3411712  4.670881   1.42       0          0.1596532  80.772     0.447953   0.3457612  0.5501447 
1004.7     0.28009    -9999      -9999      5.569      1.064      1.674      1.587      1.409      1.573      1.181      0.559      0.455      0.995      3.26       0.1047799  0.1047799  0.2524     0.2766301  4.734712   1.454      0          0.1446036  80.772     0.4473337  0.3438502  0.5508173 
