~Version
 VERS              .         2.0                           : CWLS LOG ASCII STANDARD - VERSION 2.0
 WRAP              .         NO                            : ONE LINE PER DEPTH STEP
 DLM               .         SPACE                         : DELIMITING CHARACTER(SPACE TAB OR COMMA)
~Well Information
#_______________________________________________________________________________
#
#PARAMETER_NAME    .UNIT     VALUE                         : DESCRIPTION
#_______________________________________________________________________________
STRT               .M        886                           : First reference value
STOP               .M        1240                          : Last reference value
STEP               .M        0.1                           : Step increment
NULL               .         -9999                         : Missing value
COMP               .                                       : Company
WELL               .         1868                          : Well name
FLD                .         УЗЕНЬ                         : Field
LOC                .                                       : Location
CNTY               .                                       : County
STAT               .                                       : State
CTRY               .                                       : Country
SRVC               .         SCH                           : Service Company
DATE               .         04/09/2010                    : Date
UWI                .                                       : Unique Well ID
Block              .         7                             : 
Category           .         Нефтяная                      : 
Condition          .         В работе                      : 
Date               .         13.01.1984                    : 
EREF               .m        85.4                          : 100.8
Gorizont           .         14                            : 14
Interpretator      .         Ткачева И.Г.                  : 
Kupol              .         Основной                      : osnovnoi
Mud                .         0                             : 
Mud_density        .         0                             : 
Mud_resistivity    .         0                             : 
NGDU               .         НГДУ-2                        : 
ORIGINALWELLNAME   .         1868                          : 
Spud_date          .         1972                          : 1961
Uslovie            .         14                            : 
Viscosity          .         0                             : 
X                  .m        42512.4                       : 46154
Y                  .m        84495.93                      : 85761.93
YEAR               .         2019                          : 
~Parameter Information Block
#_______________________________________________________________________________
#
#PARAMETER_NAME    .UNIT     VALUE                         : DESCRIPTION
#_______________________________________________________________________________
SET                .         LQC_KAZNIPI_Petrel            : 
PBBOTTOM           .M        1240                          : Глубина подошвы планшета
PBSCALE            .         1 _ 500                       : Вертикальный масштаб планшета
PBTOP              .M        886                           : Глубина кровли планшета
TLFamily_CALI      .         Caliper                       : 
TLFamily_COLL      .         Net Reservoir Flag            : 
TLFamily_CSAT      .         Fluid Code                    : 
TLFamily_DEPT      .         Measured Depth                : 
TLFamily_GR        .         Russian Gamma Ray             : 
TLFamily_GZ1       .         Gradient 045                  : 
TLFamily_GZ2       .         Gradient 105                  : 
TLFamily_GZ3       .         Gradient 225                  : 
TLFamily_GZ4       .         Gradient 425                  : 
TLFamily_GZ5       .         Gradient 850                  : 
TLFamily_LLS       .         Lateral Log Resistivity       : 
TLFamily_MINV      .         Micro Gradient Resistivity    : 
TLFamily_MNOR      .         Micro Resistivity             : 
TLFamily_NGLD      .         Neutron Gamma                 : 
TLFamily_OGZ       .         Gradient Inverted 225         : 
TLFamily_PHIE      .         Effective Porosity            : 
TLFamily_PHIEN     .         Effective Porosity            : 
TLFamily_PHIT      .         Porosity                      : 
TLFamily_PRMB      .         Permeability                  : 
TLFamily_PRMB_DGR  .         Permeability                  : 
TLFamily_RT        .         Formation Resistivity         : 
TLFamily_SOIL_ARCHIE .         Oil Saturation                : 
TLFamily_SOIL_DW   .         Oil Saturation                : 
TLFamily_SP        .         Spontaneous Potential         : 
TLFamily_VSH_FIN   .         Shale Volume                  : 
TLFamily_VSH_GR    .         Shale Volume                  : 
TLFamily_VSH_SP    .         Shale Volume                  : 
~Curve Information
#_______________________________________________________________________________
#
#LOGNAME           .UNIT     LOG_ID                        : DESCRIPTION
#_______________________________________________________________________________
DEPT               .M                                      : Колонка глубины 
CALI               .м                                      : Каверномер 
COLL               .unitless                               : Описание 
CSAT               .unitless                               : Описание 
GR                 .uR/h                                   : Гамма каротаж 
GZ1                .Ohmm                                   : Градиент-зонд  длиной 0.45м 
GZ2                .Ohmm                                   : Градиент-зонд  длиной 1.05м 
GZ3                .Ohmm                                   : Градиент-зонд  длиной 2.25м 
GZ4                .Ohmm                                   : Градиент-зонд  длиной 4.5м 
GZ5                .Ohmm                                   : Градиент-зонд  длиной 8.5м 
LLS                .Ohmm                                   :  
MINV               .Ohmm                                   : Микро-градиент зонд 
MNOR               .Ohmm                                   : Микро-потенциал зонд 
NGLD               .у.е.                                   : Показания зонда НГК-60 аппаратуры ДРСТ-3-90 
OGZ                .Ohmm                                   : Обращенный градиент-зонд 
PHIE               .v/v                                    : Описание 
PHIEN              .v/v                                    :  
PHIT               .v/v                                    : Описание 
PRMB               .mD                                     :  
PRMB_DGR           .mD                                     :  
RT                 .ohmm                                   : УЭС пласта 
SOIL_ARCHIE        .v/v                                    :  
SOIL_DW            .v/v                                    :  
SP                 .мВ                                     : Потенциал самополяризации 
VSH_FIN            .v/v                                    : Описание 
VSH_GR             .v/v                                    : Shale volume 
VSH_SP             .v/v                                    : Shale Volume 
~Ascii
# ...
1166.8     0.22865    1          2          6.255      4.119      14.952     12.221     10.073     5.818      5.271      0.943      1.328      1.204      8.203      0.1744587  0.1744587  0.23472    2.344819   26.09869   6.26       0.5343888  0.6339007  55.372     0.1826102  0.1712622  0.1939581 
1166.9     0.22865    -9999      -9999      6.325      4.27       15.317     10.888     10.45      5.869      4.382      0.924      1.232      1.212      7.838      0.1683731  0.1683731  0.23216    1.829367   23.23365   5.331      0.4812277  0.5945055  56.325     0.1932938  0.1795903  0.2069972 
1167       0.22865    -9999      -9999      6.431      4.439      15.474     9.953      10.576     5.853      3.492      0.865      1.104      1.216      7.497      0.1624877  0.1624877  0.23088    1.484104   19.48245   4.36       0.4133756  0.5440884  57.277     0.2072495  0.1929788  0.2215202 
1167.1     0.23183    -9999      -9999      6.547      4.605      15.248     9.356      10.448     5.757      2.508      0.774      0.973      1.218      7.2        0.1587395  0.1587395  0.23024    1.279282   16.06778   3.459      0.3322702  0.4822834  57.468     0.216668   0.2087768  0.2245592 
1167.2     0.23611    -9999      -9999      6.647      4.719      14.486     8.949      10.083     5.574      1.524      0.685      0.879      1.219      6.956      0.1554929  0.1554929  0.22992    1.201616   13.60852   2.763      0.2513571  0.4178366  57.658     0.2255367  0.2234299  0.2276435 
1167.3     0.23825    -9999      -9999      6.712      4.715      13.178     8.586      9.509      5.308      1.397      0.633      0.859      1.221      6.762      0.1576807  0.1576807  0.22928    1.207534   12.21565   2.38       0.1976231  0.3719059  55.88      0.2169675  0.2335016  0.2004334 
1167.4     0.23945    -9999      -9999      6.734      4.531      11.481     8.184      8.767      4.973      1.27       0.638      0.921      1.227      6.609      0.1588222  0.1588222  0.22736    1.224958   11.77727   2.364      0.1967312  0.3672308  54.102     0.2076903  0.2370124  0.1783682 
1167.5     0.23818    -9999      -9999      6.713      4.153      9.657      7.752      7.911      4.595      1.842      0.692      1.045      1.239      6.508      0.1555441  0.1555441  0.22352    1.196031   12.19538   2.691      0.2415156  0.3999348  54.102     0.2059878  0.23366    0.1783155 
1167.6     0.23691    -9999      -9999      6.651      3.624      7.949      7.365      7.013      4.201      2.413      0.779      1.202      1.258      6.517      0.1510605  0.1510605  0.21744    1.098774   13.51839   3.315      0.3037273  0.447279   54.102     0.2011499  0.224037   0.1782628 
1167.7     0.23533    -9999      -9999      6.552      3.034      6.499      7.117      6.153      3.815      3.144      0.883      1.376      1.284      6.762      0.1471781  0.1471781  0.20912    0.9444366  15.93486   4.197      0.3626021  0.49201    52.896     0.1877027  0.2094861  0.1659194 
1167.8     0.23374    6          6          6.421      2.478      5.355      7.069      5.415      3.455      3.874      1.003      1.569      1.315      7.399      0.1419208  0.1419208  0.1992     0.7719797  19.8088    5.374      0.4147176  0.5312847  51.689     0.1735733  0.1916742  0.1554723 
1167.9     0.23374    6          6          6.265      2.023      4.506      7.22       4.863      3.132      4.889999   1.147      1.789      1.347      8.539      0.1358715  0.1358715  0.18896    0.6229618  25.66873   6.915      0.4620981  0.5668774  50.864     0.1608743  0.1724278  0.1493208 
1168       0.23374    6          6          6.091      1.699      3.92       7.51       4.537      2.862      5.906      1.327      2.037      1.376      10.155     0.130652   0.130652   0.17968    0.5159548  34.27177   8.881      0.5066748  0.6005249  50.038     0.1485697  0.1532316  0.1439079 
1168.1     0.23342    6          6          5.911      1.509      3.558      7.857      4.441      2.661      8.668      1.547      2.308      1.4        12.052     0.1263722  0.1263722  0.172      0.445428   46.21656   11.229     0.5469604  0.631179   49.53      0.1382661  0.1356194  0.1409128 
1168.2     0.2331     6          6          5.747      1.454      3.394      8.194      4.549      2.542      11.43      1.799      2.592      1.421      13.929     0.1224616  0.1224616  0.16528    0.3858003  60.68972   13.79      0.5781625  0.6552376  49.022     0.1297529  0.1213413  0.1381644 
1168.3     0.2331     6          6          5.63       1.539      3.407      8.491      4.81       2.507      13.399     2.055      2.877      1.437      15.513     0.1191849  0.1191849  0.16016    0.3414175  73.70973   16.295     0.6013135  0.6735623  48.641     0.124167   0.1120835  0.1362506 
1168.4     0.2331     6          6          5.585      1.778      3.596      8.722      5.167      2.546      15.367     2.263      3.145      1.448      16.669     0.116516   0.116516   0.15664    0.3075417  79.43101   18.389     0.6160163  0.6858344  48.26      0.121588   0.1087139  0.1344622 
1168.5     0.2331     6          6          5.618      2.174      3.964      8.85       5.569      2.633      17.241     2.355      3.361      1.451      17.387     0.1151534  0.1151534  0.15568    0.2946747  75.19382   19.659     0.62489    0.6938991  48.26      0.1228078  0.1111748  0.1344408 
1168.6     0.2331     6          6          5.711      2.718      4.515      8.837      5.985      2.743      19.114     2.282      3.464      1.444      17.694     0.1162025  0.1162025  0.15792    0.3117401  64.42991   19.709     0.6292381  0.6983408  48.26      0.1264168  0.1184141  0.1344194 
1168.7     0.2331     6          6          5.826      3.374      5.241      8.674      6.399      2.851      16.701     2.052      3.383      1.424      17.577     0.1211585  0.1211585  0.16432    0.3867905  53.2256    18.36      0.6313493  0.7002533  48.07      0.1307923  0.1280211  0.1335636 
1168.8     0.2331     6          6          5.933      4.084      6.121      8.397      6.8        2.94       14.288     1.733      3.083      1.39       17.025     0.1305854  0.1305854  0.1752     0.5808184  44.55799   15.819     0.6310307  0.6990275  47.879     0.1351959  0.1376584  0.1327333 
1168.9     0.2331     6          6          6.011      4.762      7.115      8.07       7.172      3.001      9.589      1.419      2.62       1.346      16.084     0.1435208  0.1435208  0.18928    1.015382   39.14286   12.705     0.6250264  0.6920137  47.752     0.1386643  0.145138   0.1321907 
1169       0.2331     1          2          6.061      5.309      8.158      7.76       7.485      3.029      4.889999   1.18       2.123      1.297      14.895     0.158462   0.158462   0.20496    1.933937   36.02304   9.791      0.6128736  0.6792576  47.625     0.140903   0.1501449  0.1316612 
1169.1     0.2331     1          2          6.093      5.648      9.154      7.514      7.7        3.029      4.572      1.031      1.722      1.247      13.647     0.1740443  0.1740443  0.22096    3.778383   34.15811   7.652      0.6007928  0.6666005  47.434     0.1421687  0.1534396  0.1308978 
1169.2     0.23247    1          2          6.118      5.745      9.988      7.354      7.783      3.012      4.254001   0.951      1.478      1.202      12.505     0.1881322  0.1881322  0.23536    6.921276   32.76858   6.457      0.597004   0.6617646  47.244     0.1431146  0.1560639  0.1301653 
1169.3     0.23183    1          2          6.14       5.621      10.564     7.303      7.731      2.993      4.54       0.904      1.363      1.165      11.552     0.1996644  0.1996644  0.2472     11.37345   31.59263   6.018      0.6052365  0.668187   47.117     0.1440474  0.1584103  0.1296846 
1169.4     0.2312     1          2          6.155      5.334      10.843     7.401      7.583      2.992      4.826      0.869      1.315      1.14       10.767     0.2074744  0.2074744  0.2552     15.92361   30.8151    6.014      0.6185339  0.6795461  46.99      0.144623   0.1600303  0.1292156 
