~Version
 VERS              .         2.0                           : CWLS LOG ASCII STANDARD - VERSION 2.0
 WRAP              .         NO                            : ONE LINE PER DEPTH STEP
 DLM               .         SPACE                         : DELIMITING CHARACTER(SPACE TAB OR COMMA)
~Well Information
#_______________________________________________________________________________
#
#PARAMETER_NAME    .UNIT     VALUE                         : DESCRIPTION
#_______________________________________________________________________________
STRT               .M        886                           : First reference value
STOP               .M        1240                          : Last reference value
STEP               .M        0.1                           : Step increment
NULL               .         -9999                         : Missing value
COMP               .                                       : Company
WELL               .         1868                          : Well name
FLD                .         УЗЕНЬ                         : Field
LOC                .                                       : Location
CNTY               .                                       : County
STAT               .                                       : State
CTRY               .                                       : Country
SRVC               .         SCH                           : Service Company
DATE               .         04/09/2010                    : Date
UWI                .                                       : Unique Well ID
Block              .         7                             : 
Category           .         Нефтяная                      : 
Condition          .         В работе                      : 
Date               .         13.01.1984                    : 
EREF               .m        85.4                          : 100.8
Gorizont           .         14                            : 14
Interpretator      .         Ткачева И.Г.                  : 
Kupol              .         Основной                      : osnovnoi
Mud                .         0                             : 
Mud_density        .         0                             : 
Mud_resistivity    .         0                             : 
NGDU               .         НГДУ-2                        : 
ORIGINALWELLNAME   .         1868                          : 
Spud_date          .         1972                          : 1961
Uslovie            .         14                            : 
Viscosity          .         0                             : 
X                  .m        42512.4                       : 46154
Y                  .m        84495.93                      : 85761.93
YEAR               .         2019                          : 
~Parameter Information Block
#_______________________________________________________________________________
#
#PARAMETER_NAME    .UNIT     VALUE                         : DESCRIPTION
#_______________________________________________________________________________
SET                .         LQC_KAZNIPI_Petrel            : 
PBBOTTOM           .M        1240                          : Глубина подошвы планшета
PBSCALE            .         1 _ 500                       : Вертикальный масштаб планшета
PBTOP              .M        886                           : Глубина кровли планшета
TLFamily_CALI      .         Caliper                       : 
TLFamily_COLL      .         Net Reservoir Flag            : 
TLFamily_CSAT      .         Fluid Code                    : 
TLFamily_DEPT      .         Measured Depth                : 
TLFamily_GR        .         Russian Gamma Ray             : 
TLFamily_GZ1       .         Gradient 045                  : 
TLFamily_GZ2       .         Gradient 105                  : 
TLFamily_GZ3       .         Gradient 225                  : 
TLFamily_GZ4       .         Gradient 425                  : 
TLFamily_GZ5       .         Gradient 850                  : 
TLFamily_LLS       .         Lateral Log Resistivity       : 
TLFamily_MINV      .         Micro Gradient Resistivity    : 
TLFamily_MNOR      .         Micro Resistivity             : 
TLFamily_NGLD      .         Neutron Gamma                 : 
TLFamily_OGZ       .         Gradient Inverted 225         : 
TLFamily_PHIE      .         Effective Porosity            : 
TLFamily_PHIEN     .         Effective Porosity            : 
TLFamily_PHIT      .         Porosity                      : 
TLFamily_PRMB      .         Permeability                  : 
TLFamily_PRMB_DGR  .         Permeability                  : 
TLFamily_RT        .         Formation Resistivity         : 
TLFamily_SOIL_ARCHIE .         Oil Saturation                : 
TLFamily_SOIL_DW   .         Oil Saturation                : 
TLFamily_SP        .         Spontaneous Potential         : 
TLFamily_VSH_FIN   .         Shale Volume                  : 
TLFamily_VSH_GR    .         Shale Volume                  : 
TLFamily_VSH_SP    .         Shale Volume                  : 
~Curve Information
#_______________________________________________________________________________
#
#LOGNAME           .UNIT     LOG_ID                        : DESCRIPTION
#_______________________________________________________________________________
DEPT               .M                                      : Колонка глубины 
CALI               .м                                      : Каверномер 
COLL               .unitless                               : Описание 
CSAT               .unitless                               : Описание 
GR                 .uR/h                                   : Гамма каротаж 
GZ1                .Ohmm                                   : Градиент-зонд  длиной 0.45м 
GZ2                .Ohmm                                   : Градиент-зонд  длиной 1.05м 
GZ3                .Ohmm                                   : Градиент-зонд  длиной 2.25м 
GZ4                .Ohmm                                   : Градиент-зонд  длиной 4.5м 
GZ5                .Ohmm                                   : Градиент-зонд  длиной 8.5м 
LLS                .Ohmm                                   :  
MINV               .Ohmm                                   : Микро-градиент зонд 
MNOR               .Ohmm                                   : Микро-потенциал зонд 
NGLD               .у.е.                                   : Показания зонда НГК-60 аппаратуры ДРСТ-3-90 
OGZ                .Ohmm                                   : Обращенный градиент-зонд 
PHIE               .v/v                                    : Описание 
PHIEN              .v/v                                    :  
PHIT               .v/v                                    : Описание 
PRMB               .mD                                     :  
PRMB_DGR           .mD                                     :  
RT                 .ohmm                                   : УЭС пласта 
SOIL_ARCHIE        .v/v                                    :  
SOIL_DW            .v/v                                    :  
SP                 .мВ                                     : Потенциал самополяризации 
VSH_FIN            .v/v                                    : Описание 
VSH_GR             .v/v                                    : Shale volume 
VSH_SP             .v/v                                    : Shale Volume 
~Ascii
# ...
956.2000000000001 0.26676    -9999      -9999      4.749      1.716      2.718      3.003      2.293      2.169      1.74       1.475      1.177      1.054      2.714      0.06371118 0.06371118 0.22408    0.05970929 6.144404   2.183      0          0.1292201  85.852     0.4859661  0.3091374  0.6627948 
956.3      0.27628    -9999      -9999      4.735      1.643      2.687      2.995      2.311      2.175      1.619      1.502      1.251      1.054      2.735      0.06414221 0.06414221 0.22408    0.06097957 6.278035   2.167      0          0.1280496  85.852     0.4846599  0.3064334  0.6628864 
956.4      0.2858     -9999      -9999      4.693      1.588      2.674      2.986      2.354      2.185      1.499      1.503      1.315      1.048      2.767      0.06832225 0.06832225 0.22696    0.07302581 6.696619   2.11       0          0.1406702  85.852     0.4807205  0.2984625  0.6629785 
956.5      0.29374    -9999      -9999      4.639      1.565      2.65       2.971      2.408      2.197      1.442      1.454      1.342      1.04       2.812      0.07378788 0.07378788 0.2308     0.09228768 7.276065   2.027      0          0.1534819  85.852     0.4757943  0.2885181  0.6630706 
956.6      0.30168    -9999      -9999      4.596      1.573      2.593      2.948      2.454      2.212      1.384      1.371      1.321      1.03       2.869      0.07984013 0.07984013 0.2356     0.1193437  7.773124   1.95       0          0.1694552  85.852     0.4719996  0.280837   0.6631624 
956.7000000000001 0.30168    -9999      -9999      4.576      1.597      2.497      2.918      2.474      2.232      1.518      1.308      1.267      1.023      2.935      0.08322371 0.08322371 0.23896    0.1405544  8.015747   1.905      0          0.1799285  85.916     0.4719281  0.2773344  0.666522  
956.8      0.30168    -9999      -9999      4.582      1.611      2.38       2.884      2.463      2.255      1.651      1.306      1.22       1.018      3.007      0.08490298 0.08490298 0.24136    0.1535774  7.942182   1.916      0          0.1940171  85.979     0.4741122  0.2783805  0.6698439 
956.9      0.29121    -9999      -9999      4.603      1.597      2.274      2.85       2.423      2.28       1.823      1.359      1.216      1.016      3.077      0.08523831 0.08523831 0.24232    0.1548976  7.68995    1.994      0          0.2125478  85.979     0.4760051  0.2820733  0.6699368 
957        0.28073    -9999      -9999      4.621      1.552      2.21       2.819      2.373      2.303      1.994      1.424      1.267      1.014      3.138      0.08565436 0.08565436 0.24328    0.1570842  7.480147   2.129      0          0.2408023  85.979     0.4776534  0.2852775  0.6700293 
957.1      0.26867    -9999      -9999      4.623      1.487      2.202      2.792      2.333      2.321      2.191      1.462      1.353      1.011      3.188      0.08701991 0.08701991 0.24472    0.1662773  7.457188   2.305      0          0.2767779  85.979     0.477879   0.2856358  0.6701222 
957.2000000000001 0.26258    -9999      -9999      4.608      1.427      2.244      2.768      2.322      2.336      2.388      1.47       1.439      1.005      3.226      0.09032615 0.09032615 0.2476     0.1916489  7.631093   2.496      0          0.3186556  85.979     0.4765874  0.2829597  0.6702151 
957.3      0.2566     -9999      -9999      4.585      1.393      2.318      2.748      2.344      2.352      2.413      1.471      1.501      0.998      3.248      0.09433982 0.09433982 0.25096    0.2278885  7.905645   2.671      0          0.3564661  85.979     0.4746066  0.2789051  0.6703081 
957.4      0.25374    -9999      -9999      4.566      1.405      2.407      2.733      2.393      2.373      2.438      1.477      1.541      0.993      3.25       0.09727    0.09727    0.25336    0.2590048  8.139886   2.797      0.02663339 0.3814498  85.979     0.473      0.2755994  0.6704006 
957.5      0.25088    -9999      -9999      4.557      1.465      2.5        2.729      2.456      2.398      2.203      1.484      1.574      0.99       3.226      0.09895075 0.09895075 0.2548     0.2790005  8.25325    2.845      0.04798064 0.3925387  85.979     0.4722704  0.2740473  0.6704935 
957.6      0.2566     -9999      -9999      4.559      1.567      2.597      2.74       2.519      2.422      1.968      1.48       1.608      0.991      3.177      0.09839863 0.09839863 0.25432    0.2732398  8.227927   2.803      0.03751104 0.386248   85.979     0.472489   0.2743914  0.6705865 
957.7000000000001 0.26231    -9999      -9999      4.571      1.693      2.695      2.767      2.572      2.439      1.822      1.463      1.631      0.992      3.113      0.09756114 0.09756114 0.25384    0.2643597  8.07758    2.683      0.01133099 0.3702466  85.979     0.4735723  0.2764655  0.6706791 
957.8      0.26231    -9999      -9999      4.595      1.82       2.784      2.802      2.606      2.447      1.676      1.441      1.624      0.992      3.046      0.09685359 0.09685359 0.25384    0.2572771  7.785083   2.518      0          0.3485068  85.979     0.4757164  0.2806607  0.6707721 
957.9      0.26231    -9999      -9999      4.637      1.927      2.853      2.836      2.618      2.447      1.638      1.42       1.574      0.989      2.988      0.09704147 0.09704147 0.25528    0.2600429  7.298459   2.351      0          0.3287561  85.979     0.4795107  0.2881562  0.6708651 
958        0.26708    -9999      -9999      4.7        1.997      2.891      2.863      2.61       2.441      1.6        1.406      1.487      0.984      2.945      0.0975088  0.0975088  0.25768    0.2659897  6.624967   2.217      0          0.3141043  85.979     0.4853672  0.2997764  0.6709581 
958.1      0.27184    -9999      -9999      4.78       2.021      2.901      2.876      2.583      2.433      1.658      1.408      1.383      0.98       2.918      0.09686697 0.09686697 0.2596     0.2595014  5.858543   2.132      0          0.3024606  85.979     0.4931304  0.3152101  0.6710507 
958.2000000000001 0.2674     -9999      -9999      4.866      2.001      2.896      2.875      2.542      2.42       1.715      1.429      1.287      0.977      2.905      0.09540769 0.09540769 0.26104    0.2444972  5.133234   2.1        0          0.2962434  85.979     0.5019161  0.3326885  0.6711437 
958.3      0.26295    -9999      -9999      4.945      1.949      2.885      2.862      2.491      2.404      1.759      1.465      1.221      0.975      2.902      0.0935624  0.0935624  0.262      0.2266748  4.546369   2.109      0          0.2950345  85.979     0.5104169  0.3495971  0.6712368 
958.4      0.25978    -9999      -9999      5.008      1.875      2.874      2.838      2.434      2.385      1.803      1.499      1.2        0.972      2.904      0.09266093 0.09266093 0.26344    0.2187101  4.126833   2.143      0          0.3010353  85.979     0.5175123  0.3636949  0.6713298 
958.5      0.2566     -9999      -9999      5.053      1.787      2.86       2.812      2.375      2.364      1.829      1.515      1.224      0.968      2.909      0.09284689 0.09284689 0.26536    0.2208191  3.851083   2.189      0          0.3121699  85.979     0.522767   0.3741115  0.6714225 
958.6      0.25247    -9999      -9999      5.076      1.697      2.842      2.791      2.32       2.346      1.854      1.507      1.275      0.963      2.915      0.09433413 0.09433413 0.26776    0.2355144  3.717337   2.232      0          0.3263026  85.979     0.525533   0.3795503  0.6715155 
958.7000000000001 0.24834    -9999      -9999      5.068      1.615      2.822      2.781      2.275      2.332      1.854      1.49       1.331      0.958      2.921      0.09703239 0.09703239 0.27016    0.2645908  3.763325   2.268      0          0.3416633  85.979     0.5246291  0.3776496  0.6716086 
958.8      0.24834    -9999      -9999      5.021      1.555      2.802      2.788      2.245      2.325      1.854      1.483      1.373      0.956      2.927      0.09978802 0.09978802 0.27112    0.2978851  4.045204   2.291      0          0.3525308  85.979     0.5191879  0.366674   0.6717017 
