~Version
 VERS              .         2.0                           : CWLS LOG ASCII STANDARD - VERSION 2.0
 WRAP              .         NO                            : ONE LINE PER DEPTH STEP
 DLM               .         SPACE                         : DELIMITING CHARACTER(SPACE TAB OR COMMA)
~Well Information
#_______________________________________________________________________________
#
#PARAMETER_NAME    .UNIT     VALUE                         : DESCRIPTION
#_______________________________________________________________________________
STRT               .M        880.1                         : First reference value
STOP               .M        1190.9                        : Last reference value
STEP               .M        0.2                           : Step increment
NULL               .         -9999                         : Missing value
COMP               .                                       : Company
WELL               .         2574                          : Well name
FLD                .         Узень                         : Field
LOC                .                                       : Location
CNTY               .                                       : County
STAT               .                                       : State
CTRY               .                                       : Country
SRVC               .                                       : Service Company
DATE               .         22.04.1980                    : Date
UWI                .                                       : Unique Well ID
Block              .         7                             : 
Category           .         Нефтяная                      : 
Condition          .         Ликвидированная               : 
Date               .         27.10.1982                    : 
EREF               .m        90.3                          : 100.8
Gorizont           .         15                            : 14
Interpretator      .         Алпанова Н.К.                 : 
Kupol              .         основной                      : osnovnoi
METD               .         gz3 gz6 ds ps ik              : 
Moii_15_vosst      .         15_vosst                      : 
Mud                .                                       : 
Mud_density        .                                       : 
Mud_resistivity    .                                       : 
Mud_density        .                                       : 
Mud_resistivity    .                                       : 
NGDU               .         НГДУ-2                        : 
ORIGINALWELLNAME   .         2574                          : 
Spud_date          .         1980                          : 1961
Spud_date          .         1980                          : 1961
Viscosity          .                                       : 
X                  .m        42543.7                       : 46154
Y                  .m        84875.13                      : 85761.93
YEAR               .         2018                          : 
~Parameter Information Block
#_______________________________________________________________________________
#
#PARAMETER_NAME    .UNIT     VALUE                         : DESCRIPTION
#_______________________________________________________________________________
SET                .         LQC_KAZNIPI_Petrel            : 
TLFamily_CALI      .         Caliper                       : 
TLFamily_CILD      .         Conductivity                  : 
TLFamily_COLL      .         Net Reservoir Flag            : 
TLFamily_CSAT      .         Fluid Code                    : 
TLFamily_DEPT      .         Measured Depth                : 
TLFamily_GR        .         Russian Gamma Ray             : 
TLFamily_GZ1_1     .         Gradient 045                  : 
TLFamily_GZ2_1     .         Gradient 105                  : 
TLFamily_GZ3       .         Gradient 225                  : 
TLFamily_GZ4_1     .         Gradient 425                  : 
TLFamily_GZ5_1     .         Gradient 850                  : 
TLFamily_LLS       .         Lateral Log Resistivity       : 
TLFamily_MINV      .         Micro Gradient Resistivity    : 
TLFamily_MNOR      .         Micro Resistivity             : 
TLFamily_NGLD      .         Neutron Far                   : 
TLFamily_OGZ       .         Gradient Inverted 225         : 
TLFamily_PHIE      .         Effective Porosity            : 
TLFamily_PHIEN     .         Effective Porosity            : 
TLFamily_PHIT      .         Porosity                      : 
TLFamily_PRMB      .         Permeability                  : 
TLFamily_PRMB_DGR  .         Permeability                  : 
TLFamily_RT        .         Formation Resistivity         : 
TLFamily_SOIL_ARCHIE .         Oil Saturation                : 
TLFamily_SOIL_DW   .         Oil Saturation                : 
TLFamily_SP        .         Spontaneous Potential         : 
TLFamily_VSH_FIN   .         Shale Volume                  : 
TLFamily_VSH_GR    .         Shale Volume                  : 
TLFamily_VSH_SP    .         Shale Volume                  : 
~Curve Information
#_______________________________________________________________________________
#
#LOGNAME           .UNIT     LOG_ID                        : DESCRIPTION
#_______________________________________________________________________________
DEPT               .M                                      : Колонка глубины 
CALI               .м                                      : Каверномер 
CILD               .мСм/м                                  : Индукционный каротаж 
COLL               .unitless                               :  
CSAT               .unitless                               :  
GR                 .мкР/ч                                  : Гамма каротаж 
GZ1_1              .Ом·м                                   :  
GZ2_1              .Ом·м                                   :  
GZ3                .Ом·м                                   :  
GZ4_1              .Ом·м                                   :  
GZ5_1              .Ом·м                                   :  
LLS                .Ом·м                                   : Боковой каротаж 
MINV               .Ом·м                                   : Микро-градиент зонд 
MNOR               .Ом·м                                   : Микро-потенциал зонд 
NGLD               .у.е.                                   : Показания зонда НГК-60 аппаратуры ДРСТ-3-90 
OGZ                .Ом·м                                   :  
PHIE               .м3/м3                                  : Описание 
PHIEN              .v/v                                    :  
PHIT               .м3/м3                                  : Описание 
PRMB               .mD                                     :  
PRMB_DGR           .mD                                     :  
RT                 .ohmm                                   : Description 
SOIL_ARCHIE        .v/v                                    :  
SOIL_DW            .v/v                                    :  
SP                 .мВ                                     : Потенциал самополяризации 
VSH_FIN            .unitless                               : Описание 
VSH_GR             .unitless                               : Shale volume 
VSH_SP             .unitless                               : Shale Volume 
~Ascii
# ...
1041.1     0.25       460        -9999      -9999      10.43928   2.084      2.143      2.403      2.333      2.473      1.884      1.483      1.198      1.037988   1.656      0.21564    0.21564    0.3720836  27.62705   1.502973   1.884      0.3679973  0.5467554  73.445     0.4740714  0.5493625  0.3987802 
1041.3     0.249      465        -9999      -9999      10.4475    2.017      2.042      2.218      2.266      2.406      1.932      1.562      1.265      1.039999   1.656      0.214083   0.214083   0.3715164  25.85201   1.492709   1.932      0.3714602  0.5507194  73.641     0.4770709  0.5509019000000001 0.4032398 
1041.5     0.248      466        -9999      -9999      10.42811   2.017      2.025      2.067      2.417      2.439      1.988      1.814      1.158      1.044047   1.69       0.2126843  0.2126843  0.3703743  24.35497   1.517033   1.988      0.3762811  0.5551142  73.866     0.4778485  0.5472777  0.4084192 
1041.7     0.248      464        -9999      -9999      10.38827   2.017      1.992      2          2.551      2.439      2.04       1.808      1.184      1.049493   1.69       0.2116122  0.2116122  0.3688381  23.26638   1.568297   2.04       0.3810747  0.558835   74.062     0.4764423  0.5399011  0.4129835 
1041.9     0.247      462        -9999      -9999      10.33768   2.118      2.025      1.966      2.635      2.473      2.07       1.738      1.136      1.055484   1.69       0.2107915  0.2107915  0.367148   22.46609   1.635873   2.07       0.3832163  0.5601506  74.23      0.4738077  0.5306805  0.416935  
1042.1     0.243      459        -9999      -9999      10.28677   2.202      2.025      1.966      2.635      2.473      2.081      1.41       1.046      1.061073   1.656      0.2100619  0.2100619  0.3655713  21.7778    1.706828   2.081      0.3828877  0.5595686  74.398     0.4712407  0.5215588  0.4209226 
1042.3     0.242      454        -9999      -9999      10.24503   2.218      1.992      2          2.551      2.49       2.048      1.191      0.87       1.065369   1.656      0.2089545  0.2089545  0.3643593  20.77317   1.76729    2.048      0.3753725  0.5542107  74.678     0.4709237  0.5141976  0.4276497 
1042.5     0.241      445        -9999      -9999      10.21962   2.218      2.008      2          2.4        2.49       2.063      1.134      1.01       1.067652   1.656      0.2078011  0.2078011  0.3637154  19.776     1.805139   2.063      0.3744995  0.554384   74.986     0.4724675  0.5097677000000001 0.4351674 
1042.7     0.241      435        -9999      -9999      10.21458   2.134      1.992      2          2.35       2.49       2.2        1.854      1.57       1.067467   1.673      0.2069674  0.2069674  0.3637675  19.08522   1.812753   2.2        0.3909616  0.5678324  75.238     0.4751516  0.5088922  0.4414109 
1042.9     0.243      431        -9999      -9999      10.23021   2.286      2.076      1.983      2.451      2.49       2.312      2.916      1.825      1.064684   1.69       0.2070737  0.2070737  0.3645528  19.17188   1.789269   2.312      0.4052549  0.5790649  75.294     0.4772094  0.5116092  0.4428097 
1043.1     0.247      437        -9999      -9999      10.26358   2.504      2.362      1.983      2.501      2.49       2.278      2.747      1.592      1.059538   1.673      0.2080213  0.2080213  0.3660042  19.96264   1.740162   2.278      0.4034827  0.5777158  75.182     0.478736   0.5174558  0.4400162 
1043.3     0.252      453        -9999      -9999      10.30978   2.521      2.379      1.966      2.468      2.473      2.088      2.175      1.2        1.052663   1.639      0.2095205  0.2095205  0.3679436  21.28074   1.674391   2.088      0.3824731  0.5615746  74.958     0.48007    0.5256612000000001 0.4344789 
1043.5     0.258      469        -9999      -9999      10.36333   2.454      2.211      1.966      2.384      2.439      1.936      1.214      0.906      1.045034   1.589      0.2109791  0.2109791  0.3700958  22.64661   1.60125    1.936      0.3640318  0.5475345  74.734     0.4821717  0.5353361  0.4290074 
1043.7     0.268      483        -9999      -9999      10.41954   2.319      2.076      1.933      2.3        2.372      1.866      1.438      0.881      1.037809   1.539      0.212313   0.212313   0.3721341  23.97234   1.527918   1.866      0.3564879  0.5417971  74.482     0.4843062  0.5456824  0.4229301 
1043.9     0.27       494        -9999      -9999      10.47504   2.118      1.958      1.882      2.216      2.322      1.821      1.458      0.738      1.032047   1.589      0.2131005  0.2131005  0.3737595  24.79111   1.458809   1.821      0.3511692  0.5380674  74.258     0.4868455  0.556094   0.4175971 
1044.1     0.262      502        -9999      -9999      10.52818   2.034      2.008      1.798      2.082      2.322      1.78       1.631      0.836      1.028451   1.589      0.2130925  0.2130925  0.374774   24.78266   1.395572   1.78       0.3441771  0.5335357  74.09      0.4899439  0.5662483  0.4136395 
1044.3     0.264      509        -9999      -9999      10.57808   2.034      2.008      1.731      1.998      2.255      1.754      1.517      0.901      1.027157   1.556      0.2120724  0.2120724  0.3751389  23.72758   1.338684   1.754      0.3368673  0.5294763  74.034     0.4941409  0.5759532000000001 0.4123285 
1044.5     0.266      514        -9999      -9999      10.62379   2.034      1.924      1.63       1.998      2.222      1.736      1.424      0.898      1.027725   1.539      0.2103133  0.2103133  0.3749787  22.01253   1.288614   1.736      0.3287978  0.5253636  74.062     0.498986   0.5849885  0.4129835 
1044.7     0.276      519        -9999      -9999      10.6632    2.017      1.773      1.613      1.964      2.172      1.706      1.29       0.828      1.029302   1.539      0.2079124  0.2079124  0.374534   19.87014   1.246949   1.706      0.3164839  0.5186926  74.23      0.5049138  0.5928926  0.416935  
1044.9     0.279      521        -9999      -9999      10.69337   1.866      1.705      1.63       1.864      2.138      1.695      1.265      0.901      1.030944   1.539      0.2054498  0.2054498  0.3740708  17.88902   1.215964   1.695      0.307254   0.5145028  74.482     0.5109729  0.5990157  0.4229301 
1045.1     0.283      523        -9999      -9999      10.7115    1.866      1.672      1.681      1.763      2.088      1.717      1.396      1.094      1.031901   1.539      0.2035645  0.2035645  0.3738006  16.50693   1.197711   1.717      0.3058827  0.5156635  74.734     0.5158671  0.6027268  0.4290074 
1045.3     0.277      523        -9999      -9999      10.71676   1.882      1.688      1.664      1.713      2.071      1.792      1.45       1.169      1.031839   1.539      0.2029537  0.2029537  0.3738183  16.08249   1.192465   1.792      0.317887   0.5253626  74.846     0.5177714  0.6038079  0.4317349 
1045.5     0.273      523        -9999      -9999      10.71135   1.899      1.722      1.647      1.696      2.038      1.814      1.433      1.102      1.030844   1.522      0.2035306  0.2035306  0.3740988  16.48308   1.197863   1.814      0.3234561  0.5289887  74.818     0.5168735  0.6026955000000001 0.4310515 
1045.7     0.265      522        -9999      -9999      10.70096   1.899      1.739      1.63       1.662      2.038      1.784      1.2        0.889      1.029297   1.505      0.2043183  0.2043183  0.3745353  17.04624   1.208288   1.784      0.3204311  0.5260993  74.818     0.5158091  0.6005666  0.4310515 
1045.9     0.259      522        -9999      -9999      10.69365   1.899      1.739      1.613      1.612      2.071      1.71       1.091      0.803      1.027672   1.505      0.2046842  0.2046842  0.3749937  17.31432   1.215672   1.71       0.3078653  0.5166529  74.902     0.5160896  0.5990744  0.4331048 
1046.1     0.259      522        -9999      -9999      10.69775   1.899      1.739      1.563      1.629      2.088      1.684      1.114      0.797      1.026348   1.505      0.2045791  0.2045791  0.3753672  17.23693   1.211521   1.684      0.3025593  0.5131327  74.986     0.5175395  0.5999116  0.4351674 
