~Version
 VERS              .         2.0                           : CWLS LOG ASCII STANDARD - VERSION 2.0
 WRAP              .         NO                            : ONE LINE PER DEPTH STEP
 DLM               .         SPACE                         : DELIMITING CHARACTER(SPACE TAB OR COMMA)
~Well Information
#_______________________________________________________________________________
#
#PARAMETER_NAME    .UNIT     VALUE                         : DESCRIPTION
#_______________________________________________________________________________
STRT               .M        880.1                         : First reference value
STOP               .M        1190.9                        : Last reference value
STEP               .M        0.2                           : Step increment
NULL               .         -9999                         : Missing value
COMP               .                                       : Company
WELL               .         2574                          : Well name
FLD                .         Узень                         : Field
LOC                .                                       : Location
CNTY               .                                       : County
STAT               .                                       : State
CTRY               .                                       : Country
SRVC               .                                       : Service Company
DATE               .         22.04.1980                    : Date
UWI                .                                       : Unique Well ID
Block              .         7                             : 
Category           .         Нефтяная                      : 
Condition          .         Ликвидированная               : 
Date               .         27.10.1982                    : 
EREF               .m        90.3                          : 100.8
Gorizont           .         15                            : 14
Interpretator      .         Алпанова Н.К.                 : 
Kupol              .         основной                      : osnovnoi
METD               .         gz3 gz6 ds ps ik              : 
Moii_15_vosst      .         15_vosst                      : 
Mud                .                                       : 
Mud_density        .                                       : 
Mud_resistivity    .                                       : 
Mud_density        .                                       : 
Mud_resistivity    .                                       : 
NGDU               .         НГДУ-2                        : 
ORIGINALWELLNAME   .         2574                          : 
Spud_date          .         1980                          : 1961
Spud_date          .         1980                          : 1961
Viscosity          .                                       : 
X                  .m        42543.7                       : 46154
Y                  .m        84875.13                      : 85761.93
YEAR               .         2018                          : 
~Parameter Information Block
#_______________________________________________________________________________
#
#PARAMETER_NAME    .UNIT     VALUE                         : DESCRIPTION
#_______________________________________________________________________________
SET                .         LQC_KAZNIPI_Petrel            : 
TLFamily_CALI      .         Caliper                       : 
TLFamily_CILD      .         Conductivity                  : 
TLFamily_COLL      .         Net Reservoir Flag            : 
TLFamily_CSAT      .         Fluid Code                    : 
TLFamily_DEPT      .         Measured Depth                : 
TLFamily_GR        .         Russian Gamma Ray             : 
TLFamily_GZ1_1     .         Gradient 045                  : 
TLFamily_GZ2_1     .         Gradient 105                  : 
TLFamily_GZ3       .         Gradient 225                  : 
TLFamily_GZ4_1     .         Gradient 425                  : 
TLFamily_GZ5_1     .         Gradient 850                  : 
TLFamily_LLS       .         Lateral Log Resistivity       : 
TLFamily_MINV      .         Micro Gradient Resistivity    : 
TLFamily_MNOR      .         Micro Resistivity             : 
TLFamily_NGLD      .         Neutron Far                   : 
TLFamily_OGZ       .         Gradient Inverted 225         : 
TLFamily_PHIE      .         Effective Porosity            : 
TLFamily_PHIEN     .         Effective Porosity            : 
TLFamily_PHIT      .         Porosity                      : 
TLFamily_PRMB      .         Permeability                  : 
TLFamily_PRMB_DGR  .         Permeability                  : 
TLFamily_RT        .         Formation Resistivity         : 
TLFamily_SOIL_ARCHIE .         Oil Saturation                : 
TLFamily_SOIL_DW   .         Oil Saturation                : 
TLFamily_SP        .         Spontaneous Potential         : 
TLFamily_VSH_FIN   .         Shale Volume                  : 
TLFamily_VSH_GR    .         Shale Volume                  : 
TLFamily_VSH_SP    .         Shale Volume                  : 
~Curve Information
#_______________________________________________________________________________
#
#LOGNAME           .UNIT     LOG_ID                        : DESCRIPTION
#_______________________________________________________________________________
DEPT               .M                                      : Колонка глубины 
CALI               .м                                      : Каверномер 
CILD               .мСм/м                                  : Индукционный каротаж 
COLL               .unitless                               :  
CSAT               .unitless                               :  
GR                 .мкР/ч                                  : Гамма каротаж 
GZ1_1              .Ом·м                                   :  
GZ2_1              .Ом·м                                   :  
GZ3                .Ом·м                                   :  
GZ4_1              .Ом·м                                   :  
GZ5_1              .Ом·м                                   :  
LLS                .Ом·м                                   : Боковой каротаж 
MINV               .Ом·м                                   : Микро-градиент зонд 
MNOR               .Ом·м                                   : Микро-потенциал зонд 
NGLD               .у.е.                                   : Показания зонда НГК-60 аппаратуры ДРСТ-3-90 
OGZ                .Ом·м                                   :  
PHIE               .м3/м3                                  : Описание 
PHIEN              .v/v                                    :  
PHIT               .м3/м3                                  : Описание 
PRMB               .mD                                     :  
PRMB_DGR           .mD                                     :  
RT                 .ohmm                                   : Description 
SOIL_ARCHIE        .v/v                                    :  
SOIL_DW            .v/v                                    :  
SP                 .мВ                                     : Потенциал самополяризации 
VSH_FIN            .unitless                               : Описание 
VSH_GR             .unitless                               : Shale volume 
VSH_SP             .unitless                               : Shale Volume 
~Ascii
# ...
957.9      0.217      283        -9999      -9999      8.364354   3.227      3.996      3.361      3.155      3.644      3.258      3.228      1.998      1.251562   3.266      0.1510785  0.1510785  0.3118345  1.759941   2.455647   3.258      0.3336833  0.5590281  78.319     0.4871395  0.4495689  0.52471   
958.1      0.217      282        -9999      -9999      8.365892   3.563      4.299      3.193      3.155      3.628      3.355      3.052      2.189      1.24084    3.468      0.1532447  0.1532447  0.3148589  1.930285   2.451941   3.355      0.3508925  0.5703762  78.487     0.4897402  0.4498464  0.5296339 
958.3      0.218      282        -9999      -9999      8.35987    3.597      4.013      3.261      3.323      3.644      3.184      2.567      2.185      1.229639   3.484      0.1556274  0.1556274  0.3180189  2.136753   2.466488   3.184      0.3436398  0.5642798  78.683     0.4920956  0.4487611  0.53543   
958.5      0.218      284        -9999      -9999      8.34795    3.328      3.76       3.597      3.323      3.661      3.083      2.399      2.079      1.218132   3.384      0.1583946  0.1583946  0.321265   2.404419   2.495534   3.083      0.3437866  0.5629256  78.852     0.4935465  0.4466209  0.5404722 
958.7000000000001 0.218      286        -9999      -9999      8.33279    3.109      3.608      3.613      3.189      3.678      3.276      2.545      1.886      1.20684    3.3        0.1620267  0.1620267  0.3244504  2.807285   2.53297    3.276      0.3746909  0.5822163  78.852     0.492193   0.4439137  0.5404722 
958.9      0.218      289        -9999      -9999      8.317311   3.429      3.928      3.445      3.138      3.695      3.485      2.587      2.178      1.196581   3.283      0.1659312  0.1659312  0.3273445  3.315931   2.571774   3.485      0.405045   0.6008195  78.739     0.4891313  0.4411664  0.5370961 
959.1      0.218      290        -9999      -9999      8.303588   3.664      4.181      3.361      3.189      3.695      3.477      2.761      2.231      1.188352   3.283      0.1694747  0.1694747  0.329666   3.856924   2.606673   3.477      0.4152641  0.6053241  78.571     0.485428   0.4387449  0.5321112 
959.3      0.218      288        -9999      -9999      8.292375   3.849      4.114      3.261      3.239      3.711      3.228      2.618      2.326      1.18308    3.283      0.1721026  0.1721026  0.3311532  4.314362   2.635541   3.228      0.4025753  0.5939398  78.403     0.4819715  0.4367762  0.5271669 
959.5      0.218      283        -9999      -9999      8.282767   3.378      3.895      3.429      3.172      3.711      3.001      2.702      1.988      1.181392   3.35       0.1736649  0.1736649  0.3316292  4.611615   2.660528   3.001      0.3866257  0.5807053  78.235     0.4786798  0.4350965  0.5222632 
959.7000000000001 0.218      277        -9999      -9999      8.272242   3.21       3.76       3.462      3.088      3.711      3.02       2.679      1.864      1.183395   3.518      0.173938   0.173938   0.3310642  4.665648   2.688177   3.02       0.3892761  0.5818458  78.123     0.4761401  0.4332636  0.5190165 
959.9      0.218      271        -9999      -9999      8.257326   3.025      3.676      3.311      3.038      3.711      3.421      2.828      1.94       1.188695   3.736      0.1731361  0.1731361  0.3295692  4.50877    2.727849   3.421      0.4216588  0.60532    78.067     0.4740397  0.4306795  0.5173999 
960.1      0.218      267        -9999      -9999      8.233968   3.261      3.895      3.126      3.088      3.711      3.989      3.251      2.657      1.196441   3.92       0.1716135  0.1716135  0.327384   4.225292   2.791154   3.989      0.4577243  0.6317466  78.067     0.4720318  0.4266637  0.5173999 
960.3      0.218      267        -9999      -9999      8.198621   3.815      4.197999   3.042      3.205      3.711      4.104      3.517      2.92       1.205651   4.038      0.1702725  0.1702725  0.324786   3.990405   2.889759   4.104      0.4612401  0.634056   78.011     0.4682228  0.4206578  0.5157878 
960.5      0.219      269        -9999      -9999      8.148703   4.101      4.382999   3.092      3.39       3.812      3.896      3.402      3.077      1.215367   3.954      0.1691725  0.1691725  0.322045   3.807533   3.034973   3.896      0.4448037  0.6215112  77.955     0.46325    0.4123199  0.5141801 
960.7000000000001 0.219      271        -9999      -9999      8.083563   4.286      4.552      3.345      3.541      3.912      3.469      3.018      2.612      1.224902   3.719      0.1687653  0.1687653  0.3193551  3.741978   3.235496   3.469      0.4124892  0.5964538  77.843     0.4563328  0.4016875  0.5109781 
960.9      0.219      271        -9999      -9999      8.005137   4.286      4.467      3.513      3.608      3.996      3.261      2.929      2.506      1.233754   3.736      0.1688457  0.1688457  0.3168579  3.754828   3.494573   3.261      0.3954432  0.581861   77.731     0.4485218  0.3892496  0.5077938 
961.1      0.219      268        -9999      -9999      7.91793    3.647      4.164      3.58       3.591      3.962      3.065      2.859      2.335      1.241481   3.954      0.1696562  0.1696562  0.3146783  3.8869     3.807093   3.065      0.3801903  0.5676891  77.563     0.4394607  0.3758707  0.5030507 
961.3      0.219      263        -9999      -9999      7.828558   3.176      3.844      3.378      3.457      3.845      3.087      2.8        2.318      1.247501   3.736      0.1706598  0.1706598  0.3129801  4.056866   4.156385   3.087      0.3854319  0.5688078  77.451     0.4312737  0.3626367  0.4999106 
961.5      0.218      259        -9999      -9999      7.744471   3.395      3.912      3.076      3.205      3.745      3.414      2.699      2.5        1.251061   3.618      0.1718976  0.1718976  0.3119757  4.276806   4.514237   3.414      0.4174719  0.5903392  77.395     0.4244791  0.3506109  0.4983472 
961.7000000000001 0.218      258        -9999      -9999      7.672974   3.765      4.282      2.958      2.987      3.678      3.967      2.836      2.66       1.251462   3.753      0.1735484  0.1735484  0.3118624  4.588753   4.84264    3.967      0.4615982  0.6213057  77.367     0.4191336  0.3407001  0.4975671 
961.9      0.218      260        -9999      -9999      7.619412   4.168      4.771      3.025      2.987      3.611      4.03       2.716      2.677      1.248399   3.753      0.1754785  0.1754785  0.3127266  4.982484   5.10422    4.03       0.4706879  0.6265377  77.395     0.4159033  0.3334594  0.4983472 
962.1      0.218      264        -9999      -9999      7.586771   4.252      4.754      3.294      3.071      3.594      3.729      2.769      2.492      1.242268   3.434      0.1776658  0.1776658  0.3144562  5.469649   5.270516   3.729      0.4569418  0.6149385  77.451     0.4145164  0.3291224  0.4999106 
962.3      0.218      269        -9999      -9999      7.574948   4.252      4.922      3.546      3.122      3.611      3.243      2.791      2.239      1.234247   3.048      0.1796672  0.1796672  0.3167189  5.957033   5.332075   3.243      0.4257937  0.5906948  77.563     0.4153081  0.3275656  0.5030507 
962.5      0.218      274        -9999      -9999      7.581582   4.218      4.956      3.782      3.122      3.561      2.909      2.768      2.34       1.22605    2.998      0.1814452  0.1814452  0.3190313  6.426326   5.297448   2.909      0.4009075  0.5714043  77.647     0.4169278  0.3284381  0.5054173 
962.7000000000001 0.218      278        -9999      -9999      7.602968   3.563      4.333      3.748      3.071      3.427      2.861      2.263      1.92       1.219443   2.998      0.1825808  0.1825808  0.320895   6.745249   5.187331   2.861      0.3994839  0.5704043  77.703     0.419134   0.3312674  0.5070006 
962.9      0.218      279        -9999      -9999      7.634765   3.025      3.962      3.429      2.937      3.293      2.779      2.271      1.853      1.215674   2.948      0.1828118  0.1828118  0.3219584  6.812014   5.027831   2.779      0.3919028  0.5652008  77.731     0.4216564  0.335519   0.5077938 
