~Version
 VERS              .         2.0                           : CWLS LOG ASCII STANDARD - VERSION 2.0
 WRAP              .         NO                            : ONE LINE PER DEPTH STEP
 DLM               .         SPACE                         : DELIMITING CHARACTER(SPACE TAB OR COMMA)
~Well Information
#_______________________________________________________________________________
#
#PARAMETER_NAME    .UNIT     VALUE                         : DESCRIPTION
#_______________________________________________________________________________
STRT               .M        880.1                         : First reference value
STOP               .M        1190.9                        : Last reference value
STEP               .M        0.2                           : Step increment
NULL               .         -9999                         : Missing value
COMP               .                                       : Company
WELL               .         2574                          : Well name
FLD                .         Узень                         : Field
LOC                .                                       : Location
CNTY               .                                       : County
STAT               .                                       : State
CTRY               .                                       : Country
SRVC               .                                       : Service Company
DATE               .         22.04.1980                    : Date
UWI                .                                       : Unique Well ID
Block              .         7                             : 
Category           .         Нефтяная                      : 
Condition          .         Ликвидированная               : 
Date               .         27.10.1982                    : 
EREF               .m        90.3                          : 100.8
Gorizont           .         15                            : 14
Interpretator      .         Алпанова Н.К.                 : 
Kupol              .         основной                      : osnovnoi
METD               .         gz3 gz6 ds ps ik              : 
Moii_15_vosst      .         15_vosst                      : 
Mud                .                                       : 
Mud_density        .                                       : 
Mud_resistivity    .                                       : 
Mud_density        .                                       : 
Mud_resistivity    .                                       : 
NGDU               .         НГДУ-2                        : 
ORIGINALWELLNAME   .         2574                          : 
Spud_date          .         1980                          : 1961
Spud_date          .         1980                          : 1961
Viscosity          .                                       : 
X                  .m        42543.7                       : 46154
Y                  .m        84875.13                      : 85761.93
YEAR               .         2018                          : 
~Parameter Information Block
#_______________________________________________________________________________
#
#PARAMETER_NAME    .UNIT     VALUE                         : DESCRIPTION
#_______________________________________________________________________________
SET                .         LQC_KAZNIPI_Petrel            : 
TLFamily_CALI      .         Caliper                       : 
TLFamily_CILD      .         Conductivity                  : 
TLFamily_COLL      .         Net Reservoir Flag            : 
TLFamily_CSAT      .         Fluid Code                    : 
TLFamily_DEPT      .         Measured Depth                : 
TLFamily_GR        .         Russian Gamma Ray             : 
TLFamily_GZ1_1     .         Gradient 045                  : 
TLFamily_GZ2_1     .         Gradient 105                  : 
TLFamily_GZ3       .         Gradient 225                  : 
TLFamily_GZ4_1     .         Gradient 425                  : 
TLFamily_GZ5_1     .         Gradient 850                  : 
TLFamily_LLS       .         Lateral Log Resistivity       : 
TLFamily_MINV      .         Micro Gradient Resistivity    : 
TLFamily_MNOR      .         Micro Resistivity             : 
TLFamily_NGLD      .         Neutron Far                   : 
TLFamily_OGZ       .         Gradient Inverted 225         : 
TLFamily_PHIE      .         Effective Porosity            : 
TLFamily_PHIEN     .         Effective Porosity            : 
TLFamily_PHIT      .         Porosity                      : 
TLFamily_PRMB      .         Permeability                  : 
TLFamily_PRMB_DGR  .         Permeability                  : 
TLFamily_RT        .         Formation Resistivity         : 
TLFamily_SOIL_ARCHIE .         Oil Saturation                : 
TLFamily_SOIL_DW   .         Oil Saturation                : 
TLFamily_SP        .         Spontaneous Potential         : 
TLFamily_VSH_FIN   .         Shale Volume                  : 
TLFamily_VSH_GR    .         Shale Volume                  : 
TLFamily_VSH_SP    .         Shale Volume                  : 
~Curve Information
#_______________________________________________________________________________
#
#LOGNAME           .UNIT     LOG_ID                        : DESCRIPTION
#_______________________________________________________________________________
DEPT               .M                                      : Колонка глубины 
CALI               .м                                      : Каверномер 
CILD               .мСм/м                                  : Индукционный каротаж 
COLL               .unitless                               :  
CSAT               .unitless                               :  
GR                 .мкР/ч                                  : Гамма каротаж 
GZ1_1              .Ом·м                                   :  
GZ2_1              .Ом·м                                   :  
GZ3                .Ом·м                                   :  
GZ4_1              .Ом·м                                   :  
GZ5_1              .Ом·м                                   :  
LLS                .Ом·м                                   : Боковой каротаж 
MINV               .Ом·м                                   : Микро-градиент зонд 
MNOR               .Ом·м                                   : Микро-потенциал зонд 
NGLD               .у.е.                                   : Показания зонда НГК-60 аппаратуры ДРСТ-3-90 
OGZ                .Ом·м                                   :  
PHIE               .м3/м3                                  : Описание 
PHIEN              .v/v                                    :  
PHIT               .м3/м3                                  : Описание 
PRMB               .mD                                     :  
PRMB_DGR           .mD                                     :  
RT                 .ohmm                                   : Description 
SOIL_ARCHIE        .v/v                                    :  
SOIL_DW            .v/v                                    :  
SP                 .мВ                                     : Потенциал самополяризации 
VSH_FIN            .unitless                               : Описание 
VSH_GR             .unitless                               : Shale volume 
VSH_SP             .unitless                               : Shale Volume 
~Ascii
# ...
978.7000000000001 0.218      383        -9999      -9999      8.683912   2.538      3.069      2.756      2.686      2.858      2.222      0.699      0.674      1.15998    2.176      0.1613638  0.1613638  0.3376697  2.729024   1.794135   2.222      0.247055   0.5043007  79.412     0.5342602  0.5110421000000001 0.5574782 
978.9      0.218      394        -9999      -9999      8.601155   2.471      2.985      2.639      2.602      2.724      2.319      0.808      0.772      1.149958   2.243      0.1669438  0.1669438  0.3404969  3.462286   1.946059   2.319      0.2835328  0.5234939  79.412     0.5259184  0.4943587  0.5574782 
979.1      0.218      405        -9999      -9999      8.522678   2.555      2.834      2.622      2.551      2.657      2.289      1.021      0.696      1.141909   2.26       0.1715995  0.1715995  0.3427675  4.222768   2.101992   2.289      0.2962055  0.5273552  79.44      0.518691   0.4790415  0.5583406 
979.3      0.218      408        -9999      -9999      8.451931   2.521      2.615      2.622      2.535      2.573      2.118      1.141      0.618      1.136345   2.26       0.1755225  0.1755225  0.344337   4.991841   2.253249   2.118      0.2843191  0.514272   79.412     0.5115592  0.4656401  0.5574782 
979.5      0.218      405        -9999      -9999      8.389194   2.403      2.413      2.588      2.484      2.573      1.888      1.169      0.584      1.133811   2.26       0.1787136  0.1787136  0.3450518  5.719629   2.396463   1.888      0.256413   0.4897577  79.3       0.5040551  0.45407    0.5540403 
979.7000000000001 0.218      393        -9999      -9999      8.332014   2.235      2.278      2.521      2.367      2.506      1.977      1.266      0.886      1.134717   2.377      0.1810018  0.1810018  0.3447962  6.305957   2.534902   1.977      0.2803322  0.5036054  79.132     0.4963467  0.4437755  0.5489179 
979.9      0.218      380        -9999      -9999      8.276075   2.118      2.143      2.403      2.3        2.473      2.304      1.88       1.239      1.13915    2.612      0.181516   0.181516   0.3435457  6.445779   2.678074   2.304      0.3318647  0.5396647  79.104     0.4909991  0.4339303  0.548068  
980.1      0.218      368        -9999      -9999      8.216922   2.235      2.16       2.319      2.283      2.456      2.653      2.351      1.578      1.146791   2.847      0.1803363  0.1803363  0.3413904  6.129494   2.838279   2.653      0.3710935  0.5682638  79.244     0.4880425  0.4237568  0.5523282000000001
980.3      0.219      359        -9999      -9999      8.150978   2.454      2.379      2.185      2.317      2.439      2.772      2.721      1.606      1.156955   2.981      0.1778738  0.1778738  0.3385229  5.518391   3.028197   2.772      0.3764885  0.5731735  79.524     0.4868155  0.4126964  0.5609347 
980.5      0.219      353        -9999      -9999      8.07627    2.773      2.429      2.269      2.367      2.473      2.745      2.64       1.581      1.168803   3.048      0.1755361  0.1755361  0.3351806  4.994729   3.258754   2.745      0.3663587  0.5662454  79.72      0.4837712  0.4005143  0.5670282 
980.7000000000001 0.219      350        -9999      -9999      7.992639   2.891      2.514      2.303      2.417      2.556      2.738      2.702      1.55       1.181517   3.099      0.1735507  0.1735507  0.3315941  4.589202   3.537738   2.738      0.3592827  0.5608886  79.832     0.4789195  0.3873033  0.5705357 
980.9      0.219      347        -9999      -9999      7.901807   2.891      2.716      2.303      2.451      2.59       2.753      2.587      1.746      1.194496   3.132      0.1720301  0.1720301  0.3279326  4.30103    3.867862   2.753      0.3560063  0.557593   79.86      0.4724318  0.373448   0.5714155 
981.1      0.219      345        -9999      -9999      7.806894   2.975      2.935      2.252      2.434      2.59       2.671      2.699      1.665      1.207419   3.132      0.1708313  0.1708313  0.3242871  4.086664   4.245775   2.671      0.3428128  0.5465428  79.832     0.4650176  0.3594996  0.5705357 
981.3      0.219      342        -9999      -9999      7.711938   3.076      3.086      2.218      2.384      2.573      2.527      2.542      1.359      1.220204   3.149      0.1697309  0.1697309  0.3206804  3.899291   4.66081    2.527      0.3216901  0.5294239  79.776     0.4574229  0.3460661  0.5687796000000001
981.5      0.219      337        -9999      -9999      7.621264   3.025      3.069      2.218      2.384      2.54       2.419      2.256      1.06       1.232912   3.199      0.1686184  0.1686184  0.3170955  3.718603   5.094947   2.419      0.3036668  0.5144795  79.692     0.4499306  0.3337071  0.5661542000000001
981.7000000000001 0.219      330        -9999      -9999      7.538715   2.773      2.851      2.235      2.367      2.49       2.478      2.262      1.18       1.245605   3.233      0.1669748  0.1669748  0.3135148  3.466867   5.525249   2.478      0.3055979  0.5151107  79.664     0.4440606  0.3228398  0.5652813 
981.9      0.219      322        -9999      -9999      7.467124   2.672      2.834      2.134      2.333      2.456      2.656      2.374      1.43       1.258266   3.384      0.1646225  0.1646225  0.309943   3.135935   5.927753   2.656      0.3194811  0.5257389  79.72      0.4403651  0.313702   0.5670282 
982.1      0.219      315        -9999      -9999      7.407647   2.689      2.918      2.067      2.3        2.439      2.857      2.878      1.814      1.270746   3.535      0.1618884  0.1618884  0.3064226  2.790767   6.284348   2.857      0.3327203  0.5365126  79.804     0.4379824  0.3063076  0.5696571 
982.3      0.219      308        -9999      -9999      7.359807   2.773      2.935      2.034      2.283      2.423      2.905      2.87       1.993      1.282772   3.635      0.1590209  0.1590209  0.3030301  2.469514   6.586693   2.905      0.3275311  0.5339924  79.888     0.4363915  0.3004865  0.5722965 
982.5      0.219      302        -9999      -9999      7.321576   2.992      2.968      2.084      2.283      2.423      2.98       3.013      2.142      1.293983   3.702      0.1564672  0.1564672  0.2998675  2.214672   6.838723   2.98       0.3260912  0.5340114  79.916     0.4345465  0.2959143  0.5731787 
982.7000000000001 0.219      296        -9999      -9999      7.290042   3.16       3.053      2.168      2.3        2.439      3.076      3.161      2.113      1.303992   3.736      0.154257   0.154257   0.2970438  2.015452   7.053844   3.076      0.3277663  0.5361239  79.916     0.4326871  0.2921955  0.5731787 
982.9      0.219      287        -9999      -9999      7.26196    3.126      3.221      2.303      2.283      2.456      3.158      3.133      2.088      1.312428   3.786      0.1524172  0.1524172  0.294664   1.863353   7.251117   3.158      0.3290394  0.5377807  79.916     0.4310509  0.288923   0.5731787 
983.1      0.219      276        -9999      -9999      7.234495   3.261      3.406      2.437      2.249      2.456      3.265      3.257      2.133      1.318952   3.836      0.1508075  0.1508075  0.2928237  1.739715   7.449386   3.265      0.3333123  0.5417894  79.972     0.4303522  0.2857579  0.5749465 
983.3      0.219      265        -9999      -9999      7.205583   3.345      3.423      2.555      2.283      2.49       3.481      3.231      2.27       1.323275   3.937      0.1501315  0.1501315  0.2916042  1.690279   7.663959   3.481      0.3505192  0.5543224  79.972     0.428705   0.2824635  0.5749465 
983.5      0.219      257        -9999      -9999      7.175134   3.261      3.524      2.655      2.317      2.54       3.911      3.595      2.704      1.325249   4.038      0.1501403  0.1501403  0.2910473  1.690913   7.896621   3.911      0.3850964  0.5790524  79.972     0.4269908  0.2790352  0.5749465 
983.7000000000001 0.219      251        -9999      -9999      7.145411   3.496      3.839      2.706      2.367      2.59       4.079      3.718      3.06       1.324941   4.004      0.1510644  0.1510644  0.2911341  1.758884   8.130551000000001 4.079      0.4003268  0.5888659  79.916     0.4244536  0.2757286  0.5731787 
