~Version
 VERS              .         2.0                           : CWLS LOG ASCII STANDARD - VERSION 2.0
 WRAP              .         NO                            : ONE LINE PER DEPTH STEP
 DLM               .         SPACE                         : DELIMITING CHARACTER(SPACE TAB OR COMMA)
~Well Information
#_______________________________________________________________________________
#
#PARAMETER_NAME    .UNIT     VALUE                         : DESCRIPTION
#_______________________________________________________________________________
STRT               .M        880.1                         : First reference value
STOP               .M        1190.9                        : Last reference value
STEP               .M        0.2                           : Step increment
NULL               .         -9999                         : Missing value
COMP               .                                       : Company
WELL               .         2574                          : Well name
FLD                .         Узень                         : Field
LOC                .                                       : Location
CNTY               .                                       : County
STAT               .                                       : State
CTRY               .                                       : Country
SRVC               .                                       : Service Company
DATE               .         22.04.1980                    : Date
UWI                .                                       : Unique Well ID
Block              .         7                             : 
Category           .         Нефтяная                      : 
Condition          .         Ликвидированная               : 
Date               .         27.10.1982                    : 
EREF               .m        90.3                          : 100.8
Gorizont           .         15                            : 14
Interpretator      .         Алпанова Н.К.                 : 
Kupol              .         основной                      : osnovnoi
METD               .         gz3 gz6 ds ps ik              : 
Moii_15_vosst      .         15_vosst                      : 
Mud                .                                       : 
Mud_density        .                                       : 
Mud_resistivity    .                                       : 
Mud_density        .                                       : 
Mud_resistivity    .                                       : 
NGDU               .         НГДУ-2                        : 
ORIGINALWELLNAME   .         2574                          : 
Spud_date          .         1980                          : 1961
Spud_date          .         1980                          : 1961
Viscosity          .                                       : 
X                  .m        42543.7                       : 46154
Y                  .m        84875.13                      : 85761.93
YEAR               .         2018                          : 
~Parameter Information Block
#_______________________________________________________________________________
#
#PARAMETER_NAME    .UNIT     VALUE                         : DESCRIPTION
#_______________________________________________________________________________
SET                .         LQC_KAZNIPI_Petrel            : 
TLFamily_CALI      .         Caliper                       : 
TLFamily_CILD      .         Conductivity                  : 
TLFamily_COLL      .         Net Reservoir Flag            : 
TLFamily_CSAT      .         Fluid Code                    : 
TLFamily_DEPT      .         Measured Depth                : 
TLFamily_GR        .         Russian Gamma Ray             : 
TLFamily_GZ1_1     .         Gradient 045                  : 
TLFamily_GZ2_1     .         Gradient 105                  : 
TLFamily_GZ3       .         Gradient 225                  : 
TLFamily_GZ4_1     .         Gradient 425                  : 
TLFamily_GZ5_1     .         Gradient 850                  : 
TLFamily_LLS       .         Lateral Log Resistivity       : 
TLFamily_MINV      .         Micro Gradient Resistivity    : 
TLFamily_MNOR      .         Micro Resistivity             : 
TLFamily_NGLD      .         Neutron Far                   : 
TLFamily_OGZ       .         Gradient Inverted 225         : 
TLFamily_PHIE      .         Effective Porosity            : 
TLFamily_PHIEN     .         Effective Porosity            : 
TLFamily_PHIT      .         Porosity                      : 
TLFamily_PRMB      .         Permeability                  : 
TLFamily_PRMB_DGR  .         Permeability                  : 
TLFamily_RT        .         Formation Resistivity         : 
TLFamily_SOIL_ARCHIE .         Oil Saturation                : 
TLFamily_SOIL_DW   .         Oil Saturation                : 
TLFamily_SP        .         Spontaneous Potential         : 
TLFamily_VSH_FIN   .         Shale Volume                  : 
TLFamily_VSH_GR    .         Shale Volume                  : 
TLFamily_VSH_SP    .         Shale Volume                  : 
~Curve Information
#_______________________________________________________________________________
#
#LOGNAME           .UNIT     LOG_ID                        : DESCRIPTION
#_______________________________________________________________________________
DEPT               .M                                      : Колонка глубины 
CALI               .м                                      : Каверномер 
CILD               .мСм/м                                  : Индукционный каротаж 
COLL               .unitless                               :  
CSAT               .unitless                               :  
GR                 .мкР/ч                                  : Гамма каротаж 
GZ1_1              .Ом·м                                   :  
GZ2_1              .Ом·м                                   :  
GZ3                .Ом·м                                   :  
GZ4_1              .Ом·м                                   :  
GZ5_1              .Ом·м                                   :  
LLS                .Ом·м                                   : Боковой каротаж 
MINV               .Ом·м                                   : Микро-градиент зонд 
MNOR               .Ом·м                                   : Микро-потенциал зонд 
NGLD               .у.е.                                   : Показания зонда НГК-60 аппаратуры ДРСТ-3-90 
OGZ                .Ом·м                                   :  
PHIE               .м3/м3                                  : Описание 
PHIEN              .v/v                                    :  
PHIT               .м3/м3                                  : Описание 
PRMB               .mD                                     :  
PRMB_DGR           .mD                                     :  
RT                 .ohmm                                   : Description 
SOIL_ARCHIE        .v/v                                    :  
SOIL_DW            .v/v                                    :  
SP                 .мВ                                     : Потенциал самополяризации 
VSH_FIN            .unitless                               : Описание 
VSH_GR             .unitless                               : Shale volume 
VSH_SP             .unitless                               : Shale Volume 
~Ascii
# ...
1020.3     0.226      450        -9999      -9999      8.850579   2.252      3.255      3.63       2.518      2.49       1.776      1.013      0.831      1.051988   1.556      0.2057244  0.2057244  0.3681341  18.09975   1.523215   1.776      0.323052   0.5213282  75.098     0.4921508  0.5463697  0.437932  
1020.5     0.227      464        -9999      -9999      9.017805   2.084      2.884      3.059      2.4        2.372      1.814      1.074      0.903      1.044167   1.74       0.2013331  0.2013331  0.3703404  15.00845   1.292496   1.814      0.3170293  0.5240673  75.182     0.5121433  0.5842704  0.4400162 
1020.7     0.227      475        -9999      -9999      9.152881   2.101      2.514      2.79       2.3        2.272      1.843      1.002      0.833      1.043258   1.874      0.1957619  0.1957619  0.3705968  11.83434   1.131908   1.843      0.3053212  0.5228267  75.294     0.5298026  0.6167955000000001 0.4428097 
1020.9     0.226      484        -9999      -9999      9.253873   2.101      2.211      2.588      2.249      2.222      1.847      1.03       0.786      1.047636   1.941      0.1896237  0.1896237  0.3693619  9.108551   1.025019   1.847      0.2865027  0.5164295  75.462     0.5446611  0.6422912  0.4470311 
1021.1     0.226      491        -9999      -9999      9.321001   2.067      2.059      2.42       2.199      2.172      1.84       0.979      0.747      1.055619   1.975      0.1834234  0.1834234  0.36711    6.992048   0.959616   1.84       0.264232   0.507414   75.714     0.5566259  0.6598182  0.4534336 
1021.3     0.226      494        -9999      -9999      9.355822   2.05       1.992      2.336      2.099      2.071      1.851      1.08       0.755      1.06572    2.008      0.1777326  0.1777326  0.3642605  5.485258   0.9273516000000001 1.851      0.2458678  0.5005172  76.022     0.565236   0.6690974  0.4613746 
1021.5     0.226      493        -9999      -9999      9.360423   2          1.857      2.269      2.015      1.987      1.962      0.962      0.702      1.076738   2.025      0.1739388  0.1739388  0.3611523  4.665802   0.9231699  1.962      0.2522783  0.508242   76.134     0.5673136  0.6703333  0.464294  
1021.7     0.226      486        -9999      -9999      9.337831   1.95       1.789      2.185      1.948      1.921      2.208      1.035      0.629      1.087751   2.075      0.1727903  0.1727903  0.3580455  4.442766   0.9438842  2.208      0.2885038  0.5327814  75.91      0.5613796  0.6642869  0.4584723 
1021.9     0.226      473        -9999      -9999      9.291892   1.95       1.756      2.084      1.914      1.887      2.579      0.948      0.668      1.098138   2.226      0.1738652  0.1738652  0.3551152  4.651182   0.9874482  2.579      0.3420787  0.5665172  75.434     0.5492424  0.6521599  0.4463249 
1022.1     0.226      454        -9999      -9999      9.227579   2.034      1.773      1.916      1.948      1.921      2.843      1.438      0.819      1.107624   2.394      0.1751997  0.1751997  0.3524393  4.923584   1.051835   2.843      0.3756617  0.5864167  75.126     0.5370895999999999 0.6355535  0.4386257 
1022.3     0.225      436        -9999      -9999      9.150238   2.168      1.874      1.815      1.998      1.971      2.623      2.38       1.534      1.116379   2.579      0.1760471  0.1760471  0.3499694  5.104785   1.13485    2.623      0.3543324  0.5683545  75.098     0.5270371  0.6161422  0.437932  
1022.5     0.225      425        -9999      -9999      9.064959   2.571      1.992      1.782      2.031      2.071      2.26       2.338      1.598      1.125058   2.83       0.1758649  0.1758649  0.3475211  5.065266   1.234      2.26       0.3069616  0.5327817  75.378     0.5201703  0.595425   0.4449157 
1022.7     0.229      425        -9999      -9999      8.975244   2.84       2.328      1.731      2.048      2.155      1.977      1.82       1.481      1.134752   3.065      0.1749604  0.1749604  0.3447866  4.873593   1.347672   1.977      0.2587364  0.4970298  75.77      0.5146248  0.5743816000000001 0.4548679 
1022.9     0.232      430        -9999      -9999      8.882309   2.689      2.194      1.798      2.048      2.121      2.092      0.814      0.738      1.146751   2.964      0.1736083  0.1736083  0.3414017  4.6005     1.476476   2.092      0.2732511  0.5066032  76.106     0.5084648000000001 0.5533670000000001 0.4635625 
1023.1     0.233      429        -9999      -9999      8.785253   2.487      2.126      1.815      2.065      2.038      2.148      0.789      0.598      1.162259   3.015      0.171988   0.171988   0.3370266  4.293323   1.624154   2.148      0.2763184  0.5074263  76.275     0.500117   0.5322407  0.4679933 
1023.3     0.23       419        -9999      -9999      8.681497   2.353      2.194      1.815      2.065      1.971      2.181      0.887      0.575      1.182096   3.182      0.1698499  0.1698499  0.3314308  3.919133   1.798397   2.181      0.2736061  0.5037259  76.303     0.4896392  0.5105472  0.4687311 
1023.5     0.227      403        -9999      -9999      8.56797    2.336      2.362      1.782      2.065      1.971      2.289      0.985      0.609      1.206502   3.484      0.1668361  0.1668361  0.3245457  3.446409   2.010534   2.289      0.2787361  0.5058888  76.275     0.477908   0.4878227  0.4679933 
1023.7     0.227      383        -9999      -9999      8.441408   2.336      2.312      1.748      2.048      1.971      2.593      0.999      0.637      1.235115   3.954      0.1631166  0.1631166  0.316474   2.940847   2.276658   2.593      0.3062408  0.5244011  76.19      0.4647195  0.4636791  0.46576   
1023.9     0.227      363        -9999      -9999      8.299627   2.252      2.194      1.697      1.948      1.987      3.035      1.197      0.948      1.267111   4.423      0.1588026  0.1588026  0.3074479  2.446627   2.616833   3.035      0.3404163  0.5478623  76.078     0.4504403  0.4380485  0.4628322 
1024.1     0.224      344        -9999      -9999      8.141672   2.151      2.16       1.681      1.864      2.021      3.496      1.475      1.48       1.301533   4.86       0.1540094  0.1540094  0.2977377  1.994279   3.056003   3.496      0.3660662  0.5652304  75.966     0.4355401  0.4111589  0.4599214 
1024.3     0.221      325        -9999      -9999      7.968403   2.303      2.379      1.714      1.881      2.038      3.477      2.206      2.144      1.337521   5.329      0.1490078  0.1490078  0.2875852  1.61118    3.62296    3.477      0.3459025  0.5489472  75.826     0.4199317  0.3835569  0.4563064 
1024.5     0.22       309        -9999      -9999      7.782368   2.958      2.783      1.782      2.015      2.071      3.154      3.029      2.948      1.374484   5.648      0.1440759  0.1440759  0.2771581  1.305552   4.349298   3.154      0.2949115  0.50922    75.602     0.4032791  0.3559806  0.4505775 
1024.7     0.22       292        -9999      -9999      7.587972   3.613      3.086      1.916      2.031      2.105      2.931      3.04       2.92       1.41199    5.665      0.1389512  0.1389512  0.2665777  1.049233   5.264303   2.931      0.2468403  0.4712408  75.35      0.3867468  0.3292809  0.4442126 
1024.9     0.221      275        -9999      -9999      7.390757   3.546      3.103      2.084      1.948      2.138      3.31       2.853      2.693      1.449572   5.178      0.1336317  0.1336317  0.2559757  0.8362597000000001 6.389475   3.31       0.2640142  0.4821357  75.07      0.3707395  0.3042397  0.4372393 
1025.1     0.221      257        -9999      -9999      7.196899   3.008      2.834      2.118      1.847      2.138      4.026      2.875      2.43       1.486413   4.675      0.1284642  0.1284642  0.2455828  0.6708513  7.729606   4.026      0.3051713  0.5109483  74.706     0.3549048  0.2814815  0.428328  
1025.3     0.219      240        -9999      -9999      7.012341   3.16       3.086      2.034      1.83       2.138      4.595      3.48       3.068      1.52117    4.86       0.1238528  0.1238528  0.2357779  0.5510778  9.265800000000001 4.595      0.3258386  0.5239668  74.23      0.3391669  0.2613988  0.416935  
