~Version
 VERS              .         2.0                           : CWLS LOG ASCII STANDARD - VERSION 2.0
 WRAP              .         NO                            : ONE LINE PER DEPTH STEP
 DLM               .         SPACE                         : DELIMITING CHARACTER(SPACE TAB OR COMMA)
~Well Information
#_______________________________________________________________________________
#
#PARAMETER_NAME    .UNIT     VALUE                         : DESCRIPTION
#_______________________________________________________________________________
STRT               .M        880.1                         : First reference value
STOP               .M        1190.9                        : Last reference value
STEP               .M        0.2                           : Step increment
NULL               .         -9999                         : Missing value
COMP               .                                       : Company
WELL               .         2574                          : Well name
FLD                .         Узень                         : Field
LOC                .                                       : Location
CNTY               .                                       : County
STAT               .                                       : State
CTRY               .                                       : Country
SRVC               .                                       : Service Company
DATE               .         22.04.1980                    : Date
UWI                .                                       : Unique Well ID
Block              .         7                             : 
Category           .         Нефтяная                      : 
Condition          .         Ликвидированная               : 
Date               .         27.10.1982                    : 
EREF               .m        90.3                          : 100.8
Gorizont           .         15                            : 14
Interpretator      .         Алпанова Н.К.                 : 
Kupol              .         основной                      : osnovnoi
METD               .         gz3 gz6 ds ps ik              : 
Moii_15_vosst      .         15_vosst                      : 
Mud                .                                       : 
Mud_density        .                                       : 
Mud_resistivity    .                                       : 
Mud_density        .                                       : 
Mud_resistivity    .                                       : 
NGDU               .         НГДУ-2                        : 
ORIGINALWELLNAME   .         2574                          : 
Spud_date          .         1980                          : 1961
Spud_date          .         1980                          : 1961
Viscosity          .                                       : 
X                  .m        42543.7                       : 46154
Y                  .m        84875.13                      : 85761.93
YEAR               .         2018                          : 
~Parameter Information Block
#_______________________________________________________________________________
#
#PARAMETER_NAME    .UNIT     VALUE                         : DESCRIPTION
#_______________________________________________________________________________
SET                .         LQC_KAZNIPI_Petrel            : 
TLFamily_CALI      .         Caliper                       : 
TLFamily_CILD      .         Conductivity                  : 
TLFamily_COLL      .         Net Reservoir Flag            : 
TLFamily_CSAT      .         Fluid Code                    : 
TLFamily_DEPT      .         Measured Depth                : 
TLFamily_GR        .         Russian Gamma Ray             : 
TLFamily_GZ1_1     .         Gradient 045                  : 
TLFamily_GZ2_1     .         Gradient 105                  : 
TLFamily_GZ3       .         Gradient 225                  : 
TLFamily_GZ4_1     .         Gradient 425                  : 
TLFamily_GZ5_1     .         Gradient 850                  : 
TLFamily_LLS       .         Lateral Log Resistivity       : 
TLFamily_MINV      .         Micro Gradient Resistivity    : 
TLFamily_MNOR      .         Micro Resistivity             : 
TLFamily_NGLD      .         Neutron Far                   : 
TLFamily_OGZ       .         Gradient Inverted 225         : 
TLFamily_PHIE      .         Effective Porosity            : 
TLFamily_PHIEN     .         Effective Porosity            : 
TLFamily_PHIT      .         Porosity                      : 
TLFamily_PRMB      .         Permeability                  : 
TLFamily_PRMB_DGR  .         Permeability                  : 
TLFamily_RT        .         Formation Resistivity         : 
TLFamily_SOIL_ARCHIE .         Oil Saturation                : 
TLFamily_SOIL_DW   .         Oil Saturation                : 
TLFamily_SP        .         Spontaneous Potential         : 
TLFamily_VSH_FIN   .         Shale Volume                  : 
TLFamily_VSH_GR    .         Shale Volume                  : 
TLFamily_VSH_SP    .         Shale Volume                  : 
~Curve Information
#_______________________________________________________________________________
#
#LOGNAME           .UNIT     LOG_ID                        : DESCRIPTION
#_______________________________________________________________________________
DEPT               .M                                      : Колонка глубины 
CALI               .м                                      : Каверномер 
CILD               .мСм/м                                  : Индукционный каротаж 
COLL               .unitless                               :  
CSAT               .unitless                               :  
GR                 .мкР/ч                                  : Гамма каротаж 
GZ1_1              .Ом·м                                   :  
GZ2_1              .Ом·м                                   :  
GZ3                .Ом·м                                   :  
GZ4_1              .Ом·м                                   :  
GZ5_1              .Ом·м                                   :  
LLS                .Ом·м                                   : Боковой каротаж 
MINV               .Ом·м                                   : Микро-градиент зонд 
MNOR               .Ом·м                                   : Микро-потенциал зонд 
NGLD               .у.е.                                   : Показания зонда НГК-60 аппаратуры ДРСТ-3-90 
OGZ                .Ом·м                                   :  
PHIE               .м3/м3                                  : Описание 
PHIEN              .v/v                                    :  
PHIT               .м3/м3                                  : Описание 
PRMB               .mD                                     :  
PRMB_DGR           .mD                                     :  
RT                 .ohmm                                   : Description 
SOIL_ARCHIE        .v/v                                    :  
SOIL_DW            .v/v                                    :  
SP                 .мВ                                     : Потенциал самополяризации 
VSH_FIN            .unitless                               : Описание 
VSH_GR             .unitless                               : Shale volume 
VSH_SP             .unitless                               : Shale Volume 
~Ascii
# ...
1103.5     0.235      404        -9999      -9999      10.42984   2.605      2.446      2.067      2.468      2.172      2.237      0.769      0.889      1.125634   2.361      0.1750347  0.1750347  0.3473587  4.889051   1.514847   2.237      0.300751   0.5293939  77.339     0.5221941  0.5476001  0.4967881 
1103.7     0.239      403        -9999      -9999      10.33955   2.622      2.429      2.05       2.4        2.155      2.259      0.797      0.881      1.127813   2.394      0.1776682  0.1776682  0.3467439  5.470222   1.63333    2.259      0.3129496  0.5338744  77.227     0.5123504  0.5310175  0.4936833 
1103.9     0.242      399        -9999      -9999      10.26399   2.605      2.429      2.05       2.35       2.155      2.323      0.864      1.08       1.131335   2.444      0.17941    0.17941    0.3457503  5.892046   1.739575   2.323      0.3276352  0.5412666  77.115     0.5040616  0.5175273  0.490596  
1104.1     0.24       394        -9999      -9999      10.2064    2.605      2.446      2.067      2.3        2.105      2.401      0.915      1.153      1.135927   2.444      0.1800267  0.1800267  0.3444551  6.049071   1.825159   2.401      0.3399506  0.5483434  77.059     0.4982679  0.507477   0.4890588 
1104.3     0.234      388        -9999      -9999      10.16688   2.639      2.446      2.067      2.199      2.188      2.479      0.982      1.223      1.141155   2.528      0.1795444  0.1795444  0.3429802  5.925912   1.886312   2.479      0.348258   0.5538729  77.087     0.4952601  0.5006934  0.4898269 
1104.5     0.228      381        -9999      -9999      10.14306   2.639      2.497      2.067      2.182      2.155      2.556      1.1        1.324      1.146568   2.595      0.178558   0.178558   0.3414531  5.681787   1.924169   2.556      0.3544563  0.5584998  77.115     0.4936216  0.4966474  0.490596  
1104.7     0.229      375        -9999      -9999      10.13023   2.723      2.564      2.067      2.166      2.155      2.586      1.136      1.366      1.151876   2.662      0.1776715  0.1776715  0.3399558  5.470991   1.944868   2.586      0.3551925  0.5590352  77.059     0.4917705  0.4944822  0.4890588 
1104.9     0.228      367        -9999      -9999      10.12327   2.79       2.615      2.084      2.149      2.188      2.575      1.043      1.326      1.157048   2.746      0.176279   0.176279   0.3384969  5.155526   1.956189   2.575      0.3494584  0.5555748  77.087     0.4915693  0.4933117  0.4898269 
1105.1     0.23       360        -9999      -9999      10.11764   2.857      2.682      2.118      2.132      2.222      2.545      1.043      1.262      1.162311   2.83       0.1748233  0.1748233  0.3370122  4.845181   1.965395   2.545      0.3411298  0.5503148  77.115     0.4914814  0.4923668  0.490596  
1105.3     0.231      353        -9999      -9999      10.11094   2.924      2.749      2.134      2.149      2.238      2.556      0.965      1.354      1.168036   2.897      0.1725001  0.1725001  0.3353971  4.38812    1.976413   2.556      0.3347557  0.5476233  77.311     0.4936272  0.4912441  0.4960103 
1105.5     0.232      347        -9999      -9999      10.10325   2.924      2.8        2.168      2.166      2.272      2.579      1.072      1.452      1.17456    2.948      0.1702281  0.1702281  0.3335567  3.982858   1.989127   2.579      0.3298522  0.5458006  77.451     0.4949351  0.4899596  0.4999106 
1105.7     0.231      342        -9999      -9999      10.09637   2.924      2.817      2.185      2.166      2.305      2.627      0.929      1.503      1.182022   2.981      0.1666175  0.1666175  0.3314515  3.414438   2.000572   2.627      0.323105   0.5444657  77.815     0.4994968  0.4888131  0.5101804 
1105.9     0.229      338        -9999      -9999      10.09272   2.924      2.817      2.202      2.149      2.339      2.716      0.957      1.388      1.190289   2.998      0.1621231  0.1621231  0.3291196  2.818841   2.006661   2.716      0.3175441  0.5452898  78.291     0.5060501  0.4882069  0.5238932 
1106.1     0.23       333        -9999      -9999      10.09452   2.924      2.851      2.202      2.132      2.372      2.857      0.814      1.315      1.198996   3.031      0.1572963  0.1572963  0.3266631  2.294388   2.003664   2.857      0.3157853  0.5494225  78.768     0.5132329  0.4885049  0.5379608 
1106.3     0.23       328        -9999      -9999      10.10318   2.924      2.884      2.202      2.099      2.406      3.013      0.951      1.355      1.20772    3.048      0.1533489  0.1533489  0.3242021  1.938887   1.989245   3.013      0.317707   0.5549007  79.02      0.5177368  0.4899478  0.5455257 
1106.5     0.227      325        -9999      -9999      10.11935   2.975      2.952      2.235      2.065      2.423      3.087      1.183      1.52       1.216191   3.099      0.205955   0.205955   0.3218125  18.27868   32.0489    3.087      0.4782477  0.6065679  78.992     0.351083   0.1574855  0.5446807 
1106.7     0.224      325        -9999      -9999      10.1426    3.092      3.036      2.269      2.048      2.439      3.061      1.253      1.808      1.224504   3.199      0.2041927  0.2041927  0.3194675  16.95519   30.90581   3.061      0.4722374  0.6017941  78.796     0.3493176  0.1598384  0.5387968 
1106.9     0.224      327        -9999      -9999      10.17219   3.21       3.154      2.319      2.048      2.423      2.946      1.234      1.785      1.233199   3.317      0.2026131  0.2026131  0.3170146  15.85052   29.50977   2.946      0.4590212  0.590946   78.515     0.3466712  0.1628839  0.5304586 
1107.1     0.227      330        -9999      -9999      10.20678   3.311      3.322      2.387      2.048      2.423      2.801      1.085      1.612      1.243146   3.468      0.2006939  0.2006939  0.3142085  14.60483   27.95763   2.801      0.4414447  0.576638   78.207     0.3439837  0.1665175  0.5214499 
1107.3     0.228      334        -9999      -9999      10.245     3.479      3.507      2.42       2.048      2.389      2.638      0.965      1.463      1.255326   3.602      0.1983077  0.1983077  0.3107725  13.19163   26.33738   2.638      0.4194906  0.5587588  77.843     0.3408024  0.1706267  0.5109781 
1107.5     0.227      338        -9999      -9999      10.28508   3.613      3.507      2.437      2.065      2.356      2.46       0.993      1.41       1.270512   3.518      0.1940819  0.1940819  0.3064886  11.01604   24.73914   2.46       0.388785   0.5352504  77.675     0.3406265  0.1750446  0.5062084 
1107.7     0.227      343        -9999      -9999      10.32514   3.395      3.373      2.471      2.048      2.305      2.326      0.929      1.382      1.288971   3.317      0.1891661  0.1891661  0.3012814  8.932503000000001 23.23813   2.326      0.3583283  0.5121152  77.451     0.3397433  0.1795762  0.4999106 
1107.9     0.229      345        -9999      -9999      10.36404   3.227      3.221      2.454      2.048      2.222      2.27       0.999      1.279      1.310214   2.897      0.1829442  0.1829442  0.2952887  6.850609   21.86815   2.27       0.3317642  0.4933935  77.339     0.3404378  0.1840875  0.4967881 
1108.1     0.23       341        -9999      -9999      10.40133   3.042      3.053      2.437      2.015      2.172      2.404      0.906      1.195      1.332898   2.478      0.1767084  0.1767084  0.2888894  5.250801   20.63066   2.404      0.3295614  0.4942217  77.143     0.3399425  0.1885188  0.4913661 
1108.3     0.229      323        -9999      -9999      10.43721   2.857      2.867      2.437      1.981      2.105      2.838      0.901      1.304      1.354913   2.226      0.1697778  0.1697778  0.2826789  3.907107   19.50617   2.838      0.3578015  0.5207753  77.143     0.3421246  0.192883   0.4913661 
1108.5     0.227      294        -9999      -9999      10.47269   2.672      2.665      2.437      1.931      2.021      4.223      0.912      1.444      1.373694   2.159      0.1636242  0.1636242  0.2773809  3.00521    18.45469   4.223      0.4496553  0.5967527  77.171     0.3447172  0.197297   0.4921375 
