~Version
 VERS              .         2.0                           : CWLS LOG ASCII STANDARD - VERSION 2.0
 WRAP              .         NO                            : ONE LINE PER DEPTH STEP
 DLM               .         SPACE                         : DELIMITING CHARACTER(SPACE TAB OR COMMA)
~Well Information
#_______________________________________________________________________________
#
#PARAMETER_NAME    .UNIT     VALUE                         : DESCRIPTION
#_______________________________________________________________________________
STRT               .M        880.1                         : First reference value
STOP               .M        1190.9                        : Last reference value
STEP               .M        0.2                           : Step increment
NULL               .         -9999                         : Missing value
COMP               .                                       : Company
WELL               .         2574                          : Well name
FLD                .         Узень                         : Field
LOC                .                                       : Location
CNTY               .                                       : County
STAT               .                                       : State
CTRY               .                                       : Country
SRVC               .                                       : Service Company
DATE               .         22.04.1980                    : Date
UWI                .                                       : Unique Well ID
Block              .         7                             : 
Category           .         Нефтяная                      : 
Condition          .         Ликвидированная               : 
Date               .         27.10.1982                    : 
EREF               .m        90.3                          : 100.8
Gorizont           .         15                            : 14
Interpretator      .         Алпанова Н.К.                 : 
Kupol              .         основной                      : osnovnoi
METD               .         gz3 gz6 ds ps ik              : 
Moii_15_vosst      .         15_vosst                      : 
Mud                .                                       : 
Mud_density        .                                       : 
Mud_resistivity    .                                       : 
Mud_density        .                                       : 
Mud_resistivity    .                                       : 
NGDU               .         НГДУ-2                        : 
ORIGINALWELLNAME   .         2574                          : 
Spud_date          .         1980                          : 1961
Spud_date          .         1980                          : 1961
Viscosity          .                                       : 
X                  .m        42543.7                       : 46154
Y                  .m        84875.13                      : 85761.93
YEAR               .         2018                          : 
~Parameter Information Block
#_______________________________________________________________________________
#
#PARAMETER_NAME    .UNIT     VALUE                         : DESCRIPTION
#_______________________________________________________________________________
SET                .         LQC_KAZNIPI_Petrel            : 
TLFamily_CALI      .         Caliper                       : 
TLFamily_CILD      .         Conductivity                  : 
TLFamily_COLL      .         Net Reservoir Flag            : 
TLFamily_CSAT      .         Fluid Code                    : 
TLFamily_DEPT      .         Measured Depth                : 
TLFamily_GR        .         Russian Gamma Ray             : 
TLFamily_GZ1_1     .         Gradient 045                  : 
TLFamily_GZ2_1     .         Gradient 105                  : 
TLFamily_GZ3       .         Gradient 225                  : 
TLFamily_GZ4_1     .         Gradient 425                  : 
TLFamily_GZ5_1     .         Gradient 850                  : 
TLFamily_LLS       .         Lateral Log Resistivity       : 
TLFamily_MINV      .         Micro Gradient Resistivity    : 
TLFamily_MNOR      .         Micro Resistivity             : 
TLFamily_NGLD      .         Neutron Far                   : 
TLFamily_OGZ       .         Gradient Inverted 225         : 
TLFamily_PHIE      .         Effective Porosity            : 
TLFamily_PHIEN     .         Effective Porosity            : 
TLFamily_PHIT      .         Porosity                      : 
TLFamily_PRMB      .         Permeability                  : 
TLFamily_PRMB_DGR  .         Permeability                  : 
TLFamily_RT        .         Formation Resistivity         : 
TLFamily_SOIL_ARCHIE .         Oil Saturation                : 
TLFamily_SOIL_DW   .         Oil Saturation                : 
TLFamily_SP        .         Spontaneous Potential         : 
TLFamily_VSH_FIN   .         Shale Volume                  : 
TLFamily_VSH_GR    .         Shale Volume                  : 
TLFamily_VSH_SP    .         Shale Volume                  : 
~Curve Information
#_______________________________________________________________________________
#
#LOGNAME           .UNIT     LOG_ID                        : DESCRIPTION
#_______________________________________________________________________________
DEPT               .M                                      : Колонка глубины 
CALI               .м                                      : Каверномер 
CILD               .мСм/м                                  : Индукционный каротаж 
COLL               .unitless                               :  
CSAT               .unitless                               :  
GR                 .мкР/ч                                  : Гамма каротаж 
GZ1_1              .Ом·м                                   :  
GZ2_1              .Ом·м                                   :  
GZ3                .Ом·м                                   :  
GZ4_1              .Ом·м                                   :  
GZ5_1              .Ом·м                                   :  
LLS                .Ом·м                                   : Боковой каротаж 
MINV               .Ом·м                                   : Микро-градиент зонд 
MNOR               .Ом·м                                   : Микро-потенциал зонд 
NGLD               .у.е.                                   : Показания зонда НГК-60 аппаратуры ДРСТ-3-90 
OGZ                .Ом·м                                   :  
PHIE               .м3/м3                                  : Описание 
PHIEN              .v/v                                    :  
PHIT               .м3/м3                                  : Описание 
PRMB               .mD                                     :  
PRMB_DGR           .mD                                     :  
RT                 .ohmm                                   : Description 
SOIL_ARCHIE        .v/v                                    :  
SOIL_DW            .v/v                                    :  
SP                 .мВ                                     : Потенциал самополяризации 
VSH_FIN            .unitless                               : Описание 
VSH_GR             .unitless                               : Shale volume 
VSH_SP             .unitless                               : Shale Volume 
~Ascii
# ...
1061.9     0.24       398        -9999      -9999      11.06653   2.336      2.345      2          1.897      1.921      2.222      1.069      1.307      1.15901    2.294      0.1531097  0.1531097  0.3379432  1.919202   0.8907614  2.222      0.2118225  0.4946231  75.182     0.5601015  0.6801869  0.4400162 
1062.1     0.24       393        -9999      -9999      10.98624   2.336      2.345      1.983      1.864      1.954      2.289      1.046      1.332      1.160081   2.31       0.1554892  0.1554892  0.337641   2.124201   0.9524508  2.289      0.2331042  0.5046777  75.266     0.5519752  0.6618407  0.4421098 
1062.3     0.24       388        -9999      -9999      10.89141   2.403      2.345      1.933      1.847      1.954      2.326      1.027      1.225      1.162602   2.327      0.1574363  0.1574363  0.3369299  2.308127   1.030835   2.326      0.2470582  0.5102941  75.462     0.54392    0.6408089  0.4470311 
1062.5     0.239      383        -9999      -9999      10.78109   2.504      2.345      2          1.881      1.954      2.337      1.021      1.186      1.166428   2.344      0.1597877  0.1597877  0.3358506  2.551603   1.130174   2.337      0.2583614  0.5132169  75.574     0.533524   0.6171818  0.4498661 
1062.7     0.24       378        -9999      -9999      10.65477   2.571      2.345      2.034      1.931      1.954      2.319      1.038      1.248      1.171164   2.361      0.1629741  0.1629741  0.3345147  2.923034   1.255743   2.319      0.2683569  0.5137953  75.518     0.51982    0.5911934  0.4484465 
1062.9     0.238      371        -9999      -9999      10.51418   2.588      2.345      2.067      1.948      1.954      2.356      0.937      1.189      1.176255   2.361      0.1669126  0.1669126  0.3330784  3.457681   1.411965   2.356      0.2887193  0.520753   75.322     0.5035326  0.5635547  0.4435107 
1063.1     0.232      364        -9999      -9999      10.36376   2.538      2.345      2.067      1.931      1.971      2.482      1.175      1.525      1.181078   2.344      0.1711158  0.1711158  0.3317179  4.136543   1.600681   2.482      0.320771   0.5363711  75.098     0.486673   0.535414   0.437932  
1063.3     0.227      358        -9999      -9999      10.2112    2.504      2.396      2.05       1.897      2.021      2.749      1.805      1.73       1.185044   2.361      0.1751528  0.1751528  0.3305991  4.913756   1.817867   2.749      0.3655851  0.5625286  74.93      0.4710493  0.5083072  0.4337913 
1063.5     0.223      353        -9999      -9999      10.0663    2.504      2.446      2.05       1.897      2.021      2.875      2.074      2.055      1.187721   2.361      0.1791131  0.1791131  0.329844   5.817922   2.051381   2.875      0.3907678  0.5753494  74.762     0.4567602  0.4838327  0.4296877 
1063.7     0.224      352        -9999      -9999      9.939753   2.723      2.581      2.084      2.048      2.021      2.764      1.912      1.786      1.188892   2.361      0.1822623  0.1822623  0.3295137  6.654238   2.279716   2.764      0.388756   0.5695958  74.734     0.4462162  0.463425   0.4290074 
1063.9     0.225      353        -9999      -9999      9.840937   3.143      2.851      2.168      2.149      2.021      2.474      1.416      1.615      1.188595   2.394      0.1844263  0.1844263  0.3295973  7.297616   2.475553   2.474      0.3627063  0.5472469  74.846     0.4399122  0.4480894  0.4317349 
1064.1     0.228      358        -9999      -9999      9.776064   3.227      3.053      2.252      2.233      2.038      2.296      1.172      1.304      1.187053   2.361      0.1853397  0.1853397  0.3300323  7.58752    2.613179   2.296      0.3428144  0.5313134  75.126     0.4384621  0.4382986  0.4386257 
1064.3     0.231      361        -9999      -9999      9.74708    2.975      2.817      2.336      2.182      2.071      2.33       1.063      1.228      1.184587   2.327      0.1854755  0.1854755  0.3307281  7.631582   2.677116   2.33       0.3477482  0.5354729  75.434     0.4401593  0.4339936  0.4463249 
1064.5     0.237      362        -9999      -9999      9.752049   2.689      2.699      2.252      2.132      2.071      2.501      0.889      1.354      1.181519   2.26       0.1849285  0.1849285  0.3315935  7.455587   2.666043   2.501      0.3674439  0.5518227  75.742     0.4444395  0.4347287  0.4541502 
1064.7     0.238      361        -9999      -9999      9.786257   2.605      2.766      2.185      2.132      2.088      2.649      0.94       1.506      1.178091   2.176      0.183863   0.183863   0.3325606  7.124386   2.591058   2.649      0.381175   0.5643018  76.022     0.4505987  0.4398227  0.4613746 
1064.9     0.236      359        -9999      -9999      9.843364   2.605      2.834      2.303      2.099      2.038      2.645      1.032      1.691      1.174496   2.159      0.1824815  0.1824815  0.3335747  6.716721   2.470546   2.645      0.3766545  0.5634875  76.247     0.4578582  0.44846    0.4672565 
1065.1     0.234      359        -9999      -9999      9.916766   2.79       2.918      2.387      2.166      2.121      2.578      1.041      1.612      1.170852   2.159      0.1811492  0.1811492  0.3346028  6.345721   2.323841   2.578      0.365065   0.5574099  76.359     0.4650108  0.4598115  0.47021   
1065.3     0.238      362        -9999      -9999      10.00043   2.941      2.918      2.437      2.182      2.155      2.497      1.137      1.447      1.167279   2.159      0.1799643  0.1799643  0.3356105  6.033015   2.167228   2.497      0.3517873  0.5499586  76.359     0.4716551  0.4731001  0.47021   
1065.5     0.24       369        -9999      -9999      10.08964   2.958      2.766      2.42       2.216      2.188      2.441      1.006      1.136      1.163841   2.176      0.1791347  0.1791347  0.3365803  5.823282   2.011824   2.441      0.3422091  0.5448062  76.219     0.4771079  0.4876949  0.4665208 
1065.7     0.246      377        -9999      -9999      10.18109   2.891      2.749      2.387      2.233      2.205      2.304      1.12       0.917      1.160633   2.193      0.1788224  0.1788224  0.3374853  5.746219   1.864098   2.304      0.3231076  0.5319174  75.91      0.4807968  0.5031213  0.4584723 
1065.9     0.253      387        -9999      -9999      10.27322   2.924      2.935      2.37       2.199      2.172      2.115      1.139      0.948      1.157756   2.126      0.1787592  0.1787592  0.3382971  5.730756   1.726222   2.115      0.2951499  0.5120997  75.49      0.4834482  0.5191582  0.4477383 
1066.1     0.258      397        -9999      -9999      10.36605   2.79       2.884      2.403      2.115      2.088      1.969      1.435      1.105      1.155338   2.042      0.177964   0.177964   0.338979   5.539657   1.59762    1.969      0.2682535  0.4940798  75.182     0.4879244  0.5358326  0.4400162 
1066.3     0.253      406        -9999      -9999      10.46066   2.639      2.817      2.403      2.048      2.021      1.925      1.699      1.228      1.153477   1.975      0.1763942  0.1763942  0.339504   5.180915   1.476412   1.925      0.2547229  0.4870536  74.986     0.4942722  0.5533769  0.4351674 
1066.5     0.251      413        -9999      -9999      10.55795   2.387      2.682      2.37       1.998      1.971      1.962      1.898      1.251      1.15222    1.925      0.1737867  0.1737867  0.3398587  4.635639   1.36135    1.962      0.2517085  0.4893032  74.958     0.5032485  0.572018   0.4344789 
1066.7     0.247      419        -9999      -9999      10.65714   2.202      2.497      2.303      1.931      1.904      2.032      1.982      1.267      1.151488   1.925      0.170523   0.170523   0.3400652  4.033272   1.253258   2.032      0.2516624  0.4946846  75.014     0.5137644  0.5916719  0.435857  
1066.9     0.248      423        -9999      -9999      10.7549    2.134      2.345      2.218      1.897      1.87       2.055      2.015      1.318      1.151041   1.958      0.1666579  0.1666579  0.3401913  3.420326   1.155133   2.055      0.240591   0.4931979  75.182     0.5258588  0.6117013  0.4400162 
