~Version
 VERS              .         2.0                           : CWLS LOG ASCII STANDARD - VERSION 2.0
 WRAP              .         NO                            : ONE LINE PER DEPTH STEP
 DLM               .         SPACE                         : DELIMITING CHARACTER(SPACE TAB OR COMMA)
~Well Information
#_______________________________________________________________________________
#
#PARAMETER_NAME    .UNIT     VALUE                         : DESCRIPTION
#_______________________________________________________________________________
STRT               .M        880.1                         : First reference value
STOP               .M        1190.9                        : Last reference value
STEP               .M        0.2                           : Step increment
NULL               .         -9999                         : Missing value
COMP               .                                       : Company
WELL               .         2574                          : Well name
FLD                .         Узень                         : Field
LOC                .                                       : Location
CNTY               .                                       : County
STAT               .                                       : State
CTRY               .                                       : Country
SRVC               .                                       : Service Company
DATE               .         22.04.1980                    : Date
UWI                .                                       : Unique Well ID
Block              .         7                             : 
Category           .         Нефтяная                      : 
Condition          .         Ликвидированная               : 
Date               .         27.10.1982                    : 
EREF               .m        90.3                          : 100.8
Gorizont           .         15                            : 14
Interpretator      .         Алпанова Н.К.                 : 
Kupol              .         основной                      : osnovnoi
METD               .         gz3 gz6 ds ps ik              : 
Moii_15_vosst      .         15_vosst                      : 
Mud                .                                       : 
Mud_density        .                                       : 
Mud_resistivity    .                                       : 
Mud_density        .                                       : 
Mud_resistivity    .                                       : 
NGDU               .         НГДУ-2                        : 
ORIGINALWELLNAME   .         2574                          : 
Spud_date          .         1980                          : 1961
Spud_date          .         1980                          : 1961
Viscosity          .                                       : 
X                  .m        42543.7                       : 46154
Y                  .m        84875.13                      : 85761.93
YEAR               .         2018                          : 
~Parameter Information Block
#_______________________________________________________________________________
#
#PARAMETER_NAME    .UNIT     VALUE                         : DESCRIPTION
#_______________________________________________________________________________
SET                .         LQC_KAZNIPI_Petrel            : 
TLFamily_CALI      .         Caliper                       : 
TLFamily_CILD      .         Conductivity                  : 
TLFamily_COLL      .         Net Reservoir Flag            : 
TLFamily_CSAT      .         Fluid Code                    : 
TLFamily_DEPT      .         Measured Depth                : 
TLFamily_GR        .         Russian Gamma Ray             : 
TLFamily_GZ1_1     .         Gradient 045                  : 
TLFamily_GZ2_1     .         Gradient 105                  : 
TLFamily_GZ3       .         Gradient 225                  : 
TLFamily_GZ4_1     .         Gradient 425                  : 
TLFamily_GZ5_1     .         Gradient 850                  : 
TLFamily_LLS       .         Lateral Log Resistivity       : 
TLFamily_MINV      .         Micro Gradient Resistivity    : 
TLFamily_MNOR      .         Micro Resistivity             : 
TLFamily_NGLD      .         Neutron Far                   : 
TLFamily_OGZ       .         Gradient Inverted 225         : 
TLFamily_PHIE      .         Effective Porosity            : 
TLFamily_PHIEN     .         Effective Porosity            : 
TLFamily_PHIT      .         Porosity                      : 
TLFamily_PRMB      .         Permeability                  : 
TLFamily_PRMB_DGR  .         Permeability                  : 
TLFamily_RT        .         Formation Resistivity         : 
TLFamily_SOIL_ARCHIE .         Oil Saturation                : 
TLFamily_SOIL_DW   .         Oil Saturation                : 
TLFamily_SP        .         Spontaneous Potential         : 
TLFamily_VSH_FIN   .         Shale Volume                  : 
TLFamily_VSH_GR    .         Shale Volume                  : 
TLFamily_VSH_SP    .         Shale Volume                  : 
~Curve Information
#_______________________________________________________________________________
#
#LOGNAME           .UNIT     LOG_ID                        : DESCRIPTION
#_______________________________________________________________________________
DEPT               .M                                      : Колонка глубины 
CALI               .м                                      : Каверномер 
CILD               .мСм/м                                  : Индукционный каротаж 
COLL               .unitless                               :  
CSAT               .unitless                               :  
GR                 .мкР/ч                                  : Гамма каротаж 
GZ1_1              .Ом·м                                   :  
GZ2_1              .Ом·м                                   :  
GZ3                .Ом·м                                   :  
GZ4_1              .Ом·м                                   :  
GZ5_1              .Ом·м                                   :  
LLS                .Ом·м                                   : Боковой каротаж 
MINV               .Ом·м                                   : Микро-градиент зонд 
MNOR               .Ом·м                                   : Микро-потенциал зонд 
NGLD               .у.е.                                   : Показания зонда НГК-60 аппаратуры ДРСТ-3-90 
OGZ                .Ом·м                                   :  
PHIE               .м3/м3                                  : Описание 
PHIEN              .v/v                                    :  
PHIT               .м3/м3                                  : Описание 
PRMB               .mD                                     :  
PRMB_DGR           .mD                                     :  
RT                 .ohmm                                   : Description 
SOIL_ARCHIE        .v/v                                    :  
SOIL_DW            .v/v                                    :  
SP                 .мВ                                     : Потенциал самополяризации 
VSH_FIN            .unitless                               : Описание 
VSH_GR             .unitless                               : Shale volume 
VSH_SP             .unitless                               : Shale Volume 
~Ascii
# ...
900.7000000000001 0.258      -9999      -9999      -9999      11.74065   4.303      5.663      4.655      3.658      2.289      4.048      0.71       0.912      1.172307   4.122      -9999      -9999      -9999      -9999      -9999      4.048      -9999      -9999      74.51      -9999      0.8        0.800000011920929
900.9      0.275      -9999      -9999      -9999      11.84551   3.983      5.881999   5.16       3.725      2.205      3.551      0.789      0.878      1.168497   3.92       -9999      -9999      -9999      -9999      -9999      3.551      -9999      -9999      74.286     -9999      0.8        0.800000011920929
901.1      0.292      -9999      -9999      -9999      11.89734   3.563      5.326      4.874      3.776      2.088      3.44       0.761      0.819      1.163925   3.87       -9999      -9999      -9999      -9999      -9999      3.44       -9999      -9999      74.118     -9999      0.8        0.800000011920929
901.3      0.282      -9999      -9999      -9999      11.89466   2.891      5.175      4.521      3.876      2.222      3.599      0.867      0.92       1.159865   4.021      -9999      -9999      -9999      -9999      -9999      3.599      -9999      -9999      74.062     -9999      0.8        0.800000011920929
901.5      0.268      -9999      -9999      -9999      11.84082   3.63       5.763999   4.437      3.96       2.439      3.581      0.85       0.94       1.157232   4.407      -9999      -9999      -9999      -9999      -9999      3.581      -9999      -9999      74.118     -9999      0.8        0.800000011920929
901.7000000000001 0.247      -9999      -9999      -9999      11.74148   3.361      4.72       4.773      3.91       2.657      3.328      0.895      0.904      1.156578   4.541      -9999      -9999      -9999      -9999      -9999      3.328      -9999      -9999      74.174     -9999      0.8        0.800000011920929
901.9      0.242      -9999      -9999      -9999      11.60296   3.126      4.299      4.79       3.792      2.908      3.061      0.749      0.635      1.158224   4.591      -9999      -9999      -9999      -9999      -9999      3.061      -9999      -9999      74.202     -9999      0.8        0.800000011920929
902.1      0.236      -9999      -9999      -9999      11.43039   2.992      4.063      4.487      3.524      3.126      3.047      0.668      0.517      1.162486   4.625      -9999      -9999      -9999      -9999      -9999      3.047      -9999      -9999      74.118     -9999      0.8        0.800000011920929
902.3      0.232      -9999      -9999      -9999      11.22745   2.807      3.912      4.134      3.356      3.293      3.11       0.629      0.497      1.169862   4.675      -9999      -9999      -9999      -9999      -9999      3.11       -9999      -9999      73.978     -9999      0.8        0.800000011920929
902.5      0.229      -9999      -9999      -9999      10.99651   2.857      3.945      4.336      3.256      3.41       3.165      0.688      0.536      1.181047   4.994      -9999      -9999      -9999      -9999      -9999      3.165      -9999      -9999      73.838     -9999      0.8        0.800000011920929
902.7000000000001 0.229      -9999      -9999      -9999      10.7394    3.025      3.827      4.471      3.323      3.477      3.15       0.735      0.584      1.196844   5.782      -9999      -9999      -9999      -9999      -9999      3.15       -9999      -9999      73.754     -9999      0.8        0.800000011920929
902.9      0.227      -9999      -9999      -9999      10.45831   2.874      3.507      4.185      3.273      3.527      3.135      0.763      0.612      1.21799    6.403      -9999      -9999      -9999      -9999      -9999      3.135      -9999      -9999      73.641     -9999      0.8        0.800000011920929
903.1      0.223      -9999      -9999      -9999      10.15636   2.79       3.272      3.95       3.172      3.527      3.202      0.727      0.551      1.245069   6.57       -9999      -9999      -9999      -9999      -9999      3.202      -9999      -9999      73.473     -9999      0.8        0.800000011920929
903.3      0.218      -9999      -9999      -9999      9.837864   2.739      3.086      3.731      3.071      3.494      3.451      0.707      0.615      1.278399   7.057      -9999      -9999      -9999      -9999      -9999      3.451      -9999      -9999      73.221     -9999      0.7979672  0.800000011920929
903.5      0.215      -9999      -9999      -9999      9.508336   2.639      3.575      3.563      2.987      3.51       3.778      0.934      1.018      1.318009   7.644      -9999      -9999      -9999      -9999      -9999      3.778      -9999      -9999      72.997     -9999      0.667091   0.800000011920929
903.7000000000001 0.214      -9999      -9999      -9999      9.173896   3.076      3.794      3.462      3.004      3.594      4.038      1.382      1.578      1.363581   8.437      0.1116649  0.1116649  0.2802339  0.3276896  0.02935591 4.038      0.2160613  0.5259585  72.801     0.5108151  0.8        0.2216303 
903.9      0.214      -9999      -9999      -9999      8.841342   3.16       4.029      3.479      3.155      3.778      4.42       2.495      2.382      1.414366   9.455      0.09754649999999999 0.09754649999999999 0.2659073  0.1794552  0.08002149 4.42       0.1547408  0.5081134  72.689     0.5101842  0.8        0.2203683 
904.1      0.214      -9999      -9999      -9999      8.516699   3.782      4.568      3.647      3.558      4.163      4.858      3.13       2.884      1.469047   10.377     0.08232763 0.08232763 0.250482   0.09377035 0.2129892  4.858      0.06266842 0.4824589  72.577     0.5095586  0.8        0.2191171 
904.3      0.214      -9999      -9999      -9999      8.205036   4.353      4.737      4.134      4.195      4.715      4.876      3.783      2.497      1.525588   10.797     0.06658187 0.06658187 0.2345315  0.04790885 0.5451417  4.876      0          0.4205364  72.465     0.5089383  0.8        0.2178767 
904.5      0.214      -9999      -9999      -9999      7.909578   3.916      4.636      4.303      4.799      5.603001   4.988      3.763      2.382      1.581274   12.558     0.08775369 0.08775369 0.2188225  0.1181869  1.328739   4.988      0.1242731  0.4550508  72.353     0.3971783  0.5777096000000001 0.216647  
904.7000000000001 0.213      -9999      6          6          7.632555   3.361      5.966001   4.622      6.09       6.858      8.006      3.985      2.657      1.632895   14.403     0.1010419  0.1010419  0.2042603  0.2083045  3.063567   8.006      0.3796932  0.5739489  72.185     0.3127833  0.410744   0.2148225 
904.9      0.213      -9999      6          6          7.375613   4.571      8.398      5.765      7.850999   8.079      12.558     3.923      3.679      1.677248   18.26      0.1077425  0.1077425  0.1917483  0.277211   6.648411   12.558     0.5251284000000001 0.6551445  71.709     0.2545632  0.2993443  0.209782  
905.1      0.213      -9999      6          6          7.140598   5.361001   9.545001   7.008      8.194      8.933      19.612     3.539      4.08       1.711771   21.363     0.1118981  0.1118981  0.1820095  0.330965   13.50494   19.612     0.6272553  0.7195086  70.812     0.2124588  0.2241281  0.2007896 
905.3      0.213      -9999      6          6          6.929917   7.983      11.221     7.916      8.571      10.021     23.622     3.509      4.08       1.735137   19.853     0.1155829  0.1155829  0.1754178  0.3872876  25.49175   23.622     0.6679202  0.7421462  69.608     0.1813178  0.1729156  0.1897199 
905.5      0.212      -9999      6          6          6.746716   11.597     13.663     9.496      8.716      10.858     21.06      3.167      4.041      1.74756    16.918     0.1199877  0.1199877  0.1719134  0.4673283  44.29125   21.06      0.6607718  0.7278342  68.011     0.1573506  0.1379964  0.1767049 
905.7000000000001 0.212      -9999      6          6          6.594183   11.092     15.6       10         8.745      10.774     14.656     3.303      3.887      1.750658   14.151     0.1246864  0.1246864  0.1710393  0.5710208  70.15766000000001 14.656     0.6110939  0.6779181  66.582     0.1404635  0.1143668  0.1665601 
