~Version
 VERS              .         2.0                           : CWLS LOG ASCII STANDARD - VERSION 2.0
 WRAP              .         NO                            : ONE LINE PER DEPTH STEP
 DLM               .         SPACE                         : DELIMITING CHARACTER(SPACE TAB OR COMMA)
~Well Information
#_______________________________________________________________________________
#
#PARAMETER_NAME    .UNIT     VALUE                         : DESCRIPTION
#_______________________________________________________________________________
STRT               .M        880.1                         : First reference value
STOP               .M        1190.9                        : Last reference value
STEP               .M        0.2                           : Step increment
NULL               .         -9999                         : Missing value
COMP               .                                       : Company
WELL               .         2574                          : Well name
FLD                .         Узень                         : Field
LOC                .                                       : Location
CNTY               .                                       : County
STAT               .                                       : State
CTRY               .                                       : Country
SRVC               .                                       : Service Company
DATE               .         22.04.1980                    : Date
UWI                .                                       : Unique Well ID
Block              .         7                             : 
Category           .         Нефтяная                      : 
Condition          .         Ликвидированная               : 
Date               .         27.10.1982                    : 
EREF               .m        90.3                          : 100.8
Gorizont           .         15                            : 14
Interpretator      .         Алпанова Н.К.                 : 
Kupol              .         основной                      : osnovnoi
METD               .         gz3 gz6 ds ps ik              : 
Moii_15_vosst      .         15_vosst                      : 
Mud                .                                       : 
Mud_density        .                                       : 
Mud_resistivity    .                                       : 
Mud_density        .                                       : 
Mud_resistivity    .                                       : 
NGDU               .         НГДУ-2                        : 
ORIGINALWELLNAME   .         2574                          : 
Spud_date          .         1980                          : 1961
Spud_date          .         1980                          : 1961
Viscosity          .                                       : 
X                  .m        42543.7                       : 46154
Y                  .m        84875.13                      : 85761.93
YEAR               .         2018                          : 
~Parameter Information Block
#_______________________________________________________________________________
#
#PARAMETER_NAME    .UNIT     VALUE                         : DESCRIPTION
#_______________________________________________________________________________
SET                .         LQC_KAZNIPI_Petrel            : 
TLFamily_CALI      .         Caliper                       : 
TLFamily_CILD      .         Conductivity                  : 
TLFamily_COLL      .         Net Reservoir Flag            : 
TLFamily_CSAT      .         Fluid Code                    : 
TLFamily_DEPT      .         Measured Depth                : 
TLFamily_GR        .         Russian Gamma Ray             : 
TLFamily_GZ1_1     .         Gradient 045                  : 
TLFamily_GZ2_1     .         Gradient 105                  : 
TLFamily_GZ3       .         Gradient 225                  : 
TLFamily_GZ4_1     .         Gradient 425                  : 
TLFamily_GZ5_1     .         Gradient 850                  : 
TLFamily_LLS       .         Lateral Log Resistivity       : 
TLFamily_MINV      .         Micro Gradient Resistivity    : 
TLFamily_MNOR      .         Micro Resistivity             : 
TLFamily_NGLD      .         Neutron Far                   : 
TLFamily_OGZ       .         Gradient Inverted 225         : 
TLFamily_PHIE      .         Effective Porosity            : 
TLFamily_PHIEN     .         Effective Porosity            : 
TLFamily_PHIT      .         Porosity                      : 
TLFamily_PRMB      .         Permeability                  : 
TLFamily_PRMB_DGR  .         Permeability                  : 
TLFamily_RT        .         Formation Resistivity         : 
TLFamily_SOIL_ARCHIE .         Oil Saturation                : 
TLFamily_SOIL_DW   .         Oil Saturation                : 
TLFamily_SP        .         Spontaneous Potential         : 
TLFamily_VSH_FIN   .         Shale Volume                  : 
TLFamily_VSH_GR    .         Shale Volume                  : 
TLFamily_VSH_SP    .         Shale Volume                  : 
~Curve Information
#_______________________________________________________________________________
#
#LOGNAME           .UNIT     LOG_ID                        : DESCRIPTION
#_______________________________________________________________________________
DEPT               .M                                      : Колонка глубины 
CALI               .м                                      : Каверномер 
CILD               .мСм/м                                  : Индукционный каротаж 
COLL               .unitless                               :  
CSAT               .unitless                               :  
GR                 .мкР/ч                                  : Гамма каротаж 
GZ1_1              .Ом·м                                   :  
GZ2_1              .Ом·м                                   :  
GZ3                .Ом·м                                   :  
GZ4_1              .Ом·м                                   :  
GZ5_1              .Ом·м                                   :  
LLS                .Ом·м                                   : Боковой каротаж 
MINV               .Ом·м                                   : Микро-градиент зонд 
MNOR               .Ом·м                                   : Микро-потенциал зонд 
NGLD               .у.е.                                   : Показания зонда НГК-60 аппаратуры ДРСТ-3-90 
OGZ                .Ом·м                                   :  
PHIE               .м3/м3                                  : Описание 
PHIEN              .v/v                                    :  
PHIT               .м3/м3                                  : Описание 
PRMB               .mD                                     :  
PRMB_DGR           .mD                                     :  
RT                 .ohmm                                   : Description 
SOIL_ARCHIE        .v/v                                    :  
SOIL_DW            .v/v                                    :  
SP                 .мВ                                     : Потенциал самополяризации 
VSH_FIN            .unitless                               : Описание 
VSH_GR             .unitless                               : Shale volume 
VSH_SP             .unitless                               : Shale Volume 
~Ascii
# ...
1181.5     -9999      405        -9999      -9999      11.53062   3.244      3.524      3.496      2.182      2.121      2.07       1.875      1.789      1.182657   1.388      0.2310292  0.2310292  0.3312724  53.25729   3.534532   2.07       0.43847    0.5556709  46.611     0.3037673  0.3874467  0.2200879 
1181.7     -9999      408        -9999      -9999      11.5916    2.706      3.036      3.345      2.015      1.987      2.203      1.83       1.5        1.165624   1.673      0.2284207  0.2284207  0.3360774  47.65002   3.21337    2.203      0.4492213  0.5709121  49.02      0.3262326  0.4028146  0.2496507 
1181.9     -9999      408        -9999      -9999      11.65313   2.353      2.665      3.798      1.746      1.954      2.285      1.477      1.223      1.151966   2.176      0.2229411  0.2229411  0.3399304  37.71967   2.918893   2.285      0.4470147  0.5773097  51.765     0.3545131  0.4189383  0.2900878 
1182.1     -9999      405        -9999      -9999      11.7118    2.639      3.373      4.571      1.646      2.121      2.281      1.234      0.898      1.143488   2.78       0.2152465  0.2152465  0.3423221  27.16729   2.663255   2.281      0.429368   0.5726159  54.342     0.3850776  0.4349146  0.3352406 
1182.3     -9999      398        -9999      -9999      11.76338   2.891      3.811      4.975      1.998      2.423      2.308      1.293      0.926      1.141324   3.367      0.2060615  0.2060615  0.3429325  18.36184   2.457081   2.308      0.4105414  0.5680231  56.555     0.4147606  0.4494619  0.3800593 
1182.5     -9999      391        -9999      -9999      11.80352   2.437      2.8        4.773      2.417      2.64       2.441      1.472      0.965      1.145607   3.451      0.1969861  0.1969861  0.3417243  12.46864   2.30777    2.441      0.4028657  0.5713963  58.151     0.4386006  0.4611163  0.4160849 
1182.7     -9999      388        -9999      -9999      11.82775   2.639      2.429      4.151      2.669      2.975      2.482      1.542      1.206      1.155404   3.099      0.1890024  0.1890024  0.3389604  8.870354000000001 2.222058   2.482      0.3857758  0.565777   59.16      0.4544182  0.468298   0.4405383 
1182.9     -9999      390        -9999      -9999      11.8314    2.739      2.126      3.126      2.702      3.042      2.312      1.478      1.29       1.168955   2.696      0.1819509  0.1819509  0.3351377  6.566438   2.209415   2.312      0.3435995  0.5401372  59.888     0.4642026  0.4693904  0.4590148 
1183.1     -9999      399        -9999      -9999      11.81025   2.588      1.924      2.437      2.669      2.891      2.126      1.537      1.153      1.18419    2.159      0.1778499  0.1778499  0.33084    5.512779   2.283615   2.126      0.3035588  0.5123164  60.084     0.4636062  0.4631017  0.4641106 
1183.3     -9999      409        -9999      -9999      11.76102   2.756      2.076      1.899      2.618      2.556      2.018      1.604      1.119      1.19927    2.008      0.1759582  0.1759582  0.326586   5.085457   2.466165   2.018      0.2796318  0.4933648  60.084     0.4564479  0.4487852  0.4641106 
1183.5     -9999      418        -9999      -9999      11.68242   2.521      2.126      1.597      2.568      2.188      1.981      1.831      1.268      1.21297    1.589      0.1775059  0.1775059  0.3227213  5.43248    2.788355   1.981      0.2788705  0.4867339  59.664     0.4400465  0.4268386  0.4532544 
1183.7     -9999      426        -9999      -9999      11.57479   2.336      2.143      1.412      2.417      1.904      1.947      1.797      1.405      1.224755   -9999      0.1820939  0.1820939  0.3193967  6.606627   3.298868   1.947      0.2889684  0.4842792  58.88      0.4160689  0.3985184  0.4336193 
1183.9     -9999      431        -9999      -9999      11.43989   2.252      2.227      1.361      2.132      1.653      1.962      1.906      1.467      1.234659   -9999      0.188696   0.188696   0.3166028  8.755177   4.072706   1.962      0.3131629  0.4908486  57.871     0.3875965  0.365661   0.4095322 
1184.1     -9999      430        -9999      -9999      11.28028   2.185      2.211      1.429      1.73       1.485      2.081      1.718      1.394      1.242998   -9999      0.19594    0.19594    0.3142501  11.92458   5.225898   2.081      0.3534473  0.5109121  56.863     0.3585154  0.3302669  0.3867639 
1184.3     -9999      421        -9999      -9999      11.09896   2.084      2.093      1.58       1.444      1.402      2.315      1.69       1.276      1.250157   -9999      0.202654   0.202654   0.3122306  15.87822   6.936962   2.315      0.4027679  0.5408519  56.078     0.3320504  0.2941959  0.3699049 
1184.5     -9999      408        -9999      -9999      10.89936   1.916      1.924      1.798      1.26       1.402      2.671      1.581      1.408      1.256417   -9999      0.2109003  0.2109003  0.3104647  22.5706    9.475012   2.671      0.4606079  0.5780715  54.818     0.3017102  0.2590264  0.344394  
1184.7     -9999      393        -9999      -9999      10.68627   1.782      1.789      2.151      1.109      1.402      3.072      1.71       1.766      1.261976   -9999      0.219663   0.219663   0.3088965  32.79823   13.21725   3.072      0.5124717  0.6119887  53.221     0.2704045  0.2261074  0.3147016 
1184.9     -9999      381        1          2          10.45384   1.899      1.907      2.521      1.059      1.452      3.406      1.811      2.217      1.267043   -9999      0.2290447  0.2290447  0.3074672  48.93527   19.00316   3.406      0.5521357  0.6368903  51.148     0.2376438  0.1949517  0.2803359 
1185.1     -9999      372        1          2          -9999      -9999      -9999      2.706      1.092      1.552      3.473      1.959      2.481      1.271917   -9999      1          1          0.3060923  9323613800000000.000000000000000 -9999      3.473      0.8770589  0.681542   48.936     -4999.376  -9999      0.24853   
1185.3     -9999      368        1          2          -9999      -9999      -9999      2.723      -9999      1.703      3.239      2.012      2.531      1.276934   -9999      1          1          0.3046768  9323613800000000.000000000000000 -9999      3.239      0.872968   0.6687071  45.855     -4999.394  -9999      0.2118661 
1185.5     -9999      365        1          2          -9999      -9999      -9999      2.588      -9999      1.803      2.879      2.11       2.59       1.282333   -9999      1          1          0.3031539  9323613800000000.000000000000000 -9999      2.879      0.8657467  0.6468388  42.129     -4999.411  -9999      0.1780113 
1185.7     -9999      361        1          2          -9999      -9999      -9999      2.387      -9999      1.904      2.764      2.186      2.57       1.288104   -9999      1          1          0.3015258  9323613800000000.000000000000000 -9999      2.764      0.8631538  0.6376206  39.076     -4999.421  -9999      0.1575842 
1185.9     -9999      358        1          2          -9999      -9999      -9999      2.185      -9999      1.921      2.757      2.548      2.422      1.293893   -9999      1          1          0.2998929  9323613800000000.000000000000000 -9999      2.757      0.8629909  0.6351852  37.535     -4999.425  -9999      0.1494163 
1186.1     -9999      358        1          2          -9999      -9999      -9999      2.487      -9999      1.87       2.715      2.918      2.632      1.299005   -9999      1          1          0.2984506  9323613800000000.000000000000000 -9999      2.715      0.8620003000000001 0.6305977  37.283     -4999.426  -9999      0.148204  
1186.3     -9999      367        1          2          -9999      -9999      -9999      3.042      -9999      2.021      2.47       3.231      2.607      1.30252    -9999      1          1          0.297459   9323613800000000.000000000000000 -9999      2.47       0.855738   0.6114191  37.283     -4999.426  -9999      0.148204  
1186.5     -9999      383        1          2          -9999      -9999      -9999      3.496      -9999      2.238      2.259      3.195      2.38       1.303541   -9999      -9999      -9999      0.2971711  -9999      -9999      2.259      -9999      -9999      -9999      -9999      -9999      -9999     
