~Version
 VERS              .         2.0                           : CWLS LOG ASCII STANDARD - VERSION 2.0
 WRAP              .         NO                            : ONE LINE PER DEPTH STEP
 DLM               .         SPACE                         : DELIMITING CHARACTER(SPACE TAB OR COMMA)
~Well Information
#_______________________________________________________________________________
#
#PARAMETER_NAME    .UNIT     VALUE                         : DESCRIPTION
#_______________________________________________________________________________
STRT               .M        880.1                         : First reference value
STOP               .M        1190.9                        : Last reference value
STEP               .M        0.2                           : Step increment
NULL               .         -9999                         : Missing value
COMP               .                                       : Company
WELL               .         2574                          : Well name
FLD                .         Узень                         : Field
LOC                .                                       : Location
CNTY               .                                       : County
STAT               .                                       : State
CTRY               .                                       : Country
SRVC               .                                       : Service Company
DATE               .         22.04.1980                    : Date
UWI                .                                       : Unique Well ID
Block              .         7                             : 
Category           .         Нефтяная                      : 
Condition          .         Ликвидированная               : 
Date               .         27.10.1982                    : 
EREF               .m        90.3                          : 100.8
Gorizont           .         15                            : 14
Interpretator      .         Алпанова Н.К.                 : 
Kupol              .         основной                      : osnovnoi
METD               .         gz3 gz6 ds ps ik              : 
Moii_15_vosst      .         15_vosst                      : 
Mud                .                                       : 
Mud_density        .                                       : 
Mud_resistivity    .                                       : 
Mud_density        .                                       : 
Mud_resistivity    .                                       : 
NGDU               .         НГДУ-2                        : 
ORIGINALWELLNAME   .         2574                          : 
Spud_date          .         1980                          : 1961
Spud_date          .         1980                          : 1961
Viscosity          .                                       : 
X                  .m        42543.7                       : 46154
Y                  .m        84875.13                      : 85761.93
YEAR               .         2018                          : 
~Parameter Information Block
#_______________________________________________________________________________
#
#PARAMETER_NAME    .UNIT     VALUE                         : DESCRIPTION
#_______________________________________________________________________________
SET                .         LQC_KAZNIPI_Petrel            : 
TLFamily_CALI      .         Caliper                       : 
TLFamily_CILD      .         Conductivity                  : 
TLFamily_COLL      .         Net Reservoir Flag            : 
TLFamily_CSAT      .         Fluid Code                    : 
TLFamily_DEPT      .         Measured Depth                : 
TLFamily_GR        .         Russian Gamma Ray             : 
TLFamily_GZ1_1     .         Gradient 045                  : 
TLFamily_GZ2_1     .         Gradient 105                  : 
TLFamily_GZ3       .         Gradient 225                  : 
TLFamily_GZ4_1     .         Gradient 425                  : 
TLFamily_GZ5_1     .         Gradient 850                  : 
TLFamily_LLS       .         Lateral Log Resistivity       : 
TLFamily_MINV      .         Micro Gradient Resistivity    : 
TLFamily_MNOR      .         Micro Resistivity             : 
TLFamily_NGLD      .         Neutron Far                   : 
TLFamily_OGZ       .         Gradient Inverted 225         : 
TLFamily_PHIE      .         Effective Porosity            : 
TLFamily_PHIEN     .         Effective Porosity            : 
TLFamily_PHIT      .         Porosity                      : 
TLFamily_PRMB      .         Permeability                  : 
TLFamily_PRMB_DGR  .         Permeability                  : 
TLFamily_RT        .         Formation Resistivity         : 
TLFamily_SOIL_ARCHIE .         Oil Saturation                : 
TLFamily_SOIL_DW   .         Oil Saturation                : 
TLFamily_SP        .         Spontaneous Potential         : 
TLFamily_VSH_FIN   .         Shale Volume                  : 
TLFamily_VSH_GR    .         Shale Volume                  : 
TLFamily_VSH_SP    .         Shale Volume                  : 
~Curve Information
#_______________________________________________________________________________
#
#LOGNAME           .UNIT     LOG_ID                        : DESCRIPTION
#_______________________________________________________________________________
DEPT               .M                                      : Колонка глубины 
CALI               .м                                      : Каверномер 
CILD               .мСм/м                                  : Индукционный каротаж 
COLL               .unitless                               :  
CSAT               .unitless                               :  
GR                 .мкР/ч                                  : Гамма каротаж 
GZ1_1              .Ом·м                                   :  
GZ2_1              .Ом·м                                   :  
GZ3                .Ом·м                                   :  
GZ4_1              .Ом·м                                   :  
GZ5_1              .Ом·м                                   :  
LLS                .Ом·м                                   : Боковой каротаж 
MINV               .Ом·м                                   : Микро-градиент зонд 
MNOR               .Ом·м                                   : Микро-потенциал зонд 
NGLD               .у.е.                                   : Показания зонда НГК-60 аппаратуры ДРСТ-3-90 
OGZ                .Ом·м                                   :  
PHIE               .м3/м3                                  : Описание 
PHIEN              .v/v                                    :  
PHIT               .м3/м3                                  : Описание 
PRMB               .mD                                     :  
PRMB_DGR           .mD                                     :  
RT                 .ohmm                                   : Description 
SOIL_ARCHIE        .v/v                                    :  
SOIL_DW            .v/v                                    :  
SP                 .мВ                                     : Потенциал самополяризации 
VSH_FIN            .unitless                               : Описание 
VSH_GR             .unitless                               : Shale volume 
VSH_SP             .unitless                               : Shale Volume 
~Ascii
# ...
1139.9     0.214      98         1          2          11.50031   5.227001   6.387      3.496      4.279      8.041      12.725     1.64       2.665      1.358091   30.168     0.1928966  0.1928966  0.2817824  10.473     3.706439   12.725     0.7158241  0.7846794  57.031     0.269351   0.3800057  0.1586963 
1140.1     0.214      86         1          2          11.41549   6.185      7.196001   3.58       4.447      8.264      13.913     1.87       2.632      1.367833   29.329     0.1948646  0.1948646  0.2790342  11.39001   4.231566   13.913     0.7298794  0.793746   55.35      0.2550594  0.359992   0.1501268 
1140.3     0.216      76         1          2          11.34399   6.420001   7.920001   4.185      4.665      8.431      14.804     1.931      2.744      1.377037   27.484     0.195971   0.195971   0.276438   11.94032   4.731584   14.804     0.7389247  0.7994153  53.866     0.2438394  0.343943   0.1437359 
1140.5     0.218      69         1          2          11.27983   6.672      10.884     5.261      4.933      8.682      15.38      2.15       2.968      1.384718   25.723     0.1968447  0.1968447  0.274271   12.39366   5.230376   15.38      0.7445511  0.8026587  52.605     0.2346251  0.3301514  0.1390987 
1140.7     0.219      63         1          2          11.21663   7.125999   12.484     6.151      5.184      9.1        17.162     2.769      3.136      1.390017   23.878     0.1980315  0.1980315  0.2727762  13.03715   5.773071   17.162     0.7586275  0.8130509  51.597     0.2264989  0.3171073  0.1358904 
1140.9     0.219      59         1          2          11.14962   7.697      14.421     7.076      5.369      9.435      19.371     3.444      3.464      1.392349   21.866     0.1998405  0.1998405  0.2721184  14.0828    6.410134   19.371     0.7737584  0.8244472  50.98      0.2190238  0.3038389  0.1342087 
1141.1     0.217      57         1          2          11.07722   8.448      16.611     8.017      5.57       9.686001   19.984     3.466      3.45       1.391537   19.434     0.2023562  0.2023562  0.2723473  15.67784   7.177678   19.984     0.779458   0.828141   50.84      0.2120943  0.2901265  0.1340621 
1141.3     0.215      56         1          2          11.0011    9.244      19.137     9.618999   5.771      9.937001   17.775     2.856      3.223      1.387904   17.338     0.2056025  0.2056025  0.2733722  18.00591   8.083967   17.775     0.7702031  0.8193743  50.84      0.2053628  0.2763763  0.1343494 
1141.5     0.215      56         1          2          10.92514   10.168     21.411     11.092     5.989999   10.105     14.953     2.184      3.052      1.382246   15.241     0.2093077  0.2093077  0.2749685  21.0884    9.102455000000001 14.953     0.7546301  0.8051901  50.84      0.1989722  0.2633042  0.1346401 
1141.7     0.214      57         1          2          10.85396   10.168     22         13.109     6.208      10.188     14.099     2.136      3.046      1.375653   11.848     0.2130473  0.2130473  0.2768283  24.73489   10.17293   14.099     0.7516249  0.8016359  50.84      0.1932757  0.2516173  0.1349342 
1141.9     0.214      58         1          2          10.79086   9.496      21.074     16.303     6.392      10.272     13.895     2.03       3.223      1.369213   8.08       0.2164973  0.2164973  0.2786449  28.65585   11.22679   13.895     0.7533949  0.8022774  50.756     0.1883262  0.2416907  0.1349618 
1142.1     0.214      62         1          2          10.73727   9.412      22.253     19.664     6.508999   10.188     12.354     2.038      3.255      1.363673   7.61       0.2196117  0.2196117  0.2802078  32.72652   12.20702   12.354     0.7426313  0.7922358  50.252     0.1836243  0.233569   0.1336797 
1142.3     0.215      67         1          2          10.69274   10         23.684     23.025     6.727      10.105     10.144     2.052      3.196      1.359256   7.107      0.2222688  0.2222688  0.2814539  36.65344   13.08639   10.144     0.720633   0.7724591  49.468     0.1793489  0.227028   0.1316699 
1142.5     0.217      74         1          2          10.65555   10.084     24.611     26.387     7.029      9.937001   8.956      2.223      3.089      1.355631   6.537      0.2244142  0.2244142  0.2824765  40.16558   13.86931   8.956      0.7062848000000001 0.7593196  48.823     0.1759463  0.2217048  0.1301877 
1142.7     0.22       84         1          2          10.62344   9.58       23.347     27.647     7.415      9.603      8.14       2.539      3.093      1.352108   5.966001   0.2261339  0.2261339  0.2834705  43.22222   14.5825    8.14       0.6948535  0.7488649  48.767     0.1737471  0.2172114  0.1302827 
1142.9     0.222      97         1          2          10.59457   8.568      21.074     28.655     8.648001   9.017      7.342      2.973      3.144      1.347897   5.379      0.2276963  0.2276963  0.2846583  46.20042   15.25541   7.342      0.6816303  0.7369718  49.3       0.1726122  0.2132469  0.1319774 
1143.1     0.221      111        1          2          10.56757   7.479      19.053     29.832     9.151      8.264      7.416      3.024      3.449      1.342405   5.061      0.2293709  0.2293709  0.2862077  49.6207    15.91241   7.416      0.6851408  0.7399122  50.168     0.1722327  0.2096067  0.1348587 
1143.3     0.219      127        1          2          10.54158   7.261      16.611     29.076     9.654      7.812      6.952      2.646      3.161      1.335436   4.524      0.2312515  0.2312515  0.2881734  53.76457   16.57175   6.952      0.6777483  0.7333536  51.233     0.1724906  0.2061605  0.1388208 
1143.5     0.216      146        1          2          10.51605   7.798      16.611     26.975     10.073     7.443999   6.525      2.113      2.985      1.327257   3.954      0.2334927  0.2334927  0.2904809  59.15744   17.24614   6.525      0.6707957  0.7271453  52.101     0.1726916  0.2028297  0.1425534 
1143.7     0.215      168        1          2          10.49074   7.176001   16.526     25.042     9.905999   6.925      4.954      1.965      2.483      1.318519   3.434      0.2360953  0.2360953  0.2929459  66.10217   17.94161   4.954      0.6289708000000001 0.6898357  52.577     0.1722744  0.1995817  0.1449672 
1143.9     0.215      194        1          2          10.46624   6.655      13.663     24.034     9.486001   6.222      4.349      2.013      2.643      1.310021   3.082      0.2389766  0.2389766  0.2953431  74.7453    18.64145   4.349      0.6097305  0.6722013  52.521     0.1708078  0.1964875  0.145128  
1144.1     0.216      219        1          2          10.44422   6.185      11.4       23.277     9.122      5.519      3.922      1.878      2.676      1.302494   2.78       0.2419975  0.2419975  0.2974665  85.02330000000001 19.29394   3.922      0.5947953  0.6580614  51.793     0.1680881  0.1937465  0.1424297 
1144.3     0.216      241        1          2          10.42756   5.630001   9.136      21.849     8.758001   4.799      3.678      1.876      2.648      1.296374   2.612      0.2448484  0.2448484  0.2991929  96.01631   19.80273   3.678      0.5866339  0.6498159  50.448     0.1646802  0.1916982  0.1376622 
1144.5     0.216      261        1          2          10.42004   4.992001   7.752      18.487     8.393001   4.079      3.629      1.878      2.598      1.29179    2.595      0.2471593  0.2471593  0.3004859  105.9614   20.03654   3.629      0.5874135  0.6497295  48.711     0.1615958  0.1907816  0.13241   
1144.7     0.216      276        1          2          10.42556   4.504001   6.488      15.21      8.029      3.259      3.7        2.111      2.649      1.288559   2.73       0.2485752  0.2485752  0.3013976  112.5571   19.86466   3.7        0.5931768  0.6545478  47.199     0.160068   0.1914539  0.128682  
1144.9     0.216      287        1          2          10.44697   4.37       5.663      11.261     7.432001   2.674      3.622      2.228      2.803      1.286319   2.981      0.2491324  0.2491324  0.3020296  115.264    19.21106   3.622      0.5898894  0.6515999  46.134     0.1602945  0.1940874  0.1265016 
