~Version
 VERS              .         2.0                           : CWLS LOG ASCII STANDARD - VERSION 2.0
 WRAP              .         NO                            : ONE LINE PER DEPTH STEP
 DLM               .         SPACE                         : DELIMITING CHARACTER(SPACE TAB OR COMMA)
~Well Information
#_______________________________________________________________________________
#
#PARAMETER_NAME    .UNIT     VALUE                         : DESCRIPTION
#_______________________________________________________________________________
STRT               .M        880.1                         : First reference value
STOP               .M        1190.9                        : Last reference value
STEP               .M        0.2                           : Step increment
NULL               .         -9999                         : Missing value
COMP               .                                       : Company
WELL               .         2574                          : Well name
FLD                .         Узень                         : Field
LOC                .                                       : Location
CNTY               .                                       : County
STAT               .                                       : State
CTRY               .                                       : Country
SRVC               .                                       : Service Company
DATE               .         22.04.1980                    : Date
UWI                .                                       : Unique Well ID
Block              .         7                             : 
Category           .         Нефтяная                      : 
Condition          .         Ликвидированная               : 
Date               .         27.10.1982                    : 
EREF               .m        90.3                          : 100.8
Gorizont           .         15                            : 14
Interpretator      .         Алпанова Н.К.                 : 
Kupol              .         основной                      : osnovnoi
METD               .         gz3 gz6 ds ps ik              : 
Moii_15_vosst      .         15_vosst                      : 
Mud                .                                       : 
Mud_density        .                                       : 
Mud_resistivity    .                                       : 
Mud_density        .                                       : 
Mud_resistivity    .                                       : 
NGDU               .         НГДУ-2                        : 
ORIGINALWELLNAME   .         2574                          : 
Spud_date          .         1980                          : 1961
Spud_date          .         1980                          : 1961
Viscosity          .                                       : 
X                  .m        42543.7                       : 46154
Y                  .m        84875.13                      : 85761.93
YEAR               .         2018                          : 
~Parameter Information Block
#_______________________________________________________________________________
#
#PARAMETER_NAME    .UNIT     VALUE                         : DESCRIPTION
#_______________________________________________________________________________
SET                .         LQC_KAZNIPI_Petrel            : 
TLFamily_CALI      .         Caliper                       : 
TLFamily_CILD      .         Conductivity                  : 
TLFamily_COLL      .         Net Reservoir Flag            : 
TLFamily_CSAT      .         Fluid Code                    : 
TLFamily_DEPT      .         Measured Depth                : 
TLFamily_GR        .         Russian Gamma Ray             : 
TLFamily_GZ1_1     .         Gradient 045                  : 
TLFamily_GZ2_1     .         Gradient 105                  : 
TLFamily_GZ3       .         Gradient 225                  : 
TLFamily_GZ4_1     .         Gradient 425                  : 
TLFamily_GZ5_1     .         Gradient 850                  : 
TLFamily_LLS       .         Lateral Log Resistivity       : 
TLFamily_MINV      .         Micro Gradient Resistivity    : 
TLFamily_MNOR      .         Micro Resistivity             : 
TLFamily_NGLD      .         Neutron Far                   : 
TLFamily_OGZ       .         Gradient Inverted 225         : 
TLFamily_PHIE      .         Effective Porosity            : 
TLFamily_PHIEN     .         Effective Porosity            : 
TLFamily_PHIT      .         Porosity                      : 
TLFamily_PRMB      .         Permeability                  : 
TLFamily_PRMB_DGR  .         Permeability                  : 
TLFamily_RT        .         Formation Resistivity         : 
TLFamily_SOIL_ARCHIE .         Oil Saturation                : 
TLFamily_SOIL_DW   .         Oil Saturation                : 
TLFamily_SP        .         Spontaneous Potential         : 
TLFamily_VSH_FIN   .         Shale Volume                  : 
TLFamily_VSH_GR    .         Shale Volume                  : 
TLFamily_VSH_SP    .         Shale Volume                  : 
~Curve Information
#_______________________________________________________________________________
#
#LOGNAME           .UNIT     LOG_ID                        : DESCRIPTION
#_______________________________________________________________________________
DEPT               .M                                      : Колонка глубины 
CALI               .м                                      : Каверномер 
CILD               .мСм/м                                  : Индукционный каротаж 
COLL               .unitless                               :  
CSAT               .unitless                               :  
GR                 .мкР/ч                                  : Гамма каротаж 
GZ1_1              .Ом·м                                   :  
GZ2_1              .Ом·м                                   :  
GZ3                .Ом·м                                   :  
GZ4_1              .Ом·м                                   :  
GZ5_1              .Ом·м                                   :  
LLS                .Ом·м                                   : Боковой каротаж 
MINV               .Ом·м                                   : Микро-градиент зонд 
MNOR               .Ом·м                                   : Микро-потенциал зонд 
NGLD               .у.е.                                   : Показания зонда НГК-60 аппаратуры ДРСТ-3-90 
OGZ                .Ом·м                                   :  
PHIE               .м3/м3                                  : Описание 
PHIEN              .v/v                                    :  
PHIT               .м3/м3                                  : Описание 
PRMB               .mD                                     :  
PRMB_DGR           .mD                                     :  
RT                 .ohmm                                   : Description 
SOIL_ARCHIE        .v/v                                    :  
SOIL_DW            .v/v                                    :  
SP                 .мВ                                     : Потенциал самополяризации 
VSH_FIN            .unitless                               : Описание 
VSH_GR             .unitless                               : Shale volume 
VSH_SP             .unitless                               : Shale Volume 
~Ascii
# ...
1160.7     0.219      402        8          2          11.70558   2.269      1.655      1.95       2.468      2.473      3.714      1.752      1.979      1.252257   1.488      0.1995433  0.1995433  0.3116384  13.90542   2.689698   3.714      0.5082518  0.6296764  56.891     0.3396823  0.4331636  0.2462009 
1160.9     0.22       405        8          2          11.76211   3.294      2.16       1.916      2.501      2.69       3.447      1.926      2.265      1.254537   1.522      0.1983108  0.1983108  0.3109952  13.19335   2.46236    3.447      0.4879755  0.6141621  55.826     0.3414679  0.4490681  0.2338678 
1161.1     0.221      415        8          2          11.83192   3.916      2.585      2.185      2.618      2.941      2.682      2.052      2.088      1.255414   1.522      0.1963423  0.1963423  0.3107478  12.13091   2.207951   2.682      0.4189605  0.560607   54.876     0.3466834  0.4695175  0.2238494 
1161.3     0.221      424        8          2          11.91312   4.202      3.052      2.336      3.021      3.042      2.237      2.015      1.864      1.254651   1.522      0.1930289  0.1930289  0.310963   10.53224   1.944934   2.237      0.3578774  0.5157718  54.456     0.3573763  0.4944753  0.2202773 
1161.5     0.223      430        8          2          12.00164   3.58       3.168      2.197      3.138      3.042      2.122      2.315      1.873      1.251918   1.706      0.1879048  0.1879048  0.3117339  8.464693000000001 1.693767   2.122      0.3261702  0.4981712  54.961     0.3752396  0.5231975  0.2272817 
1161.7     0.225      435        8          2          12.0924    3.109      4.197999   2.256      3.289      3.092      2.178      2.072      1.607      1.246849   2.696      0.1812286  0.1812286  0.313164   6.367253   1.469866   2.178      0.3130497  0.4988539  56.303     0.3998041  0.5543819  0.2452262 
1161.9     0.226      442        -9999      -9999      12.17982   3.871      5.949      4.292      4.262      4.23       2.129      2.176      1.713      1.239165   4.055      0.1737754  0.1737754  0.3153315  4.633407   1.282252   2.129      0.2798093  0.4867919  58.095     0.4289578  0.5861718  0.2717439 
1162.1     0.227      450        -9999      -9999      12.25826   3.361      3.777      4.496      5.587      5.552      2.077      2.039      1.444      1.228897   4.91       0.1682664  0.1682664  0.3182281  3.663197   1.134389   2.077      0.2506712  0.4767426  59.328     0.4544294  0.6162444  0.2926144 
1162.3     0.227      460        -9999      -9999      12.323     2.252      2.211      3.798      6.191      5.869999   2.092      2.153      1.73       1.216546   4.273      0.1657932  0.1657932  0.3217123  3.296481   1.025272   2.092      0.2435038  0.479099   59.832     0.4724819  0.6422264  0.3027375 
1162.5     0.227      470        -9999      -9999      12.37083   2.454      1.453      2.672      3.943      5.335      2.241      2.004      1.775      1.203135   3.333      0.1667023  0.1667023  0.3254955  3.426798   0.9514655  2.241      0.2710181  0.5013648  59.58      0.4811915  0.6621204000000001 0.3002627 
1162.7     0.227      482        -9999      -9999      12.40075   2.655      1.604      1.563      2.3        4.381      2.155      1.985      1.878      1.190079   2.411      0.1678312  0.1678312  0.3291786  3.595829   0.9080132  2.155      0.26186    0.4963266  59.636     0.4889315  0.6748799  0.302983  
1162.9     0.227      495        -9999      -9999      12.41371   2.504      1.941      1.445      1.679      3.109      1.922      1.755      1.657      1.17892    1.857      0.1682356  0.1682356  0.3323268  3.658381   0.8898134  1.922      0.2227727  0.4702711  60.168     0.4972461  0.6804826000000001 0.3140096 
1163.1     0.227      513        -9999      -9999      12.41241   2.79       2.379      1.294      1.377      2.322      1.654      1.609      1.402      1.170951   1.639      0.1670455  0.1670455  0.3345748  3.477329   0.8916286  1.654      0.1608539  0.4297727  61.232     0.5076647  0.6799166  0.3354129 
1163.3     0.227      527        -9999      -9999      12.40039   2.437      1.941      1.176      1.21       1.854      1.572      1.321      0.881      1.166919   1.455      0.1647747  0.1647747  0.3357123  3.156357   0.9085248  1.572      0.1302842  0.4132406  62.437     0.5179924  0.6747248  0.3612601 
1163.5     0.227      537        -9999      -9999      12.38088   2.034      1.52       1.076      1.059      1.569      1.662      1.307      0.71       1.166847   1.321      0.1605406  0.1605406  0.3357324  2.634869   0.9366468  1.662      0.1332814  0.4236741  63.922     0.5308842  0.666378   0.3953904 
1163.7     0.227      536        -9999      -9999      12.35604   1.697      1.301      1.025      0.975      1.368      1.776      1.607      1.097      1.170094   1.203      0.1550901  0.1550901  0.3348166  2.088345   0.9736928  1.776      0.1341897  0.4341745  65.434     0.5446258000000001 0.6559064  0.4333453 
1163.9     0.227      534        -9999      -9999      12.32691   1.597      1.251      0.941      0.874      1.234      1.832      1.461      1.388      1.175532   1.153      0.1510259  0.1510259  0.3332823  1.755998   1.019023   1.832      0.1267467  0.4356792  66.415     0.5522922  0.6438317  0.4607528 
1164.1     0.227      533        -9999      -9999      12.29425   1.731      1.301      1.143      0.807      1.134      1.851      1.567      1.422      1.181871   1.136      0.150976   0.150976   0.3314942  1.752268   1.072363   1.851      0.1307146  0.4366241  66.415     0.5470247  0.6305574000000001 0.463492  
1164.3     0.227      532        -9999      -9999      12.25925   1.832      1.335      1.513      0.824      1.084      1.859      1.472      1.116      1.187934   1.153      0.1537377  0.1537377  0.3297839  1.971302   1.13263    1.859      0.1460607  0.4398632  65.798     0.5334734  0.6166351  0.4503117 
1164.5     0.227      529        -9999      -9999      12.22418   1.899      1.368      1.782      0.841      1.084      1.855      1.517      0.971      1.192889   1.254      0.156589   0.156589   0.3283861  2.226213   1.196406   1.855      0.1587696  0.4416813  65.21      0.520597   0.602995   0.4381991 
1164.7     0.227      526        -9999      -9999      12.19194   1.95       1.503      1.899      0.925      1.117      1.836      1.327      0.951      1.196291   1.338      0.1580248  0.1580248  0.3274263  2.366793   1.258214   1.836      0.1613885  0.4397314  65.014     0.5133378  0.5907192  0.4359563 
1164.9     0.227      522        -9999      -9999      12.16511   2          1.705      1.899      1.008      1.201      1.829      1.22       0.945      1.198019   1.421      0.1586473  0.1586473  0.326939   2.430472   1.312063   1.829      0.1627557  0.4389848  65.042     0.5099748  0.5806967  0.4392528 
1165.1     0.227      518        -9999      -9999      12.1447    2.101      1.857      1.916      1.126      1.268      1.84       1.293      0.929      1.198151   1.539      0.1590698  0.1590698  0.3269015  2.474662   1.354561   1.84       0.1670398  0.4411923  65.126     0.5085809  0.5731871  0.4439748 
1165.3     0.227      516        -9999      -9999      12.12947   2.218      1.789      2.05       1.243      1.335      1.859      1.503      1.021      1.196889   1.589      0.1596705  0.1596705  0.3272575  2.538886   1.387188   1.859      0.1737627  0.4452285  65.182     0.5078395  0.5676433  0.4480357 
1165.5     0.227      514        -9999      -9999      12.11598   2.202      1.638      2.185      1.461      1.385      1.866      1.539      1.041      1.194522   1.572      0.1610519  0.1610519  0.3279253  2.69296    1.416723   1.866      0.1813836  0.4487858  65.098     0.5056771  0.562781   0.4485732 
1165.7     0.228      514        -9999      -9999      12.09985   2.101      1.537      2.118      1.562      1.435      1.873      1.57       1.038      1.191418   1.522      0.1636046  0.1636046  0.3288009  3.002702   1.45287    1.873      0.1939369  0.454022   64.818     0.5005949  0.557021   0.4441688 
