~Version
 VERS              .         2.0                           : CWLS LOG ASCII STANDARD - VERSION 2.0
 WRAP              .         NO                            : ONE LINE PER DEPTH STEP
 DLM               .         SPACE                         : DELIMITING CHARACTER(SPACE TAB OR COMMA)
~Well Information
#_______________________________________________________________________________
#
#PARAMETER_NAME    .UNIT     VALUE                         : DESCRIPTION
#_______________________________________________________________________________
STRT               .M        880.1                         : First reference value
STOP               .M        1190.9                        : Last reference value
STEP               .M        0.2                           : Step increment
NULL               .         -9999                         : Missing value
COMP               .                                       : Company
WELL               .         2574                          : Well name
FLD                .         Узень                         : Field
LOC                .                                       : Location
CNTY               .                                       : County
STAT               .                                       : State
CTRY               .                                       : Country
SRVC               .                                       : Service Company
DATE               .         22.04.1980                    : Date
UWI                .                                       : Unique Well ID
Block              .         7                             : 
Category           .         Нефтяная                      : 
Condition          .         Ликвидированная               : 
Date               .         27.10.1982                    : 
EREF               .m        90.3                          : 100.8
Gorizont           .         15                            : 14
Interpretator      .         Алпанова Н.К.                 : 
Kupol              .         основной                      : osnovnoi
METD               .         gz3 gz6 ds ps ik              : 
Moii_15_vosst      .         15_vosst                      : 
Mud                .                                       : 
Mud_density        .                                       : 
Mud_resistivity    .                                       : 
Mud_density        .                                       : 
Mud_resistivity    .                                       : 
NGDU               .         НГДУ-2                        : 
ORIGINALWELLNAME   .         2574                          : 
Spud_date          .         1980                          : 1961
Spud_date          .         1980                          : 1961
Viscosity          .                                       : 
X                  .m        42543.7                       : 46154
Y                  .m        84875.13                      : 85761.93
YEAR               .         2018                          : 
~Parameter Information Block
#_______________________________________________________________________________
#
#PARAMETER_NAME    .UNIT     VALUE                         : DESCRIPTION
#_______________________________________________________________________________
SET                .         LQC_KAZNIPI_Petrel            : 
TLFamily_CALI      .         Caliper                       : 
TLFamily_CILD      .         Conductivity                  : 
TLFamily_COLL      .         Net Reservoir Flag            : 
TLFamily_CSAT      .         Fluid Code                    : 
TLFamily_DEPT      .         Measured Depth                : 
TLFamily_GR        .         Russian Gamma Ray             : 
TLFamily_GZ1_1     .         Gradient 045                  : 
TLFamily_GZ2_1     .         Gradient 105                  : 
TLFamily_GZ3       .         Gradient 225                  : 
TLFamily_GZ4_1     .         Gradient 425                  : 
TLFamily_GZ5_1     .         Gradient 850                  : 
TLFamily_LLS       .         Lateral Log Resistivity       : 
TLFamily_MINV      .         Micro Gradient Resistivity    : 
TLFamily_MNOR      .         Micro Resistivity             : 
TLFamily_NGLD      .         Neutron Far                   : 
TLFamily_OGZ       .         Gradient Inverted 225         : 
TLFamily_PHIE      .         Effective Porosity            : 
TLFamily_PHIEN     .         Effective Porosity            : 
TLFamily_PHIT      .         Porosity                      : 
TLFamily_PRMB      .         Permeability                  : 
TLFamily_PRMB_DGR  .         Permeability                  : 
TLFamily_RT        .         Formation Resistivity         : 
TLFamily_SOIL_ARCHIE .         Oil Saturation                : 
TLFamily_SOIL_DW   .         Oil Saturation                : 
TLFamily_SP        .         Spontaneous Potential         : 
TLFamily_VSH_FIN   .         Shale Volume                  : 
TLFamily_VSH_GR    .         Shale Volume                  : 
TLFamily_VSH_SP    .         Shale Volume                  : 
~Curve Information
#_______________________________________________________________________________
#
#LOGNAME           .UNIT     LOG_ID                        : DESCRIPTION
#_______________________________________________________________________________
DEPT               .M                                      : Колонка глубины 
CALI               .м                                      : Каверномер 
CILD               .мСм/м                                  : Индукционный каротаж 
COLL               .unitless                               :  
CSAT               .unitless                               :  
GR                 .мкР/ч                                  : Гамма каротаж 
GZ1_1              .Ом·м                                   :  
GZ2_1              .Ом·м                                   :  
GZ3                .Ом·м                                   :  
GZ4_1              .Ом·м                                   :  
GZ5_1              .Ом·м                                   :  
LLS                .Ом·м                                   : Боковой каротаж 
MINV               .Ом·м                                   : Микро-градиент зонд 
MNOR               .Ом·м                                   : Микро-потенциал зонд 
NGLD               .у.е.                                   : Показания зонда НГК-60 аппаратуры ДРСТ-3-90 
OGZ                .Ом·м                                   :  
PHIE               .м3/м3                                  : Описание 
PHIEN              .v/v                                    :  
PHIT               .м3/м3                                  : Описание 
PRMB               .mD                                     :  
PRMB_DGR           .mD                                     :  
RT                 .ohmm                                   : Description 
SOIL_ARCHIE        .v/v                                    :  
SOIL_DW            .v/v                                    :  
SP                 .мВ                                     : Потенциал самополяризации 
VSH_FIN            .unitless                               : Описание 
VSH_GR             .unitless                               : Shale volume 
VSH_SP             .unitless                               : Shale Volume 
~Ascii
# ...
1119.1     0.21       267        8          2          12.10977   3.681      3.547      2.588      4.581      0.983      4.936      1.926      2.413      1.328257   5.53       0.1606881  0.1606881  0.2901986  2.6515     1.430536   4.936      0.4803759  0.6344445  78.263     0.392456   0.5605557  0.3924555 
1119.3     0.212      265        8          2          12.10809   4.655      3.844      3.076      5.805      1.067      4.517      1.934      2.335      1.328855   6.184      0.176538   0.176538   0.2900299  5.212783   1.434289   4.517      0.5009025  0.6317476  75.91      0.343915   0.5599563  0.3439152 
1119.5     0.214      262        8          2          12.10599   4.975      4.131      3.328      5.989999   1.151      3.771      1.985      2.066      1.32844    6.117      0.1901296  0.1901296  0.290147   9.307207   1.438998   3.771      0.4907655  0.6089513  73.641     0.303083   0.5592074  0.3030834 
1119.7     0.216      259        8          2          12.1       4.42       4.299      3.126      5.335      1.201      3.303      1.805      1.892      1.327554   5.546999   0.1961464  0.1961464  0.2903971  12.03001   1.45252    3.303      0.4726022  0.5876503  72.549     0.285608   0.5570759  0.2856075 
1119.9     0.218      256        8          2          12.08653   4          4.467      2.807      4.732      1.151      3.079      1.766      1.867      1.326664   4.742      0.1953769  0.1953769  0.2906482  11.64157   1.483425   3.079      0.4530629  0.572446   72.717     0.288701   0.5523071000000001 0.2887006 
1120.1     0.219      251        8          2          12.06362   3.58       4.467      2.487      4.212      1.1        3.057      1.856      2.038      1.326023   3.87       0.1884557  0.1884557  0.290829   8.665934999999999 1.537457   3.057      0.433707   0.5647227  73.978     0.310222   0.5442974  0.310222  
1120.3     0.22       246        8          2          12.03221   3.244      4.316      2.37       3.742      1.033      3.157      1.988      2.265      1.325635   3.317      0.1810452  0.1810452  0.2909385  6.31763    1.614785   3.157      0.4223626  0.5647672  75.21      0.33301    0.5334995  0.3330104 
1120.5     0.221      239        8          2          11.99588   3.21       4.063      2.286      3.373      1.017      3.328      2.074      2.284      1.325323   3.283      0.1737576  0.1737576  0.2910264  4.629889   1.709063   3.328      0.4159559  0.5691321  76.331     0.35536    0.5212803  0.3553597 
1120.7     0.22       233        8          2          11.95976   3.277      3.811      2.286      3.122      1.017      3.625      2.153      2.349      1.324887   3.4        0.1703001  0.1703001  0.2911494  3.995112   1.808269   3.625      0.4290121  0.5839455  76.835     0.36621    0.5094072  0.36621   
1120.9     0.219      230        8          2          11.9286    3.244      3.861      2.353      2.971      1.017      4.086      2.189      2.458      1.324251   3.518      0.1714486  0.1714486  0.2913288  4.195686   1.898462   4.086      0.4633548  0.6093099  76.667     0.363273   0.4993826  0.3632726 
1121.1     0.218      229        8          2          11.90513   3.513      4.197999   2.555      2.87       1.033      4.673      2.295      2.629      1.323506   3.635      0.1748717  0.1748717  0.2915389  4.855186   1.969373   4.673      0.5047176  0.6376985  76.162     0.353537   0.4919605  0.3535367 
1121.3     0.219      232        8          2          11.88912   3.916      4.602      2.958      2.853      1.05       4.996      2.279      2.693      1.322827   3.753      0.1783607  0.1783607  0.2917305  5.634172   2.019243   4.996      0.5281984  0.6525042  75.63      0.343545   0.4869624  0.3435454 
1121.5     0.217      238        8          2          11.87806   4.303      4.973      3.714      2.987      1.1        5.014      2.377      2.62       1.322288   3.904      0.1810118  0.1810118  0.2918826  6.308643   2.054419   5.014      0.535008   0.6552864  75.21      0.335972   0.4835404  0.335972  
1121.7     0.216      247        8          2          11.86813   4.672      5.293      4.471      3.071      1.167      4.732      2.416      2.595      1.321769   3.803      0.1827379  0.1827379  0.292029   6.790592   2.086556   4.732      0.5261371  0.6466231  74.93      0.331185   0.4804854  0.3311847 
1121.9     0.215      259        8          2          11.85564   5.041999   5.512      4.756      3.038      1.234      4.364      2.553      2.64       1.320967   3.618      0.1808802  0.1808802  0.2922552  6.273328   2.127638   4.364      0.5033882  0.6306789  75.238     0.3375     0.4766752  0.3374995 
1122.1     0.217      272        8          2          11.83752   4.79       5.545      4.84       2.954      1.301      3.919      2.573      2.531      1.319554   3.384      0.1745587  0.1745587  0.2926539  4.790816   2.188725   3.919      0.4612445  0.6050013  76.246     0.357864   0.4711973  0.3578639 
1122.3     0.219      289        -9999      -9999      11.81162   4.319      5.377      4.605      2.82       1.402      3.681      2.477      2.332      1.317339   3.233      0.165828   0.165828   0.2932786  3.30137    2.279112   3.681      0.4198126  0.5845762  77.563     0.386214   0.4634752  0.3862142 
1122.5     0.22       305        -9999      -9999      11.7763    4.017      5.242      4.185      2.635      1.552      3.518      2.402      2.175      1.314384   3.115      0.1585213  0.1585213  0.2941124  2.417446   2.408371   3.518      0.3836272  0.5682153  78.628     0.410882   0.4531519  0.4108824 
1122.7     0.219      322        -9999      -9999      11.73016   3.866      5.074      3.832      2.501      1.77       3.391      2.5        2.312      1.31101    3.099      0.152821   0.152821   0.2950642  1.89572    2.588384   3.391      0.3525762  0.5547705  79.076     0.4310399  0.4400082  0.4220716 
1122.9     0.216      336        -9999      -9999      11.67155   3.849      4.787      3.647      2.384      2.105      3.042      2.506      2.256      1.307691   3.249      0.1571973  0.1571973  0.2960002  2.284722   2.836519   3.042      0.3352726  0.535952   78.852     0.420615   0.4238641  0.4173659 
1123.1     0.216      349        -9999      -9999      11.59869   3.815      4.366      3.613      2.451      2.523      2.708      2.377      1.998      1.304891   3.35       0.1634324  0.1634324  0.2967902  2.980732   3.178462   2.708      0.3213698  0.5163788  78.235     0.4041145  0.4046152  0.4036137 
1123.3     0.217      360        -9999      -9999      11.50985   3.613      3.777      3.63       2.535      2.975      2.482      2.189      1.598      1.302943   3.233      0.1708681  0.1708681  0.2973397  4.093073   3.651611   2.482      0.3199135  0.5041851  77.339     0.3832473  0.3823253  0.3841693 
1123.5     0.219      368        -9999      -9999      11.40448   3.311      3.322      3.58       2.518      3.226      2.382      2.186      1.447      1.301984   3.099      0.1774244  0.1774244  0.2976102  5.413631   4.304969   2.382      0.3290302  0.501681   76.695     0.3641993  0.3574728  0.3709258 
1123.7     0.22       372        -9999      -9999      11.28384   2.958      2.968      3.378      2.451      3.259      2.323      2.192      1.354      1.302031   2.981      0.1844495  0.1844495  0.2975971  7.304827   5.197767   2.323      0.3436633  0.503172   75.883     0.3428717  0.3309956  0.3547478 
1123.9     0.221      369        -9999      -9999      11.15124   2.655      2.665      3.109      2.3        3.092      2.278      2.049      1.34       1.303051   3.048      0.1910543  0.1910543  0.2973093  9.681620000000001 6.394026   2.278      0.3575999  0.5050797  75.098     0.3219847  0.3041513  0.3398181 
1124.1     0.221      359        -9999      -9999      11.01197   2.42       2.429      2.79       2.149      2.841      2.448      1.901      1.346      1.305035   3.3        0.1979527  0.1979527  0.2967498  12.9934    7.947968   2.448      0.3978276  0.528883   74.034     0.2993849  0.2782977  0.3204722 
