~Version
 VERS              .         2.0                           : CWLS LOG ASCII STANDARD - VERSION 2.0
 WRAP              .         NO                            : ONE LINE PER DEPTH STEP
 DLM               .         SPACE                         : DELIMITING CHARACTER(SPACE TAB OR COMMA)
~Well Information
#_______________________________________________________________________________
#
#PARAMETER_NAME    .UNIT     VALUE                         : DESCRIPTION
#_______________________________________________________________________________
STRT               .M        880.1                         : First reference value
STOP               .M        1190.9                        : Last reference value
STEP               .M        0.2                           : Step increment
NULL               .         -9999                         : Missing value
COMP               .                                       : Company
WELL               .         2574                          : Well name
FLD                .         Узень                         : Field
LOC                .                                       : Location
CNTY               .                                       : County
STAT               .                                       : State
CTRY               .                                       : Country
SRVC               .                                       : Service Company
DATE               .         22.04.1980                    : Date
UWI                .                                       : Unique Well ID
Block              .         7                             : 
Category           .         Нефтяная                      : 
Condition          .         Ликвидированная               : 
Date               .         27.10.1982                    : 
EREF               .m        90.3                          : 100.8
Gorizont           .         15                            : 14
Interpretator      .         Алпанова Н.К.                 : 
Kupol              .         основной                      : osnovnoi
METD               .         gz3 gz6 ds ps ik              : 
Moii_15_vosst      .         15_vosst                      : 
Mud                .                                       : 
Mud_density        .                                       : 
Mud_resistivity    .                                       : 
Mud_density        .                                       : 
Mud_resistivity    .                                       : 
NGDU               .         НГДУ-2                        : 
ORIGINALWELLNAME   .         2574                          : 
Spud_date          .         1980                          : 1961
Spud_date          .         1980                          : 1961
Viscosity          .                                       : 
X                  .m        42543.7                       : 46154
Y                  .m        84875.13                      : 85761.93
YEAR               .         2018                          : 
~Parameter Information Block
#_______________________________________________________________________________
#
#PARAMETER_NAME    .UNIT     VALUE                         : DESCRIPTION
#_______________________________________________________________________________
SET                .         LQC_KAZNIPI_Petrel            : 
TLFamily_CALI      .         Caliper                       : 
TLFamily_CILD      .         Conductivity                  : 
TLFamily_COLL      .         Net Reservoir Flag            : 
TLFamily_CSAT      .         Fluid Code                    : 
TLFamily_DEPT      .         Measured Depth                : 
TLFamily_GR        .         Russian Gamma Ray             : 
TLFamily_GZ1_1     .         Gradient 045                  : 
TLFamily_GZ2_1     .         Gradient 105                  : 
TLFamily_GZ3       .         Gradient 225                  : 
TLFamily_GZ4_1     .         Gradient 425                  : 
TLFamily_GZ5_1     .         Gradient 850                  : 
TLFamily_LLS       .         Lateral Log Resistivity       : 
TLFamily_MINV      .         Micro Gradient Resistivity    : 
TLFamily_MNOR      .         Micro Resistivity             : 
TLFamily_NGLD      .         Neutron Far                   : 
TLFamily_OGZ       .         Gradient Inverted 225         : 
TLFamily_PHIE      .         Effective Porosity            : 
TLFamily_PHIEN     .         Effective Porosity            : 
TLFamily_PHIT      .         Porosity                      : 
TLFamily_PRMB      .         Permeability                  : 
TLFamily_PRMB_DGR  .         Permeability                  : 
TLFamily_RT        .         Formation Resistivity         : 
TLFamily_SOIL_ARCHIE .         Oil Saturation                : 
TLFamily_SOIL_DW   .         Oil Saturation                : 
TLFamily_SP        .         Spontaneous Potential         : 
TLFamily_VSH_FIN   .         Shale Volume                  : 
TLFamily_VSH_GR    .         Shale Volume                  : 
TLFamily_VSH_SP    .         Shale Volume                  : 
~Curve Information
#_______________________________________________________________________________
#
#LOGNAME           .UNIT     LOG_ID                        : DESCRIPTION
#_______________________________________________________________________________
DEPT               .M                                      : Колонка глубины 
CALI               .м                                      : Каверномер 
CILD               .мСм/м                                  : Индукционный каротаж 
COLL               .unitless                               :  
CSAT               .unitless                               :  
GR                 .мкР/ч                                  : Гамма каротаж 
GZ1_1              .Ом·м                                   :  
GZ2_1              .Ом·м                                   :  
GZ3                .Ом·м                                   :  
GZ4_1              .Ом·м                                   :  
GZ5_1              .Ом·м                                   :  
LLS                .Ом·м                                   : Боковой каротаж 
MINV               .Ом·м                                   : Микро-градиент зонд 
MNOR               .Ом·м                                   : Микро-потенциал зонд 
NGLD               .у.е.                                   : Показания зонда НГК-60 аппаратуры ДРСТ-3-90 
OGZ                .Ом·м                                   :  
PHIE               .м3/м3                                  : Описание 
PHIEN              .v/v                                    :  
PHIT               .м3/м3                                  : Описание 
PRMB               .mD                                     :  
PRMB_DGR           .mD                                     :  
RT                 .ohmm                                   : Description 
SOIL_ARCHIE        .v/v                                    :  
SOIL_DW            .v/v                                    :  
SP                 .мВ                                     : Потенциал самополяризации 
VSH_FIN            .unitless                               : Описание 
VSH_GR             .unitless                               : Shale volume 
VSH_SP             .unitless                               : Shale Volume 
~Ascii
# ...
921.5      0.213      -9999      1          3          5.777528   2.151      1.739      1.546      1.646      2.121      1.784      1.867      1.707      1.412811   1.774      0.2373473  0.2373473  0.266346   69.72789   823.3077   1.784      0.4035769  0.4552656  59.636     0.08787485 0.04184012 0.1339096 
921.7000000000001 0.213      -9999      1          3          5.800053   2.084      1.638      1.546      1.612      2.071      1.784      1.864      1.685      1.410943   1.774      0.2376516  0.2376516  0.2668729  70.63873   769.2445   1.784      0.4042421  0.4561794  59.692     0.08854932 0.04301677 0.1340819 
921.9      0.213      -9999      1          3          5.828669   2.05       1.621      1.546      1.595      2.038      1.855      1.867      1.805      1.409216   1.807      0.237827   0.237827   0.2673602  71.16896   705.6485   1.855      0.415429   0.4674129  59.804     0.08949479000000001 0.04455952 0.1344301 
922.1      0.213      -9999      1          3          5.86353    2.118      1.621      1.613      1.595      2.021      1.921      1.973      1.777      1.408107   1.857      0.2377589  0.2377589  0.2676729  70.96269   635.2352   1.921      0.4247979  0.4769279  59.916     0.09064854 0.04651388 0.1347832 
922.3      0.213      -9999      1          3          5.90287    2.252      1.672      1.613      1.629      2.021      1.951      1.985      1.858      1.407948   1.857      0.2373788  0.2373788  0.267718   69.8215    564.1774   1.951      0.4281691  0.48066    60         0.09193688 0.04882243 0.1350513 
922.5      0.213      -9999      1          3          5.943463   2.286      1.722      1.613      1.696      2.021      1.962      1.996      1.853      1.408792   1.891      0.2367127  0.2367127  0.2674796  67.866     499.1769   1.962      0.4282784  0.481231   60.028     0.09323303 0.05132476 0.1351413 
922.7000000000001 0.213      -9999      1          3          5.980955   2.269      1.739      1.613      1.746      2.038      2.063      1.943      2.041      1.410439   1.891      0.2358629  0.2358629  0.2670151  65.4503    445.8156   2.063      0.4398364  0.4928066  60         0.09440049 0.05374965 0.1350513 
922.9      0.213      -9999      1          3          6.011161   2.353      1.823      1.613      1.813      2.071      2.226      2.116      2.192      1.412487   1.941      0.2349935  0.2349935  0.2664374  63.0677    407.0035   2.226      0.457732   0.5103513  59.916     0.0952848  0.05578639 0.1347832 
923.1      0.212      -9999      1          3          6.031027   2.605      1.975      1.647      1.847      2.155      2.274      2.116      2.203      1.414486   1.958      0.2342453  0.2342453  0.2658735  61.08707   383.3373   2.274      0.4616406  0.5142972  59.832     0.09584287 0.05716785 0.1345179 
923.3      0.212      -9999      1          3          6.039357   2.941      2.244      1.731      1.864      2.172      2.174      2.147      2.032      1.416044   1.941      0.2337375  0.2337375  0.2654339  59.77823   373.829    2.174      0.4491183  0.5023199  59.776     0.09604988 0.05775718 0.1343426 
923.5      0.212      -9999      1          3          6.036715   3.261      2.396      1.849      1.83       2.121      1.947      1.948      1.822      1.416929   1.925      0.2335331  0.2335331  0.2651842  59.25941   376.8192   1.947      0.4194175  0.4736271  59.748     0.09591247 0.05756959 0.1342553 
923.7000000000001 0.212      -9999      1          3          6.024869   2.807      2.16       1.866      1.78       2.088      1.814      1.973      1.718      1.417049   1.925      0.2336226  0.2336226  0.2651505  59.486     390.5219   1.814      0.4000171  0.4547214  59.776     0.09553929 0.05673603 0.1343426 
923.9      0.212      -9999      1          3          6.005795   2.504      1.992      1.697      1.713      2.021      1.762      1.875      1.665      1.416407   1.891      0.2339919  0.2339919  0.2653314  60.43038   413.6431   1.762      0.3926083  0.4473229  59.832     0.09496844 0.05541899 0.1345179 
924.1      0.212      -9999      1          3          5.981408   2.286      1.958      1.479      1.629      1.971      1.78       1.943      1.691      1.415032   1.908      0.2345918  0.2345918  0.2657194  61.9966    445.2072   1.78       0.396845   0.4511851  59.944     0.09432595000000001 0.05377965 0.1348723 
924.3      0.212      -9999      1          3          5.953217   2.202      1.958      1.429      1.595      1.937      1.836      1.979      1.817      1.412963   1.958      0.235404   0.235404   0.266303   64.18159   484.7097   1.836      0.4073355  0.4610946  60.084     0.09363355 0.05194484 0.1353222 
924.5      0.212      -9999      1          3          5.922737   2.151      1.958      1.429      1.629      1.921      1.969      2.116      2.024      1.410282   1.992      0.2364005  0.2364005  0.2670594  66.96819000000001 531.3704   1.969      0.4285766  0.4813951  60.224     0.09290581000000001 0.0500315  0.1357801 
924.7000000000001 0.212      -9999      1          3          5.8916     2.202      1.958      1.462      1.679      1.921      2.155      2.217      2.256      1.407164   2.008      0.2375136  0.2375136  0.2679389  70.22418999999999 583.6793   2.155      0.4545119  0.5062054  60.364     0.09219781000000001 0.04814963 0.136246  
924.9      0.212      -9999      1          3          5.861732   2.353      1.992      1.529      1.713      1.904      2.374      2.209      2.267      1.403918   2.008      0.238638   0.238638   0.2688546  73.67389   638.6881   2.374      0.4808724  0.5313976  60.504     0.09156549999999999 0.04641103 0.13672   
925.1      0.212      -9999      1          3          5.835334   2.655      2.059      1.597      1.73       1.921      2.404      2.189      2.136      1.400963   1.992      0.239637   0.239637   0.2696882  76.8805    691.6086   2.404      0.4857967  0.5359848  60.644     0.0910644  0.0449267  0.1372021 
925.3      0.212      -9999      1          3          5.814739   3.025      2.143      1.664      1.713      1.937      2.285      2.024      1.839      1.398755   1.958      0.2403646  0.2403646  0.2703112  79.30387   735.9205   2.285      0.4747882  0.5252994  60.784     0.09074715 0.04380175 0.1376925 
925.5      0.212      -9999      1          3          5.802216   2.992      2.143      1.681      1.679      1.921      2.066      1.976      1.811      1.397657   1.958      0.2407192  0.2407192  0.2706209  80.51234   764.2436   2.066      0.4500669  0.5014149  60.896     0.09061121 0.04313149 0.1380909 
925.7000000000001 0.212      -9999      1          3          5.799635   2.79       2.093      1.664      1.646      1.887      2.029      2.01       1.968      1.397805   1.992      0.2406165  0.2406165  0.2705791  80.16042   770.2141   2.029      0.4451773  0.4967532  61.036     0.0907956  0.04299466 0.1385965 
925.9      0.212      -9999      1          3          5.808122   2.588      2.143      1.613      1.629      1.854      2.133      2.069      2.113      1.399069   2.075      0.2401007  0.2401007  0.2702226  78.41605   750.7533   2.133      0.4570262  0.5083535  61.176     0.09127850999999999 0.0434463  0.1391107 
926.1      0.212      -9999      1          3          5.827485   2.487      2.227      1.597      1.679      1.837      2.341      2.282      2.298      1.401065   2.193      0.2392603  0.2392603  0.2696595  75.65519999999999 708.1734   2.341      0.4786349  0.5294375  61.345     0.09211878 0.04449458 0.139743  
926.3      0.212      -9999      1          3          5.855319   2.79       2.345      1.613      1.746      1.82       2.5        2.413      2.475      1.403282   2.327      0.2382731  0.2382731  0.269034   72.53592   651.1602   2.5        0.4926429  0.5432348  61.513     0.09321509 0.04604597 0.1403842 
926.5      0.213      -9999      1          3          5.887214   3.126      2.547      1.697      1.797      1.87       2.545      2.346      2.483      1.405208   2.512      0.2373175  0.2373175  0.2684907  69.63927   591.4509000000001 2.545      0.4951086  0.5459876  61.681     0.09446425999999999 0.04789028 0.1410383 
