~Version
 VERS              .         2.0                           : CWLS LOG ASCII STANDARD - VERSION 2.0
 WRAP              .         NO                            : ONE LINE PER DEPTH STEP
 DLM               .         SPACE                         : DELIMITING CHARACTER(SPACE TAB OR COMMA)
~Well Information
#_______________________________________________________________________________
#
#PARAMETER_NAME    .UNIT     VALUE                         : DESCRIPTION
#_______________________________________________________________________________
STRT               .M        880.1                         : First reference value
STOP               .M        1190.9                        : Last reference value
STEP               .M        0.2                           : Step increment
NULL               .         -9999                         : Missing value
COMP               .                                       : Company
WELL               .         2574                          : Well name
FLD                .         Узень                         : Field
LOC                .                                       : Location
CNTY               .                                       : County
STAT               .                                       : State
CTRY               .                                       : Country
SRVC               .                                       : Service Company
DATE               .         22.04.1980                    : Date
UWI                .                                       : Unique Well ID
Block              .         7                             : 
Category           .         Нефтяная                      : 
Condition          .         Ликвидированная               : 
Date               .         27.10.1982                    : 
EREF               .m        90.3                          : 100.8
Gorizont           .         15                            : 14
Interpretator      .         Алпанова Н.К.                 : 
Kupol              .         основной                      : osnovnoi
METD               .         gz3 gz6 ds ps ik              : 
Moii_15_vosst      .         15_vosst                      : 
Mud                .                                       : 
Mud_density        .                                       : 
Mud_resistivity    .                                       : 
Mud_density        .                                       : 
Mud_resistivity    .                                       : 
NGDU               .         НГДУ-2                        : 
ORIGINALWELLNAME   .         2574                          : 
Spud_date          .         1980                          : 1961
Spud_date          .         1980                          : 1961
Viscosity          .                                       : 
X                  .m        42543.7                       : 46154
Y                  .m        84875.13                      : 85761.93
YEAR               .         2018                          : 
~Parameter Information Block
#_______________________________________________________________________________
#
#PARAMETER_NAME    .UNIT     VALUE                         : DESCRIPTION
#_______________________________________________________________________________
SET                .         LQC_KAZNIPI_Petrel            : 
TLFamily_CALI      .         Caliper                       : 
TLFamily_CILD      .         Conductivity                  : 
TLFamily_COLL      .         Net Reservoir Flag            : 
TLFamily_CSAT      .         Fluid Code                    : 
TLFamily_DEPT      .         Measured Depth                : 
TLFamily_GR        .         Russian Gamma Ray             : 
TLFamily_GZ1_1     .         Gradient 045                  : 
TLFamily_GZ2_1     .         Gradient 105                  : 
TLFamily_GZ3       .         Gradient 225                  : 
TLFamily_GZ4_1     .         Gradient 425                  : 
TLFamily_GZ5_1     .         Gradient 850                  : 
TLFamily_LLS       .         Lateral Log Resistivity       : 
TLFamily_MINV      .         Micro Gradient Resistivity    : 
TLFamily_MNOR      .         Micro Resistivity             : 
TLFamily_NGLD      .         Neutron Far                   : 
TLFamily_OGZ       .         Gradient Inverted 225         : 
TLFamily_PHIE      .         Effective Porosity            : 
TLFamily_PHIEN     .         Effective Porosity            : 
TLFamily_PHIT      .         Porosity                      : 
TLFamily_PRMB      .         Permeability                  : 
TLFamily_PRMB_DGR  .         Permeability                  : 
TLFamily_RT        .         Formation Resistivity         : 
TLFamily_SOIL_ARCHIE .         Oil Saturation                : 
TLFamily_SOIL_DW   .         Oil Saturation                : 
TLFamily_SP        .         Spontaneous Potential         : 
TLFamily_VSH_FIN   .         Shale Volume                  : 
TLFamily_VSH_GR    .         Shale Volume                  : 
TLFamily_VSH_SP    .         Shale Volume                  : 
~Curve Information
#_______________________________________________________________________________
#
#LOGNAME           .UNIT     LOG_ID                        : DESCRIPTION
#_______________________________________________________________________________
DEPT               .M                                      : Колонка глубины 
CALI               .м                                      : Каверномер 
CILD               .мСм/м                                  : Индукционный каротаж 
COLL               .unitless                               :  
CSAT               .unitless                               :  
GR                 .мкР/ч                                  : Гамма каротаж 
GZ1_1              .Ом·м                                   :  
GZ2_1              .Ом·м                                   :  
GZ3                .Ом·м                                   :  
GZ4_1              .Ом·м                                   :  
GZ5_1              .Ом·м                                   :  
LLS                .Ом·м                                   : Боковой каротаж 
MINV               .Ом·м                                   : Микро-градиент зонд 
MNOR               .Ом·м                                   : Микро-потенциал зонд 
NGLD               .у.е.                                   : Показания зонда НГК-60 аппаратуры ДРСТ-3-90 
OGZ                .Ом·м                                   :  
PHIE               .м3/м3                                  : Описание 
PHIEN              .v/v                                    :  
PHIT               .м3/м3                                  : Описание 
PRMB               .mD                                     :  
PRMB_DGR           .mD                                     :  
RT                 .ohmm                                   : Description 
SOIL_ARCHIE        .v/v                                    :  
SOIL_DW            .v/v                                    :  
SP                 .мВ                                     : Потенциал самополяризации 
VSH_FIN            .unitless                               : Описание 
VSH_GR             .unitless                               : Shale volume 
VSH_SP             .unitless                               : Shale Volume 
~Ascii
880.1      0.229      -9999      -9999      -9999      -9999      3.546      3.592      4.101      3.256      4.163      3.336      1.309      1.262      -9999      3.719      -9999      -9999      -9999      -9999      -9999      3.336      -9999      -9999      66.779     -9999      0.800000011920929 0.800000011920929
880.3      0.24       -9999      -9999      -9999      -9999      3.378      3.76       3.664      3.038      3.946      3.173      1.131      1.295      -9999      3.317      -9999      -9999      -9999      -9999      -9999      3.173      -9999      -9999      66.947     -9999      0.800000011920929 0.800000011920929
880.5      0.247      -9999      -9999      -9999      -9999      3.345      4.029      3.361      3.021      3.745      3.095      1.064      1.22       -9999      3.065      -9999      -9999      -9999      -9999      -9999      3.095      -9999      -9999      67.115     -9999      0.800000011920929 0.800000011920929
880.7000000000001 0.253      -9999      -9999      -9999      -9999      3.16       4.013      3.176      3.088      3.611      3.113      0.935      1.172      -9999      2.998      -9999      -9999      -9999      -9999      -9999      3.113      -9999      -9999      67.311     -9999      0.800000011920929 0.800000011920929
880.9      0.257      -9999      -9999      -9999      -9999      3.261      4.097      3.328      3.122      3.661      3.258      0.828      1.038      -9999      3.115      -9999      -9999      -9999      -9999      -9999      3.258      -9999      -9999      67.479     -9999      0.800000011920929 0.800000011920929
881.1      0.265      -9999      -9999      -9999      -9999      3.445      3.962      3.479      3.122      3.644      3.21       0.718      0.904      -9999      3.132      -9999      -9999      -9999      -9999      -9999      3.21       -9999      -9999      67.591     -9999      0.800000011920929 0.800000011920929
881.3      0.277      -9999      -9999      -9999      -9999      2.941      3.238      3.244      3.021      3.561      2.95       0.699      0.693      -9999      2.864      -9999      -9999      -9999      -9999      -9999      2.95       -9999      -9999      67.647     -9999      0.800000011920929 0.800000011920929
881.5      0.28       -9999      -9999      -9999      -9999      2.471      3.086      2.975      2.853      3.41       2.608      0.626      0.497      -9999      2.545      -9999      -9999      -9999      -9999      -9999      2.608      -9999      -9999      67.787     -9999      0.800000011920929 0.800000011920929
881.7000000000001 0.266      -9999      -9999      -9999      -9999      2.588      3.524      2.958      2.719      3.259      2.556      0.646      0.494      -9999      2.31       -9999      -9999      -9999      -9999      -9999      2.556      -9999      -9999      67.927     -9999      0.800000011920929 0.800000011920929
881.9      0.245      -9999      -9999      -9999      -9999      2.605      3.777      3.193      2.887      3.192      2.619      0.699      0.646      -9999      2.193      -9999      -9999      -9999      -9999      -9999      2.619      -9999      -9999      68.095     -9999      0.800000011920929 0.800000011920929
882.1      0.232      -9999      -9999      -9999      10.96936   2.588      3.895      3.412      3.155      3.226      2.667      0.811      0.769      1.063005   2.344      -9999      -9999      -9999      -9999      -9999      2.667      -9999      -9999      68.123     -9999      0.800000011920929 0.800000011920929
882.3      0.231      -9999      -9999      -9999      11.0561    2.504      3.558      3.697      3.289      3.259      2.664      0.861      0.825      1.062937   2.461      -9999      -9999      -9999      -9999      -9999      2.664      -9999      -9999      68.263     -9999      0.800000011920929 0.800000011920929
882.5      0.227      -9999      -9999      -9999      11.11778   2.538      3.339      3.681      3.306      3.276      2.642      0.842      0.763      1.066386   2.512      -9999      -9999      -9999      -9999      -9999      2.642      -9999      -9999      68.291     -9999      0.800000011920929 0.800000011920929
882.7000000000001 0.229      -9999      -9999      -9999      11.15364   2.639      3.154      3.496      3.239      3.209      2.56       0.842      0.64       1.073136   2.394      -9999      -9999      -9999      -9999      -9999      2.56       -9999      -9999      68.207     -9999      0.800000011920929 0.800000011920929
882.9      0.228      -9999      -9999      -9999      11.16506   2.555      3.137      3.345      3.172      3.142      2.497      1.032      0.842      1.082825   2.277      -9999      -9999      -9999      -9999      -9999      2.497      -9999      -9999      67.927     -9999      0.800000011920929 0.800000011920929
883.1      0.227      -9999      -9999      -9999      11.15412   2.571      3.339      3.294      3.088      3.059      2.538      1.248      0.971      1.094965   2.159      -9999      -9999      -9999      -9999      -9999      2.538      -9999      -9999      67.619     -9999      0.800000011920929 0.800000011920929
883.3      0.219      -9999      -9999      -9999      11.12361   2.672      3.389      3.445      3.155      2.975      2.623      1.483      1.337      1.108992   2.143      -9999      -9999      -9999      -9999      -9999      2.623      -9999      -9999      67.311     -9999      0.800000011920929 0.800000011920929
883.5      0.215      -9999      -9999      -9999      11.07587   2.773      3.154      3.597      3.172      2.891      2.612      1.629      1.438      1.124302   2.243      -9999      -9999      -9999      -9999      -9999      2.612      -9999      -9999      67.003     -9999      0.800000011920929 0.800000011920929
883.7000000000001 0.214      -9999      -9999      -9999      11.01304   2.773      2.935      3.378      3.055      2.791      2.567      1.803      1.64       1.140301   2.411      -9999      -9999      -9999      -9999      -9999      2.567      -9999      -9999      66.611     -9999      0.800000011920929 0.800000011920929
883.9      0.214      -9999      -9999      -9999      10.93667   2.773      2.817      3.008      2.937      2.674      2.534      1.856      1.615      1.156409   2.478      -9999      -9999      -9999      -9999      -9999      2.534      -9999      -9999      66.106     -9999      0.800000011920929 0.800000011920929
884.1      0.214      -9999      -9999      -9999      10.84798   2.84       2.716      2.689      2.836      2.573      2.527      1.859      1.677      1.172109   2.428      -9999      -9999      -9999      -9999      -9999      2.527      -9999      -9999      65.686     -9999      0.800000011920929 0.800000011920929
884.3      0.214      -9999      -9999      -9999      10.74852   2.857      2.699      2.538      2.719      2.439      2.515      1.825      1.677      1.186977   2.294      -9999      -9999      -9999      -9999      -9999      2.515      -9999      -9999      65.462     -9999      0.800000011920929 0.800000011920929
884.5      0.214      -9999      -9999      -9999      10.64037   2.857      2.733      2.471      2.618      2.356      2.508      1.794      1.685      1.200734   2.159      -9999      -9999      -9999      -9999      -9999      2.508      -9999      -9999      65.462     -9999      0.800000011920929 0.800000011920929
884.7000000000001 0.214      -9999      -9999      -9999      10.52628   2.891      2.733      2.42       2.468      2.305      2.485      1.797      1.643      1.213279   2.042      -9999      -9999      -9999      -9999      -9999      2.485      -9999      -9999      65.434     -9999      0.800000011920929 0.800000011920929
884.9      0.214      -9999      -9999      -9999      10.41014   2.924      2.648      2.336      2.4        2.255      2.456      1.808      1.629      1.224733   1.958      -9999      -9999      -9999      -9999      -9999      2.456      -9999      -9999      65.266     -9999      0.800000011920929 0.800000011920929
