~Version
 VERS              .         2.0                           : CWLS LOG ASCII STANDARD - VERSION 2.0
 WRAP              .         NO                            : ONE LINE PER DEPTH STEP
 DLM               .         SPACE                         : DELIMITING CHARACTER(SPACE TAB OR COMMA)
~Well Information
#_______________________________________________________________________________
#
#PARAMETER_NAME    .UNIT     VALUE                         : DESCRIPTION
#_______________________________________________________________________________
STRT               .M        880.1                         : First reference value
STOP               .M        1190.9                        : Last reference value
STEP               .M        0.2                           : Step increment
NULL               .         -9999                         : Missing value
COMP               .                                       : Company
WELL               .         2574                          : Well name
FLD                .         Узень                         : Field
LOC                .                                       : Location
CNTY               .                                       : County
STAT               .                                       : State
CTRY               .                                       : Country
SRVC               .                                       : Service Company
DATE               .         22.04.1980                    : Date
UWI                .                                       : Unique Well ID
Block              .         7                             : 
Category           .         Нефтяная                      : 
Condition          .         Ликвидированная               : 
Date               .         27.10.1982                    : 
EREF               .m        90.3                          : 100.8
Gorizont           .         15                            : 14
Interpretator      .         Алпанова Н.К.                 : 
Kupol              .         основной                      : osnovnoi
METD               .         gz3 gz6 ds ps ik              : 
Moii_15_vosst      .         15_vosst                      : 
Mud                .                                       : 
Mud_density        .                                       : 
Mud_resistivity    .                                       : 
Mud_density        .                                       : 
Mud_resistivity    .                                       : 
NGDU               .         НГДУ-2                        : 
ORIGINALWELLNAME   .         2574                          : 
Spud_date          .         1980                          : 1961
Spud_date          .         1980                          : 1961
Viscosity          .                                       : 
X                  .m        42543.7                       : 46154
Y                  .m        84875.13                      : 85761.93
YEAR               .         2018                          : 
~Parameter Information Block
#_______________________________________________________________________________
#
#PARAMETER_NAME    .UNIT     VALUE                         : DESCRIPTION
#_______________________________________________________________________________
SET                .         LQC_KAZNIPI_Petrel            : 
TLFamily_CALI      .         Caliper                       : 
TLFamily_CILD      .         Conductivity                  : 
TLFamily_COLL      .         Net Reservoir Flag            : 
TLFamily_CSAT      .         Fluid Code                    : 
TLFamily_DEPT      .         Measured Depth                : 
TLFamily_GR        .         Russian Gamma Ray             : 
TLFamily_GZ1_1     .         Gradient 045                  : 
TLFamily_GZ2_1     .         Gradient 105                  : 
TLFamily_GZ3       .         Gradient 225                  : 
TLFamily_GZ4_1     .         Gradient 425                  : 
TLFamily_GZ5_1     .         Gradient 850                  : 
TLFamily_LLS       .         Lateral Log Resistivity       : 
TLFamily_MINV      .         Micro Gradient Resistivity    : 
TLFamily_MNOR      .         Micro Resistivity             : 
TLFamily_NGLD      .         Neutron Far                   : 
TLFamily_OGZ       .         Gradient Inverted 225         : 
TLFamily_PHIE      .         Effective Porosity            : 
TLFamily_PHIEN     .         Effective Porosity            : 
TLFamily_PHIT      .         Porosity                      : 
TLFamily_PRMB      .         Permeability                  : 
TLFamily_PRMB_DGR  .         Permeability                  : 
TLFamily_RT        .         Formation Resistivity         : 
TLFamily_SOIL_ARCHIE .         Oil Saturation                : 
TLFamily_SOIL_DW   .         Oil Saturation                : 
TLFamily_SP        .         Spontaneous Potential         : 
TLFamily_VSH_FIN   .         Shale Volume                  : 
TLFamily_VSH_GR    .         Shale Volume                  : 
TLFamily_VSH_SP    .         Shale Volume                  : 
~Curve Information
#_______________________________________________________________________________
#
#LOGNAME           .UNIT     LOG_ID                        : DESCRIPTION
#_______________________________________________________________________________
DEPT               .M                                      : Колонка глубины 
CALI               .м                                      : Каверномер 
CILD               .мСм/м                                  : Индукционный каротаж 
COLL               .unitless                               :  
CSAT               .unitless                               :  
GR                 .мкР/ч                                  : Гамма каротаж 
GZ1_1              .Ом·м                                   :  
GZ2_1              .Ом·м                                   :  
GZ3                .Ом·м                                   :  
GZ4_1              .Ом·м                                   :  
GZ5_1              .Ом·м                                   :  
LLS                .Ом·м                                   : Боковой каротаж 
MINV               .Ом·м                                   : Микро-градиент зонд 
MNOR               .Ом·м                                   : Микро-потенциал зонд 
NGLD               .у.е.                                   : Показания зонда НГК-60 аппаратуры ДРСТ-3-90 
OGZ                .Ом·м                                   :  
PHIE               .м3/м3                                  : Описание 
PHIEN              .v/v                                    :  
PHIT               .м3/м3                                  : Описание 
PRMB               .mD                                     :  
PRMB_DGR           .mD                                     :  
RT                 .ohmm                                   : Description 
SOIL_ARCHIE        .v/v                                    :  
SOIL_DW            .v/v                                    :  
SP                 .мВ                                     : Потенциал самополяризации 
VSH_FIN            .unitless                               : Описание 
VSH_GR             .unitless                               : Shale volume 
VSH_SP             .unitless                               : Shale Volume 
~Ascii
# ...
942.3      0.219      208        -9999      -9999      7.402161   4.824      5.495      5.21       4.647999   1.904      4.216      2.94       2.802      1.422858   6.252      0.1259641  0.1259641  0.2635119  0.6030033  6.318302   4.216      0.3083068  0.5389144  78.431     0.4168113  0.3056344  0.5279881 
942.5      0.219      208        -9999      -9999      7.307065   4.269      5.074      5.261      4.43       2.088      3.897      2.521      2.449      1.443908   6.604      0.1228577  0.1228577  0.2575736  0.5281778  6.936889   3.897      0.2665111  0.5089508  78.235     0.4082302  0.2941972  0.5222632 
942.7000000000001 0.219      204        -9999      -9999      7.206714   3.916      4.922      5.244      4.346      2.523      4.131      3.064      2.662      1.465183   7.290999   0.120501   0.120501   0.2515718  0.4776704  7.655448   4.131      0.2741685  0.5124637  77.871     0.3971843  0.2825918  0.5117769 
942.9      0.219      194        -9999      -9999      7.107411   3.731      5.006      5.21       4.564      3.059      5.062      3.419      3.007      1.485279   8.197      0.1186105  0.1186105  0.2459029  0.4406691  8.439743   5.062      0.3310456  0.550616   77.451     0.3857344  0.2715583  0.4999106 
943.1      0.219      183        -9999      -9999      7.017005   4.084001   5.276      5.16       4.95       3.611      5.719      3.488      3.114      1.502743   9.203      0.1173229  0.1173229  0.2409762  0.4171209  9.223439000000001 5.719      0.3622429  0.5701042  77.003     0.3747072  0.2618883  0.4875261 
943.3      0.219      172        -9999      -9999      6.944287   4.336      5.731      5.109      5.503      4.23       6.97       3.448      3.486      1.516317   10.294     0.1166097  0.1166097  0.237147   0.4046249  9.906311000000001 6.97       0.4156865  0.6058008  76.583     0.3652646  0.2543607  0.4761684 
943.5      0.219      161        -9999      -9999      6.897245   4.874      6.404      5.126      6.057      4.967      9.105      3.464      3.508      1.525224   10.713     0.1168407  0.1168407  0.2346344  0.4086314  10.37476   9.105      0.4854346  0.6530915  76.134     0.3569504  0.2496068  0.464294  
943.7000000000001 0.219      151        -9999      -9999      6.880849   6.571      8.038      5.445      6.61       5.569      11.333     3.926      3.987      1.529442   10.461     0.1175946  0.1175946  0.2334445  0.4219828  10.54319   11.333     0.53826    0.6888517  75.742     0.3510605  0.2479708  0.4541502 
943.9      0.219      145        -9999      -9999      6.8956     7.849      9.453      6.303      6.962      5.869999   10.758     3.693      4.057      1.529765   9.371      0.1187844  0.1187844  0.2333534  0.4439489  10.39154   10.758     0.5309693  0.6818053  75.378     0.3471789  0.2494421  0.4449157 
944.1      0.219      142        -9999      -9999      6.937381   7.361      9.789001   7.125999   6.711      5.803      8.047      3.262      3.57       1.527624   7.962      0.1200734  0.1200734  0.2339572  0.4690394  9.973732   8.047      0.4675345  0.6342012  75.042     0.3451024  0.2536573  0.4365476 
944.3      0.219      143        -9999      -9999      6.998662   6.118      9.115999   7.21       6.157      5.468999   5.56       3.225      3.36       1.524656   7.593      0.1204374  0.1204374  0.2347946  0.4763775  9.391126999999999 5.56       0.3683287  0.5614069  74.902     0.3465368  0.2599687  0.4331048 
944.5      0.219      144        -9999      -9999      7.071252   5.361001   8.358      6.588      5.839      5.117      5.393      3.452      2.99       1.522183   7.275      0.1197545  0.1197545  0.2354921  0.4627025  8.744873999999999 5.393      0.3560425  0.5545006  74.93      0.3507199  0.2676485  0.4337913 
944.7000000000001 0.219      144        -9999      -9999      7.148659   4.807      7.853001   5.966001   5.956      4.816      6.581      3.483      3.217      1.520832   7.174      0.117831   0.117831   0.2358734  0.4262595  8.104661   6.581      0.4051482  0.5945921  75.154     0.3577042  0.2760879  0.4393204 
944.9      0.219      140        -9999      -9999      7.227622   4.992001   9.284      5.731      6.459      4.699      8.307      2.819      3.001      1.520429   7.342      0.1157873  0.1157873  0.2359868  0.3906791  7.499845   8.307      0.4585484  0.6368373  75.322     0.364241   0.2849713  0.4435107 
945.1      0.219      135        -9999      -9999      7.307652   6.017      10.463     6.454      6.979      4.699      8.289      2.424      3.186      1.520196   7.877999   0.1137386  0.1137386  0.2360527  0.3579921  6.93289    8.289      0.4495039  0.6340196  75.462     0.3706487  0.2942665  0.4470311 
945.3      0.219      135        -9999      -9999      7.389376   6.303      9.284      7.546      7.013      4.749      7.936      2.503      3.203      1.519147   7.744      0.1119491  0.1119491  0.2363487  0.3316853  6.398148   7.936      0.4303314  0.6239984  75.574     0.3769687  0.3040712  0.4498661 
945.5      0.219      138        -9999      -9999      7.472311   6.252      9.284      8.202      6.677      4.715      6.525      3.027      3.595      1.516465   7.174      0.110538   0.110538   0.2371051  0.3123128  5.897625   6.525      0.3685811  0.5841616  75.686     0.3835367  0.3143554  0.452718  
945.7000000000001 0.219      143        -9999      -9999      7.553507   6.471001   10.042     8.908      6.257999   4.615      6.106      2.957      3.436      1.511739   6.486001   0.109681   0.109681   0.2384383  0.3011033  5.445555   6.106      0.3441756  0.5703686  75.798     0.3901737  0.3247608  0.4555866 
945.9      0.219      148        -9999      -9999      7.627038   6.185      9.537      9.244      5.839      4.447999   5.338      2.604      3.136      1.50499    6          0.1096243  0.1096243  0.2403423  0.300377   5.066135   5.338      0.3011601  0.5426849  75.882     0.396115   0.3344807  0.4577493 
946.1      0.219      156        -9999      -9999      7.685418   5.395      8.358      9.244      5.436      4.364      5.468      2.237      2.825      1.496588   5.782      0.1103286  0.1103286  0.2427124  0.3095362  4.783813   5.468      0.3128498  0.5519925  75.966     0.401163   0.3424047  0.4599214 
946.3      0.219      165        -9999      -9999      7.72118    4.975      8.105      8.655      5.134      4.397      5.831      2.805      3.091      1.487138   5.665      0.1118185  0.1118185  0.2453785  0.329844   4.618694   5.831      0.3410105  0.5712765  76.05      0.404727   0.3473512  0.4621029 
946.5      0.219      171        -9999      -9999      7.729397   5.328      8.611      7.782      5.067      4.481      5.979      3.186      3.326      1.477369   5.597      0.1140235  0.1140235  0.2481342  0.3623684  4.581568   5.979      0.3596992  0.5826329  76.134     0.4063959  0.3484978  0.464294  
946.7000000000001 0.219      175        -9999      -9999      7.708763   5.428999   8.358      7.597      5.134      4.548      5.34       3.632      3.525      1.468122   5.581      0.1167429  0.1167429  0.2507428  0.4069302  4.67537    5.34       0.3385397  0.5651178  76.218     0.4060601  0.3456256  0.4664946 
946.9      0.219      180        -9999      -9999      7.662256   5.277      7.819      7.748      5.033999   4.598      4.943      3.083      3.161      1.460301   5.447      0.1195123  0.1195123  0.2529492  0.457947   4.893889   4.943      0.3279836  0.5544178  76.331     0.4043544  0.3392387  0.4694701 
947.1      0.219      185        -9999      -9999      7.596402   4.992001   7.701      7.714      5.101      4.682      4.943      2.881      3.293      1.454746   5.296      0.1220488  0.1220488  0.2545162  0.5102671  5.220892   4.943      0.3401641  0.5596485  76.443     0.4014163  0.3303962  0.4724364 
947.3      0.219      187        -9999      -9999      7.520536   5.378      7.785      7.395      5.403      4.749      4.847      2.965      3.01       1.452026   5.296      0.1243269  0.1243269  0.2552833  0.5623334  5.624789   4.847      0.3447036  0.5592551  76.471     0.3968377  0.3204947  0.4731806 
