~Version
 VERS              .         2.0                           : CWLS LOG ASCII STANDARD - VERSION 2.0
 WRAP              .         NO                            : ONE LINE PER DEPTH STEP
 DLM               .         SPACE                         : DELIMITING CHARACTER(SPACE TAB OR COMMA)
~Well Information
#_______________________________________________________________________________
#
#PARAMETER_NAME    .UNIT     VALUE                         : DESCRIPTION
#_______________________________________________________________________________
STRT               .M        880.1                         : First reference value
STOP               .M        1190.9                        : Last reference value
STEP               .M        0.2                           : Step increment
NULL               .         -9999                         : Missing value
COMP               .                                       : Company
WELL               .         2574                          : Well name
FLD                .         Узень                         : Field
LOC                .                                       : Location
CNTY               .                                       : County
STAT               .                                       : State
CTRY               .                                       : Country
SRVC               .                                       : Service Company
DATE               .         22.04.1980                    : Date
UWI                .                                       : Unique Well ID
Block              .         7                             : 
Category           .         Нефтяная                      : 
Condition          .         Ликвидированная               : 
Date               .         27.10.1982                    : 
EREF               .m        90.3                          : 100.8
Gorizont           .         15                            : 14
Interpretator      .         Алпанова Н.К.                 : 
Kupol              .         основной                      : osnovnoi
METD               .         gz3 gz6 ds ps ik              : 
Moii_15_vosst      .         15_vosst                      : 
Mud                .                                       : 
Mud_density        .                                       : 
Mud_resistivity    .                                       : 
Mud_density        .                                       : 
Mud_resistivity    .                                       : 
NGDU               .         НГДУ-2                        : 
ORIGINALWELLNAME   .         2574                          : 
Spud_date          .         1980                          : 1961
Spud_date          .         1980                          : 1961
Viscosity          .                                       : 
X                  .m        42543.7                       : 46154
Y                  .m        84875.13                      : 85761.93
YEAR               .         2018                          : 
~Parameter Information Block
#_______________________________________________________________________________
#
#PARAMETER_NAME    .UNIT     VALUE                         : DESCRIPTION
#_______________________________________________________________________________
SET                .         LQC_KAZNIPI_Petrel            : 
TLFamily_CALI      .         Caliper                       : 
TLFamily_CILD      .         Conductivity                  : 
TLFamily_COLL      .         Net Reservoir Flag            : 
TLFamily_CSAT      .         Fluid Code                    : 
TLFamily_DEPT      .         Measured Depth                : 
TLFamily_GR        .         Russian Gamma Ray             : 
TLFamily_GZ1_1     .         Gradient 045                  : 
TLFamily_GZ2_1     .         Gradient 105                  : 
TLFamily_GZ3       .         Gradient 225                  : 
TLFamily_GZ4_1     .         Gradient 425                  : 
TLFamily_GZ5_1     .         Gradient 850                  : 
TLFamily_LLS       .         Lateral Log Resistivity       : 
TLFamily_MINV      .         Micro Gradient Resistivity    : 
TLFamily_MNOR      .         Micro Resistivity             : 
TLFamily_NGLD      .         Neutron Far                   : 
TLFamily_OGZ       .         Gradient Inverted 225         : 
TLFamily_PHIE      .         Effective Porosity            : 
TLFamily_PHIEN     .         Effective Porosity            : 
TLFamily_PHIT      .         Porosity                      : 
TLFamily_PRMB      .         Permeability                  : 
TLFamily_PRMB_DGR  .         Permeability                  : 
TLFamily_RT        .         Formation Resistivity         : 
TLFamily_SOIL_ARCHIE .         Oil Saturation                : 
TLFamily_SOIL_DW   .         Oil Saturation                : 
TLFamily_SP        .         Spontaneous Potential         : 
TLFamily_VSH_FIN   .         Shale Volume                  : 
TLFamily_VSH_GR    .         Shale Volume                  : 
TLFamily_VSH_SP    .         Shale Volume                  : 
~Curve Information
#_______________________________________________________________________________
#
#LOGNAME           .UNIT     LOG_ID                        : DESCRIPTION
#_______________________________________________________________________________
DEPT               .M                                      : Колонка глубины 
CALI               .м                                      : Каверномер 
CILD               .мСм/м                                  : Индукционный каротаж 
COLL               .unitless                               :  
CSAT               .unitless                               :  
GR                 .мкР/ч                                  : Гамма каротаж 
GZ1_1              .Ом·м                                   :  
GZ2_1              .Ом·м                                   :  
GZ3                .Ом·м                                   :  
GZ4_1              .Ом·м                                   :  
GZ5_1              .Ом·м                                   :  
LLS                .Ом·м                                   : Боковой каротаж 
MINV               .Ом·м                                   : Микро-градиент зонд 
MNOR               .Ом·м                                   : Микро-потенциал зонд 
NGLD               .у.е.                                   : Показания зонда НГК-60 аппаратуры ДРСТ-3-90 
OGZ                .Ом·м                                   :  
PHIE               .м3/м3                                  : Описание 
PHIEN              .v/v                                    :  
PHIT               .м3/м3                                  : Описание 
PRMB               .mD                                     :  
PRMB_DGR           .mD                                     :  
RT                 .ohmm                                   : Description 
SOIL_ARCHIE        .v/v                                    :  
SOIL_DW            .v/v                                    :  
SP                 .мВ                                     : Потенциал самополяризации 
VSH_FIN            .unitless                               : Описание 
VSH_GR             .unitless                               : Shale volume 
VSH_SP             .unitless                               : Shale Volume 
~Ascii
# ...
999.5      0.249      336        -9999      -9999      8.62387    2.84       3.154      2.588      2.417      2.473      2.538      0.787      0.724      1.149003   2.394      0.175577   0.175577   0.3407662  5.003449   1.903122   2.538      0.3427447  0.5534856  77.535     0.5005735  0.4988828  0.5022641 
999.7000000000001 0.253      334        -9999      -9999      8.650045   2.655      3.137      2.571      2.417      2.473      2.519      0.853      0.887      1.148251   2.361      0.1763363  0.1763363  0.3409784  5.168139   1.854818   2.519      0.3428974  0.5527237  77.227     0.4989155  0.5041477  0.4936833 
999.9      0.255      332        -9999      -9999      8.69552    2.588      3.187      2.555      2.417      2.456      2.501      0.929      1.071      1.147372   2.327      0.1753081  0.1753081  0.3412262  4.946404   1.773795   2.501      0.3373157  0.5503002  77.171     0.5027822  0.5134268  0.4921375 
1000.1     0.256      331        -9999      -9999      8.75109    2.857      3.238      2.538      2.434      2.439      2.478      0.999      1.125      1.145721   2.294      0.1733539  0.1733539  0.3416921  4.550861   1.679575   2.478      0.3279067  0.5466378  77.283     0.5101158  0.524998   0.4952335 
1000.3     0.256      332        -9999      -9999      8.807803   2.992      3.288      2.555      2.468      2.456      2.456      0.985      1.2        1.142584   2.277      0.171345   0.171345   0.3425771  4.177184   1.588575   2.456      0.3182017  0.5432906  77.479     0.5188851  0.5370762  0.5006939 
1000.5     0.258      337        -9999      -9999      8.857865   3.059      3.272      2.639      2.468      2.473      2.434      0.895      1.248      1.137363   2.26       0.1697181  0.1697181  0.34405    3.89717    1.512354   2.434      0.3096039  0.5407642  77.759     0.5282785  0.5479686  0.5085883 
1000.7     0.264      345        -9999      -9999      8.895654   3.109      3.255      2.706      2.468      2.473      2.404      0.816      1.192      1.129756   2.243      0.1695604  0.1695604  0.3461957  3.871051   1.457251   2.404      0.3050118  0.5395135  77.955     0.5352584  0.5563366  0.5141801 
1000.9     0.271      353        -9999      -9999      8.918102   3.176      3.171      2.79       2.468      2.473      2.356      0.727      0.993      1.119857   2.21       0.171523   0.171523   0.3489884  4.209007   1.425471   2.356      0.3053997  0.5391815  77.955     0.5377741  0.5613681  0.5141801 
1001.1     0.271      363        -9999      -9999      8.924701   2.992      3.103      2.773      2.468      2.473      2.308      0.752      0.822      1.108225   2.193      0.1756126  0.1756126  0.3522698  5.011065   1.416263   2.308      0.3129045  0.5412567  77.731     0.5353248000000001 0.5628557  0.5077938 
1001.3     0.266      373        -9999      -9999      8.917848   2.857      3.002      2.672      2.451      2.473      2.3        0.704      0.749      1.095785   2.21       0.1809356  0.1809356  0.3557792  6.288177   1.425828   2.3        0.3294519  0.5484733  77.395     0.529829   0.5613108  0.4983472 
1001.5     0.264      384        -9999      -9999      8.902886   2.706      2.952      2.605      2.4        2.439      2.315      0.679      0.763      1.08369    2.21       0.1864342  0.1864342  0.3591911  7.950083   1.446935   2.315      0.3486995  0.5577157  77.059     0.5235058  0.5579528  0.4890588 
1001.7     0.264      394        -9999      -9999      8.887596   2.571      2.918      2.571      2.367      2.423      2.278      0.822      0.931      1.073103   2.21       0.191241   0.191241   0.3621777  9.758986   1.468829   2.278      0.3581459  0.5607549  76.779     0.51799    0.5545416  0.4814384 
1001.9     0.261      402        -9999      -9999      8.88034    2.588      2.8        2.605      2.4        2.389      2.178      0.911      1.029      1.06502    2.21       0.1950267  0.1950267  0.364458   11.46901   1.479335   2.178      0.3555779  0.5559072  76.499     0.513428   0.5529301  0.4739259 
1002.1     0.253      410        -9999      -9999      8.887737   2.605      2.648      2.588      2.417      2.389      2.059      0.965      0.987      1.060169   2.226      0.1972288  0.1972288  0.3658263  12.59835   1.468626   2.059      0.3447995  0.5462903  76.246     0.5109016  0.5545731  0.4672303 
1002.3     0.248      415        -9999      -9999      8.912618   2.471      2.531      2.538      2.4        2.372      1.985      0.763      0.749      1.05896    2.31       0.1978582  0.1978582  0.3661675  12.94113   1.433171   1.985      0.3352959  0.5387478  75.966     0.510028   0.5601346  0.4599214 
1002.5     0.247      420        -9999      -9999      8.953384   2.37       2.413      2.454      2.333      2.356      1.951      0.699      0.612      1.061449   2.394      0.1963477  0.1963477  0.3654653  12.13373   1.37692    1.951      0.3253973  0.5328044  75.798     0.5124773  0.5693681  0.4555866 
1002.7     0.244      419        -9999      -9999      9.004246   2.252      2.295      2.37       2.249      2.339      1.999      0.662      0.548      1.067343   2.428      0.1931043  0.1931043  0.3638026  10.56619   1.309824   1.999      0.3233016  0.5341451  75.714     0.5172676000000001 0.5811017000000001 0.4534336 
1002.9     0.238      413        -9999      -9999      9.057533   2.151      2.16       2.286      2.166      2.305      2.155      0.738      0.551      1.075999   2.444      0.1887093  0.1887093  0.3613607  8.760146000000001 1.243033   2.155      0.3335165  0.5454212  75.686     0.5231862000000001 0.5936544  0.452718  
1003.1     0.23       402        -9999      -9999      9.106069   2.05       2.093      2.168      2.115      2.305      2.393      0.9        0.749      1.086508   2.444      0.1837012  0.1837012  0.3583961  7.075384   1.185167   2.393      0.3504481  0.561895   75.714     0.5293785  0.6053235  0.4534336 
1003.3     0.224      392        -9999      -9999      9.145663   2.134      2.177      2.101      2.082      2.289      2.604      0.926      0.822      1.097839   2.512      0.1784321  0.1784321  0.3551997  5.651357   1.139961   2.604      0.3596745  0.5729354  75.826     0.5356596  0.6150128  0.4563064 
1003.5     0.221      383        -9999      -9999      9.175283   2.353      2.362      2.101      2.082      2.255      2.649      1.071      1.038      1.109031   2.679      0.1729852  0.1729852  0.3520423  4.479856   1.107274   2.649      0.3474175  0.5691462  76.078     0.5425973  0.6223624  0.4628322 
1003.7     0.221      377        -9999      -9999      9.196348   2.571      2.446      2.118      2.115      2.255      2.579      1.083      1.08       1.11941    2.763      0.1679687  0.1679687  0.3491144  3.616981   1.0846     2.579      0.3220081  0.556118   76.359     0.5489263  0.6276425  0.47021   
1003.9     0.22       372        -9999      -9999      9.210845   2.84       2.463      2.151      2.149      2.255      2.445      1.217      1.178      1.128698   2.78       0.16339    0.16339    0.3464942  2.97534    1.069266   2.445      0.287881   0.5371468  76.667     0.5548614  0.6313024  0.4784205 
1004.1     0.22       366        -9999      -9999      9.219873   2.79       2.514      2.134      2.199      2.255      2.426      1.069      1.007      1.136994   2.746      0.1597987  0.1597987  0.3441541  2.5528     1.059826   2.426      0.2712994  0.5294359  76.863     0.5586528  0.6335923999999999 0.4837131 
1004.3     0.22       358        -9999      -9999      9.223312   2.706      2.632      2.118      2.199      2.222      2.486      0.965      0.886      1.144577   2.696      0.1570121  0.1570121  0.3420147  2.266743   1.056253   2.486      0.2684833  0.5302339  76.975     0.5606141  0.6344668999999999 0.4867613 
1004.5     0.22       348        -9999      -9999      9.219867   2.639      2.733      2.084      2.199      2.222      2.616      0.856      0.9        1.151718   2.746      0.155016   0.155016   0.3400002  2.081757   1.059833   2.616      0.2777694  0.5381463  77.003     0.5605584  0.6335908  0.4875261 
