~Version
 VERS              .         2.0                           : CWLS LOG ASCII STANDARD - VERSION 2.0
 WRAP              .         NO                            : ONE LINE PER DEPTH STEP
 DLM               .         SPACE                         : DELIMITING CHARACTER(SPACE TAB OR COMMA)
~Well Information
#_______________________________________________________________________________
#
#PARAMETER_NAME    .UNIT     VALUE                         : DESCRIPTION
#_______________________________________________________________________________
STRT               .M        880.1                         : First reference value
STOP               .M        1190.9                        : Last reference value
STEP               .M        0.2                           : Step increment
NULL               .         -9999                         : Missing value
COMP               .                                       : Company
WELL               .         2574                          : Well name
FLD                .         Узень                         : Field
LOC                .                                       : Location
CNTY               .                                       : County
STAT               .                                       : State
CTRY               .                                       : Country
SRVC               .                                       : Service Company
DATE               .         22.04.1980                    : Date
UWI                .                                       : Unique Well ID
Block              .         7                             : 
Category           .         Нефтяная                      : 
Condition          .         Ликвидированная               : 
Date               .         27.10.1982                    : 
EREF               .m        90.3                          : 100.8
Gorizont           .         15                            : 14
Interpretator      .         Алпанова Н.К.                 : 
Kupol              .         основной                      : osnovnoi
METD               .         gz3 gz6 ds ps ik              : 
Moii_15_vosst      .         15_vosst                      : 
Mud                .                                       : 
Mud_density        .                                       : 
Mud_resistivity    .                                       : 
Mud_density        .                                       : 
Mud_resistivity    .                                       : 
NGDU               .         НГДУ-2                        : 
ORIGINALWELLNAME   .         2574                          : 
Spud_date          .         1980                          : 1961
Spud_date          .         1980                          : 1961
Viscosity          .                                       : 
X                  .m        42543.7                       : 46154
Y                  .m        84875.13                      : 85761.93
YEAR               .         2018                          : 
~Parameter Information Block
#_______________________________________________________________________________
#
#PARAMETER_NAME    .UNIT     VALUE                         : DESCRIPTION
#_______________________________________________________________________________
SET                .         LQC_KAZNIPI_Petrel            : 
TLFamily_CALI      .         Caliper                       : 
TLFamily_CILD      .         Conductivity                  : 
TLFamily_COLL      .         Net Reservoir Flag            : 
TLFamily_CSAT      .         Fluid Code                    : 
TLFamily_DEPT      .         Measured Depth                : 
TLFamily_GR        .         Russian Gamma Ray             : 
TLFamily_GZ1_1     .         Gradient 045                  : 
TLFamily_GZ2_1     .         Gradient 105                  : 
TLFamily_GZ3       .         Gradient 225                  : 
TLFamily_GZ4_1     .         Gradient 425                  : 
TLFamily_GZ5_1     .         Gradient 850                  : 
TLFamily_LLS       .         Lateral Log Resistivity       : 
TLFamily_MINV      .         Micro Gradient Resistivity    : 
TLFamily_MNOR      .         Micro Resistivity             : 
TLFamily_NGLD      .         Neutron Far                   : 
TLFamily_OGZ       .         Gradient Inverted 225         : 
TLFamily_PHIE      .         Effective Porosity            : 
TLFamily_PHIEN     .         Effective Porosity            : 
TLFamily_PHIT      .         Porosity                      : 
TLFamily_PRMB      .         Permeability                  : 
TLFamily_PRMB_DGR  .         Permeability                  : 
TLFamily_RT        .         Formation Resistivity         : 
TLFamily_SOIL_ARCHIE .         Oil Saturation                : 
TLFamily_SOIL_DW   .         Oil Saturation                : 
TLFamily_SP        .         Spontaneous Potential         : 
TLFamily_VSH_FIN   .         Shale Volume                  : 
TLFamily_VSH_GR    .         Shale Volume                  : 
TLFamily_VSH_SP    .         Shale Volume                  : 
~Curve Information
#_______________________________________________________________________________
#
#LOGNAME           .UNIT     LOG_ID                        : DESCRIPTION
#_______________________________________________________________________________
DEPT               .M                                      : Колонка глубины 
CALI               .м                                      : Каверномер 
CILD               .мСм/м                                  : Индукционный каротаж 
COLL               .unitless                               :  
CSAT               .unitless                               :  
GR                 .мкР/ч                                  : Гамма каротаж 
GZ1_1              .Ом·м                                   :  
GZ2_1              .Ом·м                                   :  
GZ3                .Ом·м                                   :  
GZ4_1              .Ом·м                                   :  
GZ5_1              .Ом·м                                   :  
LLS                .Ом·м                                   : Боковой каротаж 
MINV               .Ом·м                                   : Микро-градиент зонд 
MNOR               .Ом·м                                   : Микро-потенциал зонд 
NGLD               .у.е.                                   : Показания зонда НГК-60 аппаратуры ДРСТ-3-90 
OGZ                .Ом·м                                   :  
PHIE               .м3/м3                                  : Описание 
PHIEN              .v/v                                    :  
PHIT               .м3/м3                                  : Описание 
PRMB               .mD                                     :  
PRMB_DGR           .mD                                     :  
RT                 .ohmm                                   : Description 
SOIL_ARCHIE        .v/v                                    :  
SOIL_DW            .v/v                                    :  
SP                 .мВ                                     : Потенциал самополяризации 
VSH_FIN            .unitless                               : Описание 
VSH_GR             .unitless                               : Shale volume 
VSH_SP             .unitless                               : Shale Volume 
~Ascii
# ...
1082.7     0.226      304        -9999      -9999      9.477775   3.664      4.299      3.714      3.356      3.209      3.15       3.071      2.06       1.19245    2.646      0.184732   0.184732   0.32851    7.393365   3.351275   3.15       0.4318246  0.5982169  76.555     0.4356909  0.3959619  0.4754198 
1082.9     0.227      314        -9999      -9999      9.626585   3.697      4.501      3.765      3.306      3.209      2.983      3.111      2.24       1.182854   2.679      0.1850243  0.1850243  0.3312169  7.48613    2.960128   2.983      0.4179158  0.5894268  76.331     0.4430077  0.4165454  0.4694701 
1083.1     0.227      327        -9999      -9999      9.760601   3.513      4.181      3.681      3.39       3.109      2.779      3.381      2.282      1.173184   2.746      0.1855174  0.1855174  0.3339447  7.645232   2.647097   2.779      0.3996343  0.5771774  76.106     0.4497796  0.4359967  0.4635625 
1083.3     0.225      341        -9999      -9999      9.880574   3.782      4.063      3.361      3.39       2.992      2.497      3.183      2.335      1.16348    2.629      0.1860947  0.1860947  0.3366822  7.835806   2.395054   2.497      0.3704253  0.5566862  75.91      0.4563257  0.454179   0.4584723 
1083.5     0.221      354        -9999      -9999      9.986844   3.445      3.844      2.975      3.105      2.841      2.292      2.931      1.904      1.153957   2.327      0.1867327  0.1867327  0.3393688  8.051940999999999 2.191917   2.292      0.3465517  0.5401317  75.742     0.4625335  0.4709169  0.4541502 
1083.7     0.22       368        -9999      -9999      10.07862   3.126      3.322      2.588      2.803      2.607      2.222      2.318      1.461      1.144969   1.941      0.1876255  0.1876255  0.3419043  8.364462   2.030409   2.222      0.3397199  0.535921   75.546     0.4675115  0.4858672  0.4491558 
1083.9     0.226      381        -9999      -9999      10.15455   2.79       2.952      2.353      2.518      2.305      2.178      2.133      1.408      1.136994   1.74       0.1884747  0.1884747  0.3441539  8.672943   1.905817   2.178      0.3361097  0.5339475  75.378     0.4717552  0.4985946  0.4449157 
1084.1     0.235      393        -9999      -9999      10.21281   2.521      2.76       2.269      2.249      2.155      2.148      2.164      1.402      1.130548   1.69       0.1896823  0.1896823  0.3459723  9.131358000000001 1.815429   2.148      0.3354816  0.5333753  75.126     0.4736058  0.5085859  0.4386257 
1084.3     0.236      401        -9999      -9999      10.25189   2.454      2.648      2.269      2.166      2.004      2.111      2.083      1.452      1.126115   1.723      0.1908325  0.1908325  0.3472228  9.59046    1.757204   2.111      0.3335594  0.5314474  74.874     0.47391    0.5154007  0.4324194 
1084.5     0.236      405        -9999      -9999      10.27032   2.454      2.615      2.269      2.166      1.921      2.099      1.864      1.405      1.124032   1.807      0.1920067  0.1920067  0.3478105  10.08295   1.730409   2.099      0.3353346  0.5317217  74.594     0.4721329  0.5186449  0.4256209 
1084.7     0.231      405        -9999      -9999      10.26751   2.403      2.446      2.218      2.166      1.921      2.126      1.872      1.323      1.124376   1.975      0.192546   0.192546   0.3477135  10.31755   1.734464   2.126      0.3409212  0.5351387  74.454     0.4702047  0.5181494  0.4222599 
1084.9     0.228      401        -9999      -9999      10.24415   2.336      2.278      2.151      2.216      1.937      2.345      2.169      1.335      1.126903   2.21       0.1927313  0.1927313  0.3470007  10.39941   1.768588   2.345      0.3710842  0.5569937  74.398     0.467483   0.5140435  0.4209226 
1085.1     0.226      393        -9999      -9999      10.20326   2.336      2.16       2.498      2.3        1.987      2.712      2.971      2.099      1.131052   2.528      0.1929538  0.1929538  0.3458303  10.49858   1.829944   2.712      0.4131549  0.5874002  74.342     0.4632621  0.5069347  0.4195894 
1085.3     0.225      383        -9999      -9999      10.14996   2.336      2.244      3.024      2.434      2.088      2.846      3.282      2.542      1.136035   2.914      0.193272   0.193272   0.3444246  10.64203   1.913126   2.846      0.4271097  0.5964975  74.286     0.4580381  0.4978161  0.4182602 
1085.5     0.226      373        -9999      -9999      10.09114   2.471      2.598      3.193      2.702      2.289      2.801      3.066      2.539      1.141019   3.266      0.1938225  0.1938225  0.3430184  10.89484   2.009311   2.801      0.424237   0.5927178  74.202     0.4521089  0.4879439  0.4162739 
1085.7     0.226      364        -9999      -9999      10.03423   3.126      3.002      2.958      3.021      2.54       2.757      2.94       1.755      1.145296   3.115      0.1947044  0.1947044  0.3418119  11.31242   2.106989   2.757      0.4222321  0.5893424  74.062     0.4457804  0.4785773  0.4129835 
1085.9     0.227      357        -9999      -9999      9.98603    3.008      2.783      2.689      3.138      2.707      2.787      2.931      1.741      1.148475   2.78       0.1955245  0.1955245  0.3409152  11.71513   2.193406   2.787      0.4272596  0.5915898  73.95      0.4405778  0.4707863  0.4103693 
1086.1     0.232      352        -9999      -9999      9.951437   3.059      2.615      2.403      3.055      2.607      2.779      3.007      1.904      1.150493   2.629      0.1958651  0.1958651  0.340346   11.88651   2.257608   2.779      0.427355   0.5908718  73.95      0.437821   0.4652727  0.4103693 
1086.3     0.236      349        -9999      -9999      9.933279   3.479      2.834      2.202      2.937      2.439      2.645      2.349      1.847      1.151507   2.646      0.1951868  0.1951868  0.3400598  11.54757   2.292058   2.645      0.4121461  0.579846   74.174     0.4390092  0.4624045  0.4156139 
1086.5     0.237      349        -9999      -9999      9.932572   3.21       3.036      2.017      2.87       2.305      2.59       2.223      1.741      1.151712   2.545      0.1938294  0.1938294  0.340002   10.89806   2.293409   2.59       0.4027015  0.57419    74.51      0.4429472  0.4622932  0.4236013 
1086.7     0.234      350        -9999      -9999      9.94932    3.042      2.817      1.916      2.753      2.238      2.612      2.217      1.556      1.151219   2.377      0.1924157  0.1924157  0.3401413  10.26038   2.261599   2.612      0.4012623  0.5748637  74.79      0.4476532  0.4649374  0.4303691 
1086.9     0.231      354        -9999      -9999      9.982519   2.908      2.918      2.017      2.518      2.172      2.627      2.615      1.713      1.150053   2.21       0.1914209  0.1914209  0.3404702  9.834184000000001 2.199837   2.627      0.4001673  0.5754594  74.902     0.4516643  0.4702238  0.4331048 
1087.1     0.228      361        -9999      -9999      10.0299    2.891      3.086      2.101      2.4        2.138      2.59       2.444      1.604      1.148227   2.159      0.1909001  0.1909001  0.3409852  9.618128000000001 2.114612   2.59       0.3947266  0.5723699  74.846     0.4548034  0.477872   0.4317349 
1087.3     0.23       370        -9999      -9999      10.08707   2.975      3.221      2.168      2.4        2.121      2.467      2.363      1.747      1.145895   2.126      0.19057    0.19057    0.3416431  9.483658999999999 2.016155   2.467      0.3798138  0.5620522  74.706     0.4577975  0.4872669  0.428328  
1087.5     0.234      379        -9999      -9999      10.14735   3.059      3.171      2.168      2.417      2.071      2.285      1.92       1.643      1.14344    2.109      0.1902637  0.1902637  0.3423356  9.360595   1.917292   2.285      0.3562031  0.5452155  74.538     0.4608237  0.4973741  0.4242735 
1087.7     0.235      387        -9999      -9999      10.20212   2.958      3.002      2.168      2.333      2.054      2.185      1.881      1.371      1.141466   2.109      0.1899385  0.1899385  0.3428924  9.231674   1.831687   2.185      0.3415605  0.5350705  74.37      0.4634966  0.5067377  0.4202555 
