~Version
 VERS              .         2.0                           : CWLS LOG ASCII STANDARD - VERSION 2.0
 WRAP              .         NO                            : ONE LINE PER DEPTH STEP
 DLM               .         SPACE                         : DELIMITING CHARACTER(SPACE TAB OR COMMA)
~Well Information
#_______________________________________________________________________________
#
#PARAMETER_NAME    .UNIT     VALUE                         : DESCRIPTION
#_______________________________________________________________________________
STRT               .M        1090                          : First reference value
STOP               .M        1150                          : Last reference value
STEP               .M        0.2                           : Step increment
NULL               .         -9999                         : Missing value
COMP               .                                       : Company
WELL               .         3601                          : Well name
FLD                .         УЗЕНЬ                         : Field
LOC                .                                       : Location
CNTY               .                                       : County
STAT               .                                       : State
CTRY               .                                       : Country
SRVC               .                                       : Service Company
DATE               .         11.10.2004г                   : Date
UWI                .                                       : Unique Well ID
Block              .         7                             : 
Category           .         Нефтяная                      : 
Condition          .         В работе                      : 
EREF               .m        86.1                          : 100.8
Gorizont           .         13                            : 14
Interpretator      .         Кушнир И.Е.                   : 
Kupol              .         основной                      : osnovnoi
Mud                .                                       : 
Mud_density        .                                       : 
Mud_resistivity    .                                       : 
NGDU               .         НГДУ-2                        : 
ORIGINALWELLNAME   .         3601                          : 
Spud_date          .         2004                          : 1961
Viscosity          .                                       : 
X                  .m        42839                         : 46154
Y                  .m        84646.63                      : 85761.93
YEAR               .         2019г                         : 
~Parameter Information Block
#_______________________________________________________________________________
#
#PARAMETER_NAME    .UNIT     VALUE                         : DESCRIPTION
#_______________________________________________________________________________
SET                .         LQC_KAZNIPI_Petrel            : 
TLFamily_CALI      .         Caliper                       : 
TLFamily_COLL      .         Net Reservoir Flag            : 
TLFamily_CSAT      .         Fluid Code                    : 
TLFamily_DEPT      .         Measured Depth                : 
TLFamily_GR        .         Russian Gamma Ray             : 
TLFamily_LLS       .         Lateral Log Resistivity       : 
TLFamily_NPHI      .         Neutron Porosity              : 
TLFamily_PHIE      .         Effective Porosity            : 
TLFamily_PHIED     .         Effective Porosity            : 
TLFamily_PHIEN     .         Effective Porosity            : 
TLFamily_PHIT      .         Porosity                      : 
TLFamily_PRMB      .         Permeability                  : 
TLFamily_PRMB_DGR  .         Permeability                  : 
TLFamily_RHOB      .         Bulk Density                  : 
TLFamily_RT        .         Formation Resistivity         : 
TLFamily_SOIL_ARCHIE .         Oil Saturation                : 
TLFamily_SOIL_DW   .         Oil Saturation                : 
TLFamily_SP        .         Spontaneous Potential         : 
TLFamily_VSH_FIN   .         Shale Volume                  : 
TLFamily_VSH_GR    .         Shale Volume                  : 
TLFamily_VSH_SP    .         Shale Volume                  : 
~Curve Information
#_______________________________________________________________________________
#
#LOGNAME           .UNIT     LOG_ID                        : DESCRIPTION
#_______________________________________________________________________________
DEPT               .M                                      : Колонка глубины 
CALI               .м                                      : Каверномер 
COLL               .unitless                               : Описание 
CSAT               .unitless                               : Описание 
GR                 .uR/h                                   : Гамма каротаж 
LLS                .Ohmm                                   : Боковой каротаж 
NPHI               .v/v                                    : Водородосодержание по НКТ 
PHIE               .v/v                                    : Открытая пористость 
PHIED              .v/v                                    :  
PHIEN              .v/v                                    :  
PHIT               .v/v                                    : Общая пористость 
PRMB               .mD                                     :  
PRMB_DGR           .mD                                     :  
RHOB               .G/C3                                   : Плотность по ГГКп 
RT                 .ohmm                                   : Description 
SOIL_ARCHIE        .v/v                                    :  
SOIL_DW            .v/v                                    :  
SP                 .мВ                                     : Потенциал самополяризации 
VSH_FIN            .v/v                                    : Описание 
VSH_GR             .v/v                                    : Shale volume 
VSH_SP             .v/v                                    : Shale Volume 
~Ascii
# ...
1125       0.218      0          0          117.459    2.364      0.346      0.222      0.2844312  0.2259931  0.315      36.23571   2.142971   2.195      2.364      0.4460498  0.5584269  111.696    0.3636572  0.4752796  0.2520348 
1125.2     0.217      0          0          116.731    2.364      0.349      0.222      0.2802396  0.2310087  0.315      36.23571   2.506505   2.202      2.364      0.4460498  0.5584269  112.2812   0.3575495  0.4458216  0.2692774 
1125.4     0.217      0          0          115.393    2.364      0.358      0.231      0.2868263  0.244726   0.322      53.19106   3.343055   2.191      2.364      0.4648951  0.571181   112.9304   0.3432545  0.3963591  0.29015   
1125.6     0.217      0          0          114.19     2.286      0.36       0.233      0.2862276  0.2492052  0.323      57.9273    4.3311     2.192      2.286      0.4604696  0.5662678  113.6327   0.335742   0.3565906  0.3148934 
1125.8     0.217      0          0          112.677    2.055      0.361      0.235      0.2862276  0.2534038  0.324      63.0853    5.998347   2.192      2.055      0.4370198  0.5449799  114.2829   0.3260492  0.3121893  0.3399092 
1126       0.217      0          0          111.044    1.781      0.36       0.237      0.2874251  0.2566817  0.324      68.70259   8.524767   2.19       1.781      0.4023439  0.5129434  114.6681   0.3130859  0.270449   0.3557228 
1126.2     0.217      0          0          110.291    1.806      0.349      0.234      0.2886228  0.2481481  0.319      60.45131   10.02471   2.188      1.806      0.3996161  0.5093182  114.7244   0.305612   0.2531297  0.3580943 
1126.4     0.217      0          0          109.6      1.836      0.356      0.241      0.2898203  0.2601602  0.323      81.48219   11.63231   2.186      1.836      0.4193395  0.5227562  114.3506   0.2904237  0.238214   0.3426335 
1126.6     0.217      0          0          108.486    1.942      0.363      0.249      0.2892215  0.276199   0.326      114.6152   14.78431   2.187      1.942      0.4502932  0.5446995  113.5008   0.2630333  0.2159958  0.3100708 
1126.8     0.217      1          2          106.626    2.695      0.368      0.268      0.2958083  0.2938986  0.332      257.732    22.06337   2.176      2.695      0.557884   0.6291945  112.1631   0.2245496  0.1834206  0.2656786 
1127       0.216      1          2          103.012    5.002      0.374      0.283      0.3017965  0.3155312  0.338      488.6574   48.02901   2.166      5.002      0.6845723  0.7367513  110.4873   0.1771784  0.1335058  0.2208509 
1127.2     0.216      1          2          96.185     5.907      0.361      0.289      0.3137725  0.3180931  0.337      631.1598   208.7774   2.146      5.907      0.7135344  0.7594938  108.8235   0.1300209  0.07326727 0.1867746 
1127.4     0.215      1          2          87.912     6.571      0.355      0.296      0.320958   0.3219619  0.338      850.7389   1238.891   2.134      6.571      0.733124   0.7746657  107.4078   0.1001154  0.03540998 0.1648207 
1127.6     0.215      1          2          81.673     6.944      0.347      0.301      0.3317366  0.318475   0.339      1052.951   4745.123   2.116      6.944      0.743716   0.782732   106.384    0.08643948 0.02046349 0.1524155 
1127.8     0.216      1          2          76.975     6.944      0.359      0.315      0.3419162  0.3318037  0.35       1913.032   13043.99   2.099      6.944      0.7536654  0.7907754  105.6212   0.08241294 0.02       0.1448259 
1128       0.216      1          2          77.55      6.755      0.352      0.315      0.3449101  0.3255257  0.348      1913.032   11525.5    2.094      6.755      0.7504548  0.7871727  105.1105   0.08022526 0.02       0.1404505 
1128.2     0.216      1          2          80.522     6.859      0.348      0.316      0.3473054  0.3219056  0.348      1996.388   6079.123   2.09       6.859      0.7529206  0.7890793  104.8137   0.079074   0.02       0.138148  
1128.4     0.216      1          2          81.673     6.944      0.374      0.329      0.3473054  0.3478276  0.361      3475.651   4745.123   2.09       6.944      0.7628205  0.7982384  104.8149   0.07931033 0.02046349 0.1381572 
1128.6     0.215      1          2          83.293     5.619      0.387      0.334      0.3449101  0.3599766  0.366      4301.78    3348.202   2.094      5.619      0.741464   0.7788981  105.0771   0.08188917 0.02359479 0.1401836 
1128.8     0.215      1          2          89.357     4.717      0.388      0.331      0.3401197  0.3575695  0.364      3785.133   907.7289   2.102      4.717      0.717125   0.7569872  105.5544   0.09221379 0.04020518 0.1442224 
1129       0.215      1          2          92.972     4.488      0.378      0.322      0.3329341  0.3441633  0.355      2578.572   416.8988   2.114      4.488      0.7034049  0.7442709  106.1386   0.1025353  0.05524186 0.1498288 
1129.2     0.215      1          2          89.679     5.268      0.363      0.313      0.3329341  0.33057    0.348      1756.618   846.9468   2.114      5.268      0.7180129  0.7583413  106.6328   0.09827271 0.04135927 0.1551861 
1129.4     0.215      1          2          86.546     5.124      0.366      0.312      0.3281437  0.3348264  0.347      1683.275   1662.361   2.122      5.124      0.7135241  0.7542291  106.8331   0.09446538 0.03140397 0.1575268 
1129.6     0.215      1          2          86.252     4.984      0.36       0.31       0.3281437  0.3294658  0.344      1545.647   1770.957   2.122      4.984      0.7081456  0.7488703  106.5683   0.09252798 0.0306029  0.1544531 
1129.8     0.215      1          2          86.948     5.723      0.368      0.316      0.3281437  0.3380991  0.348      1996.388   1524.568   2.122      5.723      0.7310088  0.7690927  106.0255   0.0906087  0.03253338 0.148684  
1130       0.215      1          2          85.234     6.392      0.364      0.318      0.3317366  0.3355854  0.348      2174.149   2204.8     2.116      6.392      0.7460075  0.7821009  105.5548   0.0861048  0.02798369 0.1442259 
1130.2     0.215      1          2          83.32      6.218      0.351      0.313      0.3329341  0.3235164  0.342      1756.618   3328.8     2.114      6.218      0.7391204  0.7753462  105.406    0.08328371 0.02365085 0.1429166 
1130.4     0.215      1          2          82.369     5.976      0.362      0.318      0.3329341  0.3347312  0.347      2174.149   4084.94    2.114      5.976      0.7378586  0.774274   105.4742   0.08263285 0.02175438 0.1435113 
1130.6     0.215      1          2          80.81      5.415      0.359      0.317      0.3329341  0.3320895  0.346      2083.374   5713.728   2.114      5.415      0.7246931  0.7621571  105.4265   0.08154696 0.02       0.1430939 
1130.8     0.215      1          2          81.249     5.254      0.356      0.316      0.3305389  0.3293855  0.343      1996.388   5198.549   2.118      5.254      0.7199965  0.7570086  105.2147   0.08065008 0.02       0.1413002 
1131       0.216      1          2          81.767     4.984      0.344      0.315      0.3389221  0.3176911  0.341      1913.032   4650.079   2.104      4.984      0.7121845  0.749339   104.9019   0.07972407 0.02063326 0.1388149 
1131.2     0.216      1          2          83.426     4.849      0.355      0.321      0.3389221  0.3283432  0.347      2470.911   3253.709   2.104      4.849      0.7132037  0.7504209  104.7512   0.08077823 0.02387222 0.1376842 
1131.4     0.216      1          2          84.894     4.849      0.347      0.317      0.3383234  0.319759   0.343      2083.374   2372.206   2.105      4.849      0.7100544  0.7474077  104.7854   0.08254849 0.02715982 0.1379372 
1131.6     0.216      1          2          85.904     4.588      0.339      0.315      0.3425149  0.311121   0.341      1913.032   1908.704   2.098      4.588      0.700783   0.7387453  104.9626   0.08448164 0.02968105 0.1392822 
1131.8     0.216      1          2          84.94      4.849      0.35       0.319      0.3401197  0.32224    0.345      2268.883   2348.831   2.102      4.849      0.7116383  0.7489234  105.1748   0.08412133 0.02726986 0.1409728 
