~Version
 VERS              .         2.0                           : CWLS LOG ASCII STANDARD - VERSION 2.0
 WRAP              .         NO                            : ONE LINE PER DEPTH STEP
 DLM               .         SPACE                         : DELIMITING CHARACTER(SPACE TAB OR COMMA)
~Well Information
#_______________________________________________________________________________
#
#PARAMETER_NAME    .UNIT     VALUE                         : DESCRIPTION
#_______________________________________________________________________________
STRT               .M        1090                          : First reference value
STOP               .M        1150                          : Last reference value
STEP               .M        0.2                           : Step increment
NULL               .         -9999                         : Missing value
COMP               .                                       : Company
WELL               .         3601                          : Well name
FLD                .         УЗЕНЬ                         : Field
LOC                .                                       : Location
CNTY               .                                       : County
STAT               .                                       : State
CTRY               .                                       : Country
SRVC               .                                       : Service Company
DATE               .         11.10.2004г                   : Date
UWI                .                                       : Unique Well ID
Block              .         7                             : 
Category           .         Нефтяная                      : 
Condition          .         В работе                      : 
EREF               .m        86.1                          : 100.8
Gorizont           .         13                            : 14
Interpretator      .         Кушнир И.Е.                   : 
Kupol              .         основной                      : osnovnoi
Mud                .                                       : 
Mud_density        .                                       : 
Mud_resistivity    .                                       : 
NGDU               .         НГДУ-2                        : 
ORIGINALWELLNAME   .         3601                          : 
Spud_date          .         2004                          : 1961
Viscosity          .                                       : 
X                  .m        42839                         : 46154
Y                  .m        84646.63                      : 85761.93
YEAR               .         2019г                         : 
~Parameter Information Block
#_______________________________________________________________________________
#
#PARAMETER_NAME    .UNIT     VALUE                         : DESCRIPTION
#_______________________________________________________________________________
SET                .         LQC_KAZNIPI_Petrel            : 
TLFamily_CALI      .         Caliper                       : 
TLFamily_COLL      .         Net Reservoir Flag            : 
TLFamily_CSAT      .         Fluid Code                    : 
TLFamily_DEPT      .         Measured Depth                : 
TLFamily_GR        .         Russian Gamma Ray             : 
TLFamily_LLS       .         Lateral Log Resistivity       : 
TLFamily_NPHI      .         Neutron Porosity              : 
TLFamily_PHIE      .         Effective Porosity            : 
TLFamily_PHIED     .         Effective Porosity            : 
TLFamily_PHIEN     .         Effective Porosity            : 
TLFamily_PHIT      .         Porosity                      : 
TLFamily_PRMB      .         Permeability                  : 
TLFamily_PRMB_DGR  .         Permeability                  : 
TLFamily_RHOB      .         Bulk Density                  : 
TLFamily_RT        .         Formation Resistivity         : 
TLFamily_SOIL_ARCHIE .         Oil Saturation                : 
TLFamily_SOIL_DW   .         Oil Saturation                : 
TLFamily_SP        .         Spontaneous Potential         : 
TLFamily_VSH_FIN   .         Shale Volume                  : 
TLFamily_VSH_GR    .         Shale Volume                  : 
TLFamily_VSH_SP    .         Shale Volume                  : 
~Curve Information
#_______________________________________________________________________________
#
#LOGNAME           .UNIT     LOG_ID                        : DESCRIPTION
#_______________________________________________________________________________
DEPT               .M                                      : Колонка глубины 
CALI               .м                                      : Каверномер 
COLL               .unitless                               : Описание 
CSAT               .unitless                               : Описание 
GR                 .uR/h                                   : Гамма каротаж 
LLS                .Ohmm                                   : Боковой каротаж 
NPHI               .v/v                                    : Водородосодержание по НКТ 
PHIE               .v/v                                    : Открытая пористость 
PHIED              .v/v                                    :  
PHIEN              .v/v                                    :  
PHIT               .v/v                                    : Общая пористость 
PRMB               .mD                                     :  
PRMB_DGR           .mD                                     :  
RHOB               .G/C3                                   : Плотность по ГГКп 
RT                 .ohmm                                   : Description 
SOIL_ARCHIE        .v/v                                    :  
SOIL_DW            .v/v                                    :  
SP                 .мВ                                     : Потенциал самополяризации 
VSH_FIN            .v/v                                    : Описание 
VSH_GR             .v/v                                    : Shale volume 
VSH_SP             .v/v                                    : Shale Volume 
~Ascii
# ...
1132       0.216      1          2          82.155     4.717      0.355      0.323      0.3437126  0.3279018  0.349      2690.927   4277.505   2.096      4.717      0.7110326  0.7484533  105.4021   0.08211586 0.02134902 0.1428827 
1132.2     0.216      1          2          79.719     4.717      0.368      0.331      0.345509   0.3407931  0.357      3785.133   7226.109   2.093      4.717      0.717125   0.7542807  105.6283   0.08244518 0.02       0.1448904 
1132.4     0.216      1          2          78.112     4.717      0.368      0.332      0.3497006  0.3403543  0.359      3950.057   10212.34   2.086      4.717      0.7178672  0.7553793  105.9105   0.08377481 0.02       0.1475496 
1132.6     0.216      1          2          80.569     4.135      0.345      0.321      0.3497006  0.3168689  0.347      2470.911   6017.938   2.086      4.135      0.6909451  0.7297308  106.2027   0.08524562 0.02       0.1504912 
1132.8     0.217      1          2          84.538     4.223      0.342      0.317      0.3461078  0.3120413  0.344      2083.374   2561.122   2.092      4.223      0.6906238  0.7297817  106.638    0.09078401 0.02632318 0.1552448 
1133       0.217      1          2          84.94      4.223      0.348      0.317      0.3407185  0.3170294  0.344      2083.374   2348.831   2.101      4.223      0.6906238  0.7297817  107.0702   0.09385031 0.02726986 0.1604308 
1133.2     0.217      1          2          85.462     4.286      0.359      0.32       0.3377246  0.3270077  0.348      2367.742   2099.212   2.106      4.286      0.6952763  0.7346138  107.4464   0.09694652 0.02855011 0.1653429 
1133.4     0.217      1          2          87.778     4.223      0.362      0.32       0.3353294  0.3285774  0.349      2367.742   1275.144   2.11       4.223      0.6931514  0.7330789  107.6076   0.1012807  0.03499538 0.167566  
1133.6     0.217      1          2          88.554     4.108      0.362      0.321      0.3353294  0.328095   0.349      2470.911   1078.996   2.11       4.108      0.6899936  0.7297311  107.6398   0.1027422  0.03746546 0.168019  
1133.8     0.217      1          2          85.502     4.223      0.362      0.322      0.3377246  0.329614   0.35       2578.572   2081.216   2.106      4.223      0.6948121  0.7342265  107.6121   0.09813952 0.02865066 0.1676284 
1134       0.217      1          2          83.186     4.341      0.35       0.318      0.3401197  0.3186837  0.345      2174.149   3426.211   2.102      4.341      0.6954356  0.7342803  107.5253   0.09489786 0.02337393 0.1664218 
1134.2     0.216      1          2          83.788     4.74       0.35       0.316      0.3353294  0.3188866  0.343      1996.388   3009.812   2.11       4.74       0.7061369  0.7441727  107.3405   0.09428293 0.02464396 0.1639219 
1134.4     0.216      1          2          84.94      4.96       0.347      0.313      0.3305389  0.3161477  0.339      1756.618   2348.831   2.118      4.96       0.7099271  0.747198   107.0127   0.09349188 0.02726986 0.1597139 
1134.6     0.216      1          2          86.145     4.984      0.357      0.319      0.3305389  0.3262702  0.344      2268.883   1812.218   2.118      4.984      0.7153303  0.7519372  106.697    0.09312062 0.03031644 0.1559248 
1134.8     0.216      1          2          86.948     4.984      0.36       0.322      0.3311377  0.3292749  0.346      2578.572   1524.568   2.117      4.984      0.7176417  0.7537489  106.4992   0.09310634 0.03253338 0.1536793 
1135       0.216      1          2          86.948     4.984      0.364      0.327      0.3377246  0.3331768  0.351      3191.474   1524.568   2.106      4.984      0.7214056  0.7573676  106.5524   0.09340374 0.03253338 0.1542741 
1135.2     0.216      1          2          86.145     5.191      0.374      0.338      0.3497006  0.3430087  0.362      5101.972   1812.218   2.086      5.191      0.734439   0.7696998  106.8316   0.09391301 0.03031644 0.1575096 
1135.4     0.216      1          2          86.546     5.574      0.379      0.35       0.3700598  0.3468708  0.375      8511.52    1662.361   2.052      5.574      0.7508502  0.7854209  107.2949   0.09736118 0.03140397 0.1633184 
1135.6     0.216      1          2          86.948     6.373      0.365      0.35       0.3856287  0.331465   0.375      8511.52    1524.568   2.026      6.373      0.76603    0.7993224  107.8271   0.1016213  0.03253338 0.1707092 
1135.8     0.216      1          2          85.636     7.439      0.375      0.356      0.3880239  0.3406985  0.382      10993.65   2022.045   2.022      7.439      0.7856072  0.8175426  108.3583   0.103944   0.02899009 0.178898  
1136       0.216      1          2          84.137     8.504      0.394      0.365      0.3880239  0.3586447  0.391      16137.78   2792       2.022      8.504      0.8029854  0.8333982  108.9405   0.1071374  0.0254116  0.1888631 
1136.2     0.216      1          2          84.538     9.252      0.387      0.36       0.3880239  0.3494264  0.388      13038.62   2561.122   2.022      9.252      0.8083385  0.8386173  109.5957   0.1138593  0.02632318 0.2013954 
1136.4     0.216      1          2          84.94      9.07       0.377      0.355      0.3904192  0.3369574  0.384      10534.63   2348.831   2.018      9.07       0.8041723  0.8350514  110.251    0.1213413  0.02726986 0.2154127 
1136.6     0.216      1          2          83.735     8.134      0.367      0.349      0.3904192  0.325275   0.379      8156.145   3044.345   2.018      8.134      0.7908204  0.8232222  110.7992   0.1264393  0.02452943 0.2283491 
1136.8     0.216      1          2          84.98      7.221      0.367      0.349      0.391018   0.3227935  0.379      8156.145   2328.695   2.017      7.221      0.7788009  0.8123791  111.2764   0.133959   0.02736591 0.240552  
1137       0.216      1          2          88.956     7.764      0.368      0.345      0.3832335  0.3199092  0.376      6876.938   989.5579   2.03       7.764      0.784043   0.8173345  111.7176   0.1457298  0.03881286 0.2526468 
1137.2     0.216      1          2          92.021     8.196      0.378      0.348      0.3820359  0.3258049  0.38       7815.598   511.5977   2.032      8.196      0.7910429  0.8239397  112.1579   0.1581668  0.05081223 0.2655213 
1137.4     0.216      1          2          91.767     8.196      0.382      0.348      0.3784431  0.3282856  0.38       7815.598   540.347    2.038      8.196      0.7910429  0.8239397  112.4921   0.1627709  0.04969043 0.2758513 
1137.6     0.216      1          2          91.365     8.135      0.361      0.337      0.3784431  0.3061707  0.37       4888.954   589.1843   2.038      8.135      0.7843603  0.8180794  112.7553   0.1661493  0.04796541 0.2843332 
1137.8     0.215      1          2          91.561     8.026      0.355      0.335      0.3796407  0.2991838  0.367      4489.221   564.8452   2.036      8.026      0.781863   0.8155245  112.9105   0.16914    0.04879885 0.2894812 
1138       0.215      1          2          91.74      7.692      0.37       0.343      0.3808384  0.3133914  0.375      6314.663   543.4964   2.034      7.692      0.7819956  0.815743   113.0297   0.1715411  0.04957265 0.2935096 
1138.2     0.215      1          2          91.365     7.644      0.37       0.345      0.3832335  0.3130326  0.377      6876.938   589.1843   2.03       7.644      0.7824586  0.816185   113.14     0.1726286  0.04796541 0.2972918 
1138.4     0.217      1          2          88.956     7.927      0.33       0.323      0.3802395  0.2773651  0.355      2690.927   989.5579   2.035      7.927      0.773506   0.8078349  112.6278   0.1594996  0.03881286 0.2801864 
1138.6     0.218      1          2          84.444     8.832      0.258      0.284      0.3736527  0.2102639  0.316      509.9496   2613.47    2.046      8.832      0.7591774  0.7943963  112.0806   0.1446549  0.0261066  0.2632033 
1138.8     0.219      1          2          79.317     10.805     0.196      0.249      0.3646706  0.1522373  0.28       114.6152   7879.216   2.061      10.805     0.754329   0.7892626  111.4505   0.1326142  0.02       0.2452284 
