~Version
 VERS              .         2.0                           : CWLS LOG ASCII STANDARD - VERSION 2.0
 WRAP              .         NO                            : ONE LINE PER DEPTH STEP
 DLM               .         SPACE                         : DELIMITING CHARACTER(SPACE TAB OR COMMA)
~Well Information
#_______________________________________________________________________________
#
#PARAMETER_NAME    .UNIT     VALUE                         : DESCRIPTION
#_______________________________________________________________________________
STRT               .M        1090                          : First reference value
STOP               .M        1150                          : Last reference value
STEP               .M        0.2                           : Step increment
NULL               .         -9999                         : Missing value
COMP               .                                       : Company
WELL               .         3601                          : Well name
FLD                .         УЗЕНЬ                         : Field
LOC                .                                       : Location
CNTY               .                                       : County
STAT               .                                       : State
CTRY               .                                       : Country
SRVC               .                                       : Service Company
DATE               .         11.10.2004г                   : Date
UWI                .                                       : Unique Well ID
Block              .         7                             : 
Category           .         Нефтяная                      : 
Condition          .         В работе                      : 
EREF               .m        86.1                          : 100.8
Gorizont           .         13                            : 14
Interpretator      .         Кушнир И.Е.                   : 
Kupol              .         основной                      : osnovnoi
Mud                .                                       : 
Mud_density        .                                       : 
Mud_resistivity    .                                       : 
NGDU               .         НГДУ-2                        : 
ORIGINALWELLNAME   .         3601                          : 
Spud_date          .         2004                          : 1961
Viscosity          .                                       : 
X                  .m        42839                         : 46154
Y                  .m        84646.63                      : 85761.93
YEAR               .         2019г                         : 
~Parameter Information Block
#_______________________________________________________________________________
#
#PARAMETER_NAME    .UNIT     VALUE                         : DESCRIPTION
#_______________________________________________________________________________
SET                .         LQC_KAZNIPI_Petrel            : 
TLFamily_CALI      .         Caliper                       : 
TLFamily_COLL      .         Net Reservoir Flag            : 
TLFamily_CSAT      .         Fluid Code                    : 
TLFamily_DEPT      .         Measured Depth                : 
TLFamily_GR        .         Russian Gamma Ray             : 
TLFamily_LLS       .         Lateral Log Resistivity       : 
TLFamily_NPHI      .         Neutron Porosity              : 
TLFamily_PHIE      .         Effective Porosity            : 
TLFamily_PHIED     .         Effective Porosity            : 
TLFamily_PHIEN     .         Effective Porosity            : 
TLFamily_PHIT      .         Porosity                      : 
TLFamily_PRMB      .         Permeability                  : 
TLFamily_PRMB_DGR  .         Permeability                  : 
TLFamily_RHOB      .         Bulk Density                  : 
TLFamily_RT        .         Formation Resistivity         : 
TLFamily_SOIL_ARCHIE .         Oil Saturation                : 
TLFamily_SOIL_DW   .         Oil Saturation                : 
TLFamily_SP        .         Spontaneous Potential         : 
TLFamily_VSH_FIN   .         Shale Volume                  : 
TLFamily_VSH_GR    .         Shale Volume                  : 
TLFamily_VSH_SP    .         Shale Volume                  : 
~Curve Information
#_______________________________________________________________________________
#
#LOGNAME           .UNIT     LOG_ID                        : DESCRIPTION
#_______________________________________________________________________________
DEPT               .M                                      : Колонка глубины 
CALI               .м                                      : Каверномер 
COLL               .unitless                               : Описание 
CSAT               .unitless                               : Описание 
GR                 .uR/h                                   : Гамма каротаж 
LLS                .Ohmm                                   : Боковой каротаж 
NPHI               .v/v                                    : Водородосодержание по НКТ 
PHIE               .v/v                                    : Открытая пористость 
PHIED              .v/v                                    :  
PHIEN              .v/v                                    :  
PHIT               .v/v                                    : Общая пористость 
PRMB               .mD                                     :  
PRMB_DGR           .mD                                     :  
RHOB               .G/C3                                   : Плотность по ГГКп 
RT                 .ohmm                                   : Description 
SOIL_ARCHIE        .v/v                                    :  
SOIL_DW            .v/v                                    :  
SP                 .мВ                                     : Потенциал самополяризации 
VSH_FIN            .v/v                                    : Описание 
VSH_GR             .v/v                                    : Shale volume 
VSH_SP             .v/v                                    : Shale Volume 
~Ascii
1090.0     0.218      -9999      -9999      115.864    5.268      0.187      0.046      0.08143717 0.07590483 0.134      0.01991543 3.020751   2.534      5.268      0          0.08483122 111.979    0.336652   0.4131114  0.2601927 
1090.2     0.217      -9999      -9999      120.281    3.353      0.214      0.05       -0.02623552 0.07057188 0.142      0.02361997 1.167399   2.553      3.353      0          0          111.979    0.4346307  0.6090686  0.2601927 
1090.4     0.218      -9999      -9999      116.577    1.859      0.271      0.086      0.09580839 0.15799    0.183      0.1096697  2.590981   2.51       1.859      0          0          111.445    0.3424544  0.439828   0.2450808 
1090.6     0.218      -9999      -9999      115.087    1.784      0.337      0.149      0.1449102  0.2354346  0.241      1.610644   3.570656   2.428      1.784      0.1053372  0.2992242  110.854    0.3077739  0.3858413  0.2297065 
1090.8     0.218      -9999      -9999      113.454    1.877      0.363      0.181      0.1784431  0.271401   0.271      6.305464   5.07456    2.372      1.877      0.2625811  0.4111511  110.489    0.2775728  0.3342538  0.2208917 
1091       0.218      -9999      -9999      115.06     1.927      0.365      0.196      0.202994   0.2661993  0.284      11.95511   3.591467   2.331      1.927      0.3204192  0.45283    110.182    0.2993961  0.3849267  0.2138655 
1091.2     0.218      -9999      -9999      113.922    1.834      0.359      0.196      0.205988   0.2675247  0.282      11.95511   4.588292   2.326      1.834      0.3044602  0.4367879  109.824    0.2771977  0.3482892  0.2061062 
1091.4     0.219      -9999      -9999      107.189    1.868      0.371      0.203      0.205988   0.3059958  0.288      16.11426   19.54532   2.326      1.868      0.3311864  0.4567111  109.588    0.1969824  0.1927251  0.2012397 
1091.6     0.219      -9999      -9999      97.74      2.229      0.36       0.2        0.2107784  0.3129393  0.285      14.17893   149.3909   2.318      2.229      0.3763676  0.496497   109.587    0.1426084  0.08399726 0.2012195 
1091.8     0.218      -9999      -9999      95.946     2.554      0.332      0.185      0.2131737  0.285599   0.273      7.47837    219.7986   2.314      2.554      0.373849   0.5018526  109.982    0.1406092  0.07174429 0.209474  
1092       0.218      -9999      -9999      93.577     4.057      0.3        0.163      0.2131737  0.2523789  0.257      2.926264   365.9955   2.314      4.057      0.4373308  0.5686906  110.88     0.1443063  0.05825881 0.2303539 
1092.2     0.218      -9999      -9999      99.574     4.463      0.292      0.154      0.2191617  0.2320435  0.256      1.993479   100.6663   2.304      4.463      0.4346738  0.5782956  112.13     0.1816863  0.09868924 0.2646834 
1092.4     0.219      -9999      -9999      106.679    2.838      0.324      0.169      0.2347305  0.2427414  0.279      3.779619   21.81309   2.278      2.838      0.355228   0.5161066  113.449    0.2462381  0.1842771  0.3081992 
1092.6     0.219      -9999      -9999      111.446    1.981      0.356      0.188      0.2568863  0.2518899  0.306      8.499122   7.818151   2.241      1.981      0.3043812  0.4749167  114.55     0.315485   0.2801754  0.3507946 
1092.8     0.22       -9999      -9999      110.323    2.004      0.35       0.183      0.2664671  0.2441382  0.308      6.86692    9.95591    2.225      2.004      0.2917039  0.4743323  115.397    0.3207933  0.2538426  0.3877441 
1093       0.219      -9999      -9999      109.438    2.039      0.355      0.175      0.2556886  0.2466403  0.305      4.881829   12.04506   2.243      2.039      0.2695441  0.4663822  116.111    0.3283628  0.2348463  0.4218793 
1093.2     0.218      -9999      -9999      103.012    1.962      0.331      0.148      0.2383233  0.2330881  0.285      1.543395   48.02901   2.272      1.962      0.1393551  0.3946254  116.844    0.2967027  0.1335058  0.4598997 
1093.4     0.216      -9999      -9999      95.89      2.107      0.287      0.109      0.2185628  0.1918486  0.253      0.2924842  222.464    2.305      2.107      0          0.2936349  117.649    0.2883376  0.07139204 0.5052832 
1093.6     0.216      -9999      -9999      89.759     3.702      0.264      0.08       0.1976048  0.1658237  0.231      0.08490868 832.4874   2.34       3.702      0          0.3686544  118.434    0.2975039  0.04165111 0.5533566 
1093.8     0.216      -9999      -9999      84.431     4.501      0.263      0.062      0.1712575  0.1622475  0.217      0.03940474 2620.793   2.384      4.501      0          0.3495164  118.912    0.3053107  0.02607679 0.5845447 
1094       0.217      -9999      -9999      81.594     5.079      0.263      0.054      0.1586827  0.1617104  0.211      0.02801361 4826.495   2.405      5.079      0          0.3475589  119.046    0.3069382  0.02032191 0.5935544 
1094.2     0.217      -9999      -9999      78.902     8.1        0.223      0.033      0.1544911  0.1233492  0.189      0.01143926 8615.427   2.412      8.1        0          0.3550955  118.903    0.301972   0.02       0.5839441 
1094.4     0.217      -9999      -9999      70.562     17.283     0.185      0.025      0.1556886  0.08669556 0.17       0.008132399 51866.87   2.41       17.283     0          0.486939   118.78     0.2978922  0.02       0.5757845 
1094.6     0.217      -9999      -9999      62.624     13.992     0.198      0.023      0.1568862  0.1001407  0.177      0.007467476 286367.7   2.408      13.992     0          0.4358682  118.739    0.2965433  0.02       0.5730865 
1094.8     0.217      -9999      -9999      66.198     7.594      0.228      0.039      0.1604791  0.1295758  0.194      0.01477518 132687.9   2.402      7.594      0          0.3759942  118.791    0.2982551  0.02       0.5765103 
1095       0.217      -9999      -9999      79.041     3.712      0.242      0.049      0.1658683  0.1429642  0.204      0.02263377 8361.481   2.393      3.712      0          0.1948993  118.847    0.3001085  0.02       0.5802169 
1095.2     0.217      -9999      -9999      95.053     3.66       0.256      0.057      0.1718563  0.147387   0.214      0.03183731 266.3797   2.383      3.66       0          0.2517358  119.022    0.3291303  0.06632864 0.591932  
1095.4     0.217      -9999      -9999      99.494     3.606      0.264      0.059      0.175449   0.1463682  0.22       0.03467218 102.4146   2.377      3.606      0          0.268315   119.357    0.3564599  0.09799781 0.6149219 
1095.6     0.218      -9999      -9999      96.707     3.989      0.264      0.054      0.1790419  0.1420806  0.222      0.02801361 186.5896   2.371      3.989      0          0.2890942  120.014    0.3694527  0.07670702 0.6621983 
1095.8     0.218      -9999      -9999      98.989     2.971      0.283      0.063      0.1034463  0.1481061  0.239      0.04112168 114.1745   2.346      2.971      0          0.253893   120.814    0.4087695  0.09374326 0.7237957 
1096       0.218      -9999      -9999      101.067    1.924      0.295      0.069      0.1136502  0.14498    0.255      0.05311356 72.9995    2.312      1.924      0          0.1382678  121.692    0.4546059  0.1125275  0.7966843 
1096.2     0.218      -9999      -9999      112.81     2.005      0.318      0.08       0.09914122 0.1338831  0.27       0.08490868 5.82907    2.298      2.005      0          0.22603    122.051    0.5579299  0.3158599  0.8       
1096.4     0.218      -9999      -9999      123.775    2.053      0.323      0.088      0.05960093 0.05947597 0.28       0.119435   0.5503061  2.275      2.053      0          0.2768641  121.697    0.7985577  0.8        0.7971154 
1096.6     0.216      -9999      -9999      127.108    2.059      0.326      0.113      0.08815023 0.08270159 0.289      0.3468903  0.2685589  2.25       2.059      0          0.3518607  120.179    0.7372679  0.8        0.6745358 
1096.8     0.215      -9999      -9999      124.204    2.319      0.337      0.156      0.1214823  0.1326456  0.298      2.170984   0.5017666  2.238      2.319      0.23995    0.4691191  116.439    0.6192558  0.8        0.4385117 
