~Version
 VERS              .         2.0                           : CWLS LOG ASCII STANDARD - VERSION 2.0
 WRAP              .         NO                            : ONE LINE PER DEPTH STEP
 DLM               .         SPACE                         : DELIMITING CHARACTER(SPACE TAB OR COMMA)
~Well Information
#_______________________________________________________________________________
#
#PARAMETER_NAME    .UNIT     VALUE                         : DESCRIPTION
#_______________________________________________________________________________
STRT               .M        1090                          : First reference value
STOP               .M        1150                          : Last reference value
STEP               .M        0.2                           : Step increment
NULL               .         -9999                         : Missing value
COMP               .                                       : Company
WELL               .         3601                          : Well name
FLD                .         УЗЕНЬ                         : Field
LOC                .                                       : Location
CNTY               .                                       : County
STAT               .                                       : State
CTRY               .                                       : Country
SRVC               .                                       : Service Company
DATE               .         11.10.2004г                   : Date
UWI                .                                       : Unique Well ID
Block              .         7                             : 
Category           .         Нефтяная                      : 
Condition          .         В работе                      : 
EREF               .m        86.1                          : 100.8
Gorizont           .         13                            : 14
Interpretator      .         Кушнир И.Е.                   : 
Kupol              .         основной                      : osnovnoi
Mud                .                                       : 
Mud_density        .                                       : 
Mud_resistivity    .                                       : 
NGDU               .         НГДУ-2                        : 
ORIGINALWELLNAME   .         3601                          : 
Spud_date          .         2004                          : 1961
Viscosity          .                                       : 
X                  .m        42839                         : 46154
Y                  .m        84646.63                      : 85761.93
YEAR               .         2019г                         : 
~Parameter Information Block
#_______________________________________________________________________________
#
#PARAMETER_NAME    .UNIT     VALUE                         : DESCRIPTION
#_______________________________________________________________________________
SET                .         LQC_KAZNIPI_Petrel            : 
TLFamily_CALI      .         Caliper                       : 
TLFamily_COLL      .         Net Reservoir Flag            : 
TLFamily_CSAT      .         Fluid Code                    : 
TLFamily_DEPT      .         Measured Depth                : 
TLFamily_GR        .         Russian Gamma Ray             : 
TLFamily_LLS       .         Lateral Log Resistivity       : 
TLFamily_NPHI      .         Neutron Porosity              : 
TLFamily_PHIE      .         Effective Porosity            : 
TLFamily_PHIED     .         Effective Porosity            : 
TLFamily_PHIEN     .         Effective Porosity            : 
TLFamily_PHIT      .         Porosity                      : 
TLFamily_PRMB      .         Permeability                  : 
TLFamily_PRMB_DGR  .         Permeability                  : 
TLFamily_RHOB      .         Bulk Density                  : 
TLFamily_RT        .         Formation Resistivity         : 
TLFamily_SOIL_ARCHIE .         Oil Saturation                : 
TLFamily_SOIL_DW   .         Oil Saturation                : 
TLFamily_SP        .         Spontaneous Potential         : 
TLFamily_VSH_FIN   .         Shale Volume                  : 
TLFamily_VSH_GR    .         Shale Volume                  : 
TLFamily_VSH_SP    .         Shale Volume                  : 
~Curve Information
#_______________________________________________________________________________
#
#LOGNAME           .UNIT     LOG_ID                        : DESCRIPTION
#_______________________________________________________________________________
DEPT               .M                                      : Колонка глубины 
CALI               .м                                      : Каверномер 
COLL               .unitless                               : Описание 
CSAT               .unitless                               : Описание 
GR                 .uR/h                                   : Гамма каротаж 
LLS                .Ohmm                                   : Боковой каротаж 
NPHI               .v/v                                    : Водородосодержание по НКТ 
PHIE               .v/v                                    : Открытая пористость 
PHIED              .v/v                                    :  
PHIEN              .v/v                                    :  
PHIT               .v/v                                    : Общая пористость 
PRMB               .mD                                     :  
PRMB_DGR           .mD                                     :  
RHOB               .G/C3                                   : Плотность по ГГКп 
RT                 .ohmm                                   : Description 
SOIL_ARCHIE        .v/v                                    :  
SOIL_DW            .v/v                                    :  
SP                 .мВ                                     : Потенциал самополяризации 
VSH_FIN            .v/v                                    : Описание 
VSH_GR             .v/v                                    : Shale volume 
VSH_SP             .v/v                                    : Shale Volume 
~Ascii
# ...
1111       0.216      8          2          103.869    5.329      0.362      0.296      0.3526946  0.3195601  0.357      850.7389   39.93854   2.081      5.329      0.7055538  0.7575276  97.941     0.1286056  0.1439502  0.1132609 
1111.2     0.216      8          2          109.432    5.567      0.354      0.284      0.3425149  0.2962816  0.348      509.9496   12.06064   2.098      5.567      0.700942   0.7549959  98.75381   0.1749042  0.2347224  0.115086  
1111.4     0.216      8          2          112.383    5.229      0.341      0.26       0.3161677  0.271414   0.329      183.2267   6.390193   2.142      5.229      0.6674039  0.7289575  99.87563   0.2108665  0.3042257  0.1175073 
1111.6     0.216      8          2          111.272    3.738      0.334      0.245      0.3047904  0.2686052  0.319      96.63903   8.116503   2.161      3.738      0.589982   0.6653971  101.0594   0.198166   0.2759233  0.1204087 
1111.8     0.215      8          2          107.43     3.319      0.338      0.241      0.2988024  0.2852524  0.318      81.48219   18.55729   2.171      3.319      0.5601967  0.6418     101.8562   0.1598411  0.1968509  0.1228314 
1112       0.215      8          2          107.478    4.561      0.349      0.258      0.3161677  0.2963464  0.333      168.2456   18.36657   2.142      4.561      0.6429797  0.7108815  101.4151   0.1595565  0.197683   0.1214299 
1112.2     0.215      8          2          111.044    5.164      0.379      0.285      0.3245509  0.314921   0.352      532.1688   8.524767   2.128      5.164      0.6911553  0.747665   100.0539   0.1941788  0.270449   0.1179086 
1112.4     0.215      8          2          109.732    5.736      0.362      0.285      0.3323353  0.303072   0.347      532.1688   11.30646   2.115      5.736      0.706011   0.7585893  99.24868   0.1785697  0.2409938  0.1161457 
1112.6     0.215      8          2          103.829    6.218      0.338      0.285      0.3491019  0.2953511  0.344      532.1688   40.28389   2.087      6.218      0.7169342  0.7669699  98.72948   0.1292392  0.143445   0.1150334 
1112.8     0.216      1          2          98.916     6.661      0.334      0.288      0.3568863  0.2997104  0.345      604.8066   115.9826   2.074      6.661      0.7284181  0.776223   98.5633    0.1039079  0.09314375 0.1146721 
1113       0.216      1          2          95.957     7.138      0.338      0.293      0.3616767  0.3071779  0.35       748.5644   219.2787   2.066      7.138      0.7410028  0.7871723  98.70811   0.09340043 0.07181369 0.1149872 
1113.2     0.216      1          2          94.444     7.166      0.346      0.294      0.3592815  0.3164853  0.353      781.1804   303.6896   2.07       7.166      0.7422442  0.7889356  99.18292   0.08943845 0.06287171 0.1160052 
1113.4     0.216      1          2          94.226     7.138      0.349      0.288      0.3467065  0.3195376  0.348      604.8066   318.2794   2.091      7.138      0.7370909  0.7849059  99.59073   0.08927999 0.06167853 0.1168814 
1113.6     0.216      1          2          98.065     7.339      0.36       0.29       0.3389221  0.3263538  0.349      658.6603   139.2974   2.104      7.339      0.7420542  0.788842   99.86554   0.1019581  0.08643124 0.1174849 
1113.8     0.216      1          2          100.308    7.152      0.363      0.291      0.3371257  0.3262616  0.35       687.36     85.9549    2.107      7.152      0.7396926  0.7867628  99.82335   0.1113285  0.1052657  0.1173912 
1114       0.216      1          2          101.593    6.944      0.361      0.292      0.3353294  0.3223028  0.348      717.3092   65.18533   2.11       6.944      0.7368497  0.7831922  99.49615   0.1172643  0.1178518  0.1166768 
1114.2     0.217      1          2          104.284    6.392      0.361      0.291      0.3329341  0.3171438  0.347      687.36     36.52575   2.114      6.392      0.7256012  0.7733201  99.41297   0.1328976  0.1492976  0.1164977 
1114.4     0.217      1          2          107.028    5.886      0.355      0.288      0.3329341  0.304291   0.344      604.8066   20.23453   2.114      5.886      0.7121877  0.7615477  99.78677   0.1536637  0.1900171  0.1173103 
1114.6     0.217      1          2          104.029    5.567      0.346      0.281      0.3317366  0.3023316  0.339      448.7036   38.58657   2.116      5.567      0.6981632  0.7501425  100.3796   0.1323286  0.1459888  0.1186684 
1114.8     0.217      1          2          97.371     5.415      0.346      0.276      0.327545   0.3127221  0.337      362.533    161.74     2.123      5.415      0.6893974  0.7438563  101.0444   0.1008421  0.08131681 0.1203674 
1115       0.216      1          2          93.373     5.251      0.346      0.264      0.3041916  0.3165796  0.325      217.3094   382.4243   2.162      5.251      0.6724432  0.7293483  101.2972   0.0891526  0.05722354 0.1210817 
1115.2     0.217      1          2          93.467     5.124      0.346      0.259      0.2892215  0.3166007  0.318      175.5765   374.7644   2.187      5.124      0.663094   0.7202969  101.085    0.08908879 0.05769827 0.1204793 
1115.4     0.217      6          6          94.342     5.971      0.326      0.243      0.2736527  0.2959295  0.3        88.73759   310.4306   2.213      5.971      0.6685244  0.7247094  100.8838   0.09112284 0.06231061 0.1199351 
1115.6     0.216      6          6          91.245     9.058      0.279      0.2        0.2287425  0.2516569  0.254      14.17893   604.6001   2.288      9.058      0.6770139  0.7328491  100.2036   0.08285773 0.04746221 0.1182532 
1115.8     0.216      6          6          85.315     13.003     0.233      0.165      0.1970059  0.2091047  0.215      3.186827   2166.693   2.341      13.003     0.6776937  0.7337328  99.47746   0.07241004 0.02818363 0.1166365 
1116       0.216      6          6          84.07      15.908     0.23       0.164      0.1916168  0.2067803  0.211      3.053768   2832.557   2.35       15.908     0.7052364  0.7560059  98.92926   0.07036273 0.0252624  0.1154631 
1116.2     0.217      6          6          86.787     12.878     0.246      0.177      0.2011975  0.2216635  0.224      5.316521   1578.325   2.334      12.878     0.6954331  0.7463164  98.90807   0.07374697 0.03207627 0.1154177 
1116.4     0.217      6          6          91.365     8.662      0.282      0.21       0.2293414  0.255061   0.256      21.72038   589.1843   2.287      8.662      0.6838892  0.7335793  98.85388   0.08163341 0.04796541 0.1153014 
1116.6     0.217      6          6          94.632     6.944      0.306      0.242      0.2670659  0.2764258  0.287      85.03254   291.6457   2.224      6.944      0.6900831  0.7376574  98.86169   0.0896187  0.06391922 0.1153182 
1116.8     0.216      1          2          97.349     6.571      0.329      0.269      0.3047904  0.2964736  0.317      268.9618   162.5078   2.161      6.571      0.7099395  0.7564943  99.1665    0.09856491 0.08115971 0.1159701 
1117       0.216      1          2          97.878     6.276      0.351      0.292      0.3305389  0.3177249  0.341      717.3092   145.0187   2.118      6.276      0.7240584  0.7692637  99.48131   0.1008335  0.08502226 0.1166448 
1117.2     0.216      1          2          98.675     5.655      0.362      0.3        0.3377246  0.3276606  0.35       1008.988   122.1578   2.106      5.655      0.7169731  0.7632737  99.61112   0.1040587  0.09119157 0.1169257 
1117.4     0.216      1          2          101.004    5.917      0.362      0.298      0.3401197  0.3241952  0.351      926.491    73.99621   2.102      5.917      0.7213058  0.7682955  99.74293   0.1145599  0.1119061  0.1172138 
1117.6     0.215      1          2          102.905    4.941      0.367      0.296      0.3347305  0.3259918  0.351      850.7389   49.14803   2.111      4.941      0.6949211  0.7457158  99.31075   0.1242673  0.1322561  0.1162785 
1117.8     0.215      1          2          103.414    4.005      0.371      0.297      0.3299401  0.3292789  0.35       887.8068   44.0479    2.119      4.005      0.6643094  0.717501   98.50655   0.1264274  0.1383072  0.1145476 
