~Version
 VERS              .         2.0                           : CWLS LOG ASCII STANDARD - VERSION 2.0
 WRAP              .         NO                            : ONE LINE PER DEPTH STEP
 DLM               .         SPACE                         : DELIMITING CHARACTER(SPACE TAB OR COMMA)
~Well Information
#_______________________________________________________________________________
#
#PARAMETER_NAME    .UNIT     VALUE                         : DESCRIPTION
#_______________________________________________________________________________
STRT               .M        1090                          : First reference value
STOP               .M        1150                          : Last reference value
STEP               .M        0.2                           : Step increment
NULL               .         -9999                         : Missing value
COMP               .                                       : Company
WELL               .         3601                          : Well name
FLD                .         УЗЕНЬ                         : Field
LOC                .                                       : Location
CNTY               .                                       : County
STAT               .                                       : State
CTRY               .                                       : Country
SRVC               .                                       : Service Company
DATE               .         11.10.2004г                   : Date
UWI                .                                       : Unique Well ID
Block              .         7                             : 
Category           .         Нефтяная                      : 
Condition          .         В работе                      : 
EREF               .m        86.1                          : 100.8
Gorizont           .         13                            : 14
Interpretator      .         Кушнир И.Е.                   : 
Kupol              .         основной                      : osnovnoi
Mud                .                                       : 
Mud_density        .                                       : 
Mud_resistivity    .                                       : 
NGDU               .         НГДУ-2                        : 
ORIGINALWELLNAME   .         3601                          : 
Spud_date          .         2004                          : 1961
Viscosity          .                                       : 
X                  .m        42839                         : 46154
Y                  .m        84646.63                      : 85761.93
YEAR               .         2019г                         : 
~Parameter Information Block
#_______________________________________________________________________________
#
#PARAMETER_NAME    .UNIT     VALUE                         : DESCRIPTION
#_______________________________________________________________________________
SET                .         LQC_KAZNIPI_Petrel            : 
TLFamily_CALI      .         Caliper                       : 
TLFamily_COLL      .         Net Reservoir Flag            : 
TLFamily_CSAT      .         Fluid Code                    : 
TLFamily_DEPT      .         Measured Depth                : 
TLFamily_GR        .         Russian Gamma Ray             : 
TLFamily_LLS       .         Lateral Log Resistivity       : 
TLFamily_NPHI      .         Neutron Porosity              : 
TLFamily_PHIE      .         Effective Porosity            : 
TLFamily_PHIED     .         Effective Porosity            : 
TLFamily_PHIEN     .         Effective Porosity            : 
TLFamily_PHIT      .         Porosity                      : 
TLFamily_PRMB      .         Permeability                  : 
TLFamily_PRMB_DGR  .         Permeability                  : 
TLFamily_RHOB      .         Bulk Density                  : 
TLFamily_RT        .         Formation Resistivity         : 
TLFamily_SOIL_ARCHIE .         Oil Saturation                : 
TLFamily_SOIL_DW   .         Oil Saturation                : 
TLFamily_SP        .         Spontaneous Potential         : 
TLFamily_VSH_FIN   .         Shale Volume                  : 
TLFamily_VSH_GR    .         Shale Volume                  : 
TLFamily_VSH_SP    .         Shale Volume                  : 
~Curve Information
#_______________________________________________________________________________
#
#LOGNAME           .UNIT     LOG_ID                        : DESCRIPTION
#_______________________________________________________________________________
DEPT               .M                                      : Колонка глубины 
CALI               .м                                      : Каверномер 
COLL               .unitless                               : Описание 
CSAT               .unitless                               : Описание 
GR                 .uR/h                                   : Гамма каротаж 
LLS                .Ohmm                                   : Боковой каротаж 
NPHI               .v/v                                    : Водородосодержание по НКТ 
PHIE               .v/v                                    : Открытая пористость 
PHIED              .v/v                                    :  
PHIEN              .v/v                                    :  
PHIT               .v/v                                    : Общая пористость 
PRMB               .mD                                     :  
PRMB_DGR           .mD                                     :  
RHOB               .G/C3                                   : Плотность по ГГКп 
RT                 .ohmm                                   : Description 
SOIL_ARCHIE        .v/v                                    :  
SOIL_DW            .v/v                                    :  
SP                 .мВ                                     : Потенциал самополяризации 
VSH_FIN            .v/v                                    : Описание 
VSH_GR             .v/v                                    : Shale volume 
VSH_SP             .v/v                                    : Shale Volume 
~Ascii
# ...
1146       0.218      -9999      -9999      118.273    1.605      0.365      0.197      0.1726778  0.231548   0.314      12.47602   1.798558   2.232      1.605      0.2628111  0.4362817  113.1682   0.4044     0.5105286  0.2982714 
1146.2     0.219      -9999      -9999      118.675    1.605      0.372      0.192      0.1634039  0.2336539  0.314      10.08008   1.649475   2.242      1.605      0.2461187  0.4304214  113.4871   0.4192308  0.5288891  0.3095724 
1146.4     0.218      -9999      -9999      118.675    1.744      0.379      0.187      0.160238   0.239506   0.316      8.144264   1.649475   2.246      1.744      0.2580806  0.4498934  113.6769   0.4227092  0.5288891  0.3165294 
1146.6     0.218      -9999      -9999      119.879    2.059      0.361      0.173      0.1579255  0.2109262  0.31       4.482679   1.272911   2.238      2.059      0.2655664  0.4717859  113.8127   0.454769   0.5879247  0.3216134 
1146.8     0.22       -9999      -9999      120.883    1.986      0.374      0.176      0.1555548  0.2132601  0.319      5.094541   1.025521   2.23       1.986      0.2641214  0.4749852  114.0835   0.4870906  0.6421627  0.3320184 
1147       0.222      -9999      -9999      120.683    1.421      0.396      0.182      0.1573307  0.2352296  0.331      6.580207   1.070633   2.227      1.421      0.163723   0.4010267  114.3694   0.487183   0.630973   0.3433929 
1147.2     0.223      -9999      -9999      121.084    1.218      0.418      0.189      0.1570242  0.2523136  0.343      8.869447   0.9821004  2.222      1.218      0.1300575  0.3761908  114.5442   0.5020802  0.6536077  0.3505526 
1147.4     0.222      -9999      -9999      121.084    1.361      0.396      0.174      0.1551985  0.231162   0.331      4.677999   0.9821004  2.226      1.361      0.1125475  0.3771231  114.419    0.4995092  0.6536077  0.3454106 
1147.6     0.222      -9999      -9999      121.888    1.475      0.37       0.153      0.1376197  0.1994926  0.311      1.910246   0.8260355  2.249      1.475      0.04412433 0.3467018  114.0808   0.5166892  0.7014655  0.3319129 
1147.8     0.222      -9999      -9999      121.566    1.478      0.371      0.143      0.1206255  0.2063964  0.301      1.246996   0.8853172  2.284      1.478      0          0.3166461  113.6547   0.4987987  0.6818918  0.3157057 
1148       0.222      -9999      -9999      120.683    1.478      0.36       0.13       0.1137631  0.2056888  0.289      0.7162644  1.070633   2.307      1.478      0          0.273453   113.3385   0.4676099  0.630973   0.3042467 
1148.2     0.223      -9999      -9999      122.486    1.478      0.358      0.124      0.09243733 0.1853033  0.283      0.5545476  0.7262706  2.322      1.478      0          0.2507336  113.4248   0.5233234  0.7393196  0.3073271 
1148.4     0.223      -9999      -9999      123.941    1.438      0.355      0.12       0.08150375 0.1722614  0.28       0.4675727  0.5309904  2.329      1.438      0          0.2259127  113.4298   0.5537534  0.8        0.3075068 
1148.6     0.223      -9999      -9999      124.297    1.399      0.345      0.122      0.09106913 0.1631302  0.279      0.5092067  0.4918231  2.314      1.399      0          0.2182387  113.2818   0.5511207  0.8        0.3022413 
1148.8     0.224      -9999      -9999      123.494    1.478      0.347      0.128      0.09898307 0.1662151  0.284      0.6577013  0.5846171  2.302      1.478      0          0.2612014  113.0928   0.547833   0.8        0.295666  
1149       0.223      -9999      -9999      120.114    1.562      0.35       0.134      0.1260153  0.2032352  0.287      0.8494996  1.210125   2.295      1.562      0          0.298243   112.9048   0.4447417  0.6001942  0.2892892 
1149.2     0.221      -9999      -9999      119.103    1.605      0.368      0.143      0.1304882  0.2305731  0.295      1.246996   1.50431    2.298      1.605      0.02556125 0.3360106  112.7368   0.416445   0.5491631  0.2837269 
1149.4     0.222      -9999      -9999      118.956    1.605      0.355      0.138      0.1323245  0.2194162  0.289      1.007518   1.552667   2.297      1.605      0          0.3183309  112.6098   0.4108601  0.5421138  0.2796064 
1149.6     0.222      -9999      -9999      120.87     1.651      0.359      0.138      0.1161673  0.2073778  0.288      1.007518   1.028395   2.306      1.651      0.008122518 0.3264492  112.5438   0.4594613  0.6414294  0.2774933 
1149.8     0.221      -9999      -9999      122.691    1.651      0.367      0.145      0.1039116  0.1971235  0.292      1.358031   0.6949205  2.306      1.651      0.04995931 0.344674   112.5218   0.5147772  0.7527612  0.2767932 
1150       0.222      -9999      -9999      122.691    1.651      0.36       0.143      0.1063068  0.1901235  0.29       1.246996   0.6949205  2.302      1.651      0.03839717 0.338377   112.5218   0.5147772  0.7527612  0.2767932 
