~Version
 VERS              .         2.0                           : CWLS LOG ASCII STANDARD - VERSION 2.0
 WRAP              .         NO                            : ONE LINE PER DEPTH STEP
 DLM               .         SPACE                         : DELIMITING CHARACTER(SPACE TAB OR COMMA)
~Well Information
#_______________________________________________________________________________
#
#PARAMETER_NAME    .UNIT     VALUE                         : DESCRIPTION
#_______________________________________________________________________________
STRT               .M        1090                          : First reference value
STOP               .M        1150                          : Last reference value
STEP               .M        0.2                           : Step increment
NULL               .         -9999                         : Missing value
COMP               .                                       : Company
WELL               .         3601                          : Well name
FLD                .         УЗЕНЬ                         : Field
LOC                .                                       : Location
CNTY               .                                       : County
STAT               .                                       : State
CTRY               .                                       : Country
SRVC               .                                       : Service Company
DATE               .         11.10.2004г                   : Date
UWI                .                                       : Unique Well ID
Block              .         7                             : 
Category           .         Нефтяная                      : 
Condition          .         В работе                      : 
EREF               .m        86.1                          : 100.8
Gorizont           .         13                            : 14
Interpretator      .         Кушнир И.Е.                   : 
Kupol              .         основной                      : osnovnoi
Mud                .                                       : 
Mud_density        .                                       : 
Mud_resistivity    .                                       : 
NGDU               .         НГДУ-2                        : 
ORIGINALWELLNAME   .         3601                          : 
Spud_date          .         2004                          : 1961
Viscosity          .                                       : 
X                  .m        42839                         : 46154
Y                  .m        84646.63                      : 85761.93
YEAR               .         2019г                         : 
~Parameter Information Block
#_______________________________________________________________________________
#
#PARAMETER_NAME    .UNIT     VALUE                         : DESCRIPTION
#_______________________________________________________________________________
SET                .         LQC_KAZNIPI_Petrel            : 
TLFamily_CALI      .         Caliper                       : 
TLFamily_COLL      .         Net Reservoir Flag            : 
TLFamily_CSAT      .         Fluid Code                    : 
TLFamily_DEPT      .         Measured Depth                : 
TLFamily_GR        .         Russian Gamma Ray             : 
TLFamily_LLS       .         Lateral Log Resistivity       : 
TLFamily_NPHI      .         Neutron Porosity              : 
TLFamily_PHIE      .         Effective Porosity            : 
TLFamily_PHIED     .         Effective Porosity            : 
TLFamily_PHIEN     .         Effective Porosity            : 
TLFamily_PHIT      .         Porosity                      : 
TLFamily_PRMB      .         Permeability                  : 
TLFamily_PRMB_DGR  .         Permeability                  : 
TLFamily_RHOB      .         Bulk Density                  : 
TLFamily_RT        .         Formation Resistivity         : 
TLFamily_SOIL_ARCHIE .         Oil Saturation                : 
TLFamily_SOIL_DW   .         Oil Saturation                : 
TLFamily_SP        .         Spontaneous Potential         : 
TLFamily_VSH_FIN   .         Shale Volume                  : 
TLFamily_VSH_GR    .         Shale Volume                  : 
TLFamily_VSH_SP    .         Shale Volume                  : 
~Curve Information
#_______________________________________________________________________________
#
#LOGNAME           .UNIT     LOG_ID                        : DESCRIPTION
#_______________________________________________________________________________
DEPT               .M                                      : Колонка глубины 
CALI               .м                                      : Каверномер 
COLL               .unitless                               : Описание 
CSAT               .unitless                               : Описание 
GR                 .uR/h                                   : Гамма каротаж 
LLS                .Ohmm                                   : Боковой каротаж 
NPHI               .v/v                                    : Водородосодержание по НКТ 
PHIE               .v/v                                    : Открытая пористость 
PHIED              .v/v                                    :  
PHIEN              .v/v                                    :  
PHIT               .v/v                                    : Общая пористость 
PRMB               .mD                                     :  
PRMB_DGR           .mD                                     :  
RHOB               .G/C3                                   : Плотность по ГГКп 
RT                 .ohmm                                   : Description 
SOIL_ARCHIE        .v/v                                    :  
SOIL_DW            .v/v                                    :  
SP                 .мВ                                     : Потенциал самополяризации 
VSH_FIN            .v/v                                    : Описание 
VSH_GR             .v/v                                    : Shale volume 
VSH_SP             .v/v                                    : Shale Volume 
~Ascii
# ...
1104       0.215      1          2          105.823    11.419     0.342      0.275      0.3353294  0.2951303  0.339      347.3965   26.22619   2.11       11.419     0.7804554  0.8239446  97.88904   0.1420295  0.1709217  0.1131373 
1104.2     0.215      1          2          103.788    10.224     0.332      0.263      0.3329341  0.289405   0.332      208.2363   40.64099   2.114      10.224     0.759604   0.8081079  98.81704   0.1290756  0.142929   0.1152222 
1104.4     0.216      1          2          101.406    6.963      0.327      0.257      0.3425149  0.2883036  0.335      161.221    67.86266   2.098      6.963      0.7062749  0.7664388  100.348    0.1172618  0.1159306  0.118593  
1104.6     0.216      1          2          104.859    5.268      0.348      0.255      0.3449101  0.3013681  0.346      148.0392   32.27369   2.094      5.268      0.6629086  0.7356348  102.594    0.1413089  0.1570366  0.1255812 
1104.8     0.216      1          2          112.651    4.984      0.346      0.233      0.3353294  0.2716917  0.341      57.9273    6.032009   2.11       4.984      0.6257434  0.7154775  104.91     0.2251768  0.3114766  0.138877  
1105       0.216      1          2          121.54     4.588      0.348      0.212      0.2285846  0.2095214  0.335      23.65442   0.8902854  2.133      4.588      0.577557   0.6885722  106.949    0.4196321  0.6803353  0.1589289 
1105.2     0.217      1          2          129.076    4.717      0.342      0.189      0.1970382  0.1806156  0.324      8.869447   0.175822   2.16       4.717      0.5391548  0.6718954  108.308    0.4890436  0.8        0.1780871 
1105.4     0.217      1          2          133.802    5.415      0.332      0.169      0.1866423  0.1676178  0.315      3.779619   0.06357595 2.174      5.415      0.5238569  0.6744637  109.336    0.4981279  0.8        0.1962558 
1105.6     0.217      -9999      -9999      133.871    5.883      0.327      0.158      0.1867744  0.1592471  0.313      2.364294   0.06263866 2.17       5.883      0.5143746  0.6781676  110.307    0.5083421  0.8        0.2166843 
1105.8     0.217      -9999      -9999      133.936    4.948      0.322      0.136      0.1860705  0.1460633  0.313      0.9251415  0.06176841 2.162      4.948      0.3998078  0.6285893  112.183    0.5331414  0.8        0.2662827 
1106       0.217      -9999      -9999      130.241    3.884      0.324      0.116      0.1799104  0.1388882  0.314      0.3942389  0.1368268  2.162      3.884      0.2276754  0.556743   113.82     0.5609449  0.8        0.3218898 
1106.2     0.217      -9999      -9999      129.518    3.293      0.326      0.104      0.163239   0.139246   0.307      0.2363145  0.1598658  2.188      3.293      0.08220696 0.4924342  114.079    0.5659212  0.8        0.3318425 
1106.4     0.217      -9999      -9999      131.125    3.293      0.326      0.1        0.1508093  0.1421377  0.3        0.1992511  0.113119   2.212      3.293      0.05031409 0.4776847  113.617    0.5571585  0.8        0.314317  
1106.6     0.217      -9999      -9999      132.129    2.977      0.328      0.114      0.1579669  0.1494475  0.303      0.3620051  0.09113459 2.206      2.977      0.1116618  0.4787256  112.688    0.5410683  0.8        0.2821366 
1106.8     0.217      -9999      -9999      130.214    2.661      0.309      0.118      0.1640286  0.1359085  0.295      0.429343   0.137624   2.202      2.661      0.09133665 0.4460488  111.589    0.5245197  0.8        0.2490395 
1107       0.217      -9999      -9999      126.693    2.346      0.305      0.14       0.1722989  0.1406593  0.294      1.09723    0.2936521  2.198      2.346      0.1693561  0.4451776  109.323    0.4980023  0.8        0.1960045 
1107.2     0.216      -9999      -9999      125.1      2.625      0.302      0.17       0.186358   0.1452215  0.297      3.944305   0.4137567  2.183      2.625      0.3346124  0.516572   106.172    0.4750864  0.8        0.1501729 
1107.4     0.216      -9999      -9999      124.926    3.584      0.32       0.204      0.2080541  0.1661044  0.316      16.81639   0.4295463  2.15       3.584      0.5094886  0.629455   104.007    0.4663502  0.8        0.1327005 
1107.6     0.216      -9999      -9999      125.904    4.243      0.333      0.228      0.2232973  0.180403   0.329      46.80273   0.3480071  2.126      4.243      0.5886812  0.6822326  102.407    0.4624152  0.8        0.1248305 
1107.8     0.216      -9999      -9999      126.305    4.58       0.329      0.236      0.2308681  0.1769769  0.331      65.83406   0.3192295  2.114      4.58       0.6149136  0.699533   101.389    0.4606761  0.8        0.1213522 
1108       0.216      -9999      -9999      125.904    5.224      0.324      0.242      0.2394247  0.172235   0.333      85.03254   0.3480071  2.1        5.224      0.6457994  0.7225502  100.8279   0.459894   0.8        0.119788  
1108.2     0.216      -9999      -9999      125.756    5.64       0.323      0.25       0.247947   0.1714421  0.336      119.6092   0.359272   2.086      5.64       0.6678516  0.7379372  100.3227   0.4592664  0.8        0.1185327 
1108.4     0.216      -9999      -9999      128.313    6.799      0.341      0.266      0.2552443  0.1896084  0.349      236.6592   0.2072037  2.074      6.799      0.7117435  0.7725013  99.88348   0.4587624  0.8        0.1175248 
1108.6     0.216      -9999      -9999      130.723    7.339      0.35       0.269      0.2487131  0.1986914  0.35       268.9618   0.1233427  2.085      7.339      0.7246016  0.7824173  99.65528   0.4585109  0.8        0.1170219 
1108.8     0.216      -9999      -9999      128.246    6.218      0.343      0.261      0.2338036  0.1917814  0.339      191.2104   0.2102136  2.11       6.218      0.6943942  0.7561238  99.4031    0.4582382  0.8        0.1164765 
1109       0.216      8          2          120.803    6.856      0.338      0.256      0.3281437  0.2135876  0.333      154.4896   1.043334   2.122      6.856      0.7031263  0.7634164  99.34491   0.3770074  0.6376632  0.1163516 
1109.2     0.216      8          2          113.228    7.821      0.338      0.257      0.3281437  0.2647568  0.333      161.221    5.327522   2.122      7.821      0.7218627  0.7788532  99.28271   0.2219491  0.3276798  0.1162185 
1109.4     0.215      8          2          106.034    9.147      0.33       0.256      0.3287425  0.2822306  0.329      154.4896   25.06175   2.121      9.147      0.7406918  0.7937319  98.89553   0.1447559  0.174121   0.1153908 
1109.6     0.215      8          2          106.131    8.311      0.336      0.262      0.3293414  0.288079   0.333      199.5417   24.54391   2.12       8.311      0.7341806  0.7871968  98.63033   0.1452151  0.1756118  0.1148184 
1109.8     0.216      8          2          108.447    7.475      0.353      0.275      0.3353294  0.2986229  0.344      347.3965   14.90894   2.11       7.475      0.7321602  0.7842366  98.39515   0.164779   0.2152567  0.1143012 
1110       0.216      8          2          113.032    6.639      0.36       0.285      0.3425149  0.2881157  0.351      532.1688   5.557082   2.098      6.639      0.7255041  0.7770878  98.07696   0.2178314  0.3220834  0.1135795 
1110.2     0.215      8          2          114.23     6.755      0.36       0.294      0.354491   0.2823787  0.357      781.1804   4.293969   2.078      6.755      0.7350001  0.7840179  97.66277   0.235216   0.3578465  0.1125856 
1110.4     0.216      8          2          109.284    7.119      0.358      0.295      0.354491   0.3013399  0.356      815.2176   12.45103   2.078      7.119      0.7422105  0.7895736  97.32158   0.1716972  0.2316889  0.1117055 
1110.6     0.216      8          2          103.574    6.452      0.353      0.293      0.3520958  0.3114758  0.353      748.5644   42.5568    2.082      6.452      0.7284265  0.7772423  97.20738   0.1258309  0.1402658  0.1113961 
1110.8     0.216      8          2          101.954    5.064      0.362      0.298      0.354491   0.3234453  0.358      926.491    60.31208   2.078      5.064      0.7001846  0.7523721  97.43819   0.1168322  0.121651   0.1120135 
