~Version
 VERS              .         2.0                           : CWLS LOG ASCII STANDARD - VERSION 2.0
 WRAP              .         NO                            : ONE LINE PER DEPTH STEP
 DLM               .         SPACE                         : DELIMITING CHARACTER(SPACE TAB OR COMMA)
~Well Information
#_______________________________________________________________________________
#
#PARAMETER_NAME    .UNIT     VALUE                         : DESCRIPTION
#_______________________________________________________________________________
STRT               .M        1090                          : First reference value
STOP               .M        1150                          : Last reference value
STEP               .M        0.2                           : Step increment
NULL               .         -9999                         : Missing value
COMP               .                                       : Company
WELL               .         3601                          : Well name
FLD                .         УЗЕНЬ                         : Field
LOC                .                                       : Location
CNTY               .                                       : County
STAT               .                                       : State
CTRY               .                                       : Country
SRVC               .                                       : Service Company
DATE               .         11.10.2004г                   : Date
UWI                .                                       : Unique Well ID
Block              .         7                             : 
Category           .         Нефтяная                      : 
Condition          .         В работе                      : 
EREF               .m        86.1                          : 100.8
Gorizont           .         13                            : 14
Interpretator      .         Кушнир И.Е.                   : 
Kupol              .         основной                      : osnovnoi
Mud                .                                       : 
Mud_density        .                                       : 
Mud_resistivity    .                                       : 
NGDU               .         НГДУ-2                        : 
ORIGINALWELLNAME   .         3601                          : 
Spud_date          .         2004                          : 1961
Viscosity          .                                       : 
X                  .m        42839                         : 46154
Y                  .m        84646.63                      : 85761.93
YEAR               .         2019г                         : 
~Parameter Information Block
#_______________________________________________________________________________
#
#PARAMETER_NAME    .UNIT     VALUE                         : DESCRIPTION
#_______________________________________________________________________________
SET                .         LQC_KAZNIPI_Petrel            : 
TLFamily_CALI      .         Caliper                       : 
TLFamily_COLL      .         Net Reservoir Flag            : 
TLFamily_CSAT      .         Fluid Code                    : 
TLFamily_DEPT      .         Measured Depth                : 
TLFamily_GR        .         Russian Gamma Ray             : 
TLFamily_LLS       .         Lateral Log Resistivity       : 
TLFamily_NPHI      .         Neutron Porosity              : 
TLFamily_PHIE      .         Effective Porosity            : 
TLFamily_PHIED     .         Effective Porosity            : 
TLFamily_PHIEN     .         Effective Porosity            : 
TLFamily_PHIT      .         Porosity                      : 
TLFamily_PRMB      .         Permeability                  : 
TLFamily_PRMB_DGR  .         Permeability                  : 
TLFamily_RHOB      .         Bulk Density                  : 
TLFamily_RT        .         Formation Resistivity         : 
TLFamily_SOIL_ARCHIE .         Oil Saturation                : 
TLFamily_SOIL_DW   .         Oil Saturation                : 
TLFamily_SP        .         Spontaneous Potential         : 
TLFamily_VSH_FIN   .         Shale Volume                  : 
TLFamily_VSH_GR    .         Shale Volume                  : 
TLFamily_VSH_SP    .         Shale Volume                  : 
~Curve Information
#_______________________________________________________________________________
#
#LOGNAME           .UNIT     LOG_ID                        : DESCRIPTION
#_______________________________________________________________________________
DEPT               .M                                      : Колонка глубины 
CALI               .м                                      : Каверномер 
COLL               .unitless                               : Описание 
CSAT               .unitless                               : Описание 
GR                 .uR/h                                   : Гамма каротаж 
LLS                .Ohmm                                   : Боковой каротаж 
NPHI               .v/v                                    : Водородосодержание по НКТ 
PHIE               .v/v                                    : Открытая пористость 
PHIED              .v/v                                    :  
PHIEN              .v/v                                    :  
PHIT               .v/v                                    : Общая пористость 
PRMB               .mD                                     :  
PRMB_DGR           .mD                                     :  
RHOB               .G/C3                                   : Плотность по ГГКп 
RT                 .ohmm                                   : Description 
SOIL_ARCHIE        .v/v                                    :  
SOIL_DW            .v/v                                    :  
SP                 .мВ                                     : Потенциал самополяризации 
VSH_FIN            .v/v                                    : Описание 
VSH_GR             .v/v                                    : Shale volume 
VSH_SP             .v/v                                    : Shale Volume 
~Ascii
# ...
1118       0.215      1          2          104.217    4.478      0.379      0.294      0.3161677  0.335932   0.348      781.1804   37.05626   2.142      4.478      0.6786128  0.7307968  97.66736   0.130509   0.1484211  0.112597  
1118.2     0.215      1          2          105.435    5.315      0.374      0.289      0.3113772  0.328489   0.343      631.1598   28.51051   2.15       5.315      0.6989806  0.7490138  96.93818   0.1379121  0.1651913  0.110633  
1118.4     0.215      1          2          106.626    4.485      0.366      0.289      0.3221557  0.3177301  0.344      631.1598   22.06337   2.132      4.485      0.6740144  0.7272328  96.45398   0.1462724  0.1834206  0.1091241 
1118.6     0.215      1          2          106.051    3.523      0.356      0.297      0.3449101  0.3094046  0.35       887.8068   24.97018   2.094      3.523      0.6434895  0.6987953  96.1338    0.1411982  0.1743814  0.1080149 
1118.8     0.215      1          2          105.689    3.417      0.348      0.298      0.3520958  0.3022938  0.35       926.491    26.99362   2.082      3.417      0.6393991  0.6945955  96.1536    0.1385035  0.1689206  0.1080863 
1119       0.215      1          2          105.02     4.235      0.361      0.308      0.3592815  0.3166616  0.36       1419.271   31.17445   2.07       4.235      0.683187   0.7338392  96.55141   0.1343589  0.1592745  0.1094432 
1119.2     0.216      1          2          103.414    4.48       0.356      0.307      0.3580838  0.3147235  0.357      1360.013   44.0479    2.072      4.48       0.6905636  0.739612   97.37723   0.1250803  0.1383072  0.1118535 
1119.4     0.216      1          2          103.092    3.61       0.352      0.296      0.3425149  0.3108827  0.347      850.7389   47.20907   2.098      3.61       0.6465106  0.7005413  98.59803   0.1245979  0.1344478  0.114748  
1119.6     0.216      1          2          111.439    2.685      0.343      0.272      0.3365269  0.2772008  0.34       305.6738   7.829936   2.108      2.685      0.56279    0.6358688  100.4258   0.1993913  0.2800031  0.1187795 
1119.8     0.216      0          0          116.742    2.5        0.333      0.25       0.3305389  0.2384848  0.332      119.6092   2.500581   2.118      2.5        0.5134345  0.6036209  102.8257   0.2864097  0.4462526  0.1265667 
1120       0.216      0          0          119.076    2.273      0.333      0.234      0.3185629  0.2193952  0.326      60.45131   1.513078   2.138      2.273      0.4610379  0.5681467  105.1355   0.3442569  0.5478614  0.1406524 
1120.2     0.216      0          0          120.87     2.41       0.346      0.238      0.2379751  0.2152649  0.336      71.69611   1.028395   2.126      2.41       0.4833225  0.5908484  106.2423   0.3961668  0.6414294  0.1509043 
1120.4     0.216      0          0          120.683    2.675      0.353      0.24       0.2344706  0.2241804  0.337      78.08008   1.070633   2.134      2.675      0.51158    0.6136569  106.1311   0.3903624  0.630973   0.1497517 
1120.6     0.216      0          0          119.076    2.349      0.333      0.234      0.320958   0.2180875  0.327      60.45131   1.513078   2.134      2.349      0.4692922  0.575953   106.0149   0.3482197  0.5478614  0.1485779 
1120.8     0.216      0          0          119.478    2.176      0.334      0.237      0.3197605  0.2176587  0.327      68.70259   1.387659   2.136      2.176      0.4559638  0.561734   104.7307   0.3525494  0.5675645  0.1375342 
1121       0.216      0          0          118.675    3.012      0.359      0.259      0.3311377  0.2501526  0.345      175.5765   1.649475   2.117      3.012      0.567692   0.6520453  103.6785   0.3298407  0.5288891  0.1307922 
1121.2     0.216      8          2          114.538    3.98       0.37       0.281      0.3449101  0.2881208  0.357      448.7036   4.018534   2.094      3.98       0.6466852  0.7132105  103.2553   0.2481187  0.3676658  0.1285716 
1121.4     0.216      8          2          111.446    4.115      0.376      0.291      0.3473054  0.308376   0.362      687.36     7.818151   2.09       4.115      0.6626064  0.7243019  103.4701   0.204921   0.2801754  0.1296667 
1121.6     0.216      8          2          110.643    4.588      0.376      0.291      0.3449101  0.3108496  0.36       687.36     9.29325    2.094      4.588      0.6794008  0.7380616  104.1789   0.1974254  0.2610832  0.1337676 
1121.8     0.216      8          2          111.446    5.27       0.367      0.278      0.3353294  0.297327   0.351      394.8139   7.818151   2.11       5.27       0.687388   0.747171   105.3088   0.2111305  0.2801754  0.1420856 
1122       0.216      8          2          109.565    5.207      0.36       0.269      0.3221557  0.2956282  0.341      268.9618   11.72026   2.132      5.207      0.6764773  0.7377461  106.4056   0.1950661  0.2374824  0.1526497 
1122.2     0.216      8          2          105.864    4.717      0.344      0.257      0.3017965  0.2896641  0.323      161.221    25.99576   2.166      4.717      0.6473793  0.7101548  106.8534   0.1646543  0.1715387  0.1577698 
1122.4     0.216      1          2          105.823    5.211      0.312      0.238      0.2946108  0.2586454  0.303      71.69611   26.22619   2.178      5.211      0.6401998  0.7044376  106.3862   0.1616805  0.1709217  0.1524393 
1122.6     0.216      1          2          105.823    5.268      0.306      0.243      0.3047904  0.2542988  0.305      88.73759   26.22619   2.161      5.268      0.6484556  0.709707   105.348    0.1566702  0.1709217  0.1424186 
1122.8     0.216      1          2          105.422    5.84       0.302      0.25       0.3161677  0.2525493  0.309      119.6092   28.5904    2.142      5.84       0.6732388  0.7296144  104.3228   0.1498505  0.1650026  0.1346985 
1123       0.216      1          2          106.613    6.048      0.325      0.271      0.3365269  0.273182   0.331      292.9109   22.12518   2.108      6.048      0.7003672  0.7532045  103.6866   0.1570242  0.1832112  0.1308373 
1123.2     0.216      1          2          107.831    5.886      0.359      0.29       0.3425149  0.3039103  0.351      658.6603   17.02275   2.098      5.886      0.7139173  0.764991   103.5264   0.1669385  0.2039124  0.1299645 
1123.4     0.216      1          2          104.465    6.184      0.367      0.302      0.3497006  0.3203219  0.358      1098.83    35.13012   2.086      6.184      0.7301702  0.7771785  103.7522   0.1414488  0.1516916  0.1312059 
1123.6     0.216      1          2          100.201    6.218      0.369      0.308      0.3473054  0.3295704  0.358      1419.271   87.95752   2.09       6.218      0.7354358  0.7796385  104.321    0.1194836  0.1042804  0.1346868 
1123.8     0.216      1          2          100.201    5.993      0.363      0.297      0.3353294  0.322387   0.349      887.8068   87.95752   2.11       5.993      0.7221577  0.7686813  105.2819   0.1230698  0.1042804  0.1418591 
1124       0.216      1          2          105.649    3.726      0.363      0.282      0.3257485  0.3096582  0.344      468.2549   27.22703   2.126      3.726      0.6367063  0.6976157  106.6127   0.1616419  0.1683277  0.154956  
1124.2     0.216      1          2          114.993    2.567      0.362      0.258      0.3167664  0.2699638  0.339      168.2456   3.643637   2.141      2.567      0.5324404  0.6186007  108.1205   0.2788976  0.3826666  0.1751285 
1124.4     0.216      0          0          117.871    2.299      0.359      0.243      0.3071856  0.2450663  0.333      88.73759   1.961114   2.157      2.299      0.4812417  0.5824828  109.4103   0.3452536  0.4928055  0.1977018 
1124.6     0.216      0          0          117.871    2.43       0.354      0.234      0.2982036  0.2366564  0.326      60.45131   1.961114   2.172      2.43       0.4776683  0.5823305  110.3805   0.3555868  0.4928055  0.2183681 
1124.8     0.217      0          0          118.273    2.364      0.35       0.226      0.2892215  0.2268853  0.32       42.97603   1.798558   2.187      2.364      0.4545988  0.5657041  111.0878   0.3730747  0.5105286  0.2356209 
