~Version
 VERS              .         2.0                           : CWLS LOG ASCII STANDARD - VERSION 2.0
 WRAP              .         NO                            : ONE LINE PER DEPTH STEP
 DLM               .         SPACE                         : DELIMITING CHARACTER(SPACE TAB OR COMMA)
~Well Information
#_______________________________________________________________________________
#
#PARAMETER_NAME    .UNIT     VALUE                         : DESCRIPTION
#_______________________________________________________________________________
STRT               .M        1090                          : First reference value
STOP               .M        1150                          : Last reference value
STEP               .M        0.2                           : Step increment
NULL               .         -9999                         : Missing value
COMP               .                                       : Company
WELL               .         3601                          : Well name
FLD                .         УЗЕНЬ                         : Field
LOC                .                                       : Location
CNTY               .                                       : County
STAT               .                                       : State
CTRY               .                                       : Country
SRVC               .                                       : Service Company
DATE               .         11.10.2004г                   : Date
UWI                .                                       : Unique Well ID
Block              .         7                             : 
Category           .         Нефтяная                      : 
Condition          .         В работе                      : 
EREF               .m        86.1                          : 100.8
Gorizont           .         13                            : 14
Interpretator      .         Кушнир И.Е.                   : 
Kupol              .         основной                      : osnovnoi
Mud                .                                       : 
Mud_density        .                                       : 
Mud_resistivity    .                                       : 
NGDU               .         НГДУ-2                        : 
ORIGINALWELLNAME   .         3601                          : 
Spud_date          .         2004                          : 1961
Viscosity          .                                       : 
X                  .m        42839                         : 46154
Y                  .m        84646.63                      : 85761.93
YEAR               .         2019г                         : 
~Parameter Information Block
#_______________________________________________________________________________
#
#PARAMETER_NAME    .UNIT     VALUE                         : DESCRIPTION
#_______________________________________________________________________________
SET                .         LQC_KAZNIPI_Petrel            : 
TLFamily_CALI      .         Caliper                       : 
TLFamily_COLL      .         Net Reservoir Flag            : 
TLFamily_CSAT      .         Fluid Code                    : 
TLFamily_DEPT      .         Measured Depth                : 
TLFamily_GR        .         Russian Gamma Ray             : 
TLFamily_LLS       .         Lateral Log Resistivity       : 
TLFamily_NPHI      .         Neutron Porosity              : 
TLFamily_PHIE      .         Effective Porosity            : 
TLFamily_PHIED     .         Effective Porosity            : 
TLFamily_PHIEN     .         Effective Porosity            : 
TLFamily_PHIT      .         Porosity                      : 
TLFamily_PRMB      .         Permeability                  : 
TLFamily_PRMB_DGR  .         Permeability                  : 
TLFamily_RHOB      .         Bulk Density                  : 
TLFamily_RT        .         Formation Resistivity         : 
TLFamily_SOIL_ARCHIE .         Oil Saturation                : 
TLFamily_SOIL_DW   .         Oil Saturation                : 
TLFamily_SP        .         Spontaneous Potential         : 
TLFamily_VSH_FIN   .         Shale Volume                  : 
TLFamily_VSH_GR    .         Shale Volume                  : 
TLFamily_VSH_SP    .         Shale Volume                  : 
~Curve Information
#_______________________________________________________________________________
#
#LOGNAME           .UNIT     LOG_ID                        : DESCRIPTION
#_______________________________________________________________________________
DEPT               .M                                      : Колонка глубины 
CALI               .м                                      : Каверномер 
COLL               .unitless                               : Описание 
CSAT               .unitless                               : Описание 
GR                 .uR/h                                   : Гамма каротаж 
LLS                .Ohmm                                   : Боковой каротаж 
NPHI               .v/v                                    : Водородосодержание по НКТ 
PHIE               .v/v                                    : Открытая пористость 
PHIED              .v/v                                    :  
PHIEN              .v/v                                    :  
PHIT               .v/v                                    : Общая пористость 
PRMB               .mD                                     :  
PRMB_DGR           .mD                                     :  
RHOB               .G/C3                                   : Плотность по ГГКп 
RT                 .ohmm                                   : Description 
SOIL_ARCHIE        .v/v                                    :  
SOIL_DW            .v/v                                    :  
SP                 .мВ                                     : Потенциал самополяризации 
VSH_FIN            .v/v                                    : Описание 
VSH_GR             .v/v                                    : Shale volume 
VSH_SP             .v/v                                    : Shale Volume 
~Ascii
# ...
1097       0.213      -9999      -9999      119.076    2.612      0.344      0.192      0.1751236  0.2070557  0.306      10.08008   1.513078   2.224      2.612      0.4001335  0.5465767  112.687    0.4149828  0.5478614  0.2821041 
1097.2     0.213      -9999      -9999      119.72     3.178      0.347      0.207      0.1840108  0.2134821  0.31       19.11174   1.317227   2.213      3.178      0.4875763  0.6043532  110.843    0.4045997  0.579766   0.2294335 
1097.4     0.217      -9999      -9999      120.683    3.889      0.347      0.221      0.1933565  0.2104561  0.316      34.72276   1.070633   2.194      3.889      0.5597208  0.6557254  109.352    0.4137694  0.630973   0.1965658 
1097.6     0.216      -9999      -9999      118.514    5.415      0.35       0.23       0.2928144  0.2334548  0.321      50.97018   1.707639   2.181      5.415      0.635944   0.7156392  108.715    0.3531673  0.5214577  0.184877  
1097.8     0.215      -9999      -9999      116.265    5.723      0.351      0.236      0.2988024  0.2515448  0.325      65.83406   2.770957   2.171      5.723      0.6531409  0.728308   108.101    0.3013794  0.4279308  0.1748279 
1098       0.215      -9999      -9999      115.462    4.831      0.365      0.252      0.3155689  0.2713342  0.34       130.2595   3.293771   2.143      4.831      0.6452908  0.7197247  107.702    0.2838358  0.3987701  0.1689015 
1098.2     0.215      -9999      -9999      117.972    4.007      0.361      0.249      0.3239521  0.2491036  0.342      114.6152   1.918941   2.129      4.007      0.6086954  0.6917791  108.484    0.3390799  0.4971994  0.1809604 
1098.4     0.216      -9999      -9999      119.978    3.48       0.359      0.242      0.2436075  0.2268436  0.346      85.03254   1.246073   2.115      3.48       0.5714135  0.6676227  109.908    0.4004741  0.5930626  0.2078856 
1098.6     0.215      -9999      -9999      121.871    3.293      0.355      0.235      0.2381086  0.1994911  0.349      63.0853    0.8290635  2.098      3.293      0.5487705  0.6559346  111.333    0.4712392  0.7004183  0.2420602 
1098.8     0.215      -9999      -9999      123.896    3.386      0.354      0.228      0.2254512  0.1787463  0.349      46.80273   0.5361583  2.097      3.386      0.5427435  0.6564849  112.045    0.5310718  0.8        0.2621436 
1099       0.216      -9999      -9999      121.526    3.678      0.354      0.225      0.2348474  0.1989849  0.346      41.18166   0.8929721  2.104      3.678      0.5550495  0.6669216  111.972    0.4697428  0.6794987  0.259987  
1099.2     0.216      -9999      -9999      119.746    3.931      0.348      0.22       0.2331783  0.2136881  0.336      33.27299   1.309875   2.13       3.931      0.5602008  0.6691524  110.982    0.4070058  0.5810924  0.2329192 
1099.4     0.216      -9999      -9999      121.273    4.192      0.324      0.211      0.21717    0.1810065  0.319      22.66678   0.9429486  2.147      4.192      0.5574598  0.6639348  109.629    0.4333136  0.6645559  0.2020712 
1099.6     0.216      -9999      -9999      122.209    4.984      0.313      0.207      0.2026     0.1643591  0.308      19.11174   0.7708894  2.165      4.984      0.5851187  0.6828543  108.384    0.4504269  0.7215376  0.1793161 
1099.8     0.215      -9999      -9999      119.893    4.849      0.321      0.219      0.3083833  0.1966414  0.315      31.88375   1.26908    2.155      4.849      0.5998667  0.6899498  107.424    0.3768443  0.5886486  0.1650402 
1100       0.215      8          2          114.241    4.849      0.322      0.23       0.3185629  0.2377657  0.32       50.97018   4.283821   2.138      4.849      0.6165863  0.6989505  106.375    0.2552556  0.3581924  0.1523186 
1100.2     0.215      8          2          111.245    5.386      0.334      0.242      0.3143713  0.2657236  0.324      85.03254   8.16381    2.145      5.386      0.6508393  0.7223413  104.864    0.206898   0.2752693  0.1385268 
1100.4     0.215      8          2          113.052    6.392      0.34       0.253      0.3125749  0.2657222  0.326      135.9351   5.533209   2.148      6.392      0.6900353  0.7507074  103.036    0.2250844  0.3226502  0.1275186 
1100.6     0.215      8          2          114.27     8.743      0.338      0.263      0.3203593  0.2587238  0.329      208.2363   4.257164   2.135      8.743      0.7412868  0.7913964  101.39     0.2402309  0.3591066  0.1213552 
1100.8     0.215      8          2          116.586    10.511     0.359      0.289      0.3425149  0.2668023  0.351      631.1598   2.58597    2.098      10.511     0.7814119  0.8238807  100.35     0.2793868  0.4401759  0.1185978 
1101       0.215      8          2          119.684    10.845     0.39       0.31       0.3538922  0.27514    0.372      1545.647   1.327474   2.079      10.845     0.797363   0.8372331  100.175    0.3480605  0.5779343  0.1181868 
1101.2     0.215      8          2          116.973    8.426      0.374      0.307      0.3634731  0.2794252  0.369      1360.013   2.379287   2.063      8.426      0.7699447  0.8137115  99.99503   0.2865903  0.4554055  0.1177752 
1101.4     0.215      8          2          112.74     7.259      0.355      0.298      0.3688623  0.2837145  0.362      926.491    5.91756    2.054      7.259      0.7467969  0.7944942  100.142    0.2160166  0.3139226  0.1181106 
1101.6     0.215      8          2          111.044    7.373      0.347      0.286      0.3580838  0.2827612  0.353      555.3569   8.524767   2.072      7.373      0.7394806  0.7894794  100.466    0.1946629  0.270449   0.1188769 
1101.8     0.214      8          2          111.044    8.196      0.338      0.274      0.3443114  0.273768   0.341      332.8914   8.524767   2.095      8.196      0.742672   0.7925798  100.449    0.1946423  0.270449   0.1188356 
1102       0.214      8          2          111.044    9.079      0.33       0.268      0.3353294  0.2659819  0.333      257.732    8.524767   2.11       9.079      0.7499599  0.7983256  99.89004   0.1939942  0.270449   0.1175395 
1102.2     0.214      1          2          111.606    9.739      0.34       0.277      0.3353294  0.2740873  0.338      378.3296   7.553483   2.11       9.739      0.7649207  0.809621   98.86604   0.1997354  0.2841433  0.1153275 
1102.4     0.214      1          2          110.408    9.946      0.365      0.294      0.3365269  0.304208   0.351      781.1804   9.775414   2.108      9.946      0.7789968  0.8202573  97.70504   0.1842182  0.255746   0.1126904 
1102.6     0.214      1          2          108.849    9.946      0.36       0.296      0.3377246  0.3051209  0.349      850.7389   13.67314   2.106      9.946      0.7802979  0.820183   96.60104   0.1663003  0.2229981  0.1096026 
1102.8     0.214      1          2          107.43     8.278      0.335      0.289      0.3425149  0.284894   0.339      631.1598   18.55729   2.098      8.278      0.7554893  0.7975257  95.81804   0.1518363  0.1968509  0.1068217 
1103       0.214      1          2          106.503    8.681      0.358      0.304      0.3497006  0.3105413  0.354      1196.673   22.6553    2.086      8.681      0.7711924  0.8112464  95.65903   0.1438143  0.1814484  0.1061802 
1103.2     0.215      1          2          106.626    8.904      0.371      0.308      0.3497006  0.3229515  0.36       1419.271   22.06337   2.086      8.904      0.7764592  0.8164399  96.07004   0.1456014  0.1834206  0.1077822 
1103.4     0.215      1          2          105.823    9.171      0.384      0.312      0.3508981  0.3376641  0.367      1683.275   26.22619   2.084      9.171      0.7820009  0.8221017  96.69604   0.1404118  0.1709217  0.109902  
1103.6     0.216      1          2          104.712    9.197      0.368      0.294      0.3377246  0.3240715  0.353      781.1804   33.31118   2.106      9.197      0.770726   0.8136925  97.14104   0.1331166  0.1550207  0.1112125 
1103.8     0.215      1          2          105.636    10.511     0.358      0.286      0.3365269  0.3117579  0.347      555.3569   27.30331   2.108      10.511     0.7794162  0.8219278  97.47903   0.1401275  0.1681355  0.1121195 
