~Version
 VERS              .         2.0                           : CWLS LOG ASCII STANDARD - VERSION 2.0
 WRAP              .         NO                            : ONE LINE PER DEPTH STEP
 DLM               .         SPACE                         : DELIMITING CHARACTER(SPACE TAB OR COMMA)
~Well Information
#_______________________________________________________________________________
#
#PARAMETER_NAME    .UNIT     VALUE                         : DESCRIPTION
#_______________________________________________________________________________
STRT               .M        1090                          : First reference value
STOP               .M        1150                          : Last reference value
STEP               .M        0.2                           : Step increment
NULL               .         -9999                         : Missing value
COMP               .                                       : Company
WELL               .         3601                          : Well name
FLD                .         УЗЕНЬ                         : Field
LOC                .                                       : Location
CNTY               .                                       : County
STAT               .                                       : State
CTRY               .                                       : Country
SRVC               .                                       : Service Company
DATE               .         11.10.2004г                   : Date
UWI                .                                       : Unique Well ID
Block              .         7                             : 
Category           .         Нефтяная                      : 
Condition          .         В работе                      : 
EREF               .m        86.1                          : 100.8
Gorizont           .         13                            : 14
Interpretator      .         Кушнир И.Е.                   : 
Kupol              .         основной                      : osnovnoi
Mud                .                                       : 
Mud_density        .                                       : 
Mud_resistivity    .                                       : 
NGDU               .         НГДУ-2                        : 
ORIGINALWELLNAME   .         3601                          : 
Spud_date          .         2004                          : 1961
Viscosity          .                                       : 
X                  .m        42839                         : 46154
Y                  .m        84646.63                      : 85761.93
YEAR               .         2019г                         : 
~Parameter Information Block
#_______________________________________________________________________________
#
#PARAMETER_NAME    .UNIT     VALUE                         : DESCRIPTION
#_______________________________________________________________________________
SET                .         LQC_KAZNIPI_Petrel            : 
TLFamily_CALI      .         Caliper                       : 
TLFamily_COLL      .         Net Reservoir Flag            : 
TLFamily_CSAT      .         Fluid Code                    : 
TLFamily_DEPT      .         Measured Depth                : 
TLFamily_GR        .         Russian Gamma Ray             : 
TLFamily_LLS       .         Lateral Log Resistivity       : 
TLFamily_NPHI      .         Neutron Porosity              : 
TLFamily_PHIE      .         Effective Porosity            : 
TLFamily_PHIED     .         Effective Porosity            : 
TLFamily_PHIEN     .         Effective Porosity            : 
TLFamily_PHIT      .         Porosity                      : 
TLFamily_PRMB      .         Permeability                  : 
TLFamily_PRMB_DGR  .         Permeability                  : 
TLFamily_RHOB      .         Bulk Density                  : 
TLFamily_RT        .         Formation Resistivity         : 
TLFamily_SOIL_ARCHIE .         Oil Saturation                : 
TLFamily_SOIL_DW   .         Oil Saturation                : 
TLFamily_SP        .         Spontaneous Potential         : 
TLFamily_VSH_FIN   .         Shale Volume                  : 
TLFamily_VSH_GR    .         Shale Volume                  : 
TLFamily_VSH_SP    .         Shale Volume                  : 
~Curve Information
#_______________________________________________________________________________
#
#LOGNAME           .UNIT     LOG_ID                        : DESCRIPTION
#_______________________________________________________________________________
DEPT               .M                                      : Колонка глубины 
CALI               .м                                      : Каверномер 
COLL               .unitless                               : Описание 
CSAT               .unitless                               : Описание 
GR                 .uR/h                                   : Гамма каротаж 
LLS                .Ohmm                                   : Боковой каротаж 
NPHI               .v/v                                    : Водородосодержание по НКТ 
PHIE               .v/v                                    : Открытая пористость 
PHIED              .v/v                                    :  
PHIEN              .v/v                                    :  
PHIT               .v/v                                    : Общая пористость 
PRMB               .mD                                     :  
PRMB_DGR           .mD                                     :  
RHOB               .G/C3                                   : Плотность по ГГКп 
RT                 .ohmm                                   : Description 
SOIL_ARCHIE        .v/v                                    :  
SOIL_DW            .v/v                                    :  
SP                 .мВ                                     : Потенциал самополяризации 
VSH_FIN            .v/v                                    : Описание 
VSH_GR             .v/v                                    : Shale volume 
VSH_SP             .v/v                                    : Shale Volume 
~Ascii
# ...
1139       0.218      1          2          81.232     12.366     0.183      0.242      0.3616767  0.142329   0.272      85.03254   5217.604   2.066      12.366     0.7636048  0.7972594  110.7233   0.1232453  0.02       0.2264906 
1139.2     0.217      1          2          84.351     8.467      0.238      0.27       0.3616767  0.1993626  0.3        280.6812   2666.314   2.066      8.467      0.7433035  0.7789453  109.9261   0.1170831  0.02589407 0.208272  
1139.4     0.216      1          2          86.948     4.577      0.302      0.305      0.3658682  0.2650706  0.334      1248.815   1524.568   2.059      4.577      0.6919096  0.7316247  109.073    0.1119073  0.03253338 0.1912813 
1139.6     0.215      1          2          86.546     3.324      0.345      0.333      0.3760479  0.3104901  0.361      4122.171   1662.361   2.042      3.324      0.6683757  0.7098927  108.2868   0.1045754  0.03140397 0.1777468 
1139.8     0.216      1          2          85.341     2.843      0.365      0.343      0.3766468  0.332693   0.371      6314.663   2154.601   2.041      2.843      0.6522155  0.6950622  107.6066   0.09790006 0.02824811 0.167552  
1140       0.216      1          2          86.346     2.72       0.361      0.344      0.3808384  0.3292803  0.371      6589.81    1735.485   2.034      2.72       0.6458212  0.6886339  107.1455   0.09612013 0.03085678 0.1613835 
1140.2     0.216      1          2          86.198     2.598      0.365      0.345      0.3808384  0.3340077  0.373      6876.938   1791.662   2.034      2.598      0.6390252  0.6827779  106.8203   0.09391624 0.03045799 0.1573745 
1140.4     0.216      1          2          84.98      2.459      0.359      0.34       0.3778443  0.329135   0.368      5556.266   2328.695   2.039      2.459      0.6248498  0.6693482  106.4951   0.09050011 0.02736591 0.1536343 
1140.6     0.216      1          2          84.538     2.364      0.354      0.336      0.3736527  0.3251789  0.364      4684.823   2561.122   2.046      2.364      0.6138899  0.6589313  105.992    0.08733657 0.02632318 0.14835   
1140.8     0.216      1          2          85.917     2.434      0.333      0.324      0.3688623  0.304657   0.351      2808.175   1903.371   2.054      2.434      0.6068845  0.6514223  105.3058   0.08588782 0.02971498 0.1420607 
1141       0.216      1          2          87.028     3          0.331      0.32       0.3634731  0.3030637  0.347      2367.742   1498.54    2.063      3          0.6397454  0.6822714  104.5936   0.08465545 0.03276294 0.136548  
1141.2     0.216      1          2          88.554     3.558      0.327      0.313      0.3520958  0.2989749  0.34       1756.618   1078.996   2.082      3.558      0.6609916  0.7020187  103.9545   0.08492455 0.03746546 0.1323836 
1141.4     0.216      1          2          86.948     4.212      0.326      0.307      0.3401197  0.2992541  0.333      1360.013   1524.568   2.102      4.212      0.6814755  0.7205448  103.4503   0.08104806 0.03253338 0.1295627 
1141.6     0.216      1          2          84.337     3.341      0.324      0.303      0.3353294  0.2987204  0.33       1146.709   2674.36    2.11       3.341      0.6408159  0.6828189  102.9991   0.07660483 0.02586223 0.1273474 
1141.8     0.216      1          2          81.727     2.102      0.332      0.308      0.3377246  0.307871   0.335      1419.271   4690.289   2.106      2.102      0.5598887  0.6063138  102.6169   0.07311829 0.02056085 0.1256757 
1142       0.215      1          2          81.325     1.751      0.333      0.309      0.3383234  0.3092656  0.336      1481.111   5114.204   2.105      1.751      0.5218425  0.5699882  102.1458   0.07192228 0.02       0.1238446 
1142.2     0.216      1          2          81.727     2.007      0.326      0.306      0.3377246  0.302434   0.332      1303.228   4690.289   2.106      2.007      0.5476735  0.5938966  101.6836   0.07141221 0.02056085 0.1222636 
1142.4     0.216      1          2          83.735     2.717      0.312      0.296      0.3329341  0.2880597  0.322      850.7389   3044.345   2.114      2.717      0.5960834  0.6397195  101.1154   0.07254656 0.02452943 0.1205637 
1142.6     0.216      1          2          83.735     2.928      0.323      0.302      0.3329341  0.2992699  0.328      1098.83    3044.345   2.114      2.928      0.6167706  0.6595271  100.6332   0.07190958 0.02452943 0.1192897 
1142.8     0.216      1          2          82.932     2.746      0.323      0.303      0.3359282  0.2997368  0.329      1146.709   3618.741   2.109      2.746      0.6061897  0.6495332  100.151    0.07049464 0.02285791 0.1181314 
1143       0.216      1          2          82.53      2.584      0.322      0.306      0.3425149  0.2989944  0.332      1303.228   3945.808   2.098      2.584      0.598253   0.6420981  99.81087   0.06971399 0.02206439 0.1173636 
1143.2     0.216      1          2          83.976     2.568      0.328      0.31       0.3443114  0.3045949  0.336      1545.647   2890.452   2.095      2.568      0.6016121  0.645413   99.5507    0.0709246  0.02505454 0.1167947 
1143.4     0.216      1          2          86.145     2.64       0.333      0.315      0.3508981  0.3087687  0.342      1913.032   1812.218   2.084      2.64       0.6121903  0.6561661  99.43253   0.07342808 0.03031644 0.1165397 
1143.6     0.216      1          2          86.948     2.615      0.331      0.314      0.3526946  0.3064448  0.342      1833.159   1524.568   2.081      2.615      0.6093746  0.654054   99.31435   0.07440978 0.03253338 0.1162862 
1143.8     0.216      1          2          86.827     2.585      0.315      0.306      0.354491   0.2905633  0.335      1303.228   1564.795   2.078      2.585      0.5983258  0.6439988  99.13918   0.0740505  0.03218924 0.1159118 
1144       0.216      1          2          84.94      2.714      0.299      0.287      0.3341317  0.2754651  0.317      579.5546   2348.831   2.112      2.714      0.5848585  0.6314335  98.884     0.07131796 0.02726986 0.115366  
1144.2     0.216      1          2          83.829     2.949      0.318      0.292      0.3251497  0.2949363  0.322      717.3092   2983.367   2.127      2.949      0.6066861  0.6521558  98.73582   0.06989001 0.02473293 0.1150471 
1144.4     0.216      1          2          86.948     2.675      0.336      0.293      0.3137725  0.3115875  0.325      748.5644   1524.568   2.146      2.675      0.5894937  0.6372372  98.90965   0.07397721 0.03253338 0.115421  
1144.6     0.217      1          2          92.463     2.868      0.334      0.278      0.2898203  0.3060114  0.312      394.8139   465.1699   2.186      2.868      0.5840896  0.6332207  99.55447   0.08481391 0.05282499 0.1168028 
1144.8     0.217      1          2          93.797     3.678      0.31       0.245      0.2598802  0.2804167  0.285      96.63903   349.0687   2.236      3.678      0.5868567  0.6399682  100.8693   0.08964647 0.05939622 0.1198967 
1145       0.217      1          2          94.108     3.517      0.284      0.214      0.2419161  0.2529294  0.263      25.76068   326.4666   2.266      3.517      0.5253282  0.5916223  102.9811   0.09415345 0.06104218 0.1272647 
1145.2     0.217      1          2          103.36     2.337      0.334      0.23       0.2538922  0.2871327  0.294      50.97018   44.56287   2.246      2.337      0.4599661  0.544371   105.7899   0.1420222  0.1376523  0.1463921 
1145.4     0.218      -9999      -9999      111.897    1.941      0.383      0.246      0.2706587  0.304452   0.327      100.8498   7.094875   2.218      1.941      0.4443248  0.5430896  108.6958   0.2380242  0.2915043  0.184544  
1145.6     0.218      -9999      -9999      119.317    1.693      0.383      0.235      0.1923578  0.2521037  0.332      63.0853    1.436589   2.202      1.693      0.3834278  0.5058118  111.0136   0.3966555  0.55959    0.2337209 
1145.8     0.217      -9999      -9999      118.675    1.644      0.373      0.213      0.1817364  0.2405538  0.322      24.68509   1.649475   2.218      1.644      0.3189972  0.4683755  112.4274   0.401352   0.5288891  0.2738149 
