~Version
 VERS              .         2.0                           : CWLS LOG ASCII STANDARD - VERSION 2.0
 WRAP              .         NO                            : ONE LINE PER DEPTH STEP
 DLM               .         SPACE                         : DELIMITING CHARACTER(SPACE TAB OR COMMA)
~Well Information
#_______________________________________________________________________________
#
#PARAMETER_NAME    .UNIT     VALUE                         : DESCRIPTION
#_______________________________________________________________________________
STRT               .M        880.02                        : First reference value
STOP               .M        1179.92                       : Last reference value
STEP               .M        0.1                           : Step increment
NULL               .         -9999                         : Missing value
COMP               .                                       : Company
WELL               .         3759                          : Well name
FLD                .         УЗЕНЬ                         : Field
LOC                .                                       : Location
CNTY               .                                       : County
STAT               .                                       : State
CTRY               .                                       : Country
SRVC               .                                       : Service Company
DATE               .         7/10/2004                     : Date
UWI                .                                       : Unique Well ID
Block              .         7                             : 
Category           .         Нефтяная                      : 
Condition          .         В работе                      : 
Date               .         08.06.2004                    : 
EREF               .m        91                            : 100.8
GRP                .         1111                          : Group name
Gorizont           .         15                            : 14
ISS                .         BKZ                           : Well surveys
Interpretator      .         Алпанова Н.К.                 : 
Kupol              .         основной                      : osnovnoi
Moii_15_vosst2     .         15_vosst2                     : 
Mud                .                                       : 
Mud_density        .                                       : 
Mud_resistivity    .                                       : 
Mud_density        .                                       : 
Mud_resistivity    .                                       : 
NGDU               .         НГДУ-2                        : 
ORIGINALWELLNAME   .         3759                          : 
Spud_date          .         2004                          : 1961
Spud_date          .         2004                          : 1961
TIME               .         13_33                         : LOG TIME
Viscosity          .                                       : 
X                  .m        42334.8                       : 46154
Y                  .m        84384.13                      : 85761.93
YEAR               .         2018                          : 
~Parameter Information Block
#_______________________________________________________________________________
#
#PARAMETER_NAME    .UNIT     VALUE                         : DESCRIPTION
#_______________________________________________________________________________
SET                .         LQC_KAZNIPI_Petrel            : 
TLFamily_CALI      .         Caliper                       : 
TLFamily_CILD      .         Conductivity                  : 
TLFamily_COLL      .         Net Reservoir Flag            : 
TLFamily_CSAT      .         Fluid Code                    : 
TLFamily_DEPT      .         Measured Depth                : 
TLFamily_GR        .         Russian Gamma Ray             : 
TLFamily_GZ1       .         Gradient 045                  : 
TLFamily_GZ2       .         Gradient 105                  : 
TLFamily_GZ3       .         Gradient 225                  : 
TLFamily_GZ4       .         Gradient 425                  : 
TLFamily_GZ5       .         Gradient 850                  : 
TLFamily_LLS       .         Lateral Log Resistivity       : 
TLFamily_MINV      .         Micro Gradient Resistivity    : 
TLFamily_MNOR      .         Micro Resistivity             : 
TLFamily_NGLD      .         Neutron Far                   : 
TLFamily_OGZ       .         Gradient Inverted 225         : 
TLFamily_PHIE      .         Effective Porosity            : 
TLFamily_PHIEN     .         Effective Porosity            : 
TLFamily_PHIT      .         Porosity                      : 
TLFamily_PRMB      .         Permeability                  : 
TLFamily_PRMB_DGR  .         Permeability                  : 
TLFamily_RT        .         Formation Resistivity         : 
TLFamily_SOIL_ARCHIE .         Oil Saturation                : 
TLFamily_SOIL_DW   .         Oil Saturation                : 
TLFamily_SP        .         Spontaneous Potential         : 
TLFamily_VSH_FIN   .         Shale Volume                  : 
TLFamily_VSH_GR    .         Shale Volume                  : 
TLFamily_VSH_SP    .         Shale Volume                  : 
~Curve Information
#_______________________________________________________________________________
#
#LOGNAME           .UNIT     LOG_ID                        : DESCRIPTION
#_______________________________________________________________________________
DEPT               .M                                      : Колонка глубины 
CALI               .м                                      : Каверномер 
CILD               .мСм/м                                  : Индукционный каротаж 
COLL               .unitless                               :  
CSAT               .unitless                               :  
GR                 .мкР/ч                                  : Гамма каротаж 
GZ1                .Ом·м                                   :  
GZ2                .Ом·м                                   :  
GZ3                .Ом·м                                   : Градиент-зонд  длиной 2.25м 
GZ4                .Ом·м                                   :  
GZ5                .Ом·м                                   :  
LLS                .Ом·м                                   : Боковой каротаж 
MINV               .Ом·м                                   : Микро-градиент зонд 
MNOR               .Ом·м                                   : Микро-потенциал зонд 
NGLD               .у.е.                                   : Показания зонда НГК-60 аппаратуры ДРСТ-3-90 
OGZ                .Ом·м                                   :  
PHIE               .м3/м3                                  : Описание 
PHIEN              .v/v                                    :  
PHIT               .м3/м3                                  : Описание 
PRMB               .mD                                     :  
PRMB_DGR           .mD                                     :  
RT                 .ohmm                                   : УЭС пласта 
SOIL_ARCHIE        .v/v                                    :  
SOIL_DW            .v/v                                    :  
SP                 .мВ                                     : Потенциал самополяризации 
VSH_FIN            .unitless                               : Описание 
VSH_GR             .unitless                               : Shale volume 
VSH_SP             .unitless                               : Shale Volume 
~Ascii
# ...
918.92     0.234      7428.65    6          6          2.71063    2.095367   3.632428   2.234776020050049 1.999368   1.616928   4.434      1.786      3.448      2.096334934234619 9.058277130126953 0.1174087  0.1174087  0.1607418  0.4186501  282.4062   2.586      0.07502524000000001 0.1847792  75.85423   0.1313124  0.06476501 0.1978599 
919.02     0.234      7208.783   6          6          2.744389   2.702673   3.577568   2.20288896560669 1.920244   1.599355   4.381      1.783      3.476      2.121423959732056 8.492635726928711 0.1108452  0.1108452  0.1561429  0.3164323  259.8246   2.664      0.0409687  0.1633421  76.83908   0.1372656  0.06700692 0.2075243 
919.12     0.233      7028.286   6          6          2.788046   3.428787   3.575138   2.140898942947388 1.855701   1.595683   4.452      1.782      3.374      2.140755891799927 8.264598846435547 0.1051015  0.1051015  0.1525994  0.2476806  233.2781   2.732      0.007290327 0.1440464  77.81136   0.1439332  0.07002164 0.2178448 
919.22     0.232      6840.109   6          6          2.842253   3.266599   3.689781   2.069999933242798 1.890147   1.625973   4.704      1.78       3.187      2.153894901275635 8.258597373962402 0.1002377  0.1002377  0.1501911  0.2012814  204.0595   2.808      0          0.1310515  78.76846   0.1513738  0.0739543  0.2287933 
919.3200000000001 0.231      6617.155   6          6          2.907228   2.897122   3.986702   2.077150106430054 1.943017   1.65328    5.044      1.773      3.056      2.160588026046753 8.28913688659668 0.09627667 0.09627667 0.1489643  0.1699948  173.8183   2.904      0          0.1271683  79.70996   0.1596594  0.07896023000000001 0.2403585 
919.42     0.23       6376.206   6          6          2.982662   2.950451   4.627881   2.125629901885986 2.029492   1.680032   5.4        1.782      3.021      2.160799026489258 8.357197761535645 0.09319885999999999 0.09319885999999999 0.1489256  0.1490826  144.2848   3.013      0          0.1316356  80.63647   0.1688689  0.0851986  0.2525391 
919.52     0.23       6182.537   6          6          3.06758    3.5189     5.412261   2.252405881881714 2.1837     1.709035   5.799      1.844      3.082      2.154752969741821 8.350105285644531 0.09094067 0.09094067 0.1500337  0.1353941  116.9975   3.106      0          0.1400847  81.54808   0.1790698  0.09281299 0.2653266 
919.62     0.231      6033.143   6          6          3.160407   4.368042   6.037873   2.489751100540161 2.298193   1.709751   6.429      2.071      3.419      2.142966985702515 8.215458869934082 0.08939447 0.08939447 0.1521941  0.1267537  93.03662   3.182      0          0.1518931  82.44337   0.1903019  0.1019171  0.2786867 
919.72     0.231      5889.042   6          6          3.259019   5.045291   6.876521   2.705300092697144 2.403346   1.68528    7.289      2.496      4.455      2.126231908798218 7.939581871032715 0.08841901000000001 0.08841901000000001 0.1552617  0.1215886  72.93380999999999 3.261      0          0.1686418  83.31844   0.2025536  0.1125688  0.2925383 
919.8200000000001 0.233      5727.575   6          6          3.36094    6.110464   8.541371   2.957739114761353 2.520491   1.632588   7.971      2.791      5.916      2.105585098266602 7.660049915313721 0.08785058 0.08785058 0.1590463  0.1186763  56.70967   3.354      0          0.1900641  84.16688   0.2157447  0.1247491  0.3067403 
919.92     0.234      5559.454   6          6          3.463404   6.620987   10.20907   3.348959922790527 2.517128   1.573097   7.862      2.631      6.44       2.082278966903687 7.33544921875 0.08751563 0.08751563 0.1633183  0.116993   44.03534   3.454      0          0.2134645  84.98009   0.2297051  0.1383232  0.3210869 
920.02     0.236      5429.954   6          6          3.563604   6.483038   10.87242   3.546919107437134 2.453509   1.527533   6.813      2.19       5.689      2.057720899581909 6.839478015899658 0.08724445 0.08724445 0.1678197  0.1156477  34.3854    3.536      0          0.2345195  85.7479    0.2441673  0.1530247  0.33531   
920.12     0.237      5333.836   6          6          3.658839   5.464059   10.16964   3.602766036987305 2.298322   1.457519   5.471      1.822      4.752      2.033390998840332 6.581947803497315 0.08688556 0.08688556 0.1722794  0.113891   27.18126   3.599      0          0.2521704  86.45954   0.2587692  0.1684434  0.3490949 
920.22     0.237      5244.679   6          6          3.746742   3.988488   9.187266   3.600799083709717 2.027814   1.354875   4.244      1.716      4.45       2.010735034942627 6.527399063110352 0.08631704 0.08631704 0.1764323  0.1111627  21.87891   3.661      0          0.2674908  87.10461   0.2730764  0.1840505  0.3621024 
920.3200000000001 0.238      5147.806   -9999      -9999      3.825428   3.242201   8.638068   3.44232988357544 1.819043   1.297498   3.504      1.657      4.614      1.991091966629028 6.556128025054932 0.08544603000000001 0.08544603000000001 0.1800329  0.107109   18.01625   3.73       0          0.2805408  87.67464   0.2866269  0.1992437  0.3740101 
920.42     0.238      5049.375   -9999      -9999      3.893675   2.779631   8.091949   3.326391935348511 1.736853   1.289089   3.031      1.591      4.477      1.975613951683044 6.77492094039917 0.08420149 0.08420149 0.18287    0.101572   15.22279   3.802      0          0.290352   88.16447   0.2989955  0.2134333  0.3845576 
920.52     0.238      4975.724   -9999      -9999      3.951072   2.238891   7.377782   3.317383050918579 1.700593   1.317504   2.89       1.562      4.379      1.965196967124939 7.170966148376465 0.08628877 0.08628877 0.1847793  0.1110288  44.75797   3.858      0          0.306502   88.57369   0.2984562  0.137407   0.4595053 
920.62     0.238      4922.115   -9999      -9999      3.997951   2.001782   7.036824   3.364022016525269 1.678646   1.377972   2.891      1.564      4.411      1.960427045822144 7.980231761932373 0.08513413 0.08513413 0.1856537  0.1056936  42.02386   3.9        0          0.3087662  88.90737   0.3046049  0.1409894  0.4682204 
920.72     0.237      4872.31    -9999      -9999      4.03527    1.918974   6.755499   3.508923053741455 1.710857   1.444355   3.002      1.666      4.554      1.961552023887634 8.820267677307129 0.08326802 0.08326802 0.1854476  0.09760762000000001 39.96717   3.94       0          0.3060554  89.17659   0.3096351  0.1439081  0.4753621 
920.8200000000001 0.236      4816.873   -9999      -9999      4.064435   1.93565    6.443352   3.785303115844727 1.813157   1.550826   3.227      1.964      5.088      1.96851396560669 9.349276542663574 0.08062651 0.08062651 0.1841714  0.08720806 38.43023   3.985      0          0.2986015  89.39815   0.3137725  0.146231   0.481314  
920.92     0.235      4758.616   -9999      -9999      4.08711    2.088363   6.462482   4.294167041778565 2.022976   1.688424   3.594      2.379      6.128      1.980975985527039 9.728298187255859 0.07716471 0.07716471 0.1818871  0.07523773 37.27624   4.034      0          0.2858554  89.59351   0.3173405  0.1480628  0.4866182 
921.02     0.233      4712.803   -9999      -9999      4.104938   2.304897   6.646192   4.715793132781982 2.234128   1.745765   4.247      2.717      7.213      1.998353958129883 10.23114013671875 0.07286172000000001 0.07286172000000001 0.1787017  0.06262299 36.39331   4.073      0          0.2659891  89.78741   0.3207273  0.1495192  0.4919353 
921.12     0.231      4676.769   -9999      -9999      4.119269   2.545293   6.882205   5.132094860076904 2.345135   1.797665   5.004      2.762      7.773      2.019876003265381 10.38379001617432 0.06772122999999999 0.06772122999999999 0.1747568  0.05029438 35.69872   4.104      0          0.2383431  90.00629   0.3243501  0.1507004  0.4979999 
921.22     0.23       4639.428   -9999      -9999      4.131042   3.024054   7.082865   5.808913230895996 2.415319   1.8457     5.524      2.46       7.194      2.044658899307251 10.42057991027832 0.06176782 0.06176782 0.1702141  0.03901647 35.13811   4.137      0          0.2026717  90.27625   0.328625   0.1516775  0.5055724 
