~Version
 VERS              .         2.0                           : CWLS LOG ASCII STANDARD - VERSION 2.0
 WRAP              .         NO                            : ONE LINE PER DEPTH STEP
 DLM               .         SPACE                         : DELIMITING CHARACTER(SPACE TAB OR COMMA)
~Well Information
#_______________________________________________________________________________
#
#PARAMETER_NAME    .UNIT     VALUE                         : DESCRIPTION
#_______________________________________________________________________________
STRT               .M        880.02                        : First reference value
STOP               .M        1179.92                       : Last reference value
STEP               .M        0.1                           : Step increment
NULL               .         -9999                         : Missing value
COMP               .                                       : Company
WELL               .         3759                          : Well name
FLD                .         УЗЕНЬ                         : Field
LOC                .                                       : Location
CNTY               .                                       : County
STAT               .                                       : State
CTRY               .                                       : Country
SRVC               .                                       : Service Company
DATE               .         7/10/2004                     : Date
UWI                .                                       : Unique Well ID
Block              .         7                             : 
Category           .         Нефтяная                      : 
Condition          .         В работе                      : 
Date               .         08.06.2004                    : 
EREF               .m        91                            : 100.8
GRP                .         1111                          : Group name
Gorizont           .         15                            : 14
ISS                .         BKZ                           : Well surveys
Interpretator      .         Алпанова Н.К.                 : 
Kupol              .         основной                      : osnovnoi
Moii_15_vosst2     .         15_vosst2                     : 
Mud                .                                       : 
Mud_density        .                                       : 
Mud_resistivity    .                                       : 
Mud_density        .                                       : 
Mud_resistivity    .                                       : 
NGDU               .         НГДУ-2                        : 
ORIGINALWELLNAME   .         3759                          : 
Spud_date          .         2004                          : 1961
Spud_date          .         2004                          : 1961
TIME               .         13_33                         : LOG TIME
Viscosity          .                                       : 
X                  .m        42334.8                       : 46154
Y                  .m        84384.13                      : 85761.93
YEAR               .         2018                          : 
~Parameter Information Block
#_______________________________________________________________________________
#
#PARAMETER_NAME    .UNIT     VALUE                         : DESCRIPTION
#_______________________________________________________________________________
SET                .         LQC_KAZNIPI_Petrel            : 
TLFamily_CALI      .         Caliper                       : 
TLFamily_CILD      .         Conductivity                  : 
TLFamily_COLL      .         Net Reservoir Flag            : 
TLFamily_CSAT      .         Fluid Code                    : 
TLFamily_DEPT      .         Measured Depth                : 
TLFamily_GR        .         Russian Gamma Ray             : 
TLFamily_GZ1       .         Gradient 045                  : 
TLFamily_GZ2       .         Gradient 105                  : 
TLFamily_GZ3       .         Gradient 225                  : 
TLFamily_GZ4       .         Gradient 425                  : 
TLFamily_GZ5       .         Gradient 850                  : 
TLFamily_LLS       .         Lateral Log Resistivity       : 
TLFamily_MINV      .         Micro Gradient Resistivity    : 
TLFamily_MNOR      .         Micro Resistivity             : 
TLFamily_NGLD      .         Neutron Far                   : 
TLFamily_OGZ       .         Gradient Inverted 225         : 
TLFamily_PHIE      .         Effective Porosity            : 
TLFamily_PHIEN     .         Effective Porosity            : 
TLFamily_PHIT      .         Porosity                      : 
TLFamily_PRMB      .         Permeability                  : 
TLFamily_PRMB_DGR  .         Permeability                  : 
TLFamily_RT        .         Formation Resistivity         : 
TLFamily_SOIL_ARCHIE .         Oil Saturation                : 
TLFamily_SOIL_DW   .         Oil Saturation                : 
TLFamily_SP        .         Spontaneous Potential         : 
TLFamily_VSH_FIN   .         Shale Volume                  : 
TLFamily_VSH_GR    .         Shale Volume                  : 
TLFamily_VSH_SP    .         Shale Volume                  : 
~Curve Information
#_______________________________________________________________________________
#
#LOGNAME           .UNIT     LOG_ID                        : DESCRIPTION
#_______________________________________________________________________________
DEPT               .M                                      : Колонка глубины 
CALI               .м                                      : Каверномер 
CILD               .мСм/м                                  : Индукционный каротаж 
COLL               .unitless                               :  
CSAT               .unitless                               :  
GR                 .мкР/ч                                  : Гамма каротаж 
GZ1                .Ом·м                                   :  
GZ2                .Ом·м                                   :  
GZ3                .Ом·м                                   : Градиент-зонд  длиной 2.25м 
GZ4                .Ом·м                                   :  
GZ5                .Ом·м                                   :  
LLS                .Ом·м                                   : Боковой каротаж 
MINV               .Ом·м                                   : Микро-градиент зонд 
MNOR               .Ом·м                                   : Микро-потенциал зонд 
NGLD               .у.е.                                   : Показания зонда НГК-60 аппаратуры ДРСТ-3-90 
OGZ                .Ом·м                                   :  
PHIE               .м3/м3                                  : Описание 
PHIEN              .v/v                                    :  
PHIT               .м3/м3                                  : Описание 
PRMB               .mD                                     :  
PRMB_DGR           .mD                                     :  
RT                 .ohmm                                   : УЭС пласта 
SOIL_ARCHIE        .v/v                                    :  
SOIL_DW            .v/v                                    :  
SP                 .мВ                                     : Потенциал самополяризации 
VSH_FIN            .unitless                               : Описание 
VSH_GR             .unitless                               : Shale volume 
VSH_SP             .unitless                               : Shale Volume 
~Ascii
# ...
1093.12    0.269      7200.666   6          6          6.72343    1.685448   3.978622   4.033840179443359 5.44933    7.939118   3.775      1.408      1.768      1.87331    10.58345985412598 0.06911636 0.06911636 0.2016223  0.05337781 52.30233   2.667      0          0.1447539  76.51984   0.4015332  0.1289391  0.6741273 
1093.22    0.269      7052.281   6          6          6.583721   1.716854   4.064609   4.364731788635254 6.104574   9.066918   4.179      1.366      1.79       1.955674   10.99312019348145 0.05463604 0.05463604 0.186525   0.02878392 63.81308   2.722      0          0.03480823 76.71141   0.3996636  0.1188801  0.680447  
1093.32    0.269      6931.868   6          6          6.456252   1.758607   3.709604   4.684346199035645 6.760367   9.71451    4.992      1.384      1.749      2.035399   11.43795967102051 0.04059517 0.04059517 0.1719114  0.01581536 76.51212   2.769      0          0          76.86256   0.397928   0.1103886  0.6854674 
1093.42    0.268      6811.328   6          6          6.346412   1.933375   3.670877   5.363708019256592 7.972032   9.938784   6.664      1.646      1.967      2.109896   12.26747035980225 0.02739353 0.02739353 0.158256   0.009006429 89.46423   2.819      0          0          76.98469   0.396553   0.1035597  0.6895464 
1093.52    0.266      6677.484   6          6          6.258686   2.280417   4.064479   6.122931003570557 9.345058   10.04224   9.499      2.078      2.672      2.176668   12.93381023406982 0.01543047 0.01543047 0.1460168  0.005407141 101.3665   2.875      0          0          77.08828   0.3957161  0.09841032 0.6930218 
1093.62    0.265      6543.846   6          6          6.196372   2.854901   5.006681   6.609130859375 10.66613   10.0773    13.19      2.497      3.925      2.233466   13.07301998138428 0.01       0.005076339 0.1356056  0.004289259 110.771    2.934      0          0          77.18198   0.3955432  0.09490888 0.6961776 
1093.72    0.264      6448.377   6          6          6.161381   3.997769   6.205632   6.82908821105957 11.30647   9.85341    15.197     2.699      5.225      2.278413   12.63401985168457 0.01       0          0.1273669  0.004289259 116.4293   2.977      0          0          77.27216   0.3961119  0.09299764000000001 0.6992261 
1093.82    0.264      6388.362   6          6          6.154142   5.153828   7.001966   7.082595825195313 11.39263   9.538589   14.7       2.621      5.784      2.310105   11.59632968902588 0.01       0          0.1215578  0.004289259 117.6356   3.005      0          0          77.36269   0.3974522  0.09260707999999999 0.7022974 
1093.92    0.264      6348.385   6          6          6.173595   5.90993    7.681319   7.06613302230835 11.05566   8.94261    12.252     2.449      5.628      2.327671   10.28754043579102 0.01       0          0.1183379  0.004289259 114.4221   3.024      0          0          77.45508   0.3995518  0.09366038 0.7054433 
1094.02    0.264      6321.129   6          6          6.217469   6.171691   8.963959   6.869624137878418 10.14613   7.82304    10.279     2.366      5.265      2.330801   9.341196060180664 0.01       0          0.1177641  0.004289259 107.4931   3.037      0          0          77.549     0.4023667  0.09608015 0.7086532 
1094.12    0.263      6309.33    6          6          6.282497   6.413785   10.33301   6.515758037567139 9.436059   6.573392   9.214      2.358      5.054      2.319757   8.572711944580078 0.01       0          0.1197886  0.004289259 97.98756   3.042      0          0          77.64319   0.405833   0.0997821  0.711884  
1094.22    0.264      6320.023   6          6          6.364726   6.728726   11.3061    6.195474147796631 8.639688   5.504508   8.218      2.203      4.968      2.295327   7.397964000701904 0.01       0          0.1242665  0.004289259 87.16158   3.037      0          0          77.73627   0.4098784  0.1046682  0.7150885 
1094.32    0.264      6342.328   6          6          6.459865   6.859793   12.09387   5.764317989349365 7.30144    4.905115   7.259      1.938      4.733      2.258764   6.705893993377686 0.01       0          0.1309686  0.004289259 76.11949   3.026      0          0          77.82745   0.41443    0.1106208  0.7182392 
1094.42    0.266      6372.638   6          6          6.563744   6.678192   12.99494   5.014377117156982 5.985092   4.320488   6.126      1.712      4.369      2.211661   6.190517902374268 0.01       0.001192074 0.1396026  0.004289259 65.65423   3.012      0          0          77.91698   0.4194257  0.1175074  0.7213441 
1094.52    0.269      6419.026   6          6          6.672596   5.745092   12.48721   4.360857009887695 4.892524   3.420525   5.133      1.645      3.909      2.155849   5.365485191345215 0.01       0.009642526 0.1498329  0.004289259 56.22821   2.99       0          0          78.00636   0.4248193  0.1251842  0.7244543 
1094.62    0.271      6489.205   6          6          6.783218   4.687348   11.47141   3.955709934234619 4.265116   2.714126   4.495      1.662      3.547      2.093274   4.794880867004395 0.01921441 0.01921441 0.1613028  0.006354123 48.0343    2.958      0          0          78.09764   0.4305709  0.1334998  0.727642  
1094.72    0.274      6584.439   6          6          6.893108   4.313659   11.22863   3.757153987884522 3.648806   2.328201   4.427      1.668      3.43       2.025898   4.543103218078613 0.02955855 0.02955855 0.173653   0.009877662000000001 41.07722   2.916      0          0          78.19323   0.4366498  0.1423073  0.7309924 
1094.82    0.276      6690.939   6          6          7.000512   4.115287   11.06433   3.562153100967407 2.852788   2.013303   4.547      1.641      3.387      1.955605   4.456463813781738 0.04033846 0.04033846 0.1865376  0.01564315 35.25237   2.869      0          0          78.29517   0.4430278  0.1514766  0.734579  
1094.92    0.276      6789.044   6          6          7.10436    3.866994   10.77015   3.638905048370361 2.399629   1.559861   4.583      1.591      3.302      1.884147   4.334719181060791 0.05124377 0.05124377 0.1996358  0.02490675 30.40703   2.828      0          0.07673176 78.4045    0.4496729  0.1609038  0.7384419 
1095.02    0.276      6875.206   6          6          7.204113   3.757774   10.48939   3.91107988357544 2.198489   1.244305   4.525      1.53       3.121      1.81308    4.258339881896973 0.06200483 0.06200483 0.2126624  0.03941286 26.38107   2.792      0          0.1628392  78.52069   0.4565381  0.1705113  0.7425649 
1095.12    0.274      6968.434   6          6          7.299652   3.753375   10.36853   4.509829044342041 2.045679   1.079664   4.408      1.461      2.874      1.743724   4.100429058074951 0.07240263 0.07240263 0.2253755  0.06140878 23.02587   2.755      0          0.230208   78.64111   0.463554   0.1802503  0.7468578 
1095.22    0.273      7078.922   6          6          7.391113   3.888831   10.39394   5.170538902282715 1.787688   0.9218037  4.189      1.36       2.7        1.677145   3.791531085968018 0.08227394 0.08227394 0.2375793  0.09355585 20.21442   2.712      0          0.28278    78.76096   0.4706222  0.1900943  0.7511502 
1095.32    0.272      7196.305   6          6          7.478828   4.017116   10.24891   5.473804950714111 1.55435    0.68853    3.714      1.207      2.524      1.614169   3.520162105560303 0.09150919 0.09150919 0.2491227  0.1387172  17.84114   2.668      0          0.3245426  78.87336   0.4776168  0.2000399  0.7551937 
1095.42    0.271      7287.91    6          6          7.56319    3.749488   9.679038   5.30269718170166 1.403253   0.5173149  3.057      1.014      2.216      1.555397   3.293489933013916 0.1000489  0.1000489  0.2598957  0.1996673  15.82187   2.634      0          0.3591954  78.96968   0.4843843  0.2100957  0.7586728 
1095.52    0.271      7354.049   6          6          7.644604   3.272442   7.950123   4.903140068054199 1.226579   0.4211236  2.453      0.842      1.828      1.501236   2.978840112686157 0.1078742  0.1078742  0.2698235  0.278772   14.09015   2.61       0.008521719000000001 0.3883589  79.0403    0.4907555  0.2202792  0.7612318 
