~Version
 VERS              .         2.0                           : CWLS LOG ASCII STANDARD - VERSION 2.0
 WRAP              .         NO                            : ONE LINE PER DEPTH STEP
 DLM               .         SPACE                         : DELIMITING CHARACTER(SPACE TAB OR COMMA)
~Well Information
#_______________________________________________________________________________
#
#PARAMETER_NAME    .UNIT     VALUE                         : DESCRIPTION
#_______________________________________________________________________________
STRT               .M        880.02                        : First reference value
STOP               .M        1179.92                       : Last reference value
STEP               .M        0.1                           : Step increment
NULL               .         -9999                         : Missing value
COMP               .                                       : Company
WELL               .         3759                          : Well name
FLD                .         УЗЕНЬ                         : Field
LOC                .                                       : Location
CNTY               .                                       : County
STAT               .                                       : State
CTRY               .                                       : Country
SRVC               .                                       : Service Company
DATE               .         7/10/2004                     : Date
UWI                .                                       : Unique Well ID
Block              .         7                             : 
Category           .         Нефтяная                      : 
Condition          .         В работе                      : 
Date               .         08.06.2004                    : 
EREF               .m        91                            : 100.8
GRP                .         1111                          : Group name
Gorizont           .         15                            : 14
ISS                .         BKZ                           : Well surveys
Interpretator      .         Алпанова Н.К.                 : 
Kupol              .         основной                      : osnovnoi
Moii_15_vosst2     .         15_vosst2                     : 
Mud                .                                       : 
Mud_density        .                                       : 
Mud_resistivity    .                                       : 
Mud_density        .                                       : 
Mud_resistivity    .                                       : 
NGDU               .         НГДУ-2                        : 
ORIGINALWELLNAME   .         3759                          : 
Spud_date          .         2004                          : 1961
Spud_date          .         2004                          : 1961
TIME               .         13_33                         : LOG TIME
Viscosity          .                                       : 
X                  .m        42334.8                       : 46154
Y                  .m        84384.13                      : 85761.93
YEAR               .         2018                          : 
~Parameter Information Block
#_______________________________________________________________________________
#
#PARAMETER_NAME    .UNIT     VALUE                         : DESCRIPTION
#_______________________________________________________________________________
SET                .         LQC_KAZNIPI_Petrel            : 
TLFamily_CALI      .         Caliper                       : 
TLFamily_CILD      .         Conductivity                  : 
TLFamily_COLL      .         Net Reservoir Flag            : 
TLFamily_CSAT      .         Fluid Code                    : 
TLFamily_DEPT      .         Measured Depth                : 
TLFamily_GR        .         Russian Gamma Ray             : 
TLFamily_GZ1       .         Gradient 045                  : 
TLFamily_GZ2       .         Gradient 105                  : 
TLFamily_GZ3       .         Gradient 225                  : 
TLFamily_GZ4       .         Gradient 425                  : 
TLFamily_GZ5       .         Gradient 850                  : 
TLFamily_LLS       .         Lateral Log Resistivity       : 
TLFamily_MINV      .         Micro Gradient Resistivity    : 
TLFamily_MNOR      .         Micro Resistivity             : 
TLFamily_NGLD      .         Neutron Far                   : 
TLFamily_OGZ       .         Gradient Inverted 225         : 
TLFamily_PHIE      .         Effective Porosity            : 
TLFamily_PHIEN     .         Effective Porosity            : 
TLFamily_PHIT      .         Porosity                      : 
TLFamily_PRMB      .         Permeability                  : 
TLFamily_PRMB_DGR  .         Permeability                  : 
TLFamily_RT        .         Formation Resistivity         : 
TLFamily_SOIL_ARCHIE .         Oil Saturation                : 
TLFamily_SOIL_DW   .         Oil Saturation                : 
TLFamily_SP        .         Spontaneous Potential         : 
TLFamily_VSH_FIN   .         Shale Volume                  : 
TLFamily_VSH_GR    .         Shale Volume                  : 
TLFamily_VSH_SP    .         Shale Volume                  : 
~Curve Information
#_______________________________________________________________________________
#
#LOGNAME           .UNIT     LOG_ID                        : DESCRIPTION
#_______________________________________________________________________________
DEPT               .M                                      : Колонка глубины 
CALI               .м                                      : Каверномер 
CILD               .мСм/м                                  : Индукционный каротаж 
COLL               .unitless                               :  
CSAT               .unitless                               :  
GR                 .мкР/ч                                  : Гамма каротаж 
GZ1                .Ом·м                                   :  
GZ2                .Ом·м                                   :  
GZ3                .Ом·м                                   : Градиент-зонд  длиной 2.25м 
GZ4                .Ом·м                                   :  
GZ5                .Ом·м                                   :  
LLS                .Ом·м                                   : Боковой каротаж 
MINV               .Ом·м                                   : Микро-градиент зонд 
MNOR               .Ом·м                                   : Микро-потенциал зонд 
NGLD               .у.е.                                   : Показания зонда НГК-60 аппаратуры ДРСТ-3-90 
OGZ                .Ом·м                                   :  
PHIE               .м3/м3                                  : Описание 
PHIEN              .v/v                                    :  
PHIT               .м3/м3                                  : Описание 
PRMB               .mD                                     :  
PRMB_DGR           .mD                                     :  
RT                 .ohmm                                   : УЭС пласта 
SOIL_ARCHIE        .v/v                                    :  
SOIL_DW            .v/v                                    :  
SP                 .мВ                                     : Потенциал самополяризации 
VSH_FIN            .unitless                               : Описание 
VSH_GR             .unitless                               : Shale volume 
VSH_SP             .unitless                               : Shale Volume 
~Ascii
# ...
956.12     0.22       8587.986999999999 -9999      -9999      4.889365   1.721269   3.564889   2.957211017608643 2.663078   2.036157   2.291      1.216      2.739      1.258329033851624 3.041398048400879 0.1657045  0.1657045  0.3143483  3.284027   12.67535   2.235      0.2662739  0.4887397  95.43512   0.4504357  0.2300058  0.6708657 
956.22     0.217      8597.042   -9999      -9999      4.874567   1.859519   3.5734     2.880321025848389 2.624544   2.051119   2.278      1.13       2.9        1.263682007789612 3.034800052642822 0.1660915  0.1660915  0.313367   3.33868    12.93007   2.233      0.2674554  0.4879982  95.25578   0.4462896  0.2281447  0.6644345 
956.3200000000001 0.215      8601.275   -9999      -9999      4.859972   2.121521   3.499273   2.816476106643677 2.595993   2.077003   2.228      1.05       3.136      1.269845008850098 3.041958093643189 0.1666226  0.1666226  0.3122375  3.415171   13.18632   2.232      0.269336   0.4873921  95.02377   0.4412573  0.2263239  0.6561907 
956.42     0.213      8601.436   -9999      -9999      4.846034   2.002526   3.309788   2.719892978668213 2.57086    2.102144   2.167      0.938      2.926      1.276520013809204 3.095496892929077 0.1671995  0.1671995  0.311014   3.500242   13.43577   2.232      0.2715322  0.4868564  94.76236   0.4358015  0.2245985  0.6470045 
956.52     0.212      8598.093999999999 -9999      -9999      4.833361   1.637967   3.127712   2.666376113891602 2.573719   2.132656   2.194      0.866      2.485      1.283370018005371 3.198056936264038 0.1677442  0.1677442  0.3097583  3.582515   13.66668   2.232      0.273593   0.4862443  94.49297   0.4303457  0.2230412  0.6376501999999999
956.62     0.213      8592.385   -9999      -9999      4.82271    1.297754   3.106317   2.637367010116577 2.581492   2.15518    2.321      0.957      2.477      1.290022015571594 3.269334077835083 0.1682103  0.1682103  0.3085389  3.654433   13.86381   2.234      0.2756506  0.4857995  94.23315   0.4252384  0.2217407  0.6287361 
956.72     0.213      8586.255999999999 -9999      -9999      4.814902   1.264946   3.221261   2.615385055541992 2.612425   2.161202   2.509      1.153      2.994      1.296090960502625 3.333297967910767 0.1685832  0.1685832  0.3074265  3.713021   14.01013   2.235      0.2771982  0.4852317  93.99574   0.4207373  0.2207921  0.6206824 
956.8200000000001 0.213      8579.218000000001 -9999      -9999      4.810793   1.499675   3.337837   2.64055609703064 2.673272   2.192355   2.659      1.308      3.599      1.301213026046753 3.437098979949951 0.1688799  0.1688799  0.3064876  3.760313   14.08774   2.237      0.2786074  0.4848607  93.78754   0.4169931  0.2202947  0.6136914 
956.92     0.214      8570.374   -9999      -9999      4.811201   1.862305   3.380611   2.68856692314148 2.724281   2.218231   2.83       1.434      3.965      1.305088043212891 3.481760978698731 0.169138   0.169138   0.3057773  3.801928   14.08002   2.24       0.280019   0.4847894  93.60972   0.4140585  0.2203439  0.6077732 
957.02     0.214      8559.775   -9999      -9999      4.816839   2.046838   3.458414   2.777184963226318 2.776242   2.196231   3.058      1.592      4.139      1.307515978813171 3.426098108291626 0.1694062  0.1694062  0.3053324  3.845675   13.97368   2.242      0.2813131  0.4848851  93.45818   0.4118975  0.2210271  0.6027679 
957.12     0.216      8549.625   -9999      -9999      4.828191   2.151339   3.634278   2.857325077056885 2.848786   2.169068   3.248      1.752      4.249      1.308405041694641 3.315960884094238 0.1697371  0.1697371  0.3051694  3.900331   13.762     2.245      0.2829836  0.4854578  93.32484   0.4104009  0.222409   0.5983928 
957.22     0.218      8538.591   -9999      -9999      4.845503   2.240865   3.905131   2.899800062179565 2.889238   2.151816   3.282      1.749      4.259      1.307788014411926 3.223690986633301 0.1701775  0.1701775  0.3052825  3.974273   13.44536   2.248      0.2850479  0.4864409  93.1989    0.4094093  0.2245331  0.5942854 
957.3200000000001 0.221      8522.433000000001 -9999      -9999      4.868793   2.18513    4.00986    2.900394916534424 2.896028   2.123775   3.124      1.568      4.087      1.305820941925049 3.144769906997681 0.1707592  0.1707592  0.3056431  4.074112   13.03085   2.252      0.2877642  0.4879528  93.06841   0.4087389  0.2274226  0.5900551000000001
957.42     0.224      8498.27    -9999      -9999      4.897783   2.153842   3.969102   2.878305912017822 2.871428   2.091832   2.868      1.362      3.872      1.302775025367737 3.029294013977051 0.1714963  0.1714963  0.3062013  4.204214   12.53268   2.259      0.2914636  0.4901778  92.92149   0.4081971  0.2310714  0.5853229 
957.52     0.226      8466.768   -9999      -9999      4.931803   2.280274   3.935007   2.821726083755493 2.805001   2.060076   2.627      1.238      3.655      1.299018979072571 2.977798938751221 0.1723825  0.1723825  0.3068898  4.366174   11.97232   2.267      0.2958065  0.4928017  92.74773   0.4075978  0.2354279  0.5797678000000001
957.62     0.228      8434.008   -9999      -9999      4.969858   2.474608   3.912711   2.772751092910767 2.710467   2.03775    2.409      1.163      3.53       1.29499101638794 2.973400115966797 0.1733926  0.1733926  0.3076282  4.558367   11.37513   2.276      0.300682   0.4957053  92.53885   0.4067745  0.2403986  0.5731503 
957.72     0.228      8406.491   -9999      -9999      5.010732   2.465544   3.926058   2.725855112075806 2.660921   2.038844   2.284      1.09       3.445      1.291160941123962 2.980976104736328 0.1744848  0.1744848  0.3083301  4.775723   10.76684   2.283      0.3054975  0.4984181  92.28931   0.4055921  0.2458545  0.5653298 
957.8200000000001 0.228      8385.995000000001 -9999      -9999      5.053111   1.935548   3.922568   2.666590929031372 2.624291   2.019306   2.238      1.032      3.326      1.287989974021912 3.010579109191895 0.1756076  0.1756076  0.3089114  5.009991   10.17047   2.289      0.3102169  0.5009129  91.99612   0.4039509  0.251642   0.5562597 
957.92     0.228      8368.815000000001 -9999      -9999      5.095706   1.553796   3.879635   2.653199911117554 2.575937   2.017224   2.274      1.033      3.182      1.285881996154785 3.037785053253174 0.1767102  0.1767102  0.3092977  5.251211   9.604361000000001 2.294      0.3146689  0.5030655  91.65827   0.4017805  0.2575963  0.5459647 
958.02     0.227      8353.382   -9999      -9999      5.137364   1.784437   3.842125   2.655997037887573 2.5578     2.032256   2.354      1.077      3.164      1.285156965255737 3.067527055740356 0.177747   0.177747   0.3094307  5.488623   9.08117    2.298      0.3187091  0.5047756  91.27634   0.3990415  0.263556   0.534527  
958.12     0.225      8341.299000000001 -9999      -9999      5.177209   1.828678   3.864005   2.667589902877808 2.562234   2.030775   2.444      1.152      3.347      1.286016941070557 3.117364883422852 0.1786843  0.1786843  0.3092731  5.712487   8.607450999999999 2.301      0.322238   0.5059776  90.85182   0.3957235  0.2693852  0.5220618 
958.22     0.222      8335.960999999999 -9999      -9999      5.214634   1.67728    3.907623   2.684396028518677 2.583676   2.043401   2.516      1.231      3.642      1.288532972335815 3.155158042907715 0.1795027  0.1795027  0.3088118  5.915402   8.185034   2.303      0.3252053  0.5066432  90.38718   0.3918458  0.2749777  0.5087139000000001
958.3200000000001 0.22       8335.248   -9999      -9999      5.249293   1.843025   3.971378   2.700370073318481 2.621531   2.052139   2.559      1.291      3.87       1.292634963989258 3.202861070632935 0.1801983  0.1801983  0.3080599  6.093509   7.812354   2.303      0.3274744  0.5066769  89.886     0.3874595  0.2802603  0.4946587 
958.42     0.217      8337.665000000001 -9999      -9999      5.281039   2.002235   3.978384   2.739269971847534 2.657079   2.052636   2.579      1.318      4.002      1.298110961914063 3.267189025878906 0.1807831  0.1807831  0.3070562  6.247407   7.485895   2.302      0.3292329  0.5062365  89.35329   0.3826457  0.285188   0.4801034 
