~Version
 VERS              .         2.0                           : CWLS LOG ASCII STANDARD - VERSION 2.0
 WRAP              .         NO                            : ONE LINE PER DEPTH STEP
 DLM               .         SPACE                         : DELIMITING CHARACTER(SPACE TAB OR COMMA)
~Well Information
#_______________________________________________________________________________
#
#PARAMETER_NAME    .UNIT     VALUE                         : DESCRIPTION
#_______________________________________________________________________________
STRT               .M        880.02                        : First reference value
STOP               .M        1179.92                       : Last reference value
STEP               .M        0.1                           : Step increment
NULL               .         -9999                         : Missing value
COMP               .                                       : Company
WELL               .         3759                          : Well name
FLD                .         УЗЕНЬ                         : Field
LOC                .                                       : Location
CNTY               .                                       : County
STAT               .                                       : State
CTRY               .                                       : Country
SRVC               .                                       : Service Company
DATE               .         7/10/2004                     : Date
UWI                .                                       : Unique Well ID
Block              .         7                             : 
Category           .         Нефтяная                      : 
Condition          .         В работе                      : 
Date               .         08.06.2004                    : 
EREF               .m        91                            : 100.8
GRP                .         1111                          : Group name
Gorizont           .         15                            : 14
ISS                .         BKZ                           : Well surveys
Interpretator      .         Алпанова Н.К.                 : 
Kupol              .         основной                      : osnovnoi
Moii_15_vosst2     .         15_vosst2                     : 
Mud                .                                       : 
Mud_density        .                                       : 
Mud_resistivity    .                                       : 
Mud_density        .                                       : 
Mud_resistivity    .                                       : 
NGDU               .         НГДУ-2                        : 
ORIGINALWELLNAME   .         3759                          : 
Spud_date          .         2004                          : 1961
Spud_date          .         2004                          : 1961
TIME               .         13_33                         : LOG TIME
Viscosity          .                                       : 
X                  .m        42334.8                       : 46154
Y                  .m        84384.13                      : 85761.93
YEAR               .         2018                          : 
~Parameter Information Block
#_______________________________________________________________________________
#
#PARAMETER_NAME    .UNIT     VALUE                         : DESCRIPTION
#_______________________________________________________________________________
SET                .         LQC_KAZNIPI_Petrel            : 
TLFamily_CALI      .         Caliper                       : 
TLFamily_CILD      .         Conductivity                  : 
TLFamily_COLL      .         Net Reservoir Flag            : 
TLFamily_CSAT      .         Fluid Code                    : 
TLFamily_DEPT      .         Measured Depth                : 
TLFamily_GR        .         Russian Gamma Ray             : 
TLFamily_GZ1       .         Gradient 045                  : 
TLFamily_GZ2       .         Gradient 105                  : 
TLFamily_GZ3       .         Gradient 225                  : 
TLFamily_GZ4       .         Gradient 425                  : 
TLFamily_GZ5       .         Gradient 850                  : 
TLFamily_LLS       .         Lateral Log Resistivity       : 
TLFamily_MINV      .         Micro Gradient Resistivity    : 
TLFamily_MNOR      .         Micro Resistivity             : 
TLFamily_NGLD      .         Neutron Far                   : 
TLFamily_OGZ       .         Gradient Inverted 225         : 
TLFamily_PHIE      .         Effective Porosity            : 
TLFamily_PHIEN     .         Effective Porosity            : 
TLFamily_PHIT      .         Porosity                      : 
TLFamily_PRMB      .         Permeability                  : 
TLFamily_PRMB_DGR  .         Permeability                  : 
TLFamily_RT        .         Formation Resistivity         : 
TLFamily_SOIL_ARCHIE .         Oil Saturation                : 
TLFamily_SOIL_DW   .         Oil Saturation                : 
TLFamily_SP        .         Spontaneous Potential         : 
TLFamily_VSH_FIN   .         Shale Volume                  : 
TLFamily_VSH_GR    .         Shale Volume                  : 
TLFamily_VSH_SP    .         Shale Volume                  : 
~Curve Information
#_______________________________________________________________________________
#
#LOGNAME           .UNIT     LOG_ID                        : DESCRIPTION
#_______________________________________________________________________________
DEPT               .M                                      : Колонка глубины 
CALI               .м                                      : Каверномер 
CILD               .мСм/м                                  : Индукционный каротаж 
COLL               .unitless                               :  
CSAT               .unitless                               :  
GR                 .мкР/ч                                  : Гамма каротаж 
GZ1                .Ом·м                                   :  
GZ2                .Ом·м                                   :  
GZ3                .Ом·м                                   : Градиент-зонд  длиной 2.25м 
GZ4                .Ом·м                                   :  
GZ5                .Ом·м                                   :  
LLS                .Ом·м                                   : Боковой каротаж 
MINV               .Ом·м                                   : Микро-градиент зонд 
MNOR               .Ом·м                                   : Микро-потенциал зонд 
NGLD               .у.е.                                   : Показания зонда НГК-60 аппаратуры ДРСТ-3-90 
OGZ                .Ом·м                                   :  
PHIE               .м3/м3                                  : Описание 
PHIEN              .v/v                                    :  
PHIT               .м3/м3                                  : Описание 
PRMB               .mD                                     :  
PRMB_DGR           .mD                                     :  
RT                 .ohmm                                   : УЭС пласта 
SOIL_ARCHIE        .v/v                                    :  
SOIL_DW            .v/v                                    :  
SP                 .мВ                                     : Потенциал самополяризации 
VSH_FIN            .unitless                               : Описание 
VSH_GR             .unitless                               : Shale volume 
VSH_SP             .unitless                               : Shale Volume 
~Ascii
# ...
1113.12    0.211      3162.058   1          2          7.269397   4.991443   11.95402   9.443438529968262 8.625444   5.838662   5.89       1.562      2.608      1.111775   6.375403881072998 0.2783754  0.2783754  0.3412117  401.1864   24.03941   6.07       0.7077916  0.760668   52.53939   0.190413   0.1771075  0.2037184 
1113.22    0.211      3191.43    1          2          7.318499   4.873642   11.78887   9.574113845825195 8.562735   5.811419   5.728      1.57       2.667      1.108639   5.981529235839844 0.2784766  0.2784766  0.3417865  402.9208   22.4162    6.015      0.7066336  0.7598469  52.28621   0.1918482  0.1822362  0.2014603 
1113.32    0.21       3239.802   1          2          7.366547   4.774113   11.5913    9.676899909973145 8.536643   5.80872    5.668      1.582      2.71       1.105905   5.753559112548828 0.2785168  0.2785168  0.3422876  403.6133   20.93396   5.926      0.7046115  0.7582697  52.01529   0.1932447  0.1873987  0.1990908 
1113.42    0.209      3309.561   1          2          7.412695   4.599497   11.46836   9.813515663146973 8.536901   5.821457   5.684      1.588      2.704      1.103645   5.630276203155518 0.2784822  0.2784822  0.3427018  403.0181   19.60269   5.802      0.7016333  0.7558582  51.73799   0.1946048  0.1924946  0.1967149 
1113.52    0.208      3392.675   1          2          7.456444   4.465633   11.30817   10.04496002197266 8.597346   5.85715    5.759      1.587      2.66       1.101896   5.5170578956604 0.2783613  0.2783613  0.3430226  400.9447   18.41891   5.66       0.6980295  0.752903   51.46604   0.1959432  0.1974534  0.194433  
1113.62    0.207      3473.368   1          2          7.497703   4.4215     11.06524   10.211669921875 8.659849   5.888472   5.838      1.578      2.614      1.100649   5.341612815856934 0.2781444  0.2781444  0.343251   397.2528   17.36807   5.528      0.6944597  0.7499843  51.21135   0.1972928  0.2022471  0.1923386 
1113.72    0.207      3549.897   1          2          7.536699   4.414812   10.86285   10.3727502822876 8.695176   5.928263   5.892      1.567      2.585      1.099863   5.242760181427002 0.2778242  0.2778242  0.3433952  391.8647   16.43003   5.408      0.6909869  0.7471643  50.98545   0.1986999  0.2068847  0.1905151 
1113.82    0.208      3641.848   1          2          7.574045   4.40408    10.67676   10.66320037841797 8.720778   6.000801   5.947      1.555      2.566      1.099465   5.183266162872315 0.2773907  0.2773907  0.3434682  384.6862   15.57922   5.274      0.6869016  0.7438354  50.80022   0.2002347  0.2114258  0.1890436 
1113.92    0.209      3762.636   1          2          7.610713   4.437517   10.57136   10.93229007720947 8.746399   6.082942   5.995      1.551      2.538      1.09936    5.100573062896729 0.2768299  0.2768299  0.3434873  375.5952   14.78672   5.106      0.6815481  0.7394415  50.66751   0.201992   0.2159815  0.1880025 
1114.02    0.209      3910.727   1          2          7.647969   4.48832    10.53648   11.13199996948242 8.754897   6.164227   6.046      1.57       2.573      1.099441   5.064598083496094 0.2761228  0.2761228  0.3434724  364.4374   14.02281   4.913      0.6750146  0.73408    50.59893   0.2040896  0.2207106  0.1874686 
1114.12    0.209      4067.9     1          2          7.687218   4.490098   10.45185   11.33298015594482 8.767179   6.218101   6.097      1.602      2.676      1.099591   5.052597999572754 0.2752469  0.2752469  0.3434451  351.0745   13.26067   4.723      0.6680264  0.7284083  50.60516   0.2066609  0.2258048  0.187517  
1114.22    0.208      4224.927   1          2          7.729862   4.521512   10.38674   11.65108966827393 8.783532   6.274767   6.162      1.617      2.728      1.099694   5.035981178283691 0.2741766  0.2741766  0.3434262  335.4083   12.47949   4.547      0.6609085  0.7227389  50.69554   0.2098472  0.2314731  0.1882214 
1114.32    0.207      4360.112   1          2          7.777165   4.57896    10.39002   11.8492603302002 8.791798   6.360623   6.224      1.601      2.661      1.099635   4.999570846557617 0.2728861  0.2728861  0.343437   317.4466   11.66666   4.405      0.654405   0.7177511  50.87737   0.2137906  0.2379273  0.1896539 
1114.42    0.207      4473.616   1          2          7.830257   4.6233     10.42971   12.02122974395752 8.766158   6.422638   6.267      1.577      2.551      1.099312   4.961191177368164 0.271347   0.271347   0.3434961  297.2786   10.81726   4.292      0.6484371  0.7134079  51.15506   0.2186336  0.2453859  0.1918813 
1114.52    0.208      4594.448   1          2          7.889933   4.694827   10.53715   12.29654026031494 8.727804   6.447318   6.23       1.563      2.491      1.098644   4.935985088348389 0.2695314  0.2695314  0.3436186  275.1268   9.936131   4.18       0.6419602  0.7088345  51.52995   0.2245069  0.2540487  0.1949651 
1114.62    0.21       4740.144   1          2          7.956504   4.812446   10.6795    12.47155952453613 8.707      6.413225   6.11       1.552      2.465      1.097581   4.897514820098877 0.2674139  0.2674139  0.3438134  251.3688   9.037601   4.053      0.6342346  0.7034261  51.99947   0.231514   0.2640741  0.1989539 
1114.72    0.212      4906.173   1          2          8.029851   4.919878   10.78249   12.53380012512207 8.712957   6.289548   5.923      1.533      2.425      1.096116   4.826930046081543 0.2649711  0.2649711  0.3440819  226.4991   8.141401   3.915      0.6252569  0.6972204  52.55739   0.2397295  0.2755785  0.2038806 
1114.82    0.215      5060.479   1          2          8.109269   4.99413    10.91018   12.52058029174805 8.742424   6.050863   5.65       1.508      2.418      1.09429    4.760511875152588 0.2621863  0.2621863  0.3444167  201.1334   7.270951   3.795      0.6162269  0.6912846  53.19501   0.2491831  0.2886009  0.2097653 
1114.92    0.217      5185.612   1          2          8.193452   5.031203   11.07341   12.43924045562744 8.775499   5.78624    5.252      1.484      2.451      1.092175   4.668498039245606 0.2590606  0.2590606  0.3448043  176.0311   6.449663   3.703      0.6077054  0.686112   53.89857   0.2598293  0.3030771  0.2165813 
1115.02    0.218      5283.678   1          2          8.280653   5.001984   11.07145   12.24648952484131 8.747556   5.614217   4.714      1.466      2.471      1.089867   4.496207237243652 0.2556172  0.2556172  0.3452275  151.9878   5.696609   3.633      0.5995363  0.6815614  54.65078   0.2715462  0.3188385  0.224254  
1115.12    0.22       5380.356   1          2          8.368686   4.839057   10.95448   11.79685020446777 8.650118   5.413528   4.165      1.45       2.51       1.087476   4.326094150543213 0.2519075  0.2519075  0.3456657  129.7466   5.025527   3.568      0.590954   0.6769583  55.43144   0.2841158  0.3355817  0.2326499 
1115.22    0.221      5490.447   -9999      -9999      8.454881   4.587648   10.63419   10.83199977874756 8.371428   5.032819   3.717      1.415      2.576      1.08514    4.21091890335083 0.2480193  0.2480193  0.3460939  109.9202   4.445116   3.497      0.5814453000000001 0.6718262  56.21763   0.2971956  0.352827   0.2415643 
1115.32    0.222      5610.044   -9999      -9999      8.536314   4.307434   9.692553   9.732280731201172 7.78774    4.649849   3.329      1.325      2.57       1.083019   4.145309925079346 0.2440753  0.2440753  0.3464825  92.90187   3.958486   3.422      0.5712206  0.6662679  56.98458   0.3103251  0.369933   0.2507171 
1115.42    0.223      5714.561   -9999      -9999      8.609996   3.866848   8.469977   8.96788215637207 7.081681   4.403379   3.019      1.216      2.365      1.081278   4.113746166229248 0.2402304  0.2402304  0.3468017  78.85107000000001 3.56425    3.359      0.5614421000000001 0.6611289  57.70705   0.3229435  0.3861243  0.2597627 
1115.52    0.224      5795.149   -9999      -9999      8.673139   3.262944   7.747153   8.358936309814453 6.485169   4.156106   2.78       1.166      2.132      1.080074   4.234024047851563 0.2366595  0.2366595  0.3470224  67.71216   3.257797   3.312      0.5527368  0.6567587  58.36024   0.3344328  0.4005624  0.2683033 
