~Version
 VERS              .         2.0                           : CWLS LOG ASCII STANDARD - VERSION 2.0
 WRAP              .         NO                            : ONE LINE PER DEPTH STEP
 DLM               .         SPACE                         : DELIMITING CHARACTER(SPACE TAB OR COMMA)
~Well Information
#_______________________________________________________________________________
#
#PARAMETER_NAME    .UNIT     VALUE                         : DESCRIPTION
#_______________________________________________________________________________
STRT               .M        880.02                        : First reference value
STOP               .M        1179.92                       : Last reference value
STEP               .M        0.1                           : Step increment
NULL               .         -9999                         : Missing value
COMP               .                                       : Company
WELL               .         3759                          : Well name
FLD                .         УЗЕНЬ                         : Field
LOC                .                                       : Location
CNTY               .                                       : County
STAT               .                                       : State
CTRY               .                                       : Country
SRVC               .                                       : Service Company
DATE               .         7/10/2004                     : Date
UWI                .                                       : Unique Well ID
Block              .         7                             : 
Category           .         Нефтяная                      : 
Condition          .         В работе                      : 
Date               .         08.06.2004                    : 
EREF               .m        91                            : 100.8
GRP                .         1111                          : Group name
Gorizont           .         15                            : 14
ISS                .         BKZ                           : Well surveys
Interpretator      .         Алпанова Н.К.                 : 
Kupol              .         основной                      : osnovnoi
Moii_15_vosst2     .         15_vosst2                     : 
Mud                .                                       : 
Mud_density        .                                       : 
Mud_resistivity    .                                       : 
Mud_density        .                                       : 
Mud_resistivity    .                                       : 
NGDU               .         НГДУ-2                        : 
ORIGINALWELLNAME   .         3759                          : 
Spud_date          .         2004                          : 1961
Spud_date          .         2004                          : 1961
TIME               .         13_33                         : LOG TIME
Viscosity          .                                       : 
X                  .m        42334.8                       : 46154
Y                  .m        84384.13                      : 85761.93
YEAR               .         2018                          : 
~Parameter Information Block
#_______________________________________________________________________________
#
#PARAMETER_NAME    .UNIT     VALUE                         : DESCRIPTION
#_______________________________________________________________________________
SET                .         LQC_KAZNIPI_Petrel            : 
TLFamily_CALI      .         Caliper                       : 
TLFamily_CILD      .         Conductivity                  : 
TLFamily_COLL      .         Net Reservoir Flag            : 
TLFamily_CSAT      .         Fluid Code                    : 
TLFamily_DEPT      .         Measured Depth                : 
TLFamily_GR        .         Russian Gamma Ray             : 
TLFamily_GZ1       .         Gradient 045                  : 
TLFamily_GZ2       .         Gradient 105                  : 
TLFamily_GZ3       .         Gradient 225                  : 
TLFamily_GZ4       .         Gradient 425                  : 
TLFamily_GZ5       .         Gradient 850                  : 
TLFamily_LLS       .         Lateral Log Resistivity       : 
TLFamily_MINV      .         Micro Gradient Resistivity    : 
TLFamily_MNOR      .         Micro Resistivity             : 
TLFamily_NGLD      .         Neutron Far                   : 
TLFamily_OGZ       .         Gradient Inverted 225         : 
TLFamily_PHIE      .         Effective Porosity            : 
TLFamily_PHIEN     .         Effective Porosity            : 
TLFamily_PHIT      .         Porosity                      : 
TLFamily_PRMB      .         Permeability                  : 
TLFamily_PRMB_DGR  .         Permeability                  : 
TLFamily_RT        .         Formation Resistivity         : 
TLFamily_SOIL_ARCHIE .         Oil Saturation                : 
TLFamily_SOIL_DW   .         Oil Saturation                : 
TLFamily_SP        .         Spontaneous Potential         : 
TLFamily_VSH_FIN   .         Shale Volume                  : 
TLFamily_VSH_GR    .         Shale Volume                  : 
TLFamily_VSH_SP    .         Shale Volume                  : 
~Curve Information
#_______________________________________________________________________________
#
#LOGNAME           .UNIT     LOG_ID                        : DESCRIPTION
#_______________________________________________________________________________
DEPT               .M                                      : Колонка глубины 
CALI               .м                                      : Каверномер 
CILD               .мСм/м                                  : Индукционный каротаж 
COLL               .unitless                               :  
CSAT               .unitless                               :  
GR                 .мкР/ч                                  : Гамма каротаж 
GZ1                .Ом·м                                   :  
GZ2                .Ом·м                                   :  
GZ3                .Ом·м                                   : Градиент-зонд  длиной 2.25м 
GZ4                .Ом·м                                   :  
GZ5                .Ом·м                                   :  
LLS                .Ом·м                                   : Боковой каротаж 
MINV               .Ом·м                                   : Микро-градиент зонд 
MNOR               .Ом·м                                   : Микро-потенциал зонд 
NGLD               .у.е.                                   : Показания зонда НГК-60 аппаратуры ДРСТ-3-90 
OGZ                .Ом·м                                   :  
PHIE               .м3/м3                                  : Описание 
PHIEN              .v/v                                    :  
PHIT               .м3/м3                                  : Описание 
PRMB               .mD                                     :  
PRMB_DGR           .mD                                     :  
RT                 .ohmm                                   : УЭС пласта 
SOIL_ARCHIE        .v/v                                    :  
SOIL_DW            .v/v                                    :  
SP                 .мВ                                     : Потенциал самополяризации 
VSH_FIN            .unitless                               : Описание 
VSH_GR             .unitless                               : Shale volume 
VSH_SP             .unitless                               : Shale Volume 
~Ascii
# ...
1130.62    0.217      5427.125   -9999      -9999      8.309462   2.502464   5.151163   5.01668119430542 3.123674   2.176198   2.954      1.191      2.157      1.085221   6.114595890045166 0.2534381  0.2534381  0.346079   138.4987   5.467677   3.537      0.5914367  0.6765859  55.84108   0.28073    0.3242236  0.2372364 
1130.72    0.217      5401.463   -9999      -9999      8.243797   2.41306    4.851849   4.938563823699951 3.151146   2.211491   2.927      1.177      2.081      1.098084   6.08895206451416 0.2529652  0.2529652  0.3437211  135.7338   6.003522   3.554      0.5916915  0.6758162  55.90437   0.2750178  0.3120793  0.2379563 
1130.82    0.217      5363.906   1          2          8.15918    2.3684     4.707352   4.884490013122559 3.213334   2.238414   2.934      1.193      2.074      1.113903   6.018432140350342 0.2523923  0.2523923  0.3408216  132.4574   6.772189   3.579      0.5922279  0.6750405  55.98143   0.2679675  0.297098   0.2388369 
1130.92    0.217      5316.518   1          2          8.057952   2.380514   4.66649    4.814189910888672 3.337157   2.286613   3.006      1.231      2.138      1.13261    5.908660888671875 0.2515905  0.2515905  0.3373926  128.0044   7.822097   3.611      0.5928007  0.674136   56.07348   0.2600062  0.2801177  0.2398948 
1131.02    0.218      5263.863   1          2          7.943042   2.42467    4.673386   4.793600082397461 3.462697   2.390422   3.165      1.267      2.209      1.154052   5.818570137023926 0.2504409  0.2504409  0.3334623  121.8796   9.212495000000001 3.647      0.593072   0.6729     56.18151   0.2515799  0.2620154  0.2411445 
1131.12    0.218      5216.034   1          2          7.817804   2.530873   4.76385    4.783792972564697 3.538388   2.525843   3.366      1.283      2.255      1.177982   5.769152164459229 0.2488503  0.2488503  0.3290759  113.8855   11.01077   3.68       0.5925335000000001 0.6709729  56.30641   0.2431081  0.2436157  0.2426005 
1131.22    0.219      5175.387   1          2          7.685909   2.655555   4.809718   4.7569580078125 3.611853   2.659081   3.517      1.268      2.248      1.204062   5.72977876663208 0.2467602  0.2467602  0.3242954  104.1731   13.2854    3.709      0.5910385  0.6682896  56.44899   0.2349552  0.2256331  0.2442772 
1131.32    0.22       5133.617   1          2          7.551099   2.695959   4.782124   4.700485229492188 3.736856   2.747124   3.535      1.24       2.205      1.231864   5.789907932281494 0.2441552  0.2441552  0.3191994  93.21912   16.09661   3.739      0.5887982000000001 0.6650804  56.60995   0.2274066  0.208624   0.2461891 
1131.42    0.221      5086.419   1          2          7.416914   2.705276   4.710362   4.625157833099365 3.876635   2.8485     3.457      1.226      2.157      1.260863   5.98377799987793 0.2410669  0.2410669  0.3138837  81.71503   19.48529   3.774      0.5860279000000001 0.6615667  56.78961   0.2206571  0.1929673  0.2483468 
1131.52    0.222      5037.161   1          2          7.286586   2.675944   4.627881   4.595560073852539 4.04194    3.034964   3.385      1.242      2.133      1.290455   6.388344764709473 0.2375691  0.2375691  0.3084597  70.3905    23.45824   3.811      0.5826395  0.6576948  56.98757   0.2148199  0.1788862  0.2507537 
1131.62    0.223      4997.222   1          2          7.16297    2.582584   4.573531   4.652059078216553 4.185744   3.234175   3.431      1.299      2.145      1.319971   6.795580863952637 0.2337691  0.2337691  0.3030493  59.8589    27.97259   3.841      0.5782914  0.6531749  57.20227   0.20994    0.1664811  0.2533989 
1131.72    0.223      4969.211   1          2          7.048434   2.455668   4.564592   4.749348163604736 4.406917   3.41046    3.769      1.401      2.208      1.348707   6.980400085449219 0.2298006  0.2298006  0.2977819  50.53847   32.92728   3.863      0.5731012  0.6481072  57.43059   0.2060041  0.1557562  0.2562521 
1131.82    0.224      4951.677   1          2          6.944721   2.417937   4.691246   4.908853054046631 4.828846   3.514803   4.42       1.533      2.341      1.375945   6.954036235809326 0.2258154  0.2258154  0.2927893  42.63904   38.16684   3.876      0.5672299  0.6426198  57.66777   0.2029511  0.1466422  0.2592601 
1131.92    0.225      4940.177   1          2          6.853001   2.514615   5.075685   5.228175163269043 5.30043    3.612101   5.4        1.644      2.491      1.40098    6.786273002624512 0.2219741  0.2219741  0.2882003  36.19568   43.49117   3.885      0.5611922  0.6371437  57.90728   0.2006856  0.1390274  0.2623438 
1132.02    0.226      4933.503   1          2          6.773872   2.828041   5.757542   5.55602502822876 5.719059   3.762484   7.089      1.703      2.606      1.423155   6.43728494644165 0.2184368  0.2184368  0.2841358  31.12705   48.67776   3.891      0.5553319  0.6319507  58.14109   0.1990877  0.1327764  0.265399  
1132.12    0.227      4933.957   1          2          6.707406   3.519868   6.548882   5.785009860992432 5.955862   3.870275   9.456      1.72       2.672      1.441885   6.134507179260254 0.2153555  0.2153555  0.2807025  27.29383   53.50935   3.89       0.5497414000000001 0.6270818  58.35991   0.1980212  0.1277435  0.2682989 
1132.22    0.227      4944.329   6          6          6.653182   4.496473   7.130857   6.039394855499268 6.170153   3.921336   11.873     1.724      2.704      1.456691   5.853385925292969 0.2128669  0.2128669  0.2779886  24.54538   57.80414   3.882      0.5447206  0.6227526  58.55351   0.1973384  0.1237792  0.2708976 
1132.32    0.228      4959.935   6          6          6.610362   5.542716   7.824879   6.462255001068115 6.526998   3.936068   13.326     1.716      2.695      1.46722    5.41468620300293 0.2110854  0.2110854  0.2760585  22.74949   61.43789   3.87       0.540709   0.619298   58.71147   0.1968883  0.1207358  0.2730409 
1132.42    0.228      4979.696   6          6          6.577819   6.177571   9.161777   6.749897003173828 6.804263   3.933439   13.608     1.688      2.628      1.473256   5.143282890319824 0.2100985  0.2100985  0.2749521  21.81179   64.35162   3.855      0.5379893  0.6169159  58.82394   0.1965263  0.1184729  0.2745796 
1132.52    0.228      5009.32    6          6          6.554203   6.672854   10.52964   7.001080989837647 6.94282    3.873363   12.865     1.655      2.572      1.474722   4.918231964111328 0.2099639  0.2099639  0.2746834  21.68694   66.55219   3.832      0.5364314  0.6154462  58.88228   0.1961197  0.1168574  0.275382  
1132.62    0.228      5054.251   6          6          6.537985   7.398415   11.46787   7.412592887878418 7.04165    3.78062    11.35      1.626      2.584      1.471687   4.541933059692383 0.2107068  0.2107068  0.2752397  22.38509   68.10678   3.798      0.5359185  0.6147524  58.87981   0.1955544  0.1157608  0.275348  
1132.72    0.228      5116.547   6          6          6.527539   7.825946   12.53444   7.681676864624023 7.13956    3.705974   9.515      1.574      2.624      1.464354   4.247684955596924 0.2123202  0.2123202  0.2765839  23.97965   69.12732   3.752      0.5363477  0.6147258  58.81211   0.1947386  0.1150599  0.2744174 
1132.82    0.228      5193.172   6          6          6.521266   7.962941   14.37316   7.758974075317383 7.066373   3.601601   7.964      1.481      2.584      1.453038   4.068687915802002 0.2147671  0.2147671  0.2786582  26.61743   69.74747000000001 3.697      0.5377598  0.6154016  58.67746   0.1936093  0.114641   0.2725776 
1132.92    0.229      5279.535   1          2          6.517703   7.760111   15.5087    7.679802894592285 6.869864   3.407871   6.695      1.376      2.466      1.43815    3.907099008560181 0.2179824  0.2179824  0.2813872  30.52953   70.10227999999999 3.636      0.5401273  0.6167711  58.47707   0.1921358  0.1144037  0.2698678 
1133.02    0.229      5360.812   1          2          6.51551    7.060881   15.33348   7.451996803283691 6.684135   3.182633   5.544      1.303      2.355      1.420172   3.60479211807251 0.2218785  0.2218785  0.2846824  36.04841   70.32151   3.581      0.543918   0.619279   58.21482   0.1903148  0.114258   0.2663717 
