~Version
 VERS              .         2.0                           : CWLS LOG ASCII STANDARD - VERSION 2.0
 WRAP              .         NO                            : ONE LINE PER DEPTH STEP
 DLM               .         SPACE                         : DELIMITING CHARACTER(SPACE TAB OR COMMA)
~Well Information
#_______________________________________________________________________________
#
#PARAMETER_NAME    .UNIT     VALUE                         : DESCRIPTION
#_______________________________________________________________________________
STRT               .M        880.02                        : First reference value
STOP               .M        1179.92                       : Last reference value
STEP               .M        0.1                           : Step increment
NULL               .         -9999                         : Missing value
COMP               .                                       : Company
WELL               .         3759                          : Well name
FLD                .         УЗЕНЬ                         : Field
LOC                .                                       : Location
CNTY               .                                       : County
STAT               .                                       : State
CTRY               .                                       : Country
SRVC               .                                       : Service Company
DATE               .         7/10/2004                     : Date
UWI                .                                       : Unique Well ID
Block              .         7                             : 
Category           .         Нефтяная                      : 
Condition          .         В работе                      : 
Date               .         08.06.2004                    : 
EREF               .m        91                            : 100.8
GRP                .         1111                          : Group name
Gorizont           .         15                            : 14
ISS                .         BKZ                           : Well surveys
Interpretator      .         Алпанова Н.К.                 : 
Kupol              .         основной                      : osnovnoi
Moii_15_vosst2     .         15_vosst2                     : 
Mud                .                                       : 
Mud_density        .                                       : 
Mud_resistivity    .                                       : 
Mud_density        .                                       : 
Mud_resistivity    .                                       : 
NGDU               .         НГДУ-2                        : 
ORIGINALWELLNAME   .         3759                          : 
Spud_date          .         2004                          : 1961
Spud_date          .         2004                          : 1961
TIME               .         13_33                         : LOG TIME
Viscosity          .                                       : 
X                  .m        42334.8                       : 46154
Y                  .m        84384.13                      : 85761.93
YEAR               .         2018                          : 
~Parameter Information Block
#_______________________________________________________________________________
#
#PARAMETER_NAME    .UNIT     VALUE                         : DESCRIPTION
#_______________________________________________________________________________
SET                .         LQC_KAZNIPI_Petrel            : 
TLFamily_CALI      .         Caliper                       : 
TLFamily_CILD      .         Conductivity                  : 
TLFamily_COLL      .         Net Reservoir Flag            : 
TLFamily_CSAT      .         Fluid Code                    : 
TLFamily_DEPT      .         Measured Depth                : 
TLFamily_GR        .         Russian Gamma Ray             : 
TLFamily_GZ1       .         Gradient 045                  : 
TLFamily_GZ2       .         Gradient 105                  : 
TLFamily_GZ3       .         Gradient 225                  : 
TLFamily_GZ4       .         Gradient 425                  : 
TLFamily_GZ5       .         Gradient 850                  : 
TLFamily_LLS       .         Lateral Log Resistivity       : 
TLFamily_MINV      .         Micro Gradient Resistivity    : 
TLFamily_MNOR      .         Micro Resistivity             : 
TLFamily_NGLD      .         Neutron Far                   : 
TLFamily_OGZ       .         Gradient Inverted 225         : 
TLFamily_PHIE      .         Effective Porosity            : 
TLFamily_PHIEN     .         Effective Porosity            : 
TLFamily_PHIT      .         Porosity                      : 
TLFamily_PRMB      .         Permeability                  : 
TLFamily_PRMB_DGR  .         Permeability                  : 
TLFamily_RT        .         Formation Resistivity         : 
TLFamily_SOIL_ARCHIE .         Oil Saturation                : 
TLFamily_SOIL_DW   .         Oil Saturation                : 
TLFamily_SP        .         Spontaneous Potential         : 
TLFamily_VSH_FIN   .         Shale Volume                  : 
TLFamily_VSH_GR    .         Shale Volume                  : 
TLFamily_VSH_SP    .         Shale Volume                  : 
~Curve Information
#_______________________________________________________________________________
#
#LOGNAME           .UNIT     LOG_ID                        : DESCRIPTION
#_______________________________________________________________________________
DEPT               .M                                      : Колонка глубины 
CALI               .м                                      : Каверномер 
CILD               .мСм/м                                  : Индукционный каротаж 
COLL               .unitless                               :  
CSAT               .unitless                               :  
GR                 .мкР/ч                                  : Гамма каротаж 
GZ1                .Ом·м                                   :  
GZ2                .Ом·м                                   :  
GZ3                .Ом·м                                   : Градиент-зонд  длиной 2.25м 
GZ4                .Ом·м                                   :  
GZ5                .Ом·м                                   :  
LLS                .Ом·м                                   : Боковой каротаж 
MINV               .Ом·м                                   : Микро-градиент зонд 
MNOR               .Ом·м                                   : Микро-потенциал зонд 
NGLD               .у.е.                                   : Показания зонда НГК-60 аппаратуры ДРСТ-3-90 
OGZ                .Ом·м                                   :  
PHIE               .м3/м3                                  : Описание 
PHIEN              .v/v                                    :  
PHIT               .м3/м3                                  : Описание 
PRMB               .mD                                     :  
PRMB_DGR           .mD                                     :  
RT                 .ohmm                                   : УЭС пласта 
SOIL_ARCHIE        .v/v                                    :  
SOIL_DW            .v/v                                    :  
SP                 .мВ                                     : Потенциал самополяризации 
VSH_FIN            .unitless                               : Описание 
VSH_GR             .unitless                               : Shale volume 
VSH_SP             .unitless                               : Shale Volume 
~Ascii
# ...
1053.12    0.293      10782.945  -9999      -9999      7.739287   1.178766   2.384246   1.644736051559448 1.514879   1.347944   1.713      0.934      2.972      1.17793    2.637841939926148 0.1766258  0.1766258  0.3290854  5.232339   2.142601   1.78       0.2277081  0.456594   82.87565   0.4619989  0.4753132  0.4486845 
1053.22    0.289      10727.118  -9999      -9999      7.681018   1.08608    2.326882   1.610766053199768 1.519673   1.385309   1.719      0.929      2.946      1.194418   2.768104076385498 0.1749008  0.1749008  0.3260631  4.861216   2.281652   1.789      0.2229197  0.4528127  83.04024   0.4580677  0.4632644  0.452871  
1053.32    0.285      10658      -9999      -9999      7.618529   1.027102   2.267107   1.593186974525452 1.563242   1.447976   1.749      0.961      2.923      1.21094    2.868361949920654 0.1734725  0.1734725  0.3230347  4.57393    2.440822   1.801      0.2198016  0.4497692  83.15282   0.4532188  0.4506821  0.4557556 
1053.42    0.279      10586.078  -9999      -9999      7.554098   1.005515   2.224297   1.639750957489014 1.672401   1.50509    1.846      1.109      3.209      1.226966   2.984985113143921 0.172412   0.172412   0.3200971  4.371666   2.616573   1.813      0.2180642  0.4472093  83.201     0.4475307  0.4380663  0.4569951 
1053.52    0.274      10521.341  -9999      -9999      7.490247   1.108256   2.327266   1.814586043357849 1.821129   1.539156   2.101      1.409      3.884      1.24199    3.191715002059937 0.1717663  0.1717663  0.3173433  4.252908   2.803223   1.824      0.2177282  0.4451579  83.1768    0.4411425  0.4259127  0.4563722 
1053.62    0.269      10463.4    -9999      -9999      7.429603   1.405556   2.521421   1.967131018638611 1.932488   1.554819   2.503      1.768      4.556      1.255573   3.330188989639282 0.17155    0.17155    0.3148534  4.213865   2.992809   1.834      0.2188762  0.4437398  83.07749   0.4342528  0.414682   0.4538236 
1053.72    0.265      10396.902  -9999      -9999      7.374649   1.695309   2.840985   2.069282054901123 2.032539   1.579134   2.954      1.991      4.923      1.267389   3.331455945968628 0.1717435  0.1717435  0.3126875  4.248789   3.17566    1.846      0.2220274  0.4434656  82.90565   0.427103   0.4047609  0.4494451 
1053.82    0.263      10312.063  -9999      -9999      7.327415   2.074851   3.300502   2.246028900146484 2.1415     1.583297   3.311      1.936      4.94       1.277255   3.233598947525024 0.1722946  0.1722946  0.3108791  4.349823   3.341726   1.861      0.2271355  0.4444573  82.66914   0.4199531  0.3964235  0.4434828 
1053.92    0.263      10214.943  -9999      -9999      7.289252   2.467745   3.422963   2.344180107116699 2.141815   1.561173   3.313      1.698      4.671      1.285142   3.064100980758667 0.1731254  0.1731254  0.3094335  4.506728   3.482225   1.879      0.2338356  0.4466088  82.38007   0.4130546  0.3898126  0.4362965 
1054.02    0.265      10131.501  -9999      -9999      7.260684   2.453699   3.337716   2.310622930526733 2.099127   1.506618   2.979      1.438      4.239      1.291178   2.93718695640564 0.1741399  0.1741399  0.308327   4.705996   3.591251   1.895      0.2407514  0.4490246  82.05389   0.4066277  0.3849363  0.4283192 
1054.12    0.269      10062.258  -9999      -9999      7.241362   2.391756   3.282729   2.230307102203369 2.00988    1.427429   2.479      1.259      3.721      1.295637   2.833842039108276 0.1752324  0.1752324  0.3075097  4.930448   3.666919   1.908      0.2472944  0.4513803  81.70786   0.4008403  0.3816727  0.420008  
1054.22    0.274      9990.114   -9999      -9999      7.230205   2.257633   3.188012   2.117407083511353 1.882171   1.379822   2.143      1.136      3.388      1.298915   2.690035104751587 0.1762953  0.1762953  0.306909   5.159115   3.711336   1.921      0.2536308  0.4539025  81.3595    0.3957989  0.3798009  0.411797  
1054.32    0.279      9905.005999999999 -9999      -9999      7.225584   2.004792   3.130717   2.034192085266113 1.807739   1.362197   1.991      1.027      3.186      1.301485   2.625778913497925 0.1772276  0.1772276  0.3064378  5.368383   3.729889   1.938      0.2601168  0.4569355  81.02524   0.3915461  0.3790283  0.404064  
1054.42    0.283      9810.688   -9999      -9999      7.225545   1.767494   3.11885    2.012083053588867 1.782258   1.355935   1.919      0.958      3.051      1.303844   2.607196092605591 0.1779444  0.1779444  0.3060053  5.535029   3.730045   1.957      0.266081   0.4599838  80.71907   0.3880634  0.3790218  0.397105  
1054.52    0.286      9727.151   -9999      -9999      7.228017   1.630189   3.09771    1.955414056777954 1.772201   1.359584   1.883      0.951      3.032      1.306461   2.620584011077881 0.178383   0.178383   0.3055257  5.639535   3.720107   1.973      0.2704457  0.4621956  80.45185   0.3852811  0.379435   0.3911273 
1054.62    0.286      9663.499   -9999      -9999      7.231117   1.512405   3.102408   1.901600003242493 1.76244    1.378654   1.899      1.016      3.202      1.309717   2.641993045806885 0.1785056  0.1785056  0.3049288  5.669106   3.707683   1.986      0.2731258  0.4634735  80.23071   0.3831007  0.3799536  0.3862477 
1054.72    0.284      9620.055   -9999      -9999      7.233361   1.405776   3.1606     1.903586983680725 1.771448   1.392673   1.968      1.119      3.564      1.313888   2.65519905090332 0.1782985  0.1782985  0.3041643  5.619268   3.698714   1.995      0.2739329  0.4636277  80.05867   0.3814114  0.3803295  0.3824932 
1054.82    0.282      9587.709999999999 -9999      -9999      7.233696   1.403418   3.203417   1.924160003662109 1.787456   1.41111    2.078      1.211      3.933      1.319093   2.662195920944214 0.1777782  0.1777782  0.3032103  5.495943   3.697376   2.002      0.2732779  0.4629284  79.93462   0.3800972  0.3803857  0.3798088 
1054.92    0.28       9562.451999999999 -9999      -9999      7.231693   1.429543   3.20952    1.945788979530335 1.80174    1.443139   2.196      1.274      4.108      1.325282   2.673594951629639 0.1769862  0.1769862  0.3020758  5.313403   3.705379   2.007      0.2712999  0.4614297  79.85374   0.3790593  0.3800501  0.3780685 
1055.02    0.278      9545.955   -9999      -9999      7.22761    1.52389    3.170124   1.940343976020813 1.833798   1.467146   2.268      1.292      4.072      1.332241   2.689577102661133 0.1759848  0.1759848  0.3008003  5.091242   3.721743   2.011      0.2683735  0.459374   79.80812   0.3782287  0.3793668  0.3770906 
1055.12    0.276      9542.58    -9999      -9999      7.22237    1.634181   3.0617     1.985551953315735 1.883946   1.47414    2.285      1.286      3.88       1.339618   2.715590000152588 0.1748488  0.1748488  0.299448   4.850449   3.742848   2.011      0.2642352  0.4565069  79.78774   0.3775732  0.3784919  0.3766546 
1055.22    0.273      9547.023999999999 -9999      -9999      7.217416   1.681218   3.010153   2.058511018753052 1.928734   1.47204    2.302      1.303      3.688      1.346963   2.732395887374878 0.1736623  0.1736623  0.2981018  4.611111   3.762909   2.011      0.2598591  0.4535525  79.78106   0.3770891  0.3776666  0.3765117 
1055.32    0.271      9557.284   -9999      -9999      7.214655   1.746688   3.115173   2.102570056915283 1.963563   1.472319   2.416      1.379      3.534      1.353748   2.735368013381958 0.1725133  0.1725133  0.296858   4.390597   3.774136   2.008      0.2550458  0.4503168  79.77567   0.376802   0.3772075  0.3763965 
1055.42    0.269      9572.960999999999 -9999      -9999      7.216352   1.897472   3.300766   2.142316102981567 2.008736   1.4749     2.615      1.472      3.625      1.359427   2.701154947280884 0.1714859  0.1714859  0.2958171  4.202357   3.767236   2.005      0.2506344  0.4474305  79.75865   0.3767612  0.3774895  0.3760329 
1055.52    0.267      9594.275   -9999      -9999      7.224847   2.071835   3.435251   2.233033895492554 2.03029    1.472698   2.754      1.513      3.894      1.363484   2.650311946868897 0.170654   0.170654   0.2950734  4.055869   3.732854   2.001      0.2467482  0.4449679  79.71734   0.3770286  0.3789053  0.375152  
