~Version
 VERS              .         2.0                           : CWLS LOG ASCII STANDARD - VERSION 2.0
 WRAP              .         NO                            : ONE LINE PER DEPTH STEP
 DLM               .         SPACE                         : DELIMITING CHARACTER(SPACE TAB OR COMMA)
~Well Information
#_______________________________________________________________________________
#
#PARAMETER_NAME    .UNIT     VALUE                         : DESCRIPTION
#_______________________________________________________________________________
STRT               .M        880.02                        : First reference value
STOP               .M        1179.92                       : Last reference value
STEP               .M        0.1                           : Step increment
NULL               .         -9999                         : Missing value
COMP               .                                       : Company
WELL               .         3759                          : Well name
FLD                .         УЗЕНЬ                         : Field
LOC                .                                       : Location
CNTY               .                                       : County
STAT               .                                       : State
CTRY               .                                       : Country
SRVC               .                                       : Service Company
DATE               .         7/10/2004                     : Date
UWI                .                                       : Unique Well ID
Block              .         7                             : 
Category           .         Нефтяная                      : 
Condition          .         В работе                      : 
Date               .         08.06.2004                    : 
EREF               .m        91                            : 100.8
GRP                .         1111                          : Group name
Gorizont           .         15                            : 14
ISS                .         BKZ                           : Well surveys
Interpretator      .         Алпанова Н.К.                 : 
Kupol              .         основной                      : osnovnoi
Moii_15_vosst2     .         15_vosst2                     : 
Mud                .                                       : 
Mud_density        .                                       : 
Mud_resistivity    .                                       : 
Mud_density        .                                       : 
Mud_resistivity    .                                       : 
NGDU               .         НГДУ-2                        : 
ORIGINALWELLNAME   .         3759                          : 
Spud_date          .         2004                          : 1961
Spud_date          .         2004                          : 1961
TIME               .         13_33                         : LOG TIME
Viscosity          .                                       : 
X                  .m        42334.8                       : 46154
Y                  .m        84384.13                      : 85761.93
YEAR               .         2018                          : 
~Parameter Information Block
#_______________________________________________________________________________
#
#PARAMETER_NAME    .UNIT     VALUE                         : DESCRIPTION
#_______________________________________________________________________________
SET                .         LQC_KAZNIPI_Petrel            : 
TLFamily_CALI      .         Caliper                       : 
TLFamily_CILD      .         Conductivity                  : 
TLFamily_COLL      .         Net Reservoir Flag            : 
TLFamily_CSAT      .         Fluid Code                    : 
TLFamily_DEPT      .         Measured Depth                : 
TLFamily_GR        .         Russian Gamma Ray             : 
TLFamily_GZ1       .         Gradient 045                  : 
TLFamily_GZ2       .         Gradient 105                  : 
TLFamily_GZ3       .         Gradient 225                  : 
TLFamily_GZ4       .         Gradient 425                  : 
TLFamily_GZ5       .         Gradient 850                  : 
TLFamily_LLS       .         Lateral Log Resistivity       : 
TLFamily_MINV      .         Micro Gradient Resistivity    : 
TLFamily_MNOR      .         Micro Resistivity             : 
TLFamily_NGLD      .         Neutron Far                   : 
TLFamily_OGZ       .         Gradient Inverted 225         : 
TLFamily_PHIE      .         Effective Porosity            : 
TLFamily_PHIEN     .         Effective Porosity            : 
TLFamily_PHIT      .         Porosity                      : 
TLFamily_PRMB      .         Permeability                  : 
TLFamily_PRMB_DGR  .         Permeability                  : 
TLFamily_RT        .         Formation Resistivity         : 
TLFamily_SOIL_ARCHIE .         Oil Saturation                : 
TLFamily_SOIL_DW   .         Oil Saturation                : 
TLFamily_SP        .         Spontaneous Potential         : 
TLFamily_VSH_FIN   .         Shale Volume                  : 
TLFamily_VSH_GR    .         Shale Volume                  : 
TLFamily_VSH_SP    .         Shale Volume                  : 
~Curve Information
#_______________________________________________________________________________
#
#LOGNAME           .UNIT     LOG_ID                        : DESCRIPTION
#_______________________________________________________________________________
DEPT               .M                                      : Колонка глубины 
CALI               .м                                      : Каверномер 
CILD               .мСм/м                                  : Индукционный каротаж 
COLL               .unitless                               :  
CSAT               .unitless                               :  
GR                 .мкР/ч                                  : Гамма каротаж 
GZ1                .Ом·м                                   :  
GZ2                .Ом·м                                   :  
GZ3                .Ом·м                                   : Градиент-зонд  длиной 2.25м 
GZ4                .Ом·м                                   :  
GZ5                .Ом·м                                   :  
LLS                .Ом·м                                   : Боковой каротаж 
MINV               .Ом·м                                   : Микро-градиент зонд 
MNOR               .Ом·м                                   : Микро-потенциал зонд 
NGLD               .у.е.                                   : Показания зонда НГК-60 аппаратуры ДРСТ-3-90 
OGZ                .Ом·м                                   :  
PHIE               .м3/м3                                  : Описание 
PHIEN              .v/v                                    :  
PHIT               .м3/м3                                  : Описание 
PRMB               .mD                                     :  
PRMB_DGR           .mD                                     :  
RT                 .ohmm                                   : УЭС пласта 
SOIL_ARCHIE        .v/v                                    :  
SOIL_DW            .v/v                                    :  
SP                 .мВ                                     : Потенциал самополяризации 
VSH_FIN            .unitless                               : Описание 
VSH_GR             .unitless                               : Shale volume 
VSH_SP             .unitless                               : Shale Volume 
~Ascii
# ...
1171.92    -9999      12837.699  -9999      -9999      8.877486   1.730721   4.328836   -9999      -9999      -9999      2.011      0.99       1.89       1.140949   -9999      0.2055718  0.2055718  0.335864   17.98234   3.374967   2.011      0.3698756  0.5309855  -9999      0.394825   0.3948245  -9999     
1172.02    -9999      12858.154  -9999      -9999      8.913292   1.737511   4.332298   -9999      -9999      -9999      2.009      0.99       1.889      1.135288   -9999      0.2042562  0.2042562  0.3369017  17.00115   3.230195   2.009      0.3660463  0.5303991  -9999      0.401956   0.4019565  -9999     
1172.12    -9999      12875.627  -9999      -9999      8.947171   1.720977   4.3255     -9999      -9999      -9999      2.008      0.99       1.889      1.129532   -9999      0.2030452  0.2030452  0.3379568  16.14536   3.098935   2.008      0.3626056  0.5300336  -9999      0.408823   0.4088234  -9999     
1172.22    -9999      12895.125  -9999      -9999      8.977387   1.745597   4.326697   -9999      -9999      -9999      2.007      0.991      1.889      1.123905   -9999      0.2020227  0.2020227  0.3389882  15.45644   2.986374   2.007      0.3596473  0.5298181  -9999      0.415047   0.4150467  -9999     
1172.32    -9999      12917.63   -9999      -9999      9.002258   1.775664   4.334      -9999      -9999      -9999      2.006      0.991      1.89       1.118596   -9999      0.2012822  0.2012822  0.3399614  14.9759    2.896798   2.006      0.3574456  0.5298138  -9999      0.42024    0.4202401  -9999     
1172.42    -9999      12939.263  -9999      -9999      9.020385   1.778005   4.333779   -9999      -9999      -9999      2.006      0.991      1.89       1.113746   -9999      0.2009086  0.2009086  0.3408504  14.73917   2.833211   2.006      0.3564051  0.5301983  -9999      0.424066   0.4240661  -9999     
1172.52    -9999      12957.474  -9999      -9999      9.030653   1.750454   4.33044    -9999      -9999      -9999      2.005      0.991      1.889      1.109458   -9999      0.2009741  0.2009741  0.3416363  14.78042   2.797811   2.005      0.3564373  0.5307903  -9999      0.426249   0.4262489  -9999     
1172.62    -9999      12971.744  -9999      -9999      9.032238   1.740845   4.3283     -9999      -9999      -9999      2.005      0.991      1.889      1.105796   -9999      0.2015339  0.2015339  0.3423076  15.13752   2.792386   2.005      0.3579944  0.5318642  -9999      0.426587   0.4265868  -9999     
1172.72    -9999      12984.656  -9999      -9999      9.024772   1.756938   4.3278     -9999      -9999      -9999      2.004      -9999      -9999      1.10278    -9999      0.2026115  0.2026115  0.3428605  15.84944   2.818033   2.004      0.3608195  0.5331994  -9999      0.424997   0.4249973  -9999     
1172.82    -9999      12997.152  -9999      -9999      9.008504   1.76698    4.326819   -9999      -9999      -9999      2.003      -9999      -9999      1.100382   -9999      0.2041871  0.2041871  0.3433     16.95115   2.87473    2.003      0.3649689  0.5348896  -9999      0.421554   0.4215545  -9999     
1172.92    -9999      13007.884  -9999      -9999      8.984242   1.790679   4.32214    -9999      -9999      -9999      2.003      -9999      -9999      1.098544   -9999      0.2062012  0.2062012  0.343637   18.4716    2.961411   2.003      0.3703745  0.5369936  -9999      0.416472   0.4164717  -9999     
1173.02    -9999      13013.976  -9999      -9999      8.953265   1.808781   4.323139   -9999      -9999      -9999      2.001      -9999      -9999      1.097187   -9999      0.2085622  0.2085622  0.3438856  20.42845   3.075897   2.001      0.3762945  0.5390814  -9999      0.410071   0.4100709  -9999     
1173.12    -9999      13016.703  -9999      -9999      8.917068   1.782037   4.328559   -9999      -9999      -9999      2          -9999      -9999      1.096227   -9999      0.2111653  0.2111653  0.3440616  22.82719   3.215293   2          0.3828517  0.5414094  -9999      0.402716   0.4027162  -9999     
1173.22    -9999      13017.572  -9999      -9999      8.877463   1.779001   4.3312     -9999      -9999      -9999      2          -9999      -9999      1.095587   -9999      0.2138882  0.2138882  0.3441788  25.63817   3.375062   2          0.3897     0.5438738  -9999      0.39482    0.3948199  -9999     
1173.32    -9999      13017.731  -9999      -9999      8.83639    -9999      4.32972    -9999      -9999      -9999      1.999      -9999      -9999      1.095213   -9999      0.2166051  0.2166051  0.3442475  28.7879    3.549144   1.999      0.3962309  0.5461438  -9999      0.386795   0.3867946  -9999     
1173.42    -9999      13017.747  -9999      -9999      8.795829   -9999      4.3255     -9999      -9999      -9999      1.999      -9999      -9999      1.095068   -9999      0.2191946  0.2191946  0.3442741  32.14942   3.729868   1.999      0.4024478  0.5483524  -9999      0.379029   0.3790292  -9999     
1173.52    -9999      13017.836  -9999      -9999      8.757692   -9999      4.325978   -9999      -9999      -9999      2          -9999      -9999      1.095134   -9999      0.2215449  0.2215449  0.344262   35.53919   3.908172   2          0.4081119  0.5504139  -9999      0.37187    0.3718704  -9999     
1173.62    -9999      13018.037  -9999      -9999      8.723591   -9999      4.33192    -9999      -9999      -9999      2          -9999      -9999      1.095425   -9999      0.223566   0.223566   0.3442087  38.73842   4.074817   2          0.4127748  0.5520365  -9999      0.365584   0.3655836  -9999     
1173.72    -9999      13018.276  -9999      -9999      8.694831   -9999      4.33324    -9999      -9999      -9999      2          -9999      -9999      1.095973   -9999      0.225188   0.225188   0.3441082  41.51328   4.22087    2          0.4164606  0.5532813  -9999      0.360364   0.3603642  -9999     
1173.82    -9999      13018.441  -9999      -9999      8.666373   -9999      4.330878   -9999      -9999      -9999      2          -9999      -9999      1.096827   -9999      0.2267116  0.2267116  0.3439516  44.30024   4.370542   2          0.4198774  0.5543931  -9999      0.355273   0.355273   -9999     
1173.92    -9999      13018.495  -9999      -9999      -9999      -9999      -9999      -9999      -9999      -9999      2          -9999      -9999      1.098048   -9999      -9999      -9999      0.3437279  -9999      -9999      2          -9999      -9999      -9999      -9999      -9999      -9999     
1174.02    -9999      13018.48   -9999      -9999      -9999      -9999      -9999      -9999      -9999      -9999      1.999      -9999      -9999      1.099706   -9999      -9999      -9999      0.3434239  -9999      -9999      1.999      -9999      -9999      -9999      -9999      -9999      -9999     
1174.12    -9999      13018.391  -9999      -9999      -9999      -9999      -9999      -9999      -9999      -9999      2          -9999      -9999      1.10187    -9999      -9999      -9999      0.3430273  -9999      -9999      2          -9999      -9999      -9999      -9999      -9999      -9999     
1174.22    -9999      13018.19   -9999      -9999      -9999      -9999      -9999      -9999      -9999      -9999      2          -9999      -9999      1.104586   -9999      -9999      -9999      0.3425294  -9999      -9999      2          -9999      -9999      -9999      -9999      -9999      -9999     
1174.32    -9999      13017.951  -9999      -9999      -9999      -9999      -9999      -9999      -9999      -9999      2          -9999      -9999      1.107872   -9999      -9999      -9999      0.3419271  -9999      -9999      2          -9999      -9999      -9999      -9999      -9999      -9999     
1174.42    -9999      13017.785  -9999      -9999      -9999      -9999      -9999      -9999      -9999      -9999      2          -9999      -9999      1.111706   -9999      -9999      -9999      0.3412243  -9999      -9999      2          -9999      -9999      -9999      -9999      -9999      -9999     
