~Version
 VERS              .         2.0                           : CWLS LOG ASCII STANDARD - VERSION 2.0
 WRAP              .         NO                            : ONE LINE PER DEPTH STEP
 DLM               .         SPACE                         : DELIMITING CHARACTER(SPACE TAB OR COMMA)
~Well Information
#_______________________________________________________________________________
#
#PARAMETER_NAME    .UNIT     VALUE                         : DESCRIPTION
#_______________________________________________________________________________
STRT               .M        880.02                        : First reference value
STOP               .M        1179.92                       : Last reference value
STEP               .M        0.1                           : Step increment
NULL               .         -9999                         : Missing value
COMP               .                                       : Company
WELL               .         3759                          : Well name
FLD                .         УЗЕНЬ                         : Field
LOC                .                                       : Location
CNTY               .                                       : County
STAT               .                                       : State
CTRY               .                                       : Country
SRVC               .                                       : Service Company
DATE               .         7/10/2004                     : Date
UWI                .                                       : Unique Well ID
Block              .         7                             : 
Category           .         Нефтяная                      : 
Condition          .         В работе                      : 
Date               .         08.06.2004                    : 
EREF               .m        91                            : 100.8
GRP                .         1111                          : Group name
Gorizont           .         15                            : 14
ISS                .         BKZ                           : Well surveys
Interpretator      .         Алпанова Н.К.                 : 
Kupol              .         основной                      : osnovnoi
Moii_15_vosst2     .         15_vosst2                     : 
Mud                .                                       : 
Mud_density        .                                       : 
Mud_resistivity    .                                       : 
Mud_density        .                                       : 
Mud_resistivity    .                                       : 
NGDU               .         НГДУ-2                        : 
ORIGINALWELLNAME   .         3759                          : 
Spud_date          .         2004                          : 1961
Spud_date          .         2004                          : 1961
TIME               .         13_33                         : LOG TIME
Viscosity          .                                       : 
X                  .m        42334.8                       : 46154
Y                  .m        84384.13                      : 85761.93
YEAR               .         2018                          : 
~Parameter Information Block
#_______________________________________________________________________________
#
#PARAMETER_NAME    .UNIT     VALUE                         : DESCRIPTION
#_______________________________________________________________________________
SET                .         LQC_KAZNIPI_Petrel            : 
TLFamily_CALI      .         Caliper                       : 
TLFamily_CILD      .         Conductivity                  : 
TLFamily_COLL      .         Net Reservoir Flag            : 
TLFamily_CSAT      .         Fluid Code                    : 
TLFamily_DEPT      .         Measured Depth                : 
TLFamily_GR        .         Russian Gamma Ray             : 
TLFamily_GZ1       .         Gradient 045                  : 
TLFamily_GZ2       .         Gradient 105                  : 
TLFamily_GZ3       .         Gradient 225                  : 
TLFamily_GZ4       .         Gradient 425                  : 
TLFamily_GZ5       .         Gradient 850                  : 
TLFamily_LLS       .         Lateral Log Resistivity       : 
TLFamily_MINV      .         Micro Gradient Resistivity    : 
TLFamily_MNOR      .         Micro Resistivity             : 
TLFamily_NGLD      .         Neutron Far                   : 
TLFamily_OGZ       .         Gradient Inverted 225         : 
TLFamily_PHIE      .         Effective Porosity            : 
TLFamily_PHIEN     .         Effective Porosity            : 
TLFamily_PHIT      .         Porosity                      : 
TLFamily_PRMB      .         Permeability                  : 
TLFamily_PRMB_DGR  .         Permeability                  : 
TLFamily_RT        .         Formation Resistivity         : 
TLFamily_SOIL_ARCHIE .         Oil Saturation                : 
TLFamily_SOIL_DW   .         Oil Saturation                : 
TLFamily_SP        .         Spontaneous Potential         : 
TLFamily_VSH_FIN   .         Shale Volume                  : 
TLFamily_VSH_GR    .         Shale Volume                  : 
TLFamily_VSH_SP    .         Shale Volume                  : 
~Curve Information
#_______________________________________________________________________________
#
#LOGNAME           .UNIT     LOG_ID                        : DESCRIPTION
#_______________________________________________________________________________
DEPT               .M                                      : Колонка глубины 
CALI               .м                                      : Каверномер 
CILD               .мСм/м                                  : Индукционный каротаж 
COLL               .unitless                               :  
CSAT               .unitless                               :  
GR                 .мкР/ч                                  : Гамма каротаж 
GZ1                .Ом·м                                   :  
GZ2                .Ом·м                                   :  
GZ3                .Ом·м                                   : Градиент-зонд  длиной 2.25м 
GZ4                .Ом·м                                   :  
GZ5                .Ом·м                                   :  
LLS                .Ом·м                                   : Боковой каротаж 
MINV               .Ом·м                                   : Микро-градиент зонд 
MNOR               .Ом·м                                   : Микро-потенциал зонд 
NGLD               .у.е.                                   : Показания зонда НГК-60 аппаратуры ДРСТ-3-90 
OGZ                .Ом·м                                   :  
PHIE               .м3/м3                                  : Описание 
PHIEN              .v/v                                    :  
PHIT               .м3/м3                                  : Описание 
PRMB               .mD                                     :  
PRMB_DGR           .mD                                     :  
RT                 .ohmm                                   : УЭС пласта 
SOIL_ARCHIE        .v/v                                    :  
SOIL_DW            .v/v                                    :  
SP                 .мВ                                     : Потенциал самополяризации 
VSH_FIN            .unitless                               : Описание 
VSH_GR             .unitless                               : Shale volume 
VSH_SP             .unitless                               : Shale Volume 
~Ascii
# ...
936.12     0.212      5962.535   -9999      -9999      4.306766   2.282844   5.782722   5.546657085418701 4.958899   4.111655   5.724      2.917      8.463      1.323933005332947 4.89827299118042 0.1710579  0.1710579  0.302323   4.12635    27.74376   3.219      0.3986113  0.5691693  94.22639   0.3977729  0.1670404  0.6285053 
936.22     0.212      6011.084   -9999      -9999      4.315297   2.490484   6.117297   5.860613822937012 5.246722   4.1046     6.092      3.232      9.262      1.318184971809387 4.779016017913818 0.1654164  0.1654164  0.3033767  3.243926   27.42733   3.193      0.3784255  0.5625975  95.3637    0.4180616  0.1678247  0.6682985 
936.3200000000001 0.212      6070.296   -9999      -9999      4.325792   3.343585   6.635578   6.140925884246826 5.36586    4.025464   5.937      3.195      9.186      1.31101405620575 4.539797782897949 0.161003   0.161003   0.3046911  2.687351   27.04301   3.162      0.3606915  0.5569607  96.28494   0.4354185  0.1687945  0.7020426 
936.42     0.212      6135.757   -9999      -9999      4.339233   4.568367   6.97123    6.528493881225586 5.410559   3.889366   5.625      2.999      8.625      1.302103996276856 4.31456184387207 0.1582626  0.1582626  0.3063243  2.390924   26.55866   3.129      0.3478582  0.5531163  96.95098   0.4486718  0.1700448  0.7272988 
936.52     0.212      6189.808   -9999      -9999      4.356122   4.948907   7.123491   6.644560813903809 5.449379   3.78594    5.191      2.815      8.044      1.291293978691101 4.083436965942383 0.1575381  0.1575381  0.3083058  2.318178   25.96235   3.101      0.3424793  0.5520806  97.33298   0.4568717  0.1716289  0.7421145 
936.62     0.211      6232.771   -9999      -9999      4.37655    4.769186   7.272662   6.556455135345459 5.423002   3.656367   4.569      2.603      7.713      1.278581023216248 3.691184043884277 0.1590203  0.1590203  0.3106362  2.469445   25.25895   3.08       0.3457371  0.5542439  97.4148    0.4594422  0.1735646  0.7453197 
936.72     0.211      6275.836   -9999      -9999      4.40018    4.236175   7.458035   6.314271926879883 5.282943   3.440737   3.788      2.23       6.964      1.264103055000305 3.380660057067871 0.1627214  0.1627214  0.3132899  2.891695   24.46901   3.059      0.3566549  0.5589876  97.19424   0.4562684  0.1758312  0.7367057 
936.8200000000001 0.21       6324.102   -9999      -9999      4.426332   3.678846   7.450278   5.962560176849365 4.959141   3.267028   3.134      1.759      5.699      1.248124003410339 3.21717095375061 0.1684713  0.1684713  0.3162188  3.695348   23.62355   3.035      0.3735101  0.5656623  96.68342   0.4477196  0.178374   0.7170652 
936.92     0.21       6371.109   -9999      -9999      4.454121   3.513343   7.145349   5.670444011688232 4.580932   3.181067   2.76       1.437      4.611      1.23101794719696 3.198158025741577 0.1759388  0.1759388  0.3193544  5.081267   22.75716   3.013      0.3946707  0.5739818  95.90798   0.4345928  0.1811163  0.6880693 
937.02     0.21       6410.564   -9999      -9999      4.482691   3.589085   6.674412   5.35593318939209 4.349272   3.135009   2.626      1.318      4.091      1.213243007659912 3.245666027069092 0.1846719  0.1846719  0.3226125  7.374444   21.89952   2.994      0.4179546  0.5832889  94.90559   0.418002   0.1839797  0.6520243 
937.12     0.21       6455.33    -9999      -9999      4.511312   3.621271   6.330261   4.880959033966065 4.174103   3.099968   2.569      1.344      4.057      1.195302963256836 3.338706016540527 0.1941577  0.1941577  0.325901   11.05171   21.07278   2.974      0.4410458  0.5926306  93.72339   0.3992221  0.1868936  0.6115507 
937.22     0.211      6513.981   -9999      -9999      4.539459   3.367343   6.144188   4.621908187866211 3.947616   3.131138   2.565      1.369      4.088      1.177700996398926 3.50397801399231 0.2038835  0.2038835  0.3291275  16.73303   20.29015   2.947      0.4620439  0.6010689  92.41478   0.3795274  0.1898043  0.5692505 
937.3200000000001 0.212      6583.14    -9999      -9999      4.566829   2.945182   5.92181    4.470781803131104 3.850351   3.16883    2.57       1.369      4.083      1.160902976989746 3.635345935821533 0.2133879  0.2133879  0.3322064  25.09687   19.55703   2.916      0.4804016  0.6084435  91.03587   0.3600561  0.192678   0.5274341 
937.42     0.212      6644.289   -9999      -9999      4.593391   2.217472   5.492899   4.265254020690918 3.848469   3.198588   2.585      1.362      4.117      1.145315051078796 3.762892007827759 0.2222961  0.2222961  0.3350637  36.69614   18.87086   2.889      0.4963907  0.6150638  89.64159   0.3417202  0.1955086  0.4879318 
937.52     0.213      6695.667   -9999      -9999      4.619328   1.447207   5.089324   4.197795867919922 3.932708   3.238756   2.661      1.409      4.452      1.13127601146698 3.949819087982178 0.2303326  0.2303326  0.3376371  51.69834   18.2241    2.867      0.5099748  0.620876   88.28231   0.3251652  0.1983126  0.4520178 
937.62     0.213      6748.027   -9999      -9999      4.645046   1.249517   4.908678   4.221723079681397 4.075466   3.264496   2.939      1.647      5.342      1.119047045707703 4.026800155639648 0.2373199  0.2373199  0.3398787  69.64649   17.6047    2.845      0.5208359  0.6255171  87.00133   0.3107843  0.2011326  0.4204359 
937.72     0.212      6806.445   -9999      -9999      4.671044   1.55575    4.921131   4.295363903045654 4.172399   3.311217   3.336      1.928      6.222      1.108811020851135 4.024586200714111 0.2431646  0.2431646  0.3417549  89.36266000000001 16.99991   2.82       0.5289353  0.6288162  85.83358   0.2987586  0.2040242  0.393493  
937.8200000000001 0.212      6865.018   -9999      -9999      4.697872   2.422711   4.984423   4.399517059326172 4.251276   3.375695   3.606      1.973      6.22       1.100664019584656 3.982183933258057 0.2478415  0.2478415  0.3432482  109.0896   16.39763   2.796      0.5348249000000001 0.6310948  84.80494   0.2891114  0.2070516  0.3711713 
937.92     0.212      6907.34    -9999      -9999      4.725906   3.418192   4.977945   4.45639705657959 4.342746   3.4015     3.6        1.806      5.471      1.094630002975464 3.882646083831787 0.2513762  0.2513762  0.3443543  126.8396   15.79104   2.779      0.5392102  0.6328248  83.93231   0.281752   0.2102631  0.3532408 
938.02     0.212      6935.212   -9999      -9999      4.755328   3.72808    4.857743   4.467198848724365 4.351454   3.393365   3.376      1.612      4.742      1.090682983398438 3.804553031921387 0.2538271  0.2538271  0.3450779  140.8157   15.17854   2.768      0.5422365  0.6340235  83.22401   0.2765176  0.2136872  0.3393479 
938.12     0.213      6956.756   -9999      -9999      4.786077   3.693346   4.728914   4.468393802642822 4.33254    3.354806   3.219      1.641      4.636      1.088758945465088 3.74821400642395 0.2552722  0.2552722  0.3454306  149.7675   14.56379   2.759      0.5437977000000001 0.6345087  82.681     0.2732073  0.2173254  0.3290892 
938.22     0.213      6976.596   -9999      -9999      4.81794    3.443852   4.572001   4.457993030548096 4.340067   3.290174   3.176      1.78       5.034      1.08877694606781 3.664551973342896 0.2557948  0.2557948  0.3454272  153.1436   13.95301   2.751      0.5439887  0.6342865  82.29861   0.2716132  0.2211607  0.3220658 
938.3200000000001 0.213      6994.186   -9999      -9999      4.850514   2.941728   4.550156   4.482964038848877 4.37946    3.233437   3.248      1.849      5.394      1.090638995170593 3.62299108505249 0.2554791  0.2554791  0.3450859  151.095    13.35507   2.744      0.5429518  0.6334206  82.06858   0.2715358  0.2251517  0.3179198 
938.42     0.213      7005.046   -9999      -9999      4.883211   2.596021   4.685298   4.525580883026123 4.424456   3.202959   3.308      1.801      5.378      1.094238996505737 3.594717025756836 0.2544029  0.2544029  0.344426   144.3169   12.78066   2.74       0.5409542000000001 0.6320977  81.98143   0.2727972  0.2292301  0.3163644 
938.52     0.212      7011.874   -9999      -9999      4.915277   2.428367   4.90218    4.551599979400635 4.424791   3.193712   3.25       1.704      5.076      1.099460005760193 3.528223037719727 0.252636   0.252636   0.3434689  133.8412   12.24134   2.737      0.5379218  0.6302281  82.02837   0.2752512  0.2333014  0.317201  
