~Version
 VERS              .         2.0                           : CWLS LOG ASCII STANDARD - VERSION 2.0
 WRAP              .         NO                            : ONE LINE PER DEPTH STEP
 DLM               .         SPACE                         : DELIMITING CHARACTER(SPACE TAB OR COMMA)
~Well Information
#_______________________________________________________________________________
#
#PARAMETER_NAME    .UNIT     VALUE                         : DESCRIPTION
#_______________________________________________________________________________
STRT               .M        880.02                        : First reference value
STOP               .M        1179.92                       : Last reference value
STEP               .M        0.1                           : Step increment
NULL               .         -9999                         : Missing value
COMP               .                                       : Company
WELL               .         3759                          : Well name
FLD                .         УЗЕНЬ                         : Field
LOC                .                                       : Location
CNTY               .                                       : County
STAT               .                                       : State
CTRY               .                                       : Country
SRVC               .                                       : Service Company
DATE               .         7/10/2004                     : Date
UWI                .                                       : Unique Well ID
Block              .         7                             : 
Category           .         Нефтяная                      : 
Condition          .         В работе                      : 
Date               .         08.06.2004                    : 
EREF               .m        91                            : 100.8
GRP                .         1111                          : Group name
Gorizont           .         15                            : 14
ISS                .         BKZ                           : Well surveys
Interpretator      .         Алпанова Н.К.                 : 
Kupol              .         основной                      : osnovnoi
Moii_15_vosst2     .         15_vosst2                     : 
Mud                .                                       : 
Mud_density        .                                       : 
Mud_resistivity    .                                       : 
Mud_density        .                                       : 
Mud_resistivity    .                                       : 
NGDU               .         НГДУ-2                        : 
ORIGINALWELLNAME   .         3759                          : 
Spud_date          .         2004                          : 1961
Spud_date          .         2004                          : 1961
TIME               .         13_33                         : LOG TIME
Viscosity          .                                       : 
X                  .m        42334.8                       : 46154
Y                  .m        84384.13                      : 85761.93
YEAR               .         2018                          : 
~Parameter Information Block
#_______________________________________________________________________________
#
#PARAMETER_NAME    .UNIT     VALUE                         : DESCRIPTION
#_______________________________________________________________________________
SET                .         LQC_KAZNIPI_Petrel            : 
TLFamily_CALI      .         Caliper                       : 
TLFamily_CILD      .         Conductivity                  : 
TLFamily_COLL      .         Net Reservoir Flag            : 
TLFamily_CSAT      .         Fluid Code                    : 
TLFamily_DEPT      .         Measured Depth                : 
TLFamily_GR        .         Russian Gamma Ray             : 
TLFamily_GZ1       .         Gradient 045                  : 
TLFamily_GZ2       .         Gradient 105                  : 
TLFamily_GZ3       .         Gradient 225                  : 
TLFamily_GZ4       .         Gradient 425                  : 
TLFamily_GZ5       .         Gradient 850                  : 
TLFamily_LLS       .         Lateral Log Resistivity       : 
TLFamily_MINV      .         Micro Gradient Resistivity    : 
TLFamily_MNOR      .         Micro Resistivity             : 
TLFamily_NGLD      .         Neutron Far                   : 
TLFamily_OGZ       .         Gradient Inverted 225         : 
TLFamily_PHIE      .         Effective Porosity            : 
TLFamily_PHIEN     .         Effective Porosity            : 
TLFamily_PHIT      .         Porosity                      : 
TLFamily_PRMB      .         Permeability                  : 
TLFamily_PRMB_DGR  .         Permeability                  : 
TLFamily_RT        .         Formation Resistivity         : 
TLFamily_SOIL_ARCHIE .         Oil Saturation                : 
TLFamily_SOIL_DW   .         Oil Saturation                : 
TLFamily_SP        .         Spontaneous Potential         : 
TLFamily_VSH_FIN   .         Shale Volume                  : 
TLFamily_VSH_GR    .         Shale Volume                  : 
TLFamily_VSH_SP    .         Shale Volume                  : 
~Curve Information
#_______________________________________________________________________________
#
#LOGNAME           .UNIT     LOG_ID                        : DESCRIPTION
#_______________________________________________________________________________
DEPT               .M                                      : Колонка глубины 
CALI               .м                                      : Каверномер 
CILD               .мСм/м                                  : Индукционный каротаж 
COLL               .unitless                               :  
CSAT               .unitless                               :  
GR                 .мкР/ч                                  : Гамма каротаж 
GZ1                .Ом·м                                   :  
GZ2                .Ом·м                                   :  
GZ3                .Ом·м                                   : Градиент-зонд  длиной 2.25м 
GZ4                .Ом·м                                   :  
GZ5                .Ом·м                                   :  
LLS                .Ом·м                                   : Боковой каротаж 
MINV               .Ом·м                                   : Микро-градиент зонд 
MNOR               .Ом·м                                   : Микро-потенциал зонд 
NGLD               .у.е.                                   : Показания зонда НГК-60 аппаратуры ДРСТ-3-90 
OGZ                .Ом·м                                   :  
PHIE               .м3/м3                                  : Описание 
PHIEN              .v/v                                    :  
PHIT               .м3/м3                                  : Описание 
PRMB               .mD                                     :  
PRMB_DGR           .mD                                     :  
RT                 .ohmm                                   : УЭС пласта 
SOIL_ARCHIE        .v/v                                    :  
SOIL_DW            .v/v                                    :  
SP                 .мВ                                     : Потенциал самополяризации 
VSH_FIN            .unitless                               : Описание 
VSH_GR             .unitless                               : Shale volume 
VSH_SP             .unitless                               : Shale Volume 
~Ascii
# ...
995.62     0.208      8699.441999999999 -9999      -9999      4.672654   3.512942   6.391805   4.936513900756836 3.619317   2.005206   3.518      1.941      6.026      1.685013   2.093986988067627 0.1460473  0.1460473  0.236137   1.420066   16.96317   2.207      0.1761145  0.3570697  83.3509    0.2729992  0.2042046  0.3417938 
995.72     0.211      8852.066999999999 -9999      -9999      4.843583   3.548889   6.586912   4.97849178314209 3.622419   1.962354   3.195      1.7        5.437      1.620973   1.995118975639343 0.1529937  0.1529937  0.2478757  1.909731   13.48012   2.169      0.2023164  0.3816659  83.8073    0.2875213  0.2242965  0.3507461 
995.8200000000001 0.216      8981.745000000001 -9999      -9999      5.016693   3.519398   6.703639   4.86174201965332 3.565392   1.900507   2.814      1.407      4.503      1.55657    1.919507026672363 0.1598097  0.1598097  0.2596807  2.554004   10.68089   2.137      0.2266556  0.4046699  84.19872   0.3026395  0.2466605  0.3586185 
995.92     0.221      9123.205   -9999      -9999      5.18711    3.39246    6.577578   4.60460376739502 3.423724   1.857404   2.457      1.084      3.223      1.493227   1.867167949676514 0.1663936  0.1663936  0.2712914  3.38198    8.493622   2.104      0.2479031  0.4249198  84.50429   0.3178721  0.2708535  0.3648908 
996.02     0.225      9298.734   -9999      -9999      5.350105   3.017968   5.913095   4.334794044494629 3.296633   1.827262   2.104      0.804      2.092      1.432317   1.810596942901611 0.1726697  0.1726697  0.2824563  4.419971   6.822021   2.065      0.2653468  0.4417197  84.70938   0.3326866  0.2962099  0.3691633 
996.12     0.229      9505.664000000001 -9999      -9999      5.501411   2.323275   4.990743   4.054408073425293 3.133387   1.782847   1.808      0.657      1.46       1.375076   1.825716018676758 0.1785936  0.1785936  0.2929485  5.690424   5.566199   2.02       0.2792023  0.4551536  84.80594   0.3465301  0.3218679  0.3711924 
996.22     0.23       9706.922000000001 -9999      -9999      5.637407   1.784508   4.537749   3.634771108627319 2.89325    1.72064    1.604      0.651      1.367      1.322539   1.869717955589294 0.1841534  0.1841534  0.3025787  7.213166   4.636016   1.978      0.2912393  0.4665624  84.79244   0.3588644  0.3468206  0.3709081 
996.3200000000001 0.228      9876.838   -9999      -9999      5.755352   1.601802   4.304076   3.405848026275635 2.759461   1.692179   1.565      0.712      1.436      1.275487   1.923823952674866 0.1893632  0.1893632  0.3112032  9.007906999999999 3.956139   1.944      0.3026016  0.4767865  84.673     0.3692122  0.3700226  0.3684018 
996.42     0.224      10016.393  -9999      -9999      5.853505   1.552804   4.030121   3.334567070007324 2.733958   1.691798   1.629      0.758      1.49       1.234431   2.013443946838379 0.1942504  0.1942504  0.3187287  11.09551   3.467016   1.916      0.313249   0.4857482  84.45657   0.377207   0.39051    0.363904  
996.52     0.219      10161.26   -9999      -9999      5.931195   1.443165   3.819814   3.285367965698242 2.74459    1.701005   1.703      0.771      1.533      1.199602   2.070755004882813 0.198843   0.198843   0.325113   13.49623   3.123122   1.889      0.3225878  0.4929759  84.15575   0.3826366  0.4075276  0.3577456 
996.62     0.217      10332.533  -9999      -9999      5.988809   1.305172   3.620467   3.189795017242432 2.746967   1.71086    1.752      0.769      1.589      1.170968   2.111037015914917 0.203155   0.203155   0.3303615  16.22111   2.890321   1.858      0.3299451  0.4979832  83.78606   0.3854744  0.4206245  0.3503242 
996.72     0.217      10523.763  -9999      -9999      6.027669   1.21709    3.464324   3.106719017028809 2.724399   1.710579   1.76       0.785      1.684      1.148282   2.170758008956909 0.2071792  0.2071792  0.33452    19.25838   2.743174   1.824      0.3355614  0.5010518  83.365     0.385881   0.4296954  0.3420667 
996.8200000000001 0.218      10696.006  -9999      -9999      6.04985    1.19169    3.197002   3.035960912704468 2.701754   1.70728    1.768      0.806      1.804      1.131122   2.198998928070068 0.210885   0.210885   0.3376653  22.55589   2.662571   1.795      0.340803   0.5033988  82.91162   0.3841826  0.4349602  0.333405  
996.92     0.22       10830.887  -9999      -9999      6.057954   1.184981   2.99829    2.912487030029297 2.683181   1.7052     1.79       0.805      1.88       1.118939   2.204397916793823 0.2142258  0.2142258  0.3398985  26.00994   2.633717   1.772      0.3458185  0.5052943  82.44598   0.3808264  0.4368998  0.324753  
997.02     0.221      10930.022  -9999      -9999      6.054892   1.178914   2.906184   2.820560932159424 2.661916   1.70837    1.83       0.788      1.879      1.111086   2.212594032287598 0.2171502  0.2171502  0.3413379  29.46501   2.644581   1.756      0.3507406  0.5070037  81.98831   0.3763264  0.4361659  0.3164869 
997.12     0.222      11017.948  -9999      -9999      6.043681   1.135658   2.770574   2.785981893539429 2.653738   1.722259   1.875      0.783      1.863      1.106868   2.223000049591065 0.2196117  0.2196117  0.3421111  32.72652   2.684749   1.742      0.3546639  0.5079427  81.55828   0.3712103  0.4334894  0.3089313 
997.22     0.221      11108.175  -9999      -9999      6.027248   1.107433   2.573709   2.752468109130859 2.634881   1.729636   1.926      0.818      1.925      1.105585   2.217977046966553 0.2215753  0.2215753  0.3423463  35.58527   2.744728   1.728      0.3572183  0.5079341  81.17392   0.3659725  0.429596   0.3023491 
997.3200000000001 0.22       11197.333  -9999      -9999      6.008304   1.114847   2.498782   2.685873031616211 2.594497   1.719064   1.979      0.88       2.025      1.106571   2.1875     0.2230215  0.2230215  0.3421656  37.84922   2.81554    1.714      0.3584055  0.5070772  80.85054   0.3610427  0.4251509  0.2969346 
997.42     0.22       11266.112  -9999      -9999      5.989196   1.174969   2.518119   2.624125957489014 2.562957   1.707898   2.001      0.906      2.066      1.109217   2.139764070510864 0.2239486  0.2239486  0.3416805  39.37588   2.888815   1.704      0.3589618  0.50605    80.59975   0.3567631  0.4207139  0.2928124 
997.52     0.219      11314.687  -9999      -9999      5.971826   1.213781   2.513939   2.563443899154663 2.555559   1.696308   1.984      0.873      1.989      1.112998   2.115000009536743 0.2243734  0.2243734  0.3409875  40.09565   2.95708    1.696      0.358604   0.5046718  80.42825   0.3533762  0.4167207  0.2900317 
997.62     0.22       11348.64   -9999      -9999      5.957578   1.256869   2.512959   2.46155595779419 2.545507   1.679814   1.94       0.834      1.856      1.117487   2.114599943161011 0.2243268  0.2243268  0.3401647  40.01612   3.014277   1.691      0.3575986  0.5031868  80.33759   0.3510239  0.4134735  0.2885742 
997.72     0.221      11379.414  -9999      -9999      5.947313   1.285986   2.512416   2.383524894714356 2.52981    1.66268    1.923      0.837      1.793      1.122361   2.113799095153809 0.2238528  0.2238528  0.3392712  39.2153    3.056165   1.687      0.3556984  0.5013928  80.32391   0.3497525  0.4111499  0.2883551 
997.8200000000001 0.221      11413.065  -9999      -9999      5.941401   1.284837   2.527161   2.337538957595825 2.509378   1.638539   1.952      0.878      1.766      1.127378   2.118597984313965 0.2230072  0.2230072  0.3383515  37.82625   3.080556   1.682      0.3526702  0.4990767  80.37899   0.3495281  0.4098176  0.2892386 
997.92     0.221      11448.352  -9999      -9999      5.939748   1.295284   2.599128   2.284471988677979 2.475926   1.6283     1.991      0.884      1.74       1.132356   2.12239408493042 0.2218575  0.2218575  0.3374392  36.01619   3.087413   1.677      0.3488404  0.4964685  80.49125   0.3502476  0.4094457  0.2910495 
998.02     0.218      11477.338  -9999      -9999      5.941871   1.288739   2.653334   2.193202972412109 2.439911   1.624574   2.011      0.843      1.658      1.137178   2.106774091720581 0.2204756  0.2204756  0.3365553  33.95475   3.07861    1.672      0.344369   0.4936457  80.64738   0.3517567  0.4099233  0.29359   
