~Version
 VERS              .         2.0                           : CWLS LOG ASCII STANDARD - VERSION 2.0
 WRAP              .         NO                            : ONE LINE PER DEPTH STEP
 DLM               .         SPACE                         : DELIMITING CHARACTER(SPACE TAB OR COMMA)
~Well Information
#_______________________________________________________________________________
#
#PARAMETER_NAME    .UNIT     VALUE                         : DESCRIPTION
#_______________________________________________________________________________
STRT               .M        880.02                        : First reference value
STOP               .M        1179.92                       : Last reference value
STEP               .M        0.1                           : Step increment
NULL               .         -9999                         : Missing value
COMP               .                                       : Company
WELL               .         3759                          : Well name
FLD                .         УЗЕНЬ                         : Field
LOC                .                                       : Location
CNTY               .                                       : County
STAT               .                                       : State
CTRY               .                                       : Country
SRVC               .                                       : Service Company
DATE               .         7/10/2004                     : Date
UWI                .                                       : Unique Well ID
Block              .         7                             : 
Category           .         Нефтяная                      : 
Condition          .         В работе                      : 
Date               .         08.06.2004                    : 
EREF               .m        91                            : 100.8
GRP                .         1111                          : Group name
Gorizont           .         15                            : 14
ISS                .         BKZ                           : Well surveys
Interpretator      .         Алпанова Н.К.                 : 
Kupol              .         основной                      : osnovnoi
Moii_15_vosst2     .         15_vosst2                     : 
Mud                .                                       : 
Mud_density        .                                       : 
Mud_resistivity    .                                       : 
Mud_density        .                                       : 
Mud_resistivity    .                                       : 
NGDU               .         НГДУ-2                        : 
ORIGINALWELLNAME   .         3759                          : 
Spud_date          .         2004                          : 1961
Spud_date          .         2004                          : 1961
TIME               .         13_33                         : LOG TIME
Viscosity          .                                       : 
X                  .m        42334.8                       : 46154
Y                  .m        84384.13                      : 85761.93
YEAR               .         2018                          : 
~Parameter Information Block
#_______________________________________________________________________________
#
#PARAMETER_NAME    .UNIT     VALUE                         : DESCRIPTION
#_______________________________________________________________________________
SET                .         LQC_KAZNIPI_Petrel            : 
TLFamily_CALI      .         Caliper                       : 
TLFamily_CILD      .         Conductivity                  : 
TLFamily_COLL      .         Net Reservoir Flag            : 
TLFamily_CSAT      .         Fluid Code                    : 
TLFamily_DEPT      .         Measured Depth                : 
TLFamily_GR        .         Russian Gamma Ray             : 
TLFamily_GZ1       .         Gradient 045                  : 
TLFamily_GZ2       .         Gradient 105                  : 
TLFamily_GZ3       .         Gradient 225                  : 
TLFamily_GZ4       .         Gradient 425                  : 
TLFamily_GZ5       .         Gradient 850                  : 
TLFamily_LLS       .         Lateral Log Resistivity       : 
TLFamily_MINV      .         Micro Gradient Resistivity    : 
TLFamily_MNOR      .         Micro Resistivity             : 
TLFamily_NGLD      .         Neutron Far                   : 
TLFamily_OGZ       .         Gradient Inverted 225         : 
TLFamily_PHIE      .         Effective Porosity            : 
TLFamily_PHIEN     .         Effective Porosity            : 
TLFamily_PHIT      .         Porosity                      : 
TLFamily_PRMB      .         Permeability                  : 
TLFamily_PRMB_DGR  .         Permeability                  : 
TLFamily_RT        .         Formation Resistivity         : 
TLFamily_SOIL_ARCHIE .         Oil Saturation                : 
TLFamily_SOIL_DW   .         Oil Saturation                : 
TLFamily_SP        .         Spontaneous Potential         : 
TLFamily_VSH_FIN   .         Shale Volume                  : 
TLFamily_VSH_GR    .         Shale Volume                  : 
TLFamily_VSH_SP    .         Shale Volume                  : 
~Curve Information
#_______________________________________________________________________________
#
#LOGNAME           .UNIT     LOG_ID                        : DESCRIPTION
#_______________________________________________________________________________
DEPT               .M                                      : Колонка глубины 
CALI               .м                                      : Каверномер 
CILD               .мСм/м                                  : Индукционный каротаж 
COLL               .unitless                               :  
CSAT               .unitless                               :  
GR                 .мкР/ч                                  : Гамма каротаж 
GZ1                .Ом·м                                   :  
GZ2                .Ом·м                                   :  
GZ3                .Ом·м                                   : Градиент-зонд  длиной 2.25м 
GZ4                .Ом·м                                   :  
GZ5                .Ом·м                                   :  
LLS                .Ом·м                                   : Боковой каротаж 
MINV               .Ом·м                                   : Микро-градиент зонд 
MNOR               .Ом·м                                   : Микро-потенциал зонд 
NGLD               .у.е.                                   : Показания зонда НГК-60 аппаратуры ДРСТ-3-90 
OGZ                .Ом·м                                   :  
PHIE               .м3/м3                                  : Описание 
PHIEN              .v/v                                    :  
PHIT               .м3/м3                                  : Описание 
PRMB               .mD                                     :  
PRMB_DGR           .mD                                     :  
RT                 .ohmm                                   : УЭС пласта 
SOIL_ARCHIE        .v/v                                    :  
SOIL_DW            .v/v                                    :  
SP                 .мВ                                     : Потенциал самополяризации 
VSH_FIN            .unitless                               : Описание 
VSH_GR             .unitless                               : Shale volume 
VSH_SP             .unitless                               : Shale Volume 
~Ascii
# ...
899.22     0.201      7570.208984375 6          6          2.38436    4.463253   10.35549   7.253920078277588 6.532371   2.5682     3.724      1.43       2.288      2.233839988708496 1.900321960449219 0.1067422  0.1067422  0.1355371  0.2656331  631.9433   2.538      0          0.05426753 62.72727   0.08725729 0.04661266 0.1279019 
899.3200000000001 0.2        7815.89794921875 6          6          2.355258   3.796137   9.887146   7.165279865264893 6.089371   2.422004   3.475      1.405      2.239      2.202517986297607 1.863392949104309 0.1125958  0.1125958  0.1412784  0.3409611  679.0161000000001 2.457      0.01736844 0.08246605 63.01354   0.08691709 0.04526506 0.1285691 
899.42     0.2        8085.787109375 6          6          2.331058   3.529268   9.489601   7.069549083709717 5.79179    2.265514   3.256      1.406      2.238      2.167936086654663 1.846758008003235 0.1190317  0.1190317  0.1476174  0.4486561  720.8181   2.376      0.04896314 0.1114095  63.2226    0.0866234  0.04417419 0.1290726 
899.52     0.2        8420.3486328125 6          6          2.312383   3.583547   8.925257   7.012795925140381 5.645862   2.165081   3.12       1.444      2.346      2.130166053771973 1.813928961753845 0.1260343  0.1260343  0.1545406  0.6048114  754.8272   2.283      0.07804009000000001 0.13823    63.36146   0.08638258 0.04335039 0.1294148 
899.62     0.2        8796.9560546875 6          6          2.29952    3.702591   8.543798   6.990373134613037 5.491961   2.060977   3.046      1.467      2.532      2.089423894882202 1.772294998168945 0.1335627  0.1335627  0.1620086  0.8338011  779.1815   2.185      0.105235   0.1635557  63.43878   0.08619996000000001 0.04279191 0.129608  
899.72     0.202      9115.666015625 6          6          2.29241    3.768611   8.282436   6.937541007995606 5.161839   1.908162   2.929      1.435      2.643      2.046061992645264 1.7187340259552 0.1415509  0.1415509  0.1699569  1.17226    792.9769   2.107      0.1347429  0.1915438  63.4639    0.08607879 0.04248635 0.1296712 
899.8200000000001 0.203      9378.96875 1          3          2.29066    3.679621   7.876128   6.833783149719238 4.735443   1.816083   2.758      1.359      2.565      2.000572919845581 1.624384999275208 0.1499085  0.1499085  0.1782949  1.674275   796.4106   2.047      0.1656768  0.2212709  63.44649   0.08601942999999999 0.04241146 0.1296274 
899.92     0.204      9655.3271484375 1          3          2.293656   3.291626   7.083468   6.531943798065186 4.387297   1.71057    2.537      1.262      2.362      1.953570008277893 1.46925699710846 0.1585239  0.1585239  0.1869106  2.417713   790.5415   1.989      0.1945187  0.2491875  63.3961    0.08602042 0.04253975 0.1295011 
900.02     0.205      9971.810546875 1          3          2.300562   2.586784   6.020985   5.963307857513428 3.953203   1.52399    2.263      1.152      2.178      1.905768990516663 1.367233037948608 0.1672672  0.1672672  0.1956726  3.510369   777.178    1.927      0.2198071  0.2737959  63.3219    0.08607679 0.04283692 0.1293167 
900.12     0.205      10279.297  1          3          2.310406   2.143913   5.185739   5.451996803283691 3.326147   1.361632   1.967      1.051      2.06       1.85794997215271 1.30564296245575 0.1759981  0.1759981  0.2044377  5.094133   758.5192   1.868      0.2426551  0.296157   63.23253   0.08618049 0.04326411 0.1290969 
900.22     0.204      10526.595  1          3          2.322208   1.990835   4.546778   4.898194789886475 2.969926   1.269907   1.719      0.989      1.992      1.810917973518372 1.22494101524353 0.1845726  0.1845726  0.2130588  7.343283   736.7391   1.824      0.2652182  0.3183604  63.13577   0.08632185000000001 0.04378188 0.1288618 
900.3200000000001 0.203      10778.912  1          3          2.335015   1.796131   3.713513   4.034562110900879 2.68794    1.184909   1.607      0.99       1.963      1.765444993972778 1.201997995376587 0.1928522  0.1928522  0.2213938  10.4532    713.8101   1.782      0.284997   0.337893   63.0386    0.08648976 0.04435077 0.1286287 
900.42     0.203      11075.207  1          3          2.347994   1.622164   3.265061   3.47754693031311 2.335682   1.096776   1.597      1.011      1.976      1.722239971160889 1.207795023918152 0.2007111  0.2007111  0.2293134  14.61552   691.3011   1.734      0.3005374  0.3532966  62.94741   0.0866738  0.04493485 0.1284128 
900.52     0.203      11395.613  1          3          2.360461   1.413783   3.090136   3.243227005004883 2.16638    1.078578   1.624      1.03       2          1.681900978088379 1.21579897403717 0.208042   0.208042   0.2367076  19.98026   670.3495   1.685      0.3128726  0.3655753  62.86824   0.08686522000000001 0.04550311 0.1282273 
900.62     0.202      11654.533  1          3          2.372      1.101532   2.950421   3.094543933868408 2.101136   1.080426   1.653      1.033      2.013      1.644901037216187 1.218799948692322 0.2147596  0.2147596  0.2434896  26.60893   651.5226   1.647      0.3244377  0.3771116  62.80707   0.08706044 0.04603551 0.1280854 
900.72     0.202      11858.124  1          3          2.382437   0.8528093  2.748012   2.867192983627319 2.049911   1.123729   1.667      1.027      2.028      1.611565947532654 1.217198967933655 0.2208038  0.2208038  0.2496     34.43339   634.951    1.619      0.3352451  0.3879056  62.77011   0.08726127 0.04652238 0.1280002 
900.8200000000001 0.202      12060.781  1          3          2.39177    0.89263    2.627944   2.732964992523193 1.973861   1.242164   1.665      1.024      2.053      1.582067966461182 1.214200019836426 0.2261405  0.2261405  0.255007   43.23441   620.4893   1.592      0.3437709  0.3964575  62.76389   0.08747398000000001 0.04696211 0.1279858 
900.92     0.202      12293.539  1          3          2.400126   1.089429   2.494494   2.623290061950684 1.922685   1.355955   1.656      1.02       2.062      1.556432962417603 1.217192053794861 0.2307621  0.2307621  0.2597059  52.65406   607.8211   1.562      0.3494505  0.4022177  62.79503   0.08770846 0.04735935 0.1280576 
901.02     0.203      12548.034  1          3          2.407709   1.287248   2.284572   2.449935913085938 1.90128    1.43009    1.646      1.015      2.024      1.534553050994873 1.228391051292419 0.2346841  0.2346841  0.2637165  62.24109   596.5483   1.53       0.3526724  0.405573   62.86981   0.08797687 0.04772275 0.128231  
901.12     0.204      12772.403  1          3          2.414845   1.031861   2.138278   2.34469199180603 1.902877   1.538457   1.641      1.014      1.973      1.516208052635193 1.243549942970276 0.2379419  0.2379419  0.2670791  71.51867   586.1312   1.503      0.3550321  0.4080911  62.99343   0.08829436 0.04806728 0.1285214 
901.22     0.204      12946.783  1          3          2.421875   0.7801284  2.080867   2.277981996536255 1.917258   1.599958   1.65       1.018      1.949      1.501109004020691 1.270567059516907 0.2405835  0.2405835  0.2698466  80.04761000000001 576.0471   1.483      0.3571761  0.4104092  63.16941   0.08867615 0.04840911 0.1289432 
901.3200000000001 0.205      13077.216  1          3          2.429088   0.8990218  2.058817   2.178432941436768 1.939603   1.669481   1.672      1.023      1.971      1.488934993743897 1.291787981987 0.2426636  0.2426636  0.2720782  87.47356000000001 565.8792999999999 1.468      0.3589269  0.4123589  63.39888   0.08913523 0.04876242 0.129508  
901.42     0.206      13199.374  1          3          2.436654   1.178243   2.040919   2.116735935211182 1.971044   1.792999   1.699      1.027      2.018      1.479359030723572 1.309141993522644 0.2442392  0.2442392  0.2738335  93.55373   555.4089   1.454      0.3596573  0.4133318  63.68007   0.08967977000000001 0.04913571 0.1302238 
901.52     0.206      13333.745  1          3          2.444573   1.201503   2.042019   2.078773975372315 2.024613   1.912903   1.719      1.026      2.045      1.472072958946228 1.338569045066834 0.2453665  0.2453665  0.275169   98.16163   544.6563   1.44       0.3593182  0.4132827  64.00759   0.09031043 0.04952952 0.1310913 
