~Version
 VERS              .         2.0                           : CWLS LOG ASCII STANDARD - VERSION 2.0
 WRAP              .         NO                            : ONE LINE PER DEPTH STEP
 DLM               .         SPACE                         : DELIMITING CHARACTER(SPACE TAB OR COMMA)
~Well Information
#_______________________________________________________________________________
#
#PARAMETER_NAME    .UNIT     VALUE                         : DESCRIPTION
#_______________________________________________________________________________
STRT               .M        880.02                        : First reference value
STOP               .M        1179.92                       : Last reference value
STEP               .M        0.1                           : Step increment
NULL               .         -9999                         : Missing value
COMP               .                                       : Company
WELL               .         3759                          : Well name
FLD                .         УЗЕНЬ                         : Field
LOC                .                                       : Location
CNTY               .                                       : County
STAT               .                                       : State
CTRY               .                                       : Country
SRVC               .                                       : Service Company
DATE               .         7/10/2004                     : Date
UWI                .                                       : Unique Well ID
Block              .         7                             : 
Category           .         Нефтяная                      : 
Condition          .         В работе                      : 
Date               .         08.06.2004                    : 
EREF               .m        91                            : 100.8
GRP                .         1111                          : Group name
Gorizont           .         15                            : 14
ISS                .         BKZ                           : Well surveys
Interpretator      .         Алпанова Н.К.                 : 
Kupol              .         основной                      : osnovnoi
Moii_15_vosst2     .         15_vosst2                     : 
Mud                .                                       : 
Mud_density        .                                       : 
Mud_resistivity    .                                       : 
Mud_density        .                                       : 
Mud_resistivity    .                                       : 
NGDU               .         НГДУ-2                        : 
ORIGINALWELLNAME   .         3759                          : 
Spud_date          .         2004                          : 1961
Spud_date          .         2004                          : 1961
TIME               .         13_33                         : LOG TIME
Viscosity          .                                       : 
X                  .m        42334.8                       : 46154
Y                  .m        84384.13                      : 85761.93
YEAR               .         2018                          : 
~Parameter Information Block
#_______________________________________________________________________________
#
#PARAMETER_NAME    .UNIT     VALUE                         : DESCRIPTION
#_______________________________________________________________________________
SET                .         LQC_KAZNIPI_Petrel            : 
TLFamily_CALI      .         Caliper                       : 
TLFamily_CILD      .         Conductivity                  : 
TLFamily_COLL      .         Net Reservoir Flag            : 
TLFamily_CSAT      .         Fluid Code                    : 
TLFamily_DEPT      .         Measured Depth                : 
TLFamily_GR        .         Russian Gamma Ray             : 
TLFamily_GZ1       .         Gradient 045                  : 
TLFamily_GZ2       .         Gradient 105                  : 
TLFamily_GZ3       .         Gradient 225                  : 
TLFamily_GZ4       .         Gradient 425                  : 
TLFamily_GZ5       .         Gradient 850                  : 
TLFamily_LLS       .         Lateral Log Resistivity       : 
TLFamily_MINV      .         Micro Gradient Resistivity    : 
TLFamily_MNOR      .         Micro Resistivity             : 
TLFamily_NGLD      .         Neutron Far                   : 
TLFamily_OGZ       .         Gradient Inverted 225         : 
TLFamily_PHIE      .         Effective Porosity            : 
TLFamily_PHIEN     .         Effective Porosity            : 
TLFamily_PHIT      .         Porosity                      : 
TLFamily_PRMB      .         Permeability                  : 
TLFamily_PRMB_DGR  .         Permeability                  : 
TLFamily_RT        .         Formation Resistivity         : 
TLFamily_SOIL_ARCHIE .         Oil Saturation                : 
TLFamily_SOIL_DW   .         Oil Saturation                : 
TLFamily_SP        .         Spontaneous Potential         : 
TLFamily_VSH_FIN   .         Shale Volume                  : 
TLFamily_VSH_GR    .         Shale Volume                  : 
TLFamily_VSH_SP    .         Shale Volume                  : 
~Curve Information
#_______________________________________________________________________________
#
#LOGNAME           .UNIT     LOG_ID                        : DESCRIPTION
#_______________________________________________________________________________
DEPT               .M                                      : Колонка глубины 
CALI               .м                                      : Каверномер 
CILD               .мСм/м                                  : Индукционный каротаж 
COLL               .unitless                               :  
CSAT               .unitless                               :  
GR                 .мкР/ч                                  : Гамма каротаж 
GZ1                .Ом·м                                   :  
GZ2                .Ом·м                                   :  
GZ3                .Ом·м                                   : Градиент-зонд  длиной 2.25м 
GZ4                .Ом·м                                   :  
GZ5                .Ом·м                                   :  
LLS                .Ом·м                                   : Боковой каротаж 
MINV               .Ом·м                                   : Микро-градиент зонд 
MNOR               .Ом·м                                   : Микро-потенциал зонд 
NGLD               .у.е.                                   : Показания зонда НГК-60 аппаратуры ДРСТ-3-90 
OGZ                .Ом·м                                   :  
PHIE               .м3/м3                                  : Описание 
PHIEN              .v/v                                    :  
PHIT               .м3/м3                                  : Описание 
PRMB               .mD                                     :  
PRMB_DGR           .mD                                     :  
RT                 .ohmm                                   : УЭС пласта 
SOIL_ARCHIE        .v/v                                    :  
SOIL_DW            .v/v                                    :  
SP                 .мВ                                     : Потенциал самополяризации 
VSH_FIN            .unitless                               : Описание 
VSH_GR             .unitless                               : Shale volume 
VSH_SP             .unitless                               : Shale Volume 
~Ascii
880.02     0.255      6072.248046875 -9999      -9999      -9999      1.655576   5.162083   4.05437183380127 1.414511   1.871155   2.574      1.801      3          -9999      10.80564022064209 -9999      -9999      -9999      -9999      -9999      3.161      -9999      -9999      -9999      -9999      -9999      -9999     
880.12     0.258      6049.72314453125 -9999      -9999      -9999      1.941099   5.395385   4.25032901763916 1.453725   1.776913   3.689      2.509      4.01       -9999      11.18712043762207 -9999      -9999      -9999      -9999      -9999      3.173      -9999      -9999      -9999      -9999      0.09914096 0.800000011920929
880.22     0.26       6012.89599609375 -9999      -9999      -9999      2.356799   5.910747   4.567492008209229 1.522469   1.727008   5.641      2.891      4.782      -9999      11.50965023040772 -9999      -9999      -9999      -9999      -9999      3.192      -9999      -9999      -9999      -9999      0.06267701000000001 0.800000011920929
880.3200000000001 0.26       5952.05517578125 -9999      -9999      -9999      3.142951   6.602448   5.075521945953369 1.553568   1.711236   7.328      2.602      4.526      -9999      11.21759033203125 -9999      -9999      -9999      -9999      -9999      3.225      -9999      -9999      -9999      -9999      0.0460554  0.800000011920929
880.42     0.26       5868.68017578125 -9999      -9999      -9999      3.925214   6.820553   5.316171169281006 1.493682   1.694696   7.542      1.936      3.536      -9999      10.5810604095459 -9999      -9999      -9999      -9999      -9999      3.271      -9999      -9999      -9999      -9999      0.0420814  0.800000011920929
880.52     0.259      5783.72607421875 -9999      -9999      -9999      4.331041   6.516636   5.233346939086914 1.32696    1.664635   6.032      1.382      2.585      -9999      9.842537879943848 -9999      -9999      -9999      -9999      -9999      3.319      -9999      -9999      -9999      -9999      0.04774817 0.800000011920929
880.62     0.258      5700.88720703125 -9999      -9999      -9999      4.026258   5.414906   4.92901086807251 1.12173    1.645219   4.124      1.182      2.305      -9999      10.09535980224609 -9999      -9999      -9999      -9999      -9999      3.367      -9999      -9999      -9999      -9999      0.06288684 0.800000011920929
880.72     0.258      5601.76513671875 -9999      -9999      -9999      3.053296   4.129411   4.394714832305908 1.011515   1.641038   2.838      1.113      2.286      -9999      11.10737991333008 -9999      -9999      -9999      -9999      -9999      3.427      -9999      -9999      -9999      -9999      0.08249374 0.800000011920929
880.8200000000001 0.259      5475.82421875 -9999      -9999      -9999      2.058691   3.597365   4.049787044525147 0.9793222  1.653945   2.516      1.149      2.342      -9999      12.63228988647461 -9999      -9999      -9999      -9999      -9999      3.507      -9999      -9999      -9999      -9999      0.09279265 0.800000011920929
880.92     0.261      5334.84521484375 -9999      -9999      -9999      1.727346   3.537487   4.052133083343506 1.014845   1.706828   3.14       1.293      2.511      -9999      14.96022987365723 -9999      -9999      -9999      -9999      -9999      3.6        -9999      -9999      -9999      -9999      0.08992275 0.800000011920929
881.02     0.262      5217.52685546875 -9999      -9999      -9999      1.800891   3.8117     4.21356201171875 1.169578   1.767089   4.462      1.6        2.899      -9999      15.98258972167969 -9999      -9999      -9999      -9999      -9999      3.68       -9999      -9999      -9999      -9999      0.07482339 0.800000011920929
881.12     0.263      5125.076171875 -9999      -9999      -9999      2.02649    4.577421   4.563858032226563 1.307299   1.833672   6.568      2.205      4.121      -9999      15.9363899230957 -9999      -9999      -9999      -9999      -9999      3.746      -9999      -9999      -9999      -9999      0.05692529 0.800000011920929
881.22     0.264      5034.7451171875 -9999      -9999      -9999      2.406239   5.222018   4.985960006713867 1.489784   1.908602   10.252     3.131      6.95       -9999      15.4071798324585 -9999      -9999      -9999      -9999      -9999      3.813      -9999      -9999      -9999      -9999      0.04313515 0.800000011920929
881.3200000000001 0.265      4932.9150390625 -9999      -9999      -9999      2.824257   5.987576   5.647173881530762 1.808483   1.91823    14.836     3.947      10.217     -9999      14.39474010467529 -9999      -9999      -9999      -9999      -9999      3.893      -9999      -9999      -9999      -9999      0.03466599 0.800000011920929
881.42     0.265      4826.22412109375 -9999      -9999      -9999      3.592476   7.244413   6.009305953979492 2.032024   1.902354   18.695     4.134      11.199     -9999      13.21189022064209 -9999      -9999      -9999      -9999      -9999      3.978      -9999      -9999      -9999      -9999      0.02966635 0.800000011920929
881.52     0.264      4743.10107421875 -9999      -9999      -9999      4.855402   8.152565   6.243572235107422 2.269249   1.8584     20.106     3.799      9.609      -9999      11.36336994171143 -9999      -9999      -9999      -9999      -9999      4.047      -9999      -9999      -9999      -9999      0.02591932 0.800000011920929
881.62     0.264      4680.18115234375 -9999      -9999      -9999      5.499594   8.654127   6.632327079772949 2.698111   1.782139   19.501     3.712      8.03       -9999      10.10960006713867 -9999      -9999      -9999      -9999      -9999      4.102      -9999      -9999      -9999      -9999      0.02442233 0.800000011920929
881.72     0.264      4621.14990234375 -9999      -9999      -9999      5.895242   9.435232   6.944122791290283 3.083751   1.720883   18.708     4.161      8.665      -9999      9.436327934265137 -9999      -9999      -9999      -9999      -9999      4.154      -9999      -9999      -9999      -9999      0.02555803 0.800000011920929
881.8200000000001 0.264      4559.7060546875 -9999      -9999      -9999      6.880507   11.1172    7.174269199371338 3.318403   1.632446   18.56      4.598      10.793     -9999      8.890572547912598 -9999      -9999      -9999      -9999      -9999      4.21       -9999      -9999      -9999      -9999      0.03016626 0.800000011920929
881.92     0.264      4503.69091796875 -9999      -9999      -9999      7.983159   12.65864   7.385931015014648 3.540515   1.472138   18.573     4.438      12.08      -9999      8.023109436035156 -9999      -9999      -9999      -9999      -9999      4.262      -9999      -9999      -9999      -9999      0.0393079  0.800000011920929
882.02     0.264      4470.7919921875 -9999      -9999      5.815979   8.380233   14.30756   7.732995986938477 3.856815   1.312559   16.842     3.87       11.772     2.771697044372559 7.444240093231201 -9999      -9999      -9999      -9999      -9999      4.293      -9999      -9999      70.45765   -9999      0.05385306 0.800000011920929
882.12     0.264      4461.90380859375 -9999      -9999      5.871212   8.192681   16.86999   7.960925102233887 3.991395   1.199455   13.777     3.396      10.441     2.715075016021729 6.888895988464356 -9999      -9999      -9999      -9999      -9999      4.302      -9999      -9999      70.46357   -9999      0.07125996 0.800000011920929
882.22     0.264      4478.2451171875 -9999      -9999      5.933247   7.917511   18.4143    8.188373565673828 3.98653    1.060701   10.703     3.172      9.322      2.64578104019165 5.975739002227783 -9999      -9999      -9999      -9999      -9999      4.286      -9999      -9999      70.52743   -9999      0.08276992 0.800000011920929
882.3200000000001 0.265      4523.52587890625 -9999      -9999      6.000163   7.672993   18.95366   8.704360008239746 3.930501   0.861937   9.065      3.051      9.009      2.566099882125855 5.311148166656494 -9999      -9999      -9999      -9999      -9999      4.244      -9999      -9999      70.63393   -9999      0.08210865000000001 0.800000011920929
