~Version
 VERS              .         2.0                           : CWLS LOG ASCII STANDARD - VERSION 2.0
 WRAP              .         NO                            : ONE LINE PER DEPTH STEP
 DLM               .         SPACE                         : DELIMITING CHARACTER(SPACE TAB OR COMMA)
~Well Information
#_______________________________________________________________________________
#
#PARAMETER_NAME    .UNIT     VALUE                         : DESCRIPTION
#_______________________________________________________________________________
STRT               .M        880.02                        : First reference value
STOP               .M        1179.92                       : Last reference value
STEP               .M        0.1                           : Step increment
NULL               .         -9999                         : Missing value
COMP               .                                       : Company
WELL               .         3759                          : Well name
FLD                .         УЗЕНЬ                         : Field
LOC                .                                       : Location
CNTY               .                                       : County
STAT               .                                       : State
CTRY               .                                       : Country
SRVC               .                                       : Service Company
DATE               .         7/10/2004                     : Date
UWI                .                                       : Unique Well ID
Block              .         7                             : 
Category           .         Нефтяная                      : 
Condition          .         В работе                      : 
Date               .         08.06.2004                    : 
EREF               .m        91                            : 100.8
GRP                .         1111                          : Group name
Gorizont           .         15                            : 14
ISS                .         BKZ                           : Well surveys
Interpretator      .         Алпанова Н.К.                 : 
Kupol              .         основной                      : osnovnoi
Moii_15_vosst2     .         15_vosst2                     : 
Mud                .                                       : 
Mud_density        .                                       : 
Mud_resistivity    .                                       : 
Mud_density        .                                       : 
Mud_resistivity    .                                       : 
NGDU               .         НГДУ-2                        : 
ORIGINALWELLNAME   .         3759                          : 
Spud_date          .         2004                          : 1961
Spud_date          .         2004                          : 1961
TIME               .         13_33                         : LOG TIME
Viscosity          .                                       : 
X                  .m        42334.8                       : 46154
Y                  .m        84384.13                      : 85761.93
YEAR               .         2018                          : 
~Parameter Information Block
#_______________________________________________________________________________
#
#PARAMETER_NAME    .UNIT     VALUE                         : DESCRIPTION
#_______________________________________________________________________________
SET                .         LQC_KAZNIPI_Petrel            : 
TLFamily_CALI      .         Caliper                       : 
TLFamily_CILD      .         Conductivity                  : 
TLFamily_COLL      .         Net Reservoir Flag            : 
TLFamily_CSAT      .         Fluid Code                    : 
TLFamily_DEPT      .         Measured Depth                : 
TLFamily_GR        .         Russian Gamma Ray             : 
TLFamily_GZ1       .         Gradient 045                  : 
TLFamily_GZ2       .         Gradient 105                  : 
TLFamily_GZ3       .         Gradient 225                  : 
TLFamily_GZ4       .         Gradient 425                  : 
TLFamily_GZ5       .         Gradient 850                  : 
TLFamily_LLS       .         Lateral Log Resistivity       : 
TLFamily_MINV      .         Micro Gradient Resistivity    : 
TLFamily_MNOR      .         Micro Resistivity             : 
TLFamily_NGLD      .         Neutron Far                   : 
TLFamily_OGZ       .         Gradient Inverted 225         : 
TLFamily_PHIE      .         Effective Porosity            : 
TLFamily_PHIEN     .         Effective Porosity            : 
TLFamily_PHIT      .         Porosity                      : 
TLFamily_PRMB      .         Permeability                  : 
TLFamily_PRMB_DGR  .         Permeability                  : 
TLFamily_RT        .         Formation Resistivity         : 
TLFamily_SOIL_ARCHIE .         Oil Saturation                : 
TLFamily_SOIL_DW   .         Oil Saturation                : 
TLFamily_SP        .         Spontaneous Potential         : 
TLFamily_VSH_FIN   .         Shale Volume                  : 
TLFamily_VSH_GR    .         Shale Volume                  : 
TLFamily_VSH_SP    .         Shale Volume                  : 
~Curve Information
#_______________________________________________________________________________
#
#LOGNAME           .UNIT     LOG_ID                        : DESCRIPTION
#_______________________________________________________________________________
DEPT               .M                                      : Колонка глубины 
CALI               .м                                      : Каверномер 
CILD               .мСм/м                                  : Индукционный каротаж 
COLL               .unitless                               :  
CSAT               .unitless                               :  
GR                 .мкР/ч                                  : Гамма каротаж 
GZ1                .Ом·м                                   :  
GZ2                .Ом·м                                   :  
GZ3                .Ом·м                                   : Градиент-зонд  длиной 2.25м 
GZ4                .Ом·м                                   :  
GZ5                .Ом·м                                   :  
LLS                .Ом·м                                   : Боковой каротаж 
MINV               .Ом·м                                   : Микро-градиент зонд 
MNOR               .Ом·м                                   : Микро-потенциал зонд 
NGLD               .у.е.                                   : Показания зонда НГК-60 аппаратуры ДРСТ-3-90 
OGZ                .Ом·м                                   :  
PHIE               .м3/м3                                  : Описание 
PHIEN              .v/v                                    :  
PHIT               .м3/м3                                  : Описание 
PRMB               .mD                                     :  
PRMB_DGR           .mD                                     :  
RT                 .ohmm                                   : УЭС пласта 
SOIL_ARCHIE        .v/v                                    :  
SOIL_DW            .v/v                                    :  
SP                 .мВ                                     : Потенциал самополяризации 
VSH_FIN            .unitless                               : Описание 
VSH_GR             .unitless                               : Shale volume 
VSH_SP             .unitless                               : Shale Volume 
~Ascii
# ...
1151.12    0.216      7881.955   1          2          7.186256   4.300699   12.96459   4.307951   1.87398    1.430842   2.8        1.573      3.004      1.568018   2.52385    0.2016195  0.2016195  0.2575823  15.1929    26.76903   2.8        0.4513258  0.5317957  51.02961   0.1695843  0.1694978  0.1696707 
1151.22    0.215      8028.515   1          2          7.282954   3.785173   10.92638   4.106498   1.648467   1.242427   2.638      1.589      3.089      1.534975   2.390674   0.2070917  0.2070917  0.2636392  19.18667   23.77993   2.638      0.4487721  0.5294183  50.30437   0.1713557  0.1778941  0.1648173 
1151.32    0.213      8159.827   1          2          7.374738   3.406464   9.311551   4.027779   1.543805   1.161578   2.569      1.589      3.094      1.503511   2.33859    0.2120704  0.2120704  0.2694065  23.72556   21.25208   2.569      0.4533027  0.5337656  49.73552   0.1737456  0.1862481  0.1612432 
1151.42    0.211      8307.526   1          2          7.460604   2.908764   8.499278   3.955137   1.465401   1.103107   2.532      1.573      3.075      1.474183   2.325      0.2164921  0.2164921  0.2747822  28.64952   19.13109   2.532      0.4593727  0.5397297  49.33664   0.1766366  0.1944183  0.158855  
1151.52    0.21       8491.181000000001 1          2          7.539977   2.641463   7.781577   4.026059   1.366189   1.015622   2.5        1.554      3.055      1.447363   2.325      0.2203215  0.2203215  0.2796984  33.73235   17.35925   2.5        0.4643786  0.5448967  49.11533   0.17993    0.202289   0.157571  
1151.62    0.209      8704.295   1          2          7.612636   2.536612   6.722591   4.157094   1.318083   0.9481953  2.478      1.533      3.038      1.423241   2.3244     0.2235476  0.2235476  0.2841198  38.70817   15.88153   2.478      0.468919   0.5497764  49.07344   0.1835521  0.2097731  0.1573312 
1151.72    0.208      8913.031999999999 1          2          7.678647   2.462853   5.891765   4.304229   1.293752   0.9001223  2.476      1.528      3.054      1.401853   2.320799   0.2261794  0.2261794  0.2880403  43.30608   14.64835   2.476      0.4741059  0.5553499  49.20752   0.1874572  0.2168122  0.1581023 
1151.82    0.208      9105.018   1          2          7.738201   2.3923     5.271822   4.506872   1.278908   0.8737499  2.479      1.541      3.109      1.383095   2.312389   0.2282437  0.2282437  0.2914788  47.2918    13.61819   2.479      0.4785474  0.5603458  49.50936   0.1916212  0.2233651  0.1598774 
1151.92    0.208      9258.112999999999 1          2          7.791553   2.393919   4.933173   4.572196   1.257228   0.8472302  2.46       1.549      3.14       1.366741   2.290957   0.229784   0.229784   0.2944764  50.50283   12.75696   2.46       0.4797179  0.5624977  49.96664   0.1960375  0.2294038  0.1626712 
1152.02    0.208      9373.989   1          2          7.838971   2.305657   4.627964   4.549745   1.220857   0.8089795  2.401      1.511      3.054      1.352486   2.257776   0.2308549  0.2308549  0.2970893  52.86279   12.03737   2.401      0.4758837  0.5602753  50.56363   0.2007105  0.2349076  0.1665135 
1152.12    0.209      9482.18    1          2          7.880703   2.185088   4.190855   4.473976   1.189615   0.7828009  2.317      1.428      2.874      1.339985   2.233791   0.2315166  0.2315166  0.2993808  54.37595   11.43772   2.317      0.4683783  0.5548989  51.28168   0.2056492  0.2398606  0.1714378 
1152.22    0.21       9599.564   1          2          7.917006   2.185633   3.931353   4.313526   1.171012   0.7728171  2.247      1.336      2.714      1.328896   2.222398   0.2318294  0.2318294  0.3014133  55.10632   10.94042   2.247      0.4613038  0.5500428  52.09966   0.2108603  0.2442541  0.1774665 
1152.32    0.211      9721.942999999999 1          2          7.948081   2.065046   3.815402   4.136669   1.167279   0.7775953  2.205      1.277      2.644      1.318916   2.229598   0.2318521  0.2318521  0.3032428  55.15971   10.53195   2.205      0.4565592  0.5473869  52.99401   0.2163353  0.2480788  0.1845917 
1152.42    0.212      9823.629999999999 1          2          7.974011   1.893209   3.683396   4.013002   1.174444   0.7882086  2.192      1.276      2.671      1.309795   2.233193   0.2316431  0.2316431  0.3049146  54.67004   10.20281   2.192      0.4546208  0.5473208  53.93896   0.2220348  0.251316   0.1927537 
1152.52    0.213      9899.542   1          2          7.994761   1.837315   3.538409   3.887095   1.186089   0.807359   2.185      1.321      2.732      1.301366   2.217784   0.2312602  0.2312602  0.3064596  53.78453   9.946851000000001 2.185      0.4530141  0.5476109  54.90656   0.2278772  0.2539369  0.2018175 
1152.62    0.215      9954.847   1          2          8.010322   1.829157   3.418286   3.660966   1.197106   0.8263977  2.182      1.367      2.77       1.293536   2.2006     0.2307615  0.2307615  0.3078949  52.65273   9.759123000000001 2.182      0.4516313  0.5481188  55.86713   0.2337376  0.2559203  0.2115549 
1152.72    0.215      10005.874  -9999      -9999      8.020739   1.834626   3.201795   3.465046   1.217687   0.8411225  2.177      1.369      2.753      1.286284   2.1988     0.230207   0.230207   0.3092242  51.42204   9.635431000000001 2.177      0.4498891  0.5482773  56.79012   0.2394461  0.2572567  0.2216355 
1152.82    0.216      10061.336  -9999      -9999      8.026209   1.774057   3.051101   3.352475   1.253655   0.8616303  2.145      1.35       2.751      1.279638   2.200793   0.2296595  0.2296595  0.3104423  50.23535   9.571109999999999 2.145      0.4449032  0.545508   57.64505   0.2447963  0.2579613  0.2316314 
1152.92    0.216      10119.275  -9999      -9999      8.027189   1.705799   3.006333   3.26796    1.289708   0.894915   2.082      1.346      2.8        1.273665   2.216977   0.2291809  0.2291809  0.3115371  49.22028   9.559624   2.082      0.4360597  0.5392263  58.40295   0.2495644  0.2580878  0.2410411 
1153.02    0.216      10167.566  -9999      -9999      8.024358   1.70946    2.974987   3.15072    1.354073   0.9255583  2.048      1.344      2.803      1.268446   2.243364   0.22883    0.22883    0.3124938  48.48917   9.592829999999999 2.048      0.4309265  0.5359499  59.0377    0.2535266  0.2577226  0.2493306 
1153.12    0.216      10203.766  -9999      -9999      8.018561   1.689759   2.97935    3.104799   1.48108    0.952642   2.061      1.323      2.779      1.264048   2.282635   0.2286608  0.2286608  0.3133     48.14045   9.661155000000001 2.061      0.4322481  0.5379675  59.5275    0.2564824  0.2569768  0.2559881 
1153.22    0.216      10230.538  -9999      -9999      8.010831   1.684007   2.962768   3.09619    1.62487    0.9663196  2.104      1.286      2.715      1.260492   2.346931   0.2287173  0.2287173  0.3139519  48.25676   9.753038999999999 2.104      0.4378441  0.5433142  59.85632   0.2582864  0.2559855  0.2605874 
1153.32    0.215      10256.469  -9999      -9999      8.002448   1.687803   2.956835   3.074372   1.747897   0.9683992  2.108      1.27       2.671      1.257724   2.384797   0.229028   0.229028   0.3144591  48.90042   9.853664   2.108      0.4390085  0.5444348  60.01534   0.2588822  0.2549148  0.2628496 
1153.42    0.215      10287.117  -9999      -9999      7.994869   1.680999   2.96354    3.041573   1.8185     0.9674152  2.086      1.242      2.56       1.255617   2.390598   0.2295997  0.2295997  0.3148453  50.10743   9.945535   2.086      0.4374626  0.5428418  60.00412   0.2583199  0.2539507  0.2626892 
1153.52    0.213      10322.926  -9999      -9999      7.989702   1.670242   2.932394   3.009371   1.896505   0.9620178  2.054      1.189      2.347      1.25395    2.382595   0.2304191  0.2304191  0.315151   51.88948   10.00866   2.054      0.4351223  0.5402385  59.83112   0.2567633  0.2532954  0.2602312 
1153.62    0.213      10357.888  -9999      -9999      7.988639   1.586212   2.851773   2.966826   2.044843   0.9595     2.014      1.124      2.138      1.252416   2.370595   0.2314541  0.2314541  0.3154321  54.23122   10.0217    2.014      0.432106   0.5368034  59.51364   0.2544787  0.2531608  0.2557966 
