~Version
 VERS              .         2.0                           : CWLS LOG ASCII STANDARD - VERSION 2.0
 WRAP              .         NO                            : ONE LINE PER DEPTH STEP
 DLM               .         SPACE                         : DELIMITING CHARACTER(SPACE TAB OR COMMA)
~Well Information
#_______________________________________________________________________________
#
#PARAMETER_NAME    .UNIT     VALUE                         : DESCRIPTION
#_______________________________________________________________________________
STRT               .M        880.02                        : First reference value
STOP               .M        1179.92                       : Last reference value
STEP               .M        0.1                           : Step increment
NULL               .         -9999                         : Missing value
COMP               .                                       : Company
WELL               .         3759                          : Well name
FLD                .         УЗЕНЬ                         : Field
LOC                .                                       : Location
CNTY               .                                       : County
STAT               .                                       : State
CTRY               .                                       : Country
SRVC               .                                       : Service Company
DATE               .         7/10/2004                     : Date
UWI                .                                       : Unique Well ID
Block              .         7                             : 
Category           .         Нефтяная                      : 
Condition          .         В работе                      : 
Date               .         08.06.2004                    : 
EREF               .m        91                            : 100.8
GRP                .         1111                          : Group name
Gorizont           .         15                            : 14
ISS                .         BKZ                           : Well surveys
Interpretator      .         Алпанова Н.К.                 : 
Kupol              .         основной                      : osnovnoi
Moii_15_vosst2     .         15_vosst2                     : 
Mud                .                                       : 
Mud_density        .                                       : 
Mud_resistivity    .                                       : 
Mud_density        .                                       : 
Mud_resistivity    .                                       : 
NGDU               .         НГДУ-2                        : 
ORIGINALWELLNAME   .         3759                          : 
Spud_date          .         2004                          : 1961
Spud_date          .         2004                          : 1961
TIME               .         13_33                         : LOG TIME
Viscosity          .                                       : 
X                  .m        42334.8                       : 46154
Y                  .m        84384.13                      : 85761.93
YEAR               .         2018                          : 
~Parameter Information Block
#_______________________________________________________________________________
#
#PARAMETER_NAME    .UNIT     VALUE                         : DESCRIPTION
#_______________________________________________________________________________
SET                .         LQC_KAZNIPI_Petrel            : 
TLFamily_CALI      .         Caliper                       : 
TLFamily_CILD      .         Conductivity                  : 
TLFamily_COLL      .         Net Reservoir Flag            : 
TLFamily_CSAT      .         Fluid Code                    : 
TLFamily_DEPT      .         Measured Depth                : 
TLFamily_GR        .         Russian Gamma Ray             : 
TLFamily_GZ1       .         Gradient 045                  : 
TLFamily_GZ2       .         Gradient 105                  : 
TLFamily_GZ3       .         Gradient 225                  : 
TLFamily_GZ4       .         Gradient 425                  : 
TLFamily_GZ5       .         Gradient 850                  : 
TLFamily_LLS       .         Lateral Log Resistivity       : 
TLFamily_MINV      .         Micro Gradient Resistivity    : 
TLFamily_MNOR      .         Micro Resistivity             : 
TLFamily_NGLD      .         Neutron Far                   : 
TLFamily_OGZ       .         Gradient Inverted 225         : 
TLFamily_PHIE      .         Effective Porosity            : 
TLFamily_PHIEN     .         Effective Porosity            : 
TLFamily_PHIT      .         Porosity                      : 
TLFamily_PRMB      .         Permeability                  : 
TLFamily_PRMB_DGR  .         Permeability                  : 
TLFamily_RT        .         Formation Resistivity         : 
TLFamily_SOIL_ARCHIE .         Oil Saturation                : 
TLFamily_SOIL_DW   .         Oil Saturation                : 
TLFamily_SP        .         Spontaneous Potential         : 
TLFamily_VSH_FIN   .         Shale Volume                  : 
TLFamily_VSH_GR    .         Shale Volume                  : 
TLFamily_VSH_SP    .         Shale Volume                  : 
~Curve Information
#_______________________________________________________________________________
#
#LOGNAME           .UNIT     LOG_ID                        : DESCRIPTION
#_______________________________________________________________________________
DEPT               .M                                      : Колонка глубины 
CALI               .м                                      : Каверномер 
CILD               .мСм/м                                  : Индукционный каротаж 
COLL               .unitless                               :  
CSAT               .unitless                               :  
GR                 .мкР/ч                                  : Гамма каротаж 
GZ1                .Ом·м                                   :  
GZ2                .Ом·м                                   :  
GZ3                .Ом·м                                   : Градиент-зонд  длиной 2.25м 
GZ4                .Ом·м                                   :  
GZ5                .Ом·м                                   :  
LLS                .Ом·м                                   : Боковой каротаж 
MINV               .Ом·м                                   : Микро-градиент зонд 
MNOR               .Ом·м                                   : Микро-потенциал зонд 
NGLD               .у.е.                                   : Показания зонда НГК-60 аппаратуры ДРСТ-3-90 
OGZ                .Ом·м                                   :  
PHIE               .м3/м3                                  : Описание 
PHIEN              .v/v                                    :  
PHIT               .м3/м3                                  : Описание 
PRMB               .mD                                     :  
PRMB_DGR           .mD                                     :  
RT                 .ohmm                                   : УЭС пласта 
SOIL_ARCHIE        .v/v                                    :  
SOIL_DW            .v/v                                    :  
SP                 .мВ                                     : Потенциал самополяризации 
VSH_FIN            .unitless                               : Описание 
VSH_GR             .unitless                               : Shale volume 
VSH_SP             .unitless                               : Shale Volume 
~Ascii
# ...
1015.62    0.263      7124.027   -9999      -9999      4.525104   3.567494   5.877164   4.314486980438232 3.22681    2.279094   3.195      1.66       5.435      1.802826   3.877799987792969 0.1296721  0.1296721  0.2145421  0.7063164  20.68559   2.694      0.167828   0.3535594  82.5166    0.2571819  0.1883142  0.3260495 
1015.72    0.264      7136.51    -9999      -9999      4.5744     3.264205   5.628975   4.168296813964844 3.124367   2.223954   2.972      1.487      4.555      1.771108   3.884593009948731 0.1352733  0.1352733  0.2203558  0.8969091  19.35893   2.69       0.1973611  0.374062   82.3044    0.2578258  0.1934807  0.3221709 
1015.82    0.263      7144.787   -9999      -9999      4.628994   2.974368   5.52888    4.111998081207275 3.069443   2.141788   2.976      1.536      4.266      1.738397   3.903389930725098 0.1411002  0.1411002  0.2263519  1.149944   17.98877   2.686      0.2257673  0.3939369  82.03441   0.2583384  0.1993679  0.3173089 
1015.92    0.263      7152.738   -9999      -9999      4.686005   2.785805   5.463084   4.121997833251953 3.031473   2.091582   3.046      1.682      4.287      1.705811   3.923397064208984 0.1469853  0.1469853  0.2323249  1.478025   16.66136   2.683      0.2524447  0.412709   81.70594   0.2586049  0.205707   0.3115028 
1016.02    0.263      7162.289   -9999      -9999      4.74215    2.731481   5.608223   4.126794815063477 3.059184   2.07103    3.105      1.809      4.642      1.674573   3.937988042831421 0.1527499  0.1527499  0.2380508  1.88998    15.44987   2.68       0.2766972  0.4297811  81.31978   0.2584874  0.2121468  0.304828  
1016.12    0.264      7172.849   -9999      -9999      4.793959   2.749606   5.836897   4.104354858398438 3.070709   2.043761   3.064      1.794      4.828      1.645926   3.964776992797852 0.1582169  0.1582169  0.2433018  2.386263   14.41024   2.676      0.298022   0.4446847  80.87851   0.2578332  0.2182679  0.2973985 
1016.22    0.265      7183.431   -9999      -9999      4.837969   2.770429   5.898376   4.035546779632568 3.033033   1.989278   2.862      1.629      4.57       1.621067   4.002940177917481 0.1632181  0.1632181  0.2478585  2.95361    13.58227   2.672      0.3163135  0.4572654  80.38691   0.2564861  0.2236062  0.2893659 
1016.32    0.267      7193.383   -9999      -9999      4.87101    2.659616   5.65842    3.872651100158691 2.948241   1.932581   2.593      1.419      3.998      1.601084   4.062283992767334 0.1676003  0.1676003  0.2515214  3.560597   12.99207   2.668      0.3314396  0.467341   79.85195   0.2543062  0.2276996  0.2809129 
1016.42    0.27       7203.111   -9999      -9999      4.890467   2.517859   5.174499   3.67494797706604 2.84709    1.902158   2.366      1.272      3.55       1.586895   4.159000873565674 0.171228   0.171228   0.254122   4.156386   12.65658   2.665      0.3434464  0.4748868  79.28283   0.2511941  0.230145   0.2722432 
1016.52    0.272      7210.556   -9999      -9999      4.894411   2.303039   4.796017   3.542407035827637 2.779452   1.892906   2.253      1.195      3.318      1.579193   4.330226898193359 0.1739883  0.1739883  0.2555339  4.675669   12.58963   2.662      0.3521855  0.4797235  78.69083   0.2471078  0.230644   0.2635717 
1016.62    0.273      7210.955   -9999      -9999      4.881731   2.137234   4.659684   3.430974960327148 2.723449   1.885339   2.201      1.16       3.191      1.578396   4.473238945007324 0.1757941  0.1757941  0.25568    5.050001   12.80613   2.662      0.3579851  0.4820954  78.08916   0.2420783  0.2290438  0.2551129 
1016.72    0.273      7200.218   -9999      -9999      4.852151   2.034955   4.41853    3.262135982513428 2.661457   1.894061   2.152      1.117      3.059      1.58464    4.654068946838379 0.1765856  0.1765856  0.2545355  5.223389   13.32572   2.666      0.3609426  0.4820699  77.4925    0.2362117  0.2253541  0.2470694 
1016.82    0.271      7182.7     -9999      -9999      4.806239   1.890629   4.000823   3.170543909072876 2.652295   1.912454   2.126      1.047      2.763      1.597768   4.992300033569336 0.1763337  0.1763337  0.252129   5.167558   14.17426   2.672      0.360822   0.4794445  76.91637   0.229683   0.2197445  0.2396214 
1016.92    0.27       7160.318   -9999      -9999      4.745312   1.636606   3.634239   3.118669986724854 2.663314   1.955663   2.166      0.991      2.516      1.617343   5.295657157897949 0.175045   0.175045   0.248541   4.891211   15.38433   2.681      0.3577399  0.4743335  76.37608   0.2227152  0.2125154  0.2329151 
1017.02    0.268      7128.392   -9999      -9999      4.671334   1.570623   3.493669   3.067579984664917 2.690566   2.040711   2.327      1.047      2.718      1.642677   5.480239868164063 0.1727634  0.1727634  0.2438972  4.437666   16.99329   2.693      0.3517186  0.466783   75.88581   0.2155572  0.2040567  0.2270578 
1017.12    0.266      7083.182   -9999      -9999      4.586773   1.680751   3.579993   3.106228113174439 2.769415   2.11875    2.573      1.221      3.385      1.672911   5.675886154174805 0.1695644  0.1695644  0.2383554  3.871701   19.03954   2.71       0.3430223  0.4570622  75.4576    0.2084577  0.1947995  0.2221159 
1017.22    0.264      7024.975   -9999      -9999      4.494422   1.664378   3.586107   3.187252998352051 2.884652   2.162266   2.834      1.414      4.137      1.707066   6.020173072814941 0.1655529  0.1655529  0.2320948  3.262871   21.55681   2.732      0.3317195  0.4452793  75.10041   0.2016421  0.1851685  0.2181157 
1017.32    0.263      6962.492   -9999      -9999      4.397208   1.676576   3.474511   3.287477970123291 2.968943   2.217952   3.052      1.591      4.706      1.744085   6.29789400100708 0.1608616  0.1608616  0.2253092  2.671194   24.56699   2.757      0.3176995  0.431387   74.81956   0.1952958  0.1755445  0.2150472 
1017.42    0.261      6905.554   -9999      -9999      4.297962   1.77506    3.457917   3.479156017303467 3.069052   2.296794   3.385      1.837      5.249      1.782906   6.421399116516113 0.1556413  0.1556413  0.2181933  2.138028   28.07411   2.78       0.3005428  0.41506    74.61629   0.1895515  0.166235   0.212868  
1017.52    0.26       6853.964   -9999      -9999      4.199221   1.936881   3.609108   3.628695964813232 3.225672   2.339376   3.885      2.191      5.902      1.822536   6.402349948883057 0.1500492  0.1500492  0.2109291  1.684354   32.06012   2.801      0.2804385  0.3965076  74.48759   0.1844845  0.1574629  0.2115061 
1017.62    0.26       6793.773   -9999      -9999      4.103105   2.267794   4.036368   3.707108020782471 3.328106   2.358169   4.375      2.379      6.087      1.862097   6.327613830566406 0.1442396  0.1442396  0.2036776  1.314694   36.4831    2.825      0.2582366  0.3765247  74.42625   0.1801153  0.1493689  0.2108618 
1017.72    0.26       6715.748   -9999      -9999      4.011263   2.778124   4.485372   3.799398899078369 3.35531    2.383593   4.539      2.212      5.442      1.900839   6.192732810974121 0.1383583  0.1383583  0.1965763  1.02303    41.27832   2.858      0.2350293  0.3561142  74.42157   0.1764183  0.1420237  0.2108128 
1017.82    0.26       6621.008   -9999      -9999      3.924829   2.987803   4.586072   3.776048898696899 3.313879   2.410419   4.246      1.876      4.539      1.938165   5.94044303894043 0.1325357  0.1325357  0.1897343  0.798071   46.36551   2.899      0.2111318  0.3355622  74.46005   0.1733289  0.1354413  0.2112165 
1017.92    0.261      6526.013   -9999      -9999      3.8444     2.985218   4.558579   3.693063974380493 3.226111   2.400189   3.812      1.601      4.292      1.973654   5.438316822052002 0.12688    0.12688    0.1832293  0.6270244  51.66077   2.942      0.1862344  0.3145662  74.52684   0.1707553  0.1295906  0.2119199 
1018.02    0.261      6444.289   -9999      -9999      3.770184   3.04566    4.637631   3.602588891983032 3.154874   2.379379   3.458      1.473      4.44       2.007063   4.945353031158447 0.1214698  0.1214698  0.1771054  0.4978215  57.08196   2.979      0.1596988  0.292506   74.607     0.1685927  0.1244162  0.2127692 
