~Version
 VERS              .         2.0                           : CWLS LOG ASCII STANDARD - VERSION 2.0
 WRAP              .         NO                            : ONE LINE PER DEPTH STEP
 DLM               .         SPACE                         : DELIMITING CHARACTER(SPACE TAB OR COMMA)
~Well Information
#_______________________________________________________________________________
#
#PARAMETER_NAME    .UNIT     VALUE                         : DESCRIPTION
#_______________________________________________________________________________
STRT               .M        880.02                        : First reference value
STOP               .M        1179.92                       : Last reference value
STEP               .M        0.1                           : Step increment
NULL               .         -9999                         : Missing value
COMP               .                                       : Company
WELL               .         3759                          : Well name
FLD                .         УЗЕНЬ                         : Field
LOC                .                                       : Location
CNTY               .                                       : County
STAT               .                                       : State
CTRY               .                                       : Country
SRVC               .                                       : Service Company
DATE               .         7/10/2004                     : Date
UWI                .                                       : Unique Well ID
Block              .         7                             : 
Category           .         Нефтяная                      : 
Condition          .         В работе                      : 
Date               .         08.06.2004                    : 
EREF               .m        91                            : 100.8
GRP                .         1111                          : Group name
Gorizont           .         15                            : 14
ISS                .         BKZ                           : Well surveys
Interpretator      .         Алпанова Н.К.                 : 
Kupol              .         основной                      : osnovnoi
Moii_15_vosst2     .         15_vosst2                     : 
Mud                .                                       : 
Mud_density        .                                       : 
Mud_resistivity    .                                       : 
Mud_density        .                                       : 
Mud_resistivity    .                                       : 
NGDU               .         НГДУ-2                        : 
ORIGINALWELLNAME   .         3759                          : 
Spud_date          .         2004                          : 1961
Spud_date          .         2004                          : 1961
TIME               .         13_33                         : LOG TIME
Viscosity          .                                       : 
X                  .m        42334.8                       : 46154
Y                  .m        84384.13                      : 85761.93
YEAR               .         2018                          : 
~Parameter Information Block
#_______________________________________________________________________________
#
#PARAMETER_NAME    .UNIT     VALUE                         : DESCRIPTION
#_______________________________________________________________________________
SET                .         LQC_KAZNIPI_Petrel            : 
TLFamily_CALI      .         Caliper                       : 
TLFamily_CILD      .         Conductivity                  : 
TLFamily_COLL      .         Net Reservoir Flag            : 
TLFamily_CSAT      .         Fluid Code                    : 
TLFamily_DEPT      .         Measured Depth                : 
TLFamily_GR        .         Russian Gamma Ray             : 
TLFamily_GZ1       .         Gradient 045                  : 
TLFamily_GZ2       .         Gradient 105                  : 
TLFamily_GZ3       .         Gradient 225                  : 
TLFamily_GZ4       .         Gradient 425                  : 
TLFamily_GZ5       .         Gradient 850                  : 
TLFamily_LLS       .         Lateral Log Resistivity       : 
TLFamily_MINV      .         Micro Gradient Resistivity    : 
TLFamily_MNOR      .         Micro Resistivity             : 
TLFamily_NGLD      .         Neutron Far                   : 
TLFamily_OGZ       .         Gradient Inverted 225         : 
TLFamily_PHIE      .         Effective Porosity            : 
TLFamily_PHIEN     .         Effective Porosity            : 
TLFamily_PHIT      .         Porosity                      : 
TLFamily_PRMB      .         Permeability                  : 
TLFamily_PRMB_DGR  .         Permeability                  : 
TLFamily_RT        .         Formation Resistivity         : 
TLFamily_SOIL_ARCHIE .         Oil Saturation                : 
TLFamily_SOIL_DW   .         Oil Saturation                : 
TLFamily_SP        .         Spontaneous Potential         : 
TLFamily_VSH_FIN   .         Shale Volume                  : 
TLFamily_VSH_GR    .         Shale Volume                  : 
TLFamily_VSH_SP    .         Shale Volume                  : 
~Curve Information
#_______________________________________________________________________________
#
#LOGNAME           .UNIT     LOG_ID                        : DESCRIPTION
#_______________________________________________________________________________
DEPT               .M                                      : Колонка глубины 
CALI               .м                                      : Каверномер 
CILD               .мСм/м                                  : Индукционный каротаж 
COLL               .unitless                               :  
CSAT               .unitless                               :  
GR                 .мкР/ч                                  : Гамма каротаж 
GZ1                .Ом·м                                   :  
GZ2                .Ом·м                                   :  
GZ3                .Ом·м                                   : Градиент-зонд  длиной 2.25м 
GZ4                .Ом·м                                   :  
GZ5                .Ом·м                                   :  
LLS                .Ом·м                                   : Боковой каротаж 
MINV               .Ом·м                                   : Микро-градиент зонд 
MNOR               .Ом·м                                   : Микро-потенциал зонд 
NGLD               .у.е.                                   : Показания зонда НГК-60 аппаратуры ДРСТ-3-90 
OGZ                .Ом·м                                   :  
PHIE               .м3/м3                                  : Описание 
PHIEN              .v/v                                    :  
PHIT               .м3/м3                                  : Описание 
PRMB               .mD                                     :  
PRMB_DGR           .mD                                     :  
RT                 .ohmm                                   : УЭС пласта 
SOIL_ARCHIE        .v/v                                    :  
SOIL_DW            .v/v                                    :  
SP                 .мВ                                     : Потенциал самополяризации 
VSH_FIN            .unitless                               : Описание 
VSH_GR             .unitless                               : Shale volume 
VSH_SP             .unitless                               : Shale Volume 
~Ascii
# ...
1073.12    0.279      8256.459999999999 -9999      -9999      7.479338   2.480667   4.648839   2.591594934463501 2.208057   1.51339    2.409      1.296      3.354      1.400066   2.95019006729126 0.1711737  0.1711737  0.2883678  4.146777   2.836419   2.325      0.2998271  0.4785457  74.92566   0.3551337  0.4238703  0.2863971 
1073.22    0.279      8244.921   -9999      -9999      7.481906   2.201134   4.532052   2.525999069213867 2.122486   1.496427   2.319      1.291      3.408      1.391721   2.938193082809448 0.1730565  0.1730565  0.2898975  4.493495   2.828567   2.328      0.3068858  0.482799   74.75981   0.3540635  0.4243503  0.2837768 
1073.32    0.278      8242.062   -9999      -9999      7.48152    2.031439   4.337086   2.51959490776062 2.096379   1.484673   2.307      1.298      3.445      1.383643   2.953994035720825 0.1750967  0.1750967  0.2913783  4.902      2.829746   2.329      0.3140632  0.4868982  74.5472    0.3523686  0.424278   0.2804593 
1073.42    0.278      8246.233   -9999      -9999      7.477298   1.99828    4.23088    2.503971099853516 2.097515   1.503866   2.344      1.32       3.417      1.376286   2.973165035247803 0.1771715  0.1771715  0.2927267  5.35556    2.842669   2.328      0.3209281  0.4906142  74.3121    0.3501672  0.4234894  0.2768449 
1073.52    0.279      8256.986999999999 -9999      -9999      7.468715   1.953725   4.236795   2.475785970687866 2.119801   1.53653    2.401      1.339      3.336      1.369991   3.007976055145264 0.1791708  0.1791708  0.2938807  5.832237   2.869119   2.325      0.3271252  0.4937676  74.07927   0.3476059  0.4218909  0.2733209 
1073.62    0.28       8271.790999999999 -9999      -9999      7.455618   1.932415   4.2446     2.463582992553711 2.172085   1.557556   2.45       1.346      3.244      1.364967   3.035989999771118 0.181003   0.181003   0.2948017  6.30627    2.909958   2.32       0.3323872  0.496232   73.8717    0.3448444  0.4194631  0.2702257 
1073.72    0.281      8288.814   -9999      -9999      7.438221   1.939065   4.224489   2.496822118759155 2.232118   1.569572   2.474      1.345      3.209      1.361287   3.065284013748169 0.182602   0.182602   0.2954762  6.751334   2.965104   2.316      0.3369451  0.4982624  73.70876   0.342043   0.4162598  0.2678262 
1073.82    0.281      8311.696   -9999      -9999      7.41703    1.972784   4.11559    2.575530052185059 2.268222   1.583437   2.47       1.333      3.233      1.358893   3.140501022338867 0.1839297  0.1839297  0.295915   7.144676   3.033692   2.309      0.3401792  0.4994092  73.60471   0.3393493  0.4123909  0.2663077 
1073.92    0.282      8342.991   -9999      -9999      7.392657   1.967091   3.926181   2.660924911499023 2.307578   1.588819   2.46       1.31       3.207      1.357601   3.244235992431641 0.1849813  0.1849813  0.2961518  7.472398   3.114544   2.301      0.342377   0.4999288  73.56805   0.3368804  0.4079854  0.2657752 
1074.02    0.282      8381.651   -9999      -9999      7.365843   1.920015   3.818      2.718960046768189 2.38065    1.595074   2.47       1.311      3.063      1.357136   3.312397003173828 0.1857776  0.1857776  0.296237   7.730558   3.205982   2.29       0.343358   0.4996823  73.60125   0.3347254  0.4031933  0.2662574 
1074.12    0.282      8420.593999999999 -9999      -9999      7.337612   1.945822   3.860013   2.831468105316162 2.436967   1.614272   2.546      1.4        3.05       1.357173   3.3211989402771 0.1863525  0.1863525  0.2962302  7.922423   3.305156   2.279      0.3436411  0.4990942  73.7013    0.3329628  0.3982086  0.2677169 
1074.22    0.283      8453.671   -9999      -9999      7.309024   2.076215   4.002787   3.020946025848389 2.4526     1.649859   2.722      1.542      3.383      1.357361   3.308950901031494 0.1867542  0.1867542  0.2961957  8.059319   3.408713   2.271      0.3437889  0.4986137  73.86038   0.3316409  0.3932237  0.2700581 
1074.32    0.284      8480.566000000001 -9999      -9999      7.281232   2.220162   4.080475   3.128798007965088 2.447392   1.679259   2.866      1.606      3.683      1.357355   3.266776084899902 0.1870365  0.1870365  0.2961968  8.15695    3.512493   2.263      0.3435655  0.4980356  74.06722   0.3307888  0.3884375  0.2731401 
1074.42    0.285      8508.134   -9999      -9999      7.255379   2.2012     3.985366   3.138596057891846 2.416922   1.686676   2.864      1.573      3.652      1.356838   3.228893995285034 0.1872553  0.1872553  0.2962916  8.233421999999999 3.611869   2.256      0.3432796  0.4975906  74.3084    0.330413   0.3840374  0.2767885 
1074.52    0.286      8540.705   -9999      -9999      7.232444   2.14364    3.878604   3.149998903274536 2.35509    1.674634   2.733      1.527      3.362      1.355559   3.170171022415161 0.1874633  0.1874633  0.296526   8.306799   3.70238    2.247      0.3426825  0.4970483  74.56982   0.3304929  0.3801758  0.28081   
1074.62    0.287      8576.188   -9999      -9999      7.213173   2.155679   3.832945   3.156994104385376 2.304736   1.660035   2.616      1.574      3.377      1.353332   3.144798040390015 0.1877093  0.1877093  0.2969342  8.394418   3.780178   2.238      0.3421952  0.4967177  74.83794   0.3309844  0.3769612  0.2850077 
1074.72    0.286      8604.967000000001 -9999      -9999      7.198091   2.212061   3.948896   3.169399976730347 2.29104    1.651855   2.622      1.632      3.664      1.350036   3.151599884033203 0.1880343  0.1880343  0.2975384  8.511554   3.842208   2.231      0.342219   0.4968909  75.10091   0.3318307  0.3744642  0.2891972 
1074.82    0.285      8626.985000000001 -9999      -9999      7.187373   2.273091   4.023479   3.169599056243897 2.288179   1.648179   2.667      1.605      3.869      1.345618   3.151398897171021 0.1884716  0.1884716  0.2983481  8.671802   3.886906   2.225      0.3427185  0.4975001  75.34915   0.3329592  0.3726998  0.2932186 
1074.92    0.285      8647.103999999999 -9999      -9999      7.180797   2.263642   4.02474    3.158380031585693 2.284119   1.656026   2.683      1.5        3.824      1.340103   3.161983966827393 0.1890463  0.1890463  0.2993592  8.886983000000001 3.914586   2.22       0.3437667  0.4985651  75.57545   0.3342814  0.3716214  0.2969413 
1075.02    0.285      8667.67    -9999      -9999      7.177796   2.197533   4.016612   3.124718904495239 2.278416   1.668174   2.607      1.389      3.604      1.333588   3.188572883605957 0.189774   0.189774   0.3005534  9.167135   3.927282   2.214      0.3451278  0.4998531  75.77442   0.335695   0.3711303  0.3002596 
1075.12    0.286      8687.063   -9999      -9999      7.177616   2.120895   4.015226   3.058501958847046 2.2732     1.670255   2.483      1.323      3.46       1.326237   3.233388900756836 0.1906608  0.1906608  0.3019007  9.520495   3.928048   2.21       0.3472278  0.5016728  75.94158   0.3370905  0.3711008  0.3030803 
1075.22    0.287      8700.215   -9999      -9999      7.17931    2.050859   4.022995   2.960885047912598 2.270958   1.663619   2.379      1.315      3.477      1.318271   3.331465005874634 0.1917072  0.1917072  0.3033609  9.954980000000001 3.920873   2.206      0.3497795  0.503752   76.07255   0.3383446  0.371378   0.3053112 
1075.32    0.287      8707.521000000001 -9999      -9999      7.181737   1.977391   3.999353   2.900146007537842 2.258654   1.655746   2.353      1.351      3.591      1.309962   3.442460060119629 0.1929107  0.1929107  0.3048839  10.47929   3.910619   2.204      0.3530386  0.5062563  76.16226   0.3393127  0.3717754  0.3068501 
1075.42    0.286      8709.919   -9999      -9999      7.18362    1.953918   3.951388   2.861391067504883 2.236635   1.64064    2.394      1.389      3.638      1.301627   3.513161897659302 0.1942666  0.1942666  0.3064118  11.10315   3.90268    2.204      0.3569731  0.5091162  76.20488   0.3398341  0.372084   0.3075843 
1075.52    0.285      8707.564   -9999      -9999      7.183659   1.929631   3.87627    2.840368986129761 2.221458   1.625809   2.431      1.384      3.581      1.293607   3.560678005218506 0.1957667  0.1957667  0.3078817  11.83675   3.902514   2.204      0.3612668  0.5120334  76.19389   0.3397425  0.3720904  0.3073947 
