~Version
 VERS              .         2.0                           : CWLS LOG ASCII STANDARD - VERSION 2.0
 WRAP              .         NO                            : ONE LINE PER DEPTH STEP
 DLM               .         SPACE                         : DELIMITING CHARACTER(SPACE TAB OR COMMA)
~Well Information
#_______________________________________________________________________________
#
#PARAMETER_NAME    .UNIT     VALUE                         : DESCRIPTION
#_______________________________________________________________________________
STRT               .M        880.02                        : First reference value
STOP               .M        1179.92                       : Last reference value
STEP               .M        0.1                           : Step increment
NULL               .         -9999                         : Missing value
COMP               .                                       : Company
WELL               .         3759                          : Well name
FLD                .         УЗЕНЬ                         : Field
LOC                .                                       : Location
CNTY               .                                       : County
STAT               .                                       : State
CTRY               .                                       : Country
SRVC               .                                       : Service Company
DATE               .         7/10/2004                     : Date
UWI                .                                       : Unique Well ID
Block              .         7                             : 
Category           .         Нефтяная                      : 
Condition          .         В работе                      : 
Date               .         08.06.2004                    : 
EREF               .m        91                            : 100.8
GRP                .         1111                          : Group name
Gorizont           .         15                            : 14
ISS                .         BKZ                           : Well surveys
Interpretator      .         Алпанова Н.К.                 : 
Kupol              .         основной                      : osnovnoi
Moii_15_vosst2     .         15_vosst2                     : 
Mud                .                                       : 
Mud_density        .                                       : 
Mud_resistivity    .                                       : 
Mud_density        .                                       : 
Mud_resistivity    .                                       : 
NGDU               .         НГДУ-2                        : 
ORIGINALWELLNAME   .         3759                          : 
Spud_date          .         2004                          : 1961
Spud_date          .         2004                          : 1961
TIME               .         13_33                         : LOG TIME
Viscosity          .                                       : 
X                  .m        42334.8                       : 46154
Y                  .m        84384.13                      : 85761.93
YEAR               .         2018                          : 
~Parameter Information Block
#_______________________________________________________________________________
#
#PARAMETER_NAME    .UNIT     VALUE                         : DESCRIPTION
#_______________________________________________________________________________
SET                .         LQC_KAZNIPI_Petrel            : 
TLFamily_CALI      .         Caliper                       : 
TLFamily_CILD      .         Conductivity                  : 
TLFamily_COLL      .         Net Reservoir Flag            : 
TLFamily_CSAT      .         Fluid Code                    : 
TLFamily_DEPT      .         Measured Depth                : 
TLFamily_GR        .         Russian Gamma Ray             : 
TLFamily_GZ1       .         Gradient 045                  : 
TLFamily_GZ2       .         Gradient 105                  : 
TLFamily_GZ3       .         Gradient 225                  : 
TLFamily_GZ4       .         Gradient 425                  : 
TLFamily_GZ5       .         Gradient 850                  : 
TLFamily_LLS       .         Lateral Log Resistivity       : 
TLFamily_MINV      .         Micro Gradient Resistivity    : 
TLFamily_MNOR      .         Micro Resistivity             : 
TLFamily_NGLD      .         Neutron Far                   : 
TLFamily_OGZ       .         Gradient Inverted 225         : 
TLFamily_PHIE      .         Effective Porosity            : 
TLFamily_PHIEN     .         Effective Porosity            : 
TLFamily_PHIT      .         Porosity                      : 
TLFamily_PRMB      .         Permeability                  : 
TLFamily_PRMB_DGR  .         Permeability                  : 
TLFamily_RT        .         Formation Resistivity         : 
TLFamily_SOIL_ARCHIE .         Oil Saturation                : 
TLFamily_SOIL_DW   .         Oil Saturation                : 
TLFamily_SP        .         Spontaneous Potential         : 
TLFamily_VSH_FIN   .         Shale Volume                  : 
TLFamily_VSH_GR    .         Shale Volume                  : 
TLFamily_VSH_SP    .         Shale Volume                  : 
~Curve Information
#_______________________________________________________________________________
#
#LOGNAME           .UNIT     LOG_ID                        : DESCRIPTION
#_______________________________________________________________________________
DEPT               .M                                      : Колонка глубины 
CALI               .м                                      : Каверномер 
CILD               .мСм/м                                  : Индукционный каротаж 
COLL               .unitless                               :  
CSAT               .unitless                               :  
GR                 .мкР/ч                                  : Гамма каротаж 
GZ1                .Ом·м                                   :  
GZ2                .Ом·м                                   :  
GZ3                .Ом·м                                   : Градиент-зонд  длиной 2.25м 
GZ4                .Ом·м                                   :  
GZ5                .Ом·м                                   :  
LLS                .Ом·м                                   : Боковой каротаж 
MINV               .Ом·м                                   : Микро-градиент зонд 
MNOR               .Ом·м                                   : Микро-потенциал зонд 
NGLD               .у.е.                                   : Показания зонда НГК-60 аппаратуры ДРСТ-3-90 
OGZ                .Ом·м                                   :  
PHIE               .м3/м3                                  : Описание 
PHIEN              .v/v                                    :  
PHIT               .м3/м3                                  : Описание 
PRMB               .mD                                     :  
PRMB_DGR           .mD                                     :  
RT                 .ohmm                                   : УЭС пласта 
SOIL_ARCHIE        .v/v                                    :  
SOIL_DW            .v/v                                    :  
SP                 .мВ                                     : Потенциал самополяризации 
VSH_FIN            .unitless                               : Описание 
VSH_GR             .unitless                               : Shale volume 
VSH_SP             .unitless                               : Shale Volume 
~Ascii
# ...
975.8200000000001 0.224      10525.733  -9999      -9999      5.67964    2.31325    2.926453   2.323550939559937 2.638657   2.07719    3.35       1.624      4.12       1.339974045753479 2.617160081863403 0.129013   0.129013   0.2993828  0.6867379  4.380094   1.824      0          0.358487   95.62107   0.5162723  0.3549565  0.677588  
975.92     0.228      10485.54   -9999      -9999      5.733613   2.432584   3.262388   2.355397939682007 2.611418   2.041805   3.343      1.633      4.466      1.336652040481567 2.508876085281372 0.1286177  0.1286177  0.2999918  0.6752583  4.073482   1.831      0          0.3598059  95.49427   0.5193153  0.3656325  0.672998  
976.02     0.232      10451.549  -9999      -9999      5.8005     2.673795   3.585125   2.356584072113037 2.562529   2.000598   3.29       1.566      4.777      1.32861602306366 2.33770489692688 0.1297424  0.1297424  0.3014646  0.7084392000000001 3.723124   1.837      0.004500668 0.3648714  95.17154   0.5203704  0.3793094  0.6614315 
976.12     0.236      10425.479  -9999      -9999      5.878411   2.761841   3.720579   2.3262619972229 2.524295   1.956088   3.084      1.335      4.382      1.316290974617004 2.232095003128052 0.1321927  0.1321927  0.3037238  0.7864813000000001 3.352831   1.841      0.02159045 0.3729024  94.66743   0.5197911  0.3958867  0.6436954 
976.22     0.239      10402.974  -9999      -9999      5.964786   2.464336   3.725518   2.259357929229736 2.455655   1.916866   2.73       1.04       3.251      1.300253987312317 2.170490026473999 0.1356918  0.1356918  0.3066634  0.9130604  2.985202   1.845      0.04457516 0.3833857  94.00747   0.5180957000000001 0.4151132  0.6210782 
976.3200000000001 0.239      10383.33   -9999      -9999      6.056613   2.177839   3.78369    2.18411111831665 2.354619   1.891979   2.36       0.828      2.157      1.281201958656311 2.093379974365234 0.1399175  0.1399175  0.3101557  1.093378   2.638468   1.849      0.07070122 0.395379   93.22604   0.5158734  0.4365782  0.5951685 
976.42     0.235      10371.155  -9999      -9999      6.150598   2.203503   3.994647   2.139573097229004 2.291815   1.861542   2.145      0.784      1.658      1.259899020195007 2.075000047683716 0.144549   0.144549   0.3140606  1.33216    2.325253   1.851      0.09714671 0.407701   92.3635    0.5136715  0.4596975  0.5676454 
976.52     0.228      10373.012  -9999      -9999      6.24334    2.218479   4.184781   2.111561059951782 2.274176   1.848155   2.088      0.81       1.641      1.237138986587524 2.078984975814819 0.1493067  0.1493067  0.3182325  1.631849   2.052644   1.85       0.1220331  0.4195301  91.4627    0.5118963  0.4837112  0.5400814 
976.62     0.22       10384.289  -9999      -9999      6.331532   1.945906   4.123789   2.088593006134033 2.274191   1.836382   2.077      0.793      1.626      1.213701963424683 2.102742910385132 0.1539783  0.1539783  0.3225284  1.991635   1.823118   1.848      0.1448447  0.4307224  90.56572   0.5107577  0.5077088  0.5138066 
976.72     0.215      10402.24   -9999      -9999      6.41225    1.719917   4.007719   2.097999095916748 2.249708   1.813147   2.044      0.734      1.417      1.190330028533936 2.13897705078125 0.1584247  0.1584247  0.3268125  2.407512   1.63561    1.845      0.1651507  0.4409895  89.71039   0.5102660999999999 0.5307152000000001 0.489817  
976.8200000000001 0.212      10429.765  -9999      -9999      6.483163   1.625822   3.920618   2.095995903015137 2.214504   1.798449   1.995      0.691      1.254      1.167688012123108 2.16298508644104 0.1625727  0.1625727  0.3309627  2.873415   1.486861   1.84       0.1826932  0.450037   88.92786   0.510273   0.5517856  0.4687603 
976.92     0.211      10468.502  -9999      -9999      6.542643   1.505042   3.833225   2.112924098968506 2.194513   1.803998   1.948      0.682      1.334      1.146345019340515 2.18278694152832 0.1664009  0.1664009  0.334875   3.383029   1.37258    1.834      0.1978656  0.457973   88.24049   0.5105276  0.5701026  0.4509526 
977.02     0.211      10513.905  -9999      -9999      6.589743   1.509992   3.63112    2.155361890792847 2.172884   1.789609   1.904      0.68       1.538      1.126757979393005 2.206140041351318 0.169922   0.169922   0.3384653  3.931205   1.28835    1.826      0.2107445  0.464667   87.66126   0.5107372  0.5850375  0.4364369 
977.12     0.212      10553.182  -9999      -9999      6.624257   1.44576    3.394408   2.182796955108643 2.13651    1.760756   1.853      0.668      1.577      1.109284996986389 2.244175910949707 0.1731591  0.1731591  0.341668   4.5132     1.229928   1.819      0.2222101  0.4705966  87.19349   0.510633   0.5962294  0.4250366 
977.22     0.215      10584.419  -9999      -9999      6.646713   1.327151   3.247015   2.192394971847534 2.106734   1.745835   1.814      0.662      1.419      1.094197034835815 2.267792940139771 0.1761253  0.1761253  0.3444337  5.121836   1.193346   1.813      0.2324421  0.4757876  86.83215   0.5100254  0.603626   0.4164248 
977.3200000000001 0.217      10614.354  -9999      -9999      6.658308   1.287537   3.118472   2.201199054718018 2.089313   1.751      1.789      0.662      1.251      1.081676006317139 2.286943912506104 0.1788156  0.1788156  0.3467288  5.744557   1.174886   1.808      0.2415274  0.4802529  86.56538   0.5088278000000001 0.6074808  0.4101748 
977.42     0.22       10646.769  -9999      -9999      6.660778   1.295199   2.912933   2.199198007583618 2.06768    1.748036   1.767      0.665      1.257      1.071830034255981 2.330682039260864 0.1812047  0.1812047  0.3485335  6.36075    1.17099    1.803      0.2492695  0.4838462  86.3767    0.5070571  0.6083052  0.4058089 
977.52     0.224      10679.068  -9999      -9999      6.656235   1.210156   2.757108   2.20858097076416 2.032841   1.73521    1.738      0.682      1.42       1.064697027206421 2.3889000415802 0.1832521  0.1832521  0.3498411  6.941146   1.178166   1.797      0.2554162  0.4864129  86.24729   0.5048152  0.6067898000000001 0.4028407 
977.62     0.227      10702.464  -9999      -9999      6.647045   1.161347   2.672547   2.234350919723511 2.00879    1.719295   1.712      0.733      1.644      1.060248017311096 2.437582969665527 0.1849064  0.1849064  0.3506565  7.448587   1.192814   1.793      0.2604487  0.488362   86.15823   0.502273   0.6037359  0.4008101 
977.72     0.231      10718.53   -9999      -9999      6.635563   1.19879    2.589111   2.267190933227539 2.001      1.71492    1.723      0.813      1.917      1.058398962020874 2.466115951538086 0.1861172  0.1861172  0.3509954  7.843335   1.211372   1.791      0.2642556  0.4896766  86.09258   0.4996308  0.5999418  0.3993197 
977.8200000000001 0.235      10732.134  -9999      -9999      6.623919   1.08891    2.494015   2.282196044921875 2.001      1.72067    1.791      0.908      2.251      1.059026002883911 2.513367891311646 0.1868415  0.1868415  0.3508805  8.089404   1.230487   1.788      0.2661632  0.4899192  86.03677   0.4970879  0.5961187  0.3980571 
977.92     0.237      10745.523  -9999      -9999      6.613875   1.089607   2.461966   2.293992042541504 1.998037   1.730856   1.891      0.979      2.619      1.061982989311218 2.536194086074829 0.1870462  0.1870462  0.3503386  8.160341000000001 1.247217   1.786      0.2664776  0.4893703  85.98148   0.4948253  0.5928406000000001 0.3968101 
978.02     0.238      10757.365  -9999      -9999      6.606821   1.182923   2.470056   2.304398059844971 1.986622   1.727008   1.988      1.02       2.816      1.067108988761902 2.517961025238037 0.1867048  0.1867048  0.349399   8.042357000000001 1.259102   1.784      0.2649229  0.4878818  85.92218   0.4930128  0.5905489  0.3954768 
978.12     0.236      10763.937  -9999      -9999      6.603791   1.183991   2.534205   2.292978048324585 1.979197   1.71492    2.068      1.031      2.686      1.074224948883057 2.485785961151123 0.1857953  0.1857953  0.3480945  7.736392   1.264242   1.783      0.2615959  0.4855892  85.85912   0.4918156  0.5895673  0.3940639 
978.22     0.232      10765.152  -9999      -9999      6.605443   1.339964   2.577579   2.264739990234375 1.986138   1.710346   2.098      1.018      2.327      1.083129048347473 2.471195936203003 0.1843045  0.1843045  0.3464624  7.2598     1.261437   1.783      0.2563964  0.4824891  85.79682   0.4913876  0.5901024  0.3926728 
