~Version
 VERS              .         2.0                           : CWLS LOG ASCII STANDARD - VERSION 2.0
 WRAP              .         NO                            : ONE LINE PER DEPTH STEP
 DLM               .         SPACE                         : DELIMITING CHARACTER(SPACE TAB OR COMMA)
~Well Information
#_______________________________________________________________________________
#
#PARAMETER_NAME    .UNIT     VALUE                         : DESCRIPTION
#_______________________________________________________________________________
STRT               .M        880.02                        : First reference value
STOP               .M        1179.92                       : Last reference value
STEP               .M        0.1                           : Step increment
NULL               .         -9999                         : Missing value
COMP               .                                       : Company
WELL               .         3759                          : Well name
FLD                .         УЗЕНЬ                         : Field
LOC                .                                       : Location
CNTY               .                                       : County
STAT               .                                       : State
CTRY               .                                       : Country
SRVC               .                                       : Service Company
DATE               .         7/10/2004                     : Date
UWI                .                                       : Unique Well ID
Block              .         7                             : 
Category           .         Нефтяная                      : 
Condition          .         В работе                      : 
Date               .         08.06.2004                    : 
EREF               .m        91                            : 100.8
GRP                .         1111                          : Group name
Gorizont           .         15                            : 14
ISS                .         BKZ                           : Well surveys
Interpretator      .         Алпанова Н.К.                 : 
Kupol              .         основной                      : osnovnoi
Moii_15_vosst2     .         15_vosst2                     : 
Mud                .                                       : 
Mud_density        .                                       : 
Mud_resistivity    .                                       : 
Mud_density        .                                       : 
Mud_resistivity    .                                       : 
NGDU               .         НГДУ-2                        : 
ORIGINALWELLNAME   .         3759                          : 
Spud_date          .         2004                          : 1961
Spud_date          .         2004                          : 1961
TIME               .         13_33                         : LOG TIME
Viscosity          .                                       : 
X                  .m        42334.8                       : 46154
Y                  .m        84384.13                      : 85761.93
YEAR               .         2018                          : 
~Parameter Information Block
#_______________________________________________________________________________
#
#PARAMETER_NAME    .UNIT     VALUE                         : DESCRIPTION
#_______________________________________________________________________________
SET                .         LQC_KAZNIPI_Petrel            : 
TLFamily_CALI      .         Caliper                       : 
TLFamily_CILD      .         Conductivity                  : 
TLFamily_COLL      .         Net Reservoir Flag            : 
TLFamily_CSAT      .         Fluid Code                    : 
TLFamily_DEPT      .         Measured Depth                : 
TLFamily_GR        .         Russian Gamma Ray             : 
TLFamily_GZ1       .         Gradient 045                  : 
TLFamily_GZ2       .         Gradient 105                  : 
TLFamily_GZ3       .         Gradient 225                  : 
TLFamily_GZ4       .         Gradient 425                  : 
TLFamily_GZ5       .         Gradient 850                  : 
TLFamily_LLS       .         Lateral Log Resistivity       : 
TLFamily_MINV      .         Micro Gradient Resistivity    : 
TLFamily_MNOR      .         Micro Resistivity             : 
TLFamily_NGLD      .         Neutron Far                   : 
TLFamily_OGZ       .         Gradient Inverted 225         : 
TLFamily_PHIE      .         Effective Porosity            : 
TLFamily_PHIEN     .         Effective Porosity            : 
TLFamily_PHIT      .         Porosity                      : 
TLFamily_PRMB      .         Permeability                  : 
TLFamily_PRMB_DGR  .         Permeability                  : 
TLFamily_RT        .         Formation Resistivity         : 
TLFamily_SOIL_ARCHIE .         Oil Saturation                : 
TLFamily_SOIL_DW   .         Oil Saturation                : 
TLFamily_SP        .         Spontaneous Potential         : 
TLFamily_VSH_FIN   .         Shale Volume                  : 
TLFamily_VSH_GR    .         Shale Volume                  : 
TLFamily_VSH_SP    .         Shale Volume                  : 
~Curve Information
#_______________________________________________________________________________
#
#LOGNAME           .UNIT     LOG_ID                        : DESCRIPTION
#_______________________________________________________________________________
DEPT               .M                                      : Колонка глубины 
CALI               .м                                      : Каверномер 
CILD               .мСм/м                                  : Индукционный каротаж 
COLL               .unitless                               :  
CSAT               .unitless                               :  
GR                 .мкР/ч                                  : Гамма каротаж 
GZ1                .Ом·м                                   :  
GZ2                .Ом·м                                   :  
GZ3                .Ом·м                                   : Градиент-зонд  длиной 2.25м 
GZ4                .Ом·м                                   :  
GZ5                .Ом·м                                   :  
LLS                .Ом·м                                   : Боковой каротаж 
MINV               .Ом·м                                   : Микро-градиент зонд 
MNOR               .Ом·м                                   : Микро-потенциал зонд 
NGLD               .у.е.                                   : Показания зонда НГК-60 аппаратуры ДРСТ-3-90 
OGZ                .Ом·м                                   :  
PHIE               .м3/м3                                  : Описание 
PHIEN              .v/v                                    :  
PHIT               .м3/м3                                  : Описание 
PRMB               .mD                                     :  
PRMB_DGR           .mD                                     :  
RT                 .ohmm                                   : УЭС пласта 
SOIL_ARCHIE        .v/v                                    :  
SOIL_DW            .v/v                                    :  
SP                 .мВ                                     : Потенциал самополяризации 
VSH_FIN            .unitless                               : Описание 
VSH_GR             .unitless                               : Shale volume 
VSH_SP             .unitless                               : Shale Volume 
~Ascii
# ...
1033.12    0.296      12045.855  -9999      -9999      7.475282   1.239026   2.401424   1.443542957305908 1.305438   1.105375   1.676      0.599      0.919      1.068568   1.957160949707031 0.2265832  0.2265832  0.3491314  44.0583    2.84886    1.593      0.3450805  0.4980229  76.88689   0.3713585  0.4231134  0.3196036 
1033.22    0.294      11990.614  -9999      -9999      7.477751   1.160079   2.387066   1.425519943237305 1.34119    1.127049   1.619      0.598      0.847      1.067083   2.03842306137085 0.2264796  0.2264796  0.3494037  43.86422   2.841278   1.601      0.3463581  0.4994176  76.98753   0.3724973  0.4235741  0.3214206 
1033.32    0.29       11950.106  -9999      -9999      7.482081   1.072315   2.439821   1.469545960426331 1.390745   1.140354   1.64       0.653      0.834      1.065041   2.130062103271484 0.2264498  0.2264498  0.3497779  43.8085    2.828034   1.606      0.347239   0.5004886  77.0778    0.3737216  0.424383   0.3230602 
1033.42    0.287      11922.076  -9999      -9999      7.488298   1.06955    2.478539   1.537783980369568 1.428339   1.153075   1.725      0.736      0.862      1.062528   2.181992053985596 0.2264855  0.2264855  0.3502387  43.87514   2.809122   1.61       0.34809    0.5015316  77.15514   0.3750098  0.4255472  0.3244723 
1033.52    0.285      11898.171  -9999      -9999      7.496674   1.106127   2.497387   1.606840014457703 1.466616   1.167557   1.842      0.807      0.901      1.059613   2.195996046066284 0.2265693  0.2265693  0.3507729  44.0323    2.783848   1.613      0.3488691  0.5025209  77.21821   0.3763746  0.4271206  0.3256286 
1033.62    0.283      11873.367  -9999      -9999      7.507602   1.164304   2.553638   1.676799058914185 1.515898   1.167052   1.964      0.85       0.95       1.05636    2.198775053024292 0.2266736  0.2266736  0.3513692  44.22859   2.751211   1.617      0.3498861  0.5037307  77.26821   0.3778655  0.4291824  0.3265487 
1033.72    0.284      11848.225  -9999      -9999      7.52145    1.294621   2.624337   1.685958027839661 1.534418   1.159697   2.055      0.863      1.019      1.052841   2.170144081115723 0.2267584  0.2267584  0.3520143  44.38882   2.710403   1.62       0.3506629  0.504806   77.30987   0.3795633  0.4318093  0.3273173 
1033.82    0.285      11829.092  -9999      -9999      7.538538   1.443525   2.6556     1.714179992675781 1.534757   1.151223   2.105      0.85       1.134      1.049141   2.121309995651245 0.2267686  0.2267686  0.3526924  44.40806   2.660878   1.623      0.3512517  0.5058388  77.35227   0.3815874  0.4350732  0.3281017 
1033.92    0.288      11814.217  -9999      -9999      7.55906    1.525867   2.634029   1.720677971839905 1.520219   1.139811   2.079      0.807      1.205      1.04537    2.036570072174072 0.2266354  0.2266354  0.3533837  44.15656   2.602599   1.625      0.3512947  0.5066006  77.40857   0.3840857  0.4390252  0.3291462 
1034.02    0.293      11799.178  -9999      -9999      7.583057   1.541674   2.534908   1.682989001274109 1.483642   1.125651   1.987      0.721      1.135      1.041651   1.968950033187866 0.2262802  0.2262802  0.3540654  43.49269   2.536067   1.627      0.3507828  0.5071563  77.49536   0.387228   0.4436923  0.3307637 
1034.12    0.298      11781.953  -9999      -9999      7.610376   1.500418   2.400684   1.694198966026306 1.440219   1.11208    1.867      0.625      0.99       1.038118   1.940400004386902 0.2256208  0.2256208  0.3547131  42.2866    2.462391   1.629      0.3495057  0.5074134  77.63116   0.3911887  0.4490659  0.3333114 
1034.22    0.302      11764.129  -9999      -9999      7.640674   1.412228   2.347979   1.681493997573853 1.4195     1.112239   1.766      0.564      0.908      1.034907   1.939996004104614 0.2245766  0.2245766  0.3553016  40.44473   2.383185   1.632      0.3474359  0.5074298  77.83478   0.3961363  0.4551013  0.3371712 
1034.32    0.305      11750.414  -9999      -9999      7.67354    1.358562   2.358816   1.649166941642761 1.423213   1.122374   1.698      0.549      0.913      1.032151   1.957507014274597 0.2230702  0.2230702  0.3558068  37.92801   2.300142   1.634      0.3439766  0.5068106  78.12339   0.402232   0.4617402  0.3427238 
1034.42    0.307      11741.866  -9999      -9999      7.708549   1.262011   2.384628   1.676352024078369 1.441081   1.138332   1.652      0.556      0.887      1.029954   2.005901098251343 0.2210341  0.2210341  0.3562094  34.77324   2.214861   1.635      0.3389062  0.505471   78.51064   0.4096223  0.4689187  0.3503258 
1034.52    0.307      11737.965  -9999      -9999      7.745382   1.139227   2.405719   1.704990029335022 1.468302   1.14426    1.636      0.56       0.807      1.028382   2.052557945251465 0.2184126  0.2184126  0.3564976  31.09494   2.128553   1.635      0.3320009  0.503334   79.00505   0.4184395  0.4765916  0.3602874 
1034.62    0.306      11737.612  -9999      -9999      7.7838     1.06245    2.414966   1.726690053939819 1.488712   1.150781   1.648      0.584      0.749      1.027452   2.091645002365112 0.2151674  0.2151674  0.3566681  27.07574   2.042111   1.635      0.3232345  0.5004882  79.60902   0.4287901  0.4847282  0.3728519 
1034.72    0.303      11740.344  -9999      -9999      7.823659   1.033864   2.444206   1.763795018196106 1.522914   1.168876   1.692      0.638      0.771      1.027149   2.148768901824951 0.2112783  0.2112783  0.3567235  22.93745   1.956135   1.635      0.3123974  0.4968823  80.31811   0.4407431  0.4933172  0.3881689 
1034.82    0.3        11745.378  -9999      -9999      7.864899   1.081191   2.47897    1.757194995880127 1.575514   1.187433   1.764      0.707      0.828      1.027416   2.172998905181885 0.2067503  0.2067503  0.3566747  18.90933   1.870989   1.634      0.299099   0.49233    81.12117   0.4543163  0.5023639  0.4062688 
1034.92    0.297      11750.958  -9999      -9999      7.907532   1.143821   2.480565   1.775105953216553 1.610605   1.19188    1.837      0.759      0.897      1.028134   2.176599979400635 0.201621   0.201621   0.3565431  15.19389   1.78686    1.633      0.2833883  0.4869836  82.00066   0.4694607  0.5118906  0.4270307 
1035.02    0.294      11755.325  -9999      -9999      7.951576   1.219968   2.47092    1.80453896522522 1.625838   1.189078   1.883      0.787      0.95       1.029147   2.170984983444214 0.1959628  0.1959628  0.3563573  11.93616   1.703918   1.633      0.2654002  0.4810372  82.93404   0.4860441  0.5219224  0.4501657 
1035.12    0.292      11758.135  -9999      -9999      7.996908   1.296537   2.461808   1.765907049179077 1.63586    1.185019   1.893      0.787      0.957      1.03029    2.154400110244751 0.1898853  0.1898853  0.3561479  9.210729000000001 1.622568   1.632      0.2447472  0.4742512  83.89498   0.503826   0.5324529  0.475199  
1035.22    0.289      11758.658  -9999      -9999      8.043258   1.301379   2.410358   1.734773993492127 1.648617   1.179353   1.879      0.757      0.935      1.031413   2.151599884033203 0.1835313  0.1835313  0.355942   7.024286   1.543407   1.632      0.2220242  0.4670645  84.85509   0.5224568000000001 0.5434396  0.5014739 
1035.32    0.287      11755.547  -9999      -9999      8.090168   1.297901   2.337843   1.757982015609741 1.650979   1.170511   1.862      0.726      0.932      1.032384   2.147594928741455 0.1770738  0.1770738  0.3557641  5.333282   1.46722    1.633      0.1976026  0.4596539  85.78584   0.5414857  0.5547899  0.5281814 
1035.42    0.285      11748.151  -9999      -9999      8.137062   1.316065   2.323376   1.773800015449524 1.64912    1.155623   1.868      0.738      0.986      1.033092   2.133985042572022 0.1707066  0.1707066  0.3556343  4.064985   1.394819   1.634      0.171836   0.4520796  86.66002   0.560387   0.5663733  0.5544006 
1035.52    0.285      11739.176  -9999      -9999      8.18323    1.402818   2.387935   1.770594000816345 1.651959   1.139978   1.908      0.78       1.113      1.033464   2.113178014755249 0.1646325  0.1646325  0.3555661  3.137266   1.327029   1.635      0.1455317  0.444607   87.45313   0.5785868  0.5780136  0.5791599 
