~Version
 VERS              .         2.0                           : CWLS LOG ASCII STANDARD - VERSION 2.0
 WRAP              .         NO                            : ONE LINE PER DEPTH STEP
 DLM               .         SPACE                         : DELIMITING CHARACTER(SPACE TAB OR COMMA)
~Well Information
#_______________________________________________________________________________
#
#PARAMETER_NAME    .UNIT     VALUE                         : DESCRIPTION
#_______________________________________________________________________________
STRT               .M        843.7                         : First reference value
STOP               .M        1227.9                        : Last reference value
STEP               .M        0.2                           : Step increment
NULL               .         -9999                         : Missing value
COMP               .                                       : Company
WELL               .         3888                          : Well name
FLD                .         Узень                         : Field
LOC                .                                       : Location
CNTY               .                                       : County
STAT               .                                       : State
CTRY               .                                       : Country
SRVC               .                                       : Service Company
DATE               .                                       : Date
UWI                .                                       : Unique Well ID
Block              .         7                             : 
Cartographic_reference_system .         GCS_WGS_1984                  : ESRI,PE_10_3_1- <?xml version="1.0" encoding="utf-16"?><ILateBoundCoordinateReferenceSystem name="GCS_WGS_1984"><AuthorityCode>EPSG,4326</AuthorityCode></ILateBoundCoordinateReferenceSystem>
Category           .         Нефтяная                      : 
Condition          .         В работе                      : 
Date               .         18.07.2007                    : 
EREF               .m        91.7                          : 100.8
Gorizont           .         14                            : 14
HZCS               .GCS_WGS_1984 WGS_1984_EASE-Grid_2.0_Global : ESRI,PE_10_3_1- <?xml version="1.0" encoding="utf-16"?><ILateBoundCoordinateReferenceSystem name="WGS_1984_EASE-Grid_2.0_Global"><AuthorityCode>EPSG,6933</AuthorityCode></ILateBoundCoordinateReferenceSystem>
Interpretator      .         Кушербаева А.С                : 
Kupol              .         основной                      : osnovnoi
LATI               .dega     0.6623499522                  : GCS_WGS_1984
LONG               .dega     0.4338720478                  : GCS_WGS_1984
Mud                .                                       : 
Mud_density        .                                       : 
Mud_resistivity    .                                       : 
NGDU               .         НГДУ-2                        : 
ORIGINALWELLNAME   .         3888                          : 
Spud_date          .         1990                          : 1961
Viscosity          .                                       : 
X                  .m        41862.7                       : 46154
Y                  .m        84496.33                      : 85761.93
YEAR               .         2019г                         : 
Исправлено         .         14                            : 
~Parameter Information Block
#_______________________________________________________________________________
#
#PARAMETER_NAME    .UNIT     VALUE                         : DESCRIPTION
#_______________________________________________________________________________
SET                .         LQC_KAZNIPI_Petrel            : 
TLFamily_CALI      .         Caliper                       : 
TLFamily_CILD      .         Conductivity                  : 
TLFamily_COLL      .         Net Reservoir Flag            : 
TLFamily_CSAT      .         Fluid Code                    : 
TLFamily_DEPT      .         Measured Depth                : 
TLFamily_GR        .         Russian Gamma Ray             : 
TLFamily_GZ1       .         Gradient 045                  : 
TLFamily_GZ2       .         Gradient 105                  : 
TLFamily_GZ3       .         Gradient 225                  : 
TLFamily_GZ4       .         Gradient 425                  : 
TLFamily_GZ5       .         Gradient 850                  : 
TLFamily_LLS       .         Lateral Log Resistivity       : 
TLFamily_MINV      .         Micro Gradient Resistivity    : 
TLFamily_MNOR      .         Micro Resistivity             : 
TLFamily_NGLD      .         Neutron Gamma                 : 
TLFamily_OGZ       .         Gradient Inverted 225         : 
TLFamily_PHIE      .         Effective Porosity            : 
TLFamily_PHIEN     .         Effective Porosity            : 
TLFamily_PHIT      .         Porosity                      : 
TLFamily_PRMB      .         Permeability                  : 
TLFamily_PRMB_DGR  .         Permeability                  : 
TLFamily_RT        .         Formation Resistivity         : 
TLFamily_SOIL_ARCHIE .         Oil Saturation                : 
TLFamily_SOIL_DW   .         Oil Saturation                : 
TLFamily_SP        .         Spontaneous Potential         : 
TLFamily_VSH_FIN   .         Shale Volume                  : 
TLFamily_VSH_GR    .         Shale Volume                  : 
TLFamily_VSH_SP    .         Shale Volume                  : 
~Curve Information
#_______________________________________________________________________________
#
#LOGNAME           .UNIT     LOG_ID                        : DESCRIPTION
#_______________________________________________________________________________
DEPT               .M                                      : Колонка глубины 
CALI               .м                                      : Каверномер 
CILD               .мСм/м                                  : Индукционный каротаж 
COLL               .unitless                               : Описание 
CSAT               .unitless                               : Описание 
GR                 .uR/h                                   : Гамма каротаж 
GZ1                .Ohmm                                   : Градиент-зонд  длиной 0.45м 
GZ2                .Ohmm                                   : Градиент-зонд  длиной 1.05м 
GZ3                .Ohmm                                   : Градиент-зонд  длиной 2.25м 
GZ4                .Ohmm                                   : Градиент-зонд  длиной 4.5м 
GZ5                .Ohmm                                   : Градиент-зонд  длиной 8.5м 
LLS                .Ohmm                                   : Боковой каротаж 
MINV               .Ohmm                                   : Микро-градиент зонд 
MNOR               .Ohmm                                   : Микро-потенциал зонд 
NGLD               .у.е.                                   : Показания зонда НГК-60 аппаратуры ДРСТ-3-90 
OGZ                .Ohmm                                   :  
PHIE               .v/v                                    : Описание 
PHIEN              .v/v                                    :  
PHIT               .v/v                                    : Описание 
PRMB               .mD                                     :  
PRMB_DGR           .mD                                     :  
RT                 .ohmm                                   : УЭС пласта 
SOIL_ARCHIE        .v/v                                    :  
SOIL_DW            .v/v                                    :  
SP                 .мВ                                     : Потенциал самополяризации 
VSH_FIN            .v/v                                    : Описание 
VSH_GR             .v/v                                    : Shale volume 
VSH_SP             .v/v                                    : Shale Volume 
~Ascii
# ...
1218.1     0.222      445.9361   -9999      -9999      9.081742   1.769763   2.115706   1.958957   2.186287   2.449916   1.736      1.242      1.227      1.523054   1.938      0.1349526  0.1349526  0.2873547  0.8847221  3.571486   2.064      0.1019107  0.3994962  26.9507    0.4618248  0.3858047  0.5378448 
1218.3     0.217      444.2576   -9999      -9999      9.107099   1.602053   1.938845   1.894314   2.104382   2.370352   1.923      1.216      1.171      1.524639   1.89911    0.132717   0.132717   0.2868703  0.8042649  3.483206   2.082      0.09245484 0.3976504  27.16474   0.4671311  0.3897678  0.5444944 
1218.5     0.215      443.2291   -9999      -9999      9.141953   1.55029    1.799044   1.824901   1.986904   2.316843   2.156      1.346      1.319      1.525751   1.822093   0.1292004  0.1292004  0.2865306  0.6922499  3.365409   2.087      0.07202321 0.3917662  27.60781   0.4767583  0.3952819  0.5582347 
1218.7     0.215      442.648    -9999      -9999      9.193757   1.70104    1.794149   1.786899   1.883106   2.244039   2.313      1.316      1.388      1.52575    1.745586   0.1240541  0.1240541  0.2865308  0.5558291  3.197646   2.061      0.03291063 0.3785104  28.32887   0.4923534  0.4036222  0.5810847 
1218.9     0.219      442.2878   -9999      -9999      9.261598   1.893597   1.904484   1.754952   1.85547    2.216431   2.147      1.224      1.379      1.524398   1.708      0.1173347  0.1173347  0.2869441  0.4173309  2.990532   2.019      0          0.3595305  29.30273   0.513968   0.4148109  0.6131251 
1219.1     0.225      441.9691   -9999      -9999      9.335057   2.022754   2.034797   1.762381   1.866      2.297109   1.785      1.413      1.37       1.522013   1.705498   0.109598   0.109598   0.2876727  0.3000399  2.781364   2          0          0.3413158  30.42835   0.5396203  0.4272763  0.6519641 
1219.3     0.23       441.6157   -9999      -9999      9.397719   2.01705    2.098976   1.843475   1.866      2.402158   1.666      1.52       1.365      1.519436   1.703      0.1018271  0.1018271  0.2884604  0.2153984  2.614543   2.032      0          0.3302636  31.55596   0.5655555  0.4382052  0.6929058 
1219.5     0.234      441.2713   -9999      -9999      9.43427    1.888256   2.147155   1.956335   1.873485   2.447995   1.736      1.666      1.051      1.517747   1.703      0.09512713 0.09512713 0.2889766  0.1618614  2.521897   2.08       0          0.3228413  32.53376   0.5874227  0.4447086  0.7301368 
1219.7     0.234      441.0728   -9999      -9999      9.436442   1.757836   2.21629    2.028396   1.867955   2.457995   1.766      1.834      0.928      1.517819   1.703      0.0903549  0.0903549  0.2889544  0.1320535  2.516495   2.092      0          0.3126872  33.25066   0.6018167  0.4450981  0.7585351 
1219.9     0.234      441.1888   -9999      -9999      9.406747   1.683      2.247      2.049      1.829322   2.396091   1.76       1.674      0.902      1.519907   1.703      0.08782414 0.08782414 0.2883163  0.1185425  2.591348   2.085      0          0.3038392  33.66054   0.6075519  0.4398025  0.7753014 
1220.1     0.234      441.7374   -9999      -9999      9.35814    1.670453   2.08625    2.035959   1.804      2.261463   1.741      1.803      1.173      1.523548   1.701499   0.0872428  0.0872428  0.2872038  0.1156395  2.718708   2.065      0          0.2971069  33.78369   0.6059425  0.4312701  0.780615  
1220.3     0.235      442.7205   -9999      -9999      9.310107   1.637372   1.875008   1.960536   1.81447    2.137267   1.678      1.428      1.222      1.527695   1.699      0.087926   0.087926   0.2859363  0.1190586  2.850712   2.061      0          0.2962272  33.6886    0.6000313  0.4230011  0.7770614 
1220.5     0.234      444.0123   -9999      -9999      9.281799   1.57598    1.773526   1.827101   1.822498   2.03036    1.675      0.966      1.063      1.531192   1.698      0.08911204 0.08911204 0.2848676  0.125236   2.93149    2.059      0          0.2973567  33.46144   0.5931988  0.4182023  0.7681953 
1220.7     0.231      445.3899   -9999      -9999      9.286196   1.520421   1.75338    1.730297   1.82       1.941628   1.866      0.915      1.173      1.533056   1.68495    0.09021495 0.09021495 0.2842982  0.1312677  2.918796   2.04       0          0.2961307  33.18169   0.588131   0.4189439  0.7573181 
1220.9     0.224      446.5778   -9999      -9999      9.32836    1.556131   1.774      1.676783   1.794319   1.865103   2.077      1.165      1.194      1.532768   1.665487   0.09083381 0.09083381 0.2843862  0.1347785  2.799813   2.017      0          0.2939317  32.91096   0.5865224  0.4261245  0.7469203 
1221.1     0.217      447.3216   -9999      -9999      9.405326   1.66067    1.804242   1.6243     1.763993   1.80132    2.313      1.455      1.416      1.530505   1.652487   0.09069342 0.09069342 0.2850778  0.1339739  2.594986   1.992      0          0.2902702  32.68903   0.5890436  0.4395507  0.7385364 
1221.3     0.218      447.4401   -9999      -9999      9.507943   1.778776   1.88531    1.599      1.759      1.773498   2.054      1.449      1.557      1.526979   1.646      0.08965569 0.08965569 0.2861553  0.1281737  2.345012   1.972      0          0.2856387  32.53347   0.5954533  0.4581119  0.7327946 
1221.5     0.221      446.8599   -9999      -9999      9.624106   1.865893   1.944486   1.649212   1.759      1.775993   1.901      1.543      1.457      1.523183   1.643498   0.08772283 0.08772283 0.2873154  0.1180314  2.090971   1.999      0          0.2871062  32.44262   0.604826   0.4800708  0.7295813 
1221.7     0.22       445.6099   -9999      -9999      9.741102   1.886      1.938956   1.728773   1.766484   1.786492   2.069      1.444      1.444      1.520171   1.651467   0.08503027 0.08503027 0.2882356  0.1052264  1.862921   2.042      0          0.2887163  32.40161   0.6157738  0.5032511  0.7282964 
1221.9     0.219      443.7682   -9999      -9999      9.846251   1.883498   1.913459   1.785272   1.776498   1.81189    2.078      1.311      1.388      1.51876    1.67197    0.08189836 0.08189836 0.2886671  0.0920692  1.679264   2.05       0          0.2819014  32.38899   0.6265718  0.5250378  0.7281058 
1222.1     0.222      441.3954   -9999      -9999      9.928377   1.868458   1.931259   1.823973   -9999      1.831      1.966      1.469      1.403      1.51927    1.686993   0.07882669 0.07882669 0.2885111  0.08076432 1.548508   2.049      0          0.272386   32.38133   0.6354072  0.542708   0.7281064 
1222.3     0.221      438.4529   -9999      -9999      9.979242   1.876388   1.992267   1.843973   -9999      1.828499   1.969      1.298      1.365      1.521554   1.697491   0.07635887 0.07635887 0.2878129  0.07269584 1.47268    2.071      0          0.2675506  32.36026   0.64077    0.5539491  0.7275907 
1222.5     0.221      434.7779   -9999      -9999      9.994001   1.906974   2.032975   1.853      -9999      1.775268   2.1        1.523      1.498      1.525117   1.710484   0.07494154 0.07494154 0.2867244  0.06843167 1.451381   2.09       0          0.2645868  32.31845   0.6417662  0.5572543  0.7262781 
1222.7     0.217      430.0898   -9999      -9999      9.972487   1.901437   2.040498   1.850499   -9999      1.725      2.131      1.689      1.539      1.52929    1.718      0.07478517 0.07478517 0.2854489  0.0679768  1.482532   2.083      0          0.260624   32.25942   0.6383751  0.552443   0.7243072 
1222.9     0.215      424.0908   -9999      -9999      9.919991   1.886      2.038      1.836457   -9999      1.725      2.013      1.479      1.598      1.533577   1.718      0.07574201 0.07574201 0.2841389  0.07080823 1.561378   2.071      0          0.2592149  32.19503   0.6315059  0.5408768  0.7221351 
1223.1     0.217      416.6597   -9999      -9999      9.84745    1.886      2.038      1.810953   -9999      1.725      1.957      1.829      1.633      1.537882   1.718      0.0772974  0.0772974  0.2828232  0.07566474 1.677278   2.061      0          0.2599943  32.13983   0.6228055  0.5252916  0.7203195 
