~Version
 VERS              .         2.0                           : CWLS LOG ASCII STANDARD - VERSION 2.0
 WRAP              .         NO                            : ONE LINE PER DEPTH STEP
 DLM               .         SPACE                         : DELIMITING CHARACTER(SPACE TAB OR COMMA)
~Well Information
#_______________________________________________________________________________
#
#PARAMETER_NAME    .UNIT     VALUE                         : DESCRIPTION
#_______________________________________________________________________________
STRT               .M        843.7                         : First reference value
STOP               .M        1227.9                        : Last reference value
STEP               .M        0.2                           : Step increment
NULL               .         -9999                         : Missing value
COMP               .                                       : Company
WELL               .         3888                          : Well name
FLD                .         Узень                         : Field
LOC                .                                       : Location
CNTY               .                                       : County
STAT               .                                       : State
CTRY               .                                       : Country
SRVC               .                                       : Service Company
DATE               .                                       : Date
UWI                .                                       : Unique Well ID
Block              .         7                             : 
Cartographic_reference_system .         GCS_WGS_1984                  : ESRI,PE_10_3_1- <?xml version="1.0" encoding="utf-16"?><ILateBoundCoordinateReferenceSystem name="GCS_WGS_1984"><AuthorityCode>EPSG,4326</AuthorityCode></ILateBoundCoordinateReferenceSystem>
Category           .         Нефтяная                      : 
Condition          .         В работе                      : 
Date               .         18.07.2007                    : 
EREF               .m        91.7                          : 100.8
Gorizont           .         14                            : 14
HZCS               .GCS_WGS_1984 WGS_1984_EASE-Grid_2.0_Global : ESRI,PE_10_3_1- <?xml version="1.0" encoding="utf-16"?><ILateBoundCoordinateReferenceSystem name="WGS_1984_EASE-Grid_2.0_Global"><AuthorityCode>EPSG,6933</AuthorityCode></ILateBoundCoordinateReferenceSystem>
Interpretator      .         Кушербаева А.С                : 
Kupol              .         основной                      : osnovnoi
LATI               .dega     0.6623499522                  : GCS_WGS_1984
LONG               .dega     0.4338720478                  : GCS_WGS_1984
Mud                .                                       : 
Mud_density        .                                       : 
Mud_resistivity    .                                       : 
NGDU               .         НГДУ-2                        : 
ORIGINALWELLNAME   .         3888                          : 
Spud_date          .         1990                          : 1961
Viscosity          .                                       : 
X                  .m        41862.7                       : 46154
Y                  .m        84496.33                      : 85761.93
YEAR               .         2019г                         : 
Исправлено         .         14                            : 
~Parameter Information Block
#_______________________________________________________________________________
#
#PARAMETER_NAME    .UNIT     VALUE                         : DESCRIPTION
#_______________________________________________________________________________
SET                .         LQC_KAZNIPI_Petrel            : 
TLFamily_CALI      .         Caliper                       : 
TLFamily_CILD      .         Conductivity                  : 
TLFamily_COLL      .         Net Reservoir Flag            : 
TLFamily_CSAT      .         Fluid Code                    : 
TLFamily_DEPT      .         Measured Depth                : 
TLFamily_GR        .         Russian Gamma Ray             : 
TLFamily_GZ1       .         Gradient 045                  : 
TLFamily_GZ2       .         Gradient 105                  : 
TLFamily_GZ3       .         Gradient 225                  : 
TLFamily_GZ4       .         Gradient 425                  : 
TLFamily_GZ5       .         Gradient 850                  : 
TLFamily_LLS       .         Lateral Log Resistivity       : 
TLFamily_MINV      .         Micro Gradient Resistivity    : 
TLFamily_MNOR      .         Micro Resistivity             : 
TLFamily_NGLD      .         Neutron Gamma                 : 
TLFamily_OGZ       .         Gradient Inverted 225         : 
TLFamily_PHIE      .         Effective Porosity            : 
TLFamily_PHIEN     .         Effective Porosity            : 
TLFamily_PHIT      .         Porosity                      : 
TLFamily_PRMB      .         Permeability                  : 
TLFamily_PRMB_DGR  .         Permeability                  : 
TLFamily_RT        .         Formation Resistivity         : 
TLFamily_SOIL_ARCHIE .         Oil Saturation                : 
TLFamily_SOIL_DW   .         Oil Saturation                : 
TLFamily_SP        .         Spontaneous Potential         : 
TLFamily_VSH_FIN   .         Shale Volume                  : 
TLFamily_VSH_GR    .         Shale Volume                  : 
TLFamily_VSH_SP    .         Shale Volume                  : 
~Curve Information
#_______________________________________________________________________________
#
#LOGNAME           .UNIT     LOG_ID                        : DESCRIPTION
#_______________________________________________________________________________
DEPT               .M                                      : Колонка глубины 
CALI               .м                                      : Каверномер 
CILD               .мСм/м                                  : Индукционный каротаж 
COLL               .unitless                               : Описание 
CSAT               .unitless                               : Описание 
GR                 .uR/h                                   : Гамма каротаж 
GZ1                .Ohmm                                   : Градиент-зонд  длиной 0.45м 
GZ2                .Ohmm                                   : Градиент-зонд  длиной 1.05м 
GZ3                .Ohmm                                   : Градиент-зонд  длиной 2.25м 
GZ4                .Ohmm                                   : Градиент-зонд  длиной 4.5м 
GZ5                .Ohmm                                   : Градиент-зонд  длиной 8.5м 
LLS                .Ohmm                                   : Боковой каротаж 
MINV               .Ohmm                                   : Микро-градиент зонд 
MNOR               .Ohmm                                   : Микро-потенциал зонд 
NGLD               .у.е.                                   : Показания зонда НГК-60 аппаратуры ДРСТ-3-90 
OGZ                .Ohmm                                   :  
PHIE               .v/v                                    : Описание 
PHIEN              .v/v                                    :  
PHIT               .v/v                                    : Описание 
PRMB               .mD                                     :  
PRMB_DGR           .mD                                     :  
RT                 .ohmm                                   : УЭС пласта 
SOIL_ARCHIE        .v/v                                    :  
SOIL_DW            .v/v                                    :  
SP                 .мВ                                     : Потенциал самополяризации 
VSH_FIN            .v/v                                    : Описание 
VSH_GR             .v/v                                    : Shale volume 
VSH_SP             .v/v                                    : Shale Volume 
~Ascii
# ...
916.5      0.21       478.9251   1          3          2.737509   -9999      -9999      1.610415   -9999      -9999      1.817      0.855      0.787      1.584762   1.608      0.2055591  0.2055591  0.2684966  17.97259   402.275    1.876      0.01354086 0.1596875  46.4143    0.1907198  0.05605322 0.3253863 
916.7000000000001 0.209      478.1547   1          3          2.730146   -9999      -9999      1.643417   -9999      -9999      1.686      1.004      0.8        1.586319   1.628371   0.2050638  0.2050638  0.268021   17.59697   408.0891   1.876      0.01146634 0.1580262  46.42889   0.1907794  0.05572574 0.3258331 
916.9      0.209      477.076    1          3          2.716036   -9999      -9999      1.672949   -9999      -9999      1.649      0.373      0.585      1.589341   1.669374   0.204035   0.204035   0.2670974  16.84149   419.4662   1.876      0.00712618 0.1546929  46.46992   0.1910982  0.05510355 0.3270928 
917.1      0.21       475.8799   1          3          2.695189   -9999      -9999      1.64705    -9999      -9999      1.679      0.573      0.544      1.593483   1.700468   0.2026198  0.2026198  0.2658315  15.8551    436.8587   1.903      0.007765339 0.1561255  46.5286    0.1915504  0.05419696 0.3289038 
917.3      0.21       474.7804   1          3          2.669221   -9999      -9999      1.595947   -9999      -9999      1.911      0.773      0.681      1.598193   1.720971   0.2010442  0.2010442  0.2643922  14.82466   459.5359   1.945      0.01117772 0.1601123  46.59092   0.1919636  0.05308849 0.3308387 
917.5      0.21       473.9357   1          3          2.64114    -9999      -9999      1.583      -9999      -9999      2.159      0.973      0.769      1.602899   1.771526   0.1995291  0.1995291  0.2629541  13.89702   485.3841   1.955      0.007033837 0.1571207  46.64343   0.1921971  0.05191536 0.3324787 
917.7000000000001 0.211      473.375    1          3          2.615237   -9999      -9999      1.593465   -9999      -9999      1.847      0.95       0.728      1.60718    1.825954   0.1982202  0.1982202  0.2616459  13.14245   510.5147   1.94       0          0.1492101  46.67732   0.1921991  0.05085622 0.3335419 
917.9      0.211      472.9579   1          3          2.596442   -9999      -9999      1.598992   -9999      -9999      1.905      1.09       0.815      1.610832   1.773846   0.1971607  0.1971607  0.2605298  12.5618    529.5613   1.922      0          0.1412805  46.69044   0.1920278  0.05010122 0.3339543 
918.1      0.211      472.3806   1          3          2.589525   -9999      -9999      1.58849    -9999      -9999      1.828      0.728      0.761      1.61389    1.69795    0.1962906  0.1962906  0.2595951  12.10419   536.7477   1.906      0          0.134353   46.68673   0.1918319  0.04982622 0.3338377 
918.3      0.21       471.2486   1          3          2.598825   -9999      -9999      1.561352   -9999      -9999      1.751      0.88       0.783      1.61654    1.689993   0.1954883  0.1954883  0.2587854  11.69701   527.1068   1.894      0          0.1286314  46.67353   0.1918096  0.05019636 0.3334228 
918.5      0.209      469.1908   1          3          2.627742   -9999      -9999      1.517841   -9999      -9999      1.704      0.968      0.795      1.618911   1.700491   0.1946369  0.1946369  0.2580608  11.27989   498.2244   1.884      0          0.1234381  46.66078   0.1921937  0.0513648  0.3330225 
918.7000000000001 0.209      465.9664   1          3          2.678201   -9999      -9999      1.496      -9999      -9999      1.653      1.014      0.907      1.620914   1.741138   0.1936815  0.1936815  0.2574487  10.82952   451.5632   1.884      0          0.1206505  46.66002   0.193234   0.05346924 0.3329988 
918.9      0.21       461.5263   1          3          2.74978    -9999      -9999      1.496      -9999      -9999      1.633      1.126      1.012      1.622176   1.812643   0.1926585  0.1926585  0.257063   10.36719   392.7699   1.914      0          0.1252177  46.68322   0.1951652  0.05660321 0.3337273 
919.1      0.211      456.018    1          3          2.839059   -9999      -9999      1.498498   -9999      -9999      1.842      0.922      0.981      1.622156   1.876791   0.1916737  0.1916737  0.2570692  9.940774   330.0473   1.973      0          0.1370252  46.74152   0.1981682  0.06077088 0.3355656 
919.3      0.21       449.7422   1          3          2.939578   -9999      -9999      1.551646   -9999      -9999      2.009      0.764      0.925      1.620387   1.93329    0.1908607  0.1908607  0.2576098  9.601974   271.3327   2.028      0          0.148904   46.8404    0.20227    0.06583155 0.3387084 
919.5      0.211      443.0581   1          3          3.042622   -9999      -9999      1.638137   -9999      -9999      2.152      0.878      0.858      1.616786   2.064331   0.1903117  0.1903117  0.2587101  9.379758   221.9681   2.068      0          0.1588869  46.9763    0.207268   0.07145711 0.3430789 
919.7000000000001 0.212      436.2924   1          3          3.138679   -9999      -9999      1.707151   -9999      -9999      2.171      0.963      0.816      1.611831   2.192404   0.1900292  0.1900292  0.2602244  9.267461   184.0742   2.1        0          0.1682841  47.13604   0.2127127  0.07713332 0.348292  
919.9      0.21       429.6924   1          3          3.21968    -9999      -9999      1.795188   -9999      -9999      2.037      0.996      0.961      1.60645    2.233406   0.1899335  0.1899335  0.2618689  9.229709   157.1944   2.122      0.002594495 0.1760643  47.29921   0.2179858  0.08226889 0.3537028 
920.1      0.208      423.407    1          3          3.280866   -9999      -9999      1.86494    -9999      -9999      1.978      1.019      0.986      1.601641   2.274408   0.189928   0.189928   0.2633386  9.227527   139.5252   2.144      0.007385135 0.1834559  47.44288   0.2224564  0.0863736  0.3585392 
920.3      0.206      417.5009   1          3          3.321271   -9999      -9999      1.895437   -9999      -9999      1.986      1.14       0.961      1.59814    2.268851   0.1899403  0.1899403  0.2644084  9.232378   128.9601   2.182      0.01559053 0.1928774  47.54815   0.2256609  0.08919588 0.3621259 
920.5      0.206      411.9904   1          3          3.343569   -9999      -9999      1.861868   -9999      -9999      2.032      1.182      0.981      1.59614    2.201618   0.1899603  0.1899603  0.2650197  9.240255   123.4762   2.219      0.02341708 0.2009372  47.60598   0.2274525  0.09079271 0.3641123 
920.7000000000001 0.206      406.8763   1          3          3.352435   -9999      -9999      1.764834   -9999      -9999      2.065      1.085      1.053      1.595191   2.161      0.1900701  0.1900701  0.2653095  9.28363    121.3611   2.239      0.02800972 0.2052567  47.61899   0.2279981  0.09143554 0.3645606 
920.9      0.206      402.1602   1          3          3.35287    -9999      -9999      1.6908     -9999      -9999      2.108      1.028      1.06       1.594494   2.201618   0.1903944  0.1903944  0.2655227  9.412907   121.2583   2.26       0.03369406 0.2098127  47.59854   0.2276616  0.09146719 0.3638561 
921.1      0.207      397.8526   1          3          3.3493     -9999      -9999      1.675467   -9999      -9999      2.191      0.97       1.068      1.593302   2.283632   0.1910139  0.1910139  0.2658869  9.664948   122.1048   2.294      0.0431527  0.2172187  47.56104   0.2268877  0.09120772 0.3625676 
921.3      0.208      393.963    1          3          3.344422   -9999      -9999      1.716229   -9999      -9999      2.233      0.996      1.027      1.591279   2.34541    0.1919008  0.1919008  0.2665051  10.03754   123.2713   2.325      0.05298948 0.224812   47.52378   0.2260733  0.09085431 0.3612924 
921.5      0.21       390.485    1          3          3.339434   -9999      -9999      1.77773    -9999      -9999      2.178      1.19       1.014      1.588622   2.399266   0.1929047  0.1929047  0.2673171  10.47662   124.4753   2.341      0.06031211 0.2303304  47.50027   0.2254922  0.09049442 0.36049   
