~Version
 VERS              .         2.0                           : CWLS LOG ASCII STANDARD - VERSION 2.0
 WRAP              .         NO                            : ONE LINE PER DEPTH STEP
 DLM               .         SPACE                         : DELIMITING CHARACTER(SPACE TAB OR COMMA)
~Well Information
#_______________________________________________________________________________
#
#PARAMETER_NAME    .UNIT     VALUE                         : DESCRIPTION
#_______________________________________________________________________________
STRT               .M        843.7                         : First reference value
STOP               .M        1227.9                        : Last reference value
STEP               .M        0.2                           : Step increment
NULL               .         -9999                         : Missing value
COMP               .                                       : Company
WELL               .         3888                          : Well name
FLD                .         Узень                         : Field
LOC                .                                       : Location
CNTY               .                                       : County
STAT               .                                       : State
CTRY               .                                       : Country
SRVC               .                                       : Service Company
DATE               .                                       : Date
UWI                .                                       : Unique Well ID
Block              .         7                             : 
Cartographic_reference_system .         GCS_WGS_1984                  : ESRI,PE_10_3_1- <?xml version="1.0" encoding="utf-16"?><ILateBoundCoordinateReferenceSystem name="GCS_WGS_1984"><AuthorityCode>EPSG,4326</AuthorityCode></ILateBoundCoordinateReferenceSystem>
Category           .         Нефтяная                      : 
Condition          .         В работе                      : 
Date               .         18.07.2007                    : 
EREF               .m        91.7                          : 100.8
Gorizont           .         14                            : 14
HZCS               .GCS_WGS_1984 WGS_1984_EASE-Grid_2.0_Global : ESRI,PE_10_3_1- <?xml version="1.0" encoding="utf-16"?><ILateBoundCoordinateReferenceSystem name="WGS_1984_EASE-Grid_2.0_Global"><AuthorityCode>EPSG,6933</AuthorityCode></ILateBoundCoordinateReferenceSystem>
Interpretator      .         Кушербаева А.С                : 
Kupol              .         основной                      : osnovnoi
LATI               .dega     0.6623499522                  : GCS_WGS_1984
LONG               .dega     0.4338720478                  : GCS_WGS_1984
Mud                .                                       : 
Mud_density        .                                       : 
Mud_resistivity    .                                       : 
NGDU               .         НГДУ-2                        : 
ORIGINALWELLNAME   .         3888                          : 
Spud_date          .         1990                          : 1961
Viscosity          .                                       : 
X                  .m        41862.7                       : 46154
Y                  .m        84496.33                      : 85761.93
YEAR               .         2019г                         : 
Исправлено         .         14                            : 
~Parameter Information Block
#_______________________________________________________________________________
#
#PARAMETER_NAME    .UNIT     VALUE                         : DESCRIPTION
#_______________________________________________________________________________
SET                .         LQC_KAZNIPI_Petrel            : 
TLFamily_CALI      .         Caliper                       : 
TLFamily_CILD      .         Conductivity                  : 
TLFamily_COLL      .         Net Reservoir Flag            : 
TLFamily_CSAT      .         Fluid Code                    : 
TLFamily_DEPT      .         Measured Depth                : 
TLFamily_GR        .         Russian Gamma Ray             : 
TLFamily_GZ1       .         Gradient 045                  : 
TLFamily_GZ2       .         Gradient 105                  : 
TLFamily_GZ3       .         Gradient 225                  : 
TLFamily_GZ4       .         Gradient 425                  : 
TLFamily_GZ5       .         Gradient 850                  : 
TLFamily_LLS       .         Lateral Log Resistivity       : 
TLFamily_MINV      .         Micro Gradient Resistivity    : 
TLFamily_MNOR      .         Micro Resistivity             : 
TLFamily_NGLD      .         Neutron Gamma                 : 
TLFamily_OGZ       .         Gradient Inverted 225         : 
TLFamily_PHIE      .         Effective Porosity            : 
TLFamily_PHIEN     .         Effective Porosity            : 
TLFamily_PHIT      .         Porosity                      : 
TLFamily_PRMB      .         Permeability                  : 
TLFamily_PRMB_DGR  .         Permeability                  : 
TLFamily_RT        .         Formation Resistivity         : 
TLFamily_SOIL_ARCHIE .         Oil Saturation                : 
TLFamily_SOIL_DW   .         Oil Saturation                : 
TLFamily_SP        .         Spontaneous Potential         : 
TLFamily_VSH_FIN   .         Shale Volume                  : 
TLFamily_VSH_GR    .         Shale Volume                  : 
TLFamily_VSH_SP    .         Shale Volume                  : 
~Curve Information
#_______________________________________________________________________________
#
#LOGNAME           .UNIT     LOG_ID                        : DESCRIPTION
#_______________________________________________________________________________
DEPT               .M                                      : Колонка глубины 
CALI               .м                                      : Каверномер 
CILD               .мСм/м                                  : Индукционный каротаж 
COLL               .unitless                               : Описание 
CSAT               .unitless                               : Описание 
GR                 .uR/h                                   : Гамма каротаж 
GZ1                .Ohmm                                   : Градиент-зонд  длиной 0.45м 
GZ2                .Ohmm                                   : Градиент-зонд  длиной 1.05м 
GZ3                .Ohmm                                   : Градиент-зонд  длиной 2.25м 
GZ4                .Ohmm                                   : Градиент-зонд  длиной 4.5м 
GZ5                .Ohmm                                   : Градиент-зонд  длиной 8.5м 
LLS                .Ohmm                                   : Боковой каротаж 
MINV               .Ohmm                                   : Микро-градиент зонд 
MNOR               .Ohmm                                   : Микро-потенциал зонд 
NGLD               .у.е.                                   : Показания зонда НГК-60 аппаратуры ДРСТ-3-90 
OGZ                .Ohmm                                   :  
PHIE               .v/v                                    : Описание 
PHIEN              .v/v                                    :  
PHIT               .v/v                                    : Описание 
PRMB               .mD                                     :  
PRMB_DGR           .mD                                     :  
RT                 .ohmm                                   : УЭС пласта 
SOIL_ARCHIE        .v/v                                    :  
SOIL_DW            .v/v                                    :  
SP                 .мВ                                     : Потенциал самополяризации 
VSH_FIN            .v/v                                    : Описание 
VSH_GR             .v/v                                    : Shale volume 
VSH_SP             .v/v                                    : Shale Volume 
~Ascii
# ...
937.3      0.229      137.0704   -9999      -9999      4.347092   -9999      -9999      6.895295   -9999      -9999      8.568      3.431      2.193      2.001662   7.730054   0.01       0          0.1410922  0.004289259 17.46829   7.574      0          0          59.21365   0.4516464  0.2017725  0.7015203 
937.5      0.225      138.0212   -9999      -9999      4.343573   -9999      -9999      8.546658   -9999      -9999      8.455      4.474      2.922      2.004749   8.118683   0.01       0          0.1401486  0.004289259 17.58849   7.007      0          0          59.34048   0.4537394  0.2012083  0.7062706 
937.7000000000001 0.221      140.0057   -9999      -9999      4.341247   -9999      -9999      9.467804   -9999      -9999      5.104      4.994      1.869      1.997765   8.097659   0.01       0          0.1422829  0.004289259 17.66838   6.458      0          0          59.47674   0.4561199  0.2008363  0.7114035 
937.9      0.219      142.8162   -9999      -9999      4.347092   -9999      -9999      9.613129   -9999      -9999      4.338      2.989      1.684      1.979257   7.468446   0.01       0          0.147939   0.004289259 17.46827   6.238      0          0          59.59126   0.4587569  0.2017726  0.7157411 
938.1      0.219      146.2219   -9999      -9999      4.367608   -9999      -9999      9.51477    -9999      -9999      5.188      4.72       2.071      1.949915   6.939235   0.01       0.004509158 0.156906   0.004289259 16.78363   6.284      0          0          59.66443   0.4618087  0.2050937  0.7185237 
938.3      0.22       150.0222   -9999      -9999      4.406758   -9999      -9999      9.385861   -9999      -9999      6.205      2.765      1.414      1.91237    6.78195    0.0147253  0.0147253  0.1683798  0.005246943 15.55076   6.033      0          0.01955743 59.69414   0.4656198  0.2115837  0.7196559 
938.5      0.221      154.0599   -9999      -9999      4.465759   -9999      -9999      9.541423   -9999      -9999      4.084      2.898      1.314      1.870318   6.556556   0.02589635 0.02589635 0.1812309  0.008449309 13.86167   5.854      0          0.1672163  59.69442   0.4707107  0.2217547  0.7196667 
938.7000000000001 0.222      158.1935   -9999      -9999      4.543082   -9999      -9999      9.2769     -9999      -9999      5.742      2.411      1.404      1.82754    6.192207   0.03669841 0.03669841 0.1943039  0.01339373 11.92267   5.897      0          0.2804281  59.68629   0.4775923  0.2358278  0.7193569 
938.9      0.221      162.2638   -9999      -9999      4.634261   -9999      -9999      8.52051    -9999      -9999      5.361      2.479      1.638      1.787253   6.002955   0.04608238 0.04608238 0.2066154  0.01998552 9.981682   5.753      0          0.3469747  59.68619   0.4864638  0.2535747  0.719353  
939.1      0.221      166.0683   -9999      -9999      4.731993   -9999      -9999      8.024712   -9999      -9999      4.598      2.281      1.778      1.751716   5.881692   0.05349392 0.05349392 0.2174756  0.02741545 8.250655   5.428      0          0.3800393  59.69649   0.4969141  0.2740825  0.7197457 
939.3      0.22       169.3614   -9999      -9999      4.826502   -9999      -9999      7.760531   -9999      -9999      4.06       4.205      1.786      1.722351   5.640187   0.05888543 0.05888543 0.2264495  0.03450318 6.862779   5.154      0          0.3995426  59.70445   0.5077698  0.2954903  0.7200493 
939.5      0.22       171.8978   -9999      -9999      4.906456   -9999      -9999      7.649403   -9999      -9999      4.12       3.893      1.551      1.700196   5.607922   0.06254663 0.06254663 0.2332202  0.04033419 5.872615   4.963      0          0.411673   59.68962   0.5171925  0.3149014  0.7194837 
939.7000000000001 0.22       173.5244   -9999      -9999      4.961068   -9999      -9999      7.759171   -9999      -9999      4.014      4.519      2.012      1.685981   5.785118   0.06493488 0.06493488 0.2375641  0.04465906 5.27971    4.844      0          0.4189421  59.63359   0.5231189  0.3288883  0.7173496 
939.9      0.221      174.2409   -9999      -9999      4.983636   -9999      -9999      7.876865   -9999      -9999      3.583      2.261      1.396      1.679832   5.872465   0.06648201 0.06648201 0.2394435  0.04770526 5.05254    4.962      0          0.4332773  59.52961   0.5241256  0.334848   0.7134032 
940.1      0.221      174.2039   -9999      -9999      4.973877   -9999      -9999      7.361073   -9999      -9999      3.199      1.888      1.309      1.681      6.0069     0.06745003 0.06745003 0.2390865  0.04971601 5.149545   5.19       0          0.4479086  59.3855    0.5201104  0.3322578  0.707963  
940.3      0.221      173.6757   -9999      -9999      4.938784   -9999      -9999      6.968278   -9999      -9999      4.772      2.27       1.753      1.687636   6.431717   0.06796078 0.06796078 0.2370585  0.05081085 5.514043   5.315      0          0.4526547  59.21918   0.5124173  0.3231076  0.7017269 
940.5      0.221      172.9553   -9999      -9999      4.89044    -9999      -9999      7.229322   -9999      -9999      7.12       3.187      1.698      1.696993   6.932689   0.06815203 0.06815203 0.234199   0.051227   6.0588     5.339      0          0.4499279  59.05006   0.5031726  0.3109135  0.6954316 
940.7000000000001 0.221      172.3253   -9999      -9999      4.842203   -9999      -9999      7.490364   -9999      -9999      5.751      3.382      1.146      1.706041   7.147422   0.06829048 0.06829048 0.2314337  0.05153039 6.655974   5.362      0          0.4470968  58.89069   0.4943735  0.2992054  0.6895416 
940.9      0.221      171.9736   -9999      -9999      4.804923   -9999      -9999      7.75091    -9999      -9999      5.153      4.973      0.96       1.711948   7.190993   0.0688216  0.0688216  0.2296287  0.05271098 7.157545   5.433      0          0.4492596  58.74324   0.4872943  0.2904594  0.6841291 
941.1      0.22       171.9603   -9999      -9999      4.783468   -9999      -9999      7.672208   -9999      -9999      4.86       2.291      1.391      1.712926   6.855198   0.07019068 0.07019068 0.2293299  0.05588042 7.46315    5.412      0          0.4513358  58.60091   0.4822402  0.2855426  0.6789379 
941.3      0.22       172.247    -9999      -9999      4.775613   -9999      -9999      7.178384   -9999      -9999      4.686      3.186      1.449      1.708834   6.294909   0.07260228 0.07260228 0.2305803  0.0619339  7.578269   5.267      0          0.4521056  58.45582   0.4787212  0.2837634  0.673679  
941.5      0.22       172.7304   -9999      -9999      4.773517   -9999      -9999      6.760591   -9999      -9999      4.939      4.08       1.961      1.701029   5.95028    0.07596015 0.07596015 0.2329657  0.07147009 7.609291   5.214      0.02741214 0.461404   58.30527   0.4757743  0.2832904  0.6682581 
941.7000000000001 0.22       173.3035   -9999      -9999      4.766954   -9999      -9999      6.500345   -9999      -9999      4.064      2.649      1.292      1.691816   5.769677   0.07991382 0.07991382 0.2357811  0.08459717 7.707234   5.226      0.07046017 0.4754855  58.15364   0.472325   0.2818149  0.6628352 
941.9      0.221      173.9128   -9999      -9999      4.74678    -9999      -9999      6.329811   -9999      -9999      4.896      2.318      1.813      1.683641   5.792391   0.08398896 0.08398896 0.2382793  0.1006555  8.016282   5.135      0.1024987  0.4835071  58.01098   0.4675464  0.2773268  0.657766  
942.1      0.221      174.5835   -9999      -9999      4.709071   -9999      -9999      6.357534   -9999      -9999      5.252      3.088      1.89       1.678112   5.866992   0.08774137 0.08774137 0.239969   0.1181248  8.627571   5.032      0.1277681  0.4885673  57.88916   0.4612958  0.2691285  0.653463  
942.3      0.221      175.3944   -9999      -9999      4.657408   -9999      -9999      6.30315    -9999      -9999      3.125      2.492      1.327      1.675597   5.943363   0.09082793 0.09082793 0.2407376  0.1347447  9.54143    5.176      0.1647732  0.5029228  57.7979    0.4542718  0.2582886  0.6502549 
