~Version
 VERS              .         2.0                           : CWLS LOG ASCII STANDARD - VERSION 2.0
 WRAP              .         NO                            : ONE LINE PER DEPTH STEP
 DLM               .         SPACE                         : DELIMITING CHARACTER(SPACE TAB OR COMMA)
~Well Information
#_______________________________________________________________________________
#
#PARAMETER_NAME    .UNIT     VALUE                         : DESCRIPTION
#_______________________________________________________________________________
STRT               .M        843.7                         : First reference value
STOP               .M        1227.9                        : Last reference value
STEP               .M        0.2                           : Step increment
NULL               .         -9999                         : Missing value
COMP               .                                       : Company
WELL               .         3888                          : Well name
FLD                .         Узень                         : Field
LOC                .                                       : Location
CNTY               .                                       : County
STAT               .                                       : State
CTRY               .                                       : Country
SRVC               .                                       : Service Company
DATE               .                                       : Date
UWI                .                                       : Unique Well ID
Block              .         7                             : 
Cartographic_reference_system .         GCS_WGS_1984                  : ESRI,PE_10_3_1- <?xml version="1.0" encoding="utf-16"?><ILateBoundCoordinateReferenceSystem name="GCS_WGS_1984"><AuthorityCode>EPSG,4326</AuthorityCode></ILateBoundCoordinateReferenceSystem>
Category           .         Нефтяная                      : 
Condition          .         В работе                      : 
Date               .         18.07.2007                    : 
EREF               .m        91.7                          : 100.8
Gorizont           .         14                            : 14
HZCS               .GCS_WGS_1984 WGS_1984_EASE-Grid_2.0_Global : ESRI,PE_10_3_1- <?xml version="1.0" encoding="utf-16"?><ILateBoundCoordinateReferenceSystem name="WGS_1984_EASE-Grid_2.0_Global"><AuthorityCode>EPSG,6933</AuthorityCode></ILateBoundCoordinateReferenceSystem>
Interpretator      .         Кушербаева А.С                : 
Kupol              .         основной                      : osnovnoi
LATI               .dega     0.6623499522                  : GCS_WGS_1984
LONG               .dega     0.4338720478                  : GCS_WGS_1984
Mud                .                                       : 
Mud_density        .                                       : 
Mud_resistivity    .                                       : 
NGDU               .         НГДУ-2                        : 
ORIGINALWELLNAME   .         3888                          : 
Spud_date          .         1990                          : 1961
Viscosity          .                                       : 
X                  .m        41862.7                       : 46154
Y                  .m        84496.33                      : 85761.93
YEAR               .         2019г                         : 
Исправлено         .         14                            : 
~Parameter Information Block
#_______________________________________________________________________________
#
#PARAMETER_NAME    .UNIT     VALUE                         : DESCRIPTION
#_______________________________________________________________________________
SET                .         LQC_KAZNIPI_Petrel            : 
TLFamily_CALI      .         Caliper                       : 
TLFamily_CILD      .         Conductivity                  : 
TLFamily_COLL      .         Net Reservoir Flag            : 
TLFamily_CSAT      .         Fluid Code                    : 
TLFamily_DEPT      .         Measured Depth                : 
TLFamily_GR        .         Russian Gamma Ray             : 
TLFamily_GZ1       .         Gradient 045                  : 
TLFamily_GZ2       .         Gradient 105                  : 
TLFamily_GZ3       .         Gradient 225                  : 
TLFamily_GZ4       .         Gradient 425                  : 
TLFamily_GZ5       .         Gradient 850                  : 
TLFamily_LLS       .         Lateral Log Resistivity       : 
TLFamily_MINV      .         Micro Gradient Resistivity    : 
TLFamily_MNOR      .         Micro Resistivity             : 
TLFamily_NGLD      .         Neutron Gamma                 : 
TLFamily_OGZ       .         Gradient Inverted 225         : 
TLFamily_PHIE      .         Effective Porosity            : 
TLFamily_PHIEN     .         Effective Porosity            : 
TLFamily_PHIT      .         Porosity                      : 
TLFamily_PRMB      .         Permeability                  : 
TLFamily_PRMB_DGR  .         Permeability                  : 
TLFamily_RT        .         Formation Resistivity         : 
TLFamily_SOIL_ARCHIE .         Oil Saturation                : 
TLFamily_SOIL_DW   .         Oil Saturation                : 
TLFamily_SP        .         Spontaneous Potential         : 
TLFamily_VSH_FIN   .         Shale Volume                  : 
TLFamily_VSH_GR    .         Shale Volume                  : 
TLFamily_VSH_SP    .         Shale Volume                  : 
~Curve Information
#_______________________________________________________________________________
#
#LOGNAME           .UNIT     LOG_ID                        : DESCRIPTION
#_______________________________________________________________________________
DEPT               .M                                      : Колонка глубины 
CALI               .м                                      : Каверномер 
CILD               .мСм/м                                  : Индукционный каротаж 
COLL               .unitless                               : Описание 
CSAT               .unitless                               : Описание 
GR                 .uR/h                                   : Гамма каротаж 
GZ1                .Ohmm                                   : Градиент-зонд  длиной 0.45м 
GZ2                .Ohmm                                   : Градиент-зонд  длиной 1.05м 
GZ3                .Ohmm                                   : Градиент-зонд  длиной 2.25м 
GZ4                .Ohmm                                   : Градиент-зонд  длиной 4.5м 
GZ5                .Ohmm                                   : Градиент-зонд  длиной 8.5м 
LLS                .Ohmm                                   : Боковой каротаж 
MINV               .Ohmm                                   : Микро-градиент зонд 
MNOR               .Ohmm                                   : Микро-потенциал зонд 
NGLD               .у.е.                                   : Показания зонда НГК-60 аппаратуры ДРСТ-3-90 
OGZ                .Ohmm                                   :  
PHIE               .v/v                                    : Описание 
PHIEN              .v/v                                    :  
PHIT               .v/v                                    : Описание 
PRMB               .mD                                     :  
PRMB_DGR           .mD                                     :  
RT                 .ohmm                                   : УЭС пласта 
SOIL_ARCHIE        .v/v                                    :  
SOIL_DW            .v/v                                    :  
SP                 .мВ                                     : Потенциал самополяризации 
VSH_FIN            .v/v                                    : Описание 
VSH_GR             .v/v                                    : Shale volume 
VSH_SP             .v/v                                    : Shale Volume 
~Ascii
# ...
958.1      0.24       259.5833   -9999      -9999      5.875669   -9999      -9999      3.667467   -9999      -9999      2.771      0.664      1.045      1.558689   3.2554     0.09259149 0.09259149 0.2764648  0.1452704  3.512999   3.643      0.03147771 0.4620118  59.67489   0.5571918  0.3884146  0.725969  
958.3      0.237      264.6979   -9999      -9999      5.903019   -9999      -9999      3.751365   -9999      -9999      3.194      0.409      0.843      1.552166   3.232499   0.09360509 0.09360509 0.278458   0.151688   3.357208   3.593      0.03437624 0.4628463  59.62504   0.5601605  0.395676   0.724645  
958.5      0.236      270.9485   -9999      -9999      5.947295   -9999      -9999      3.841445   -9999      -9999      3.347      1.745      1.238      1.539474   3.255436   0.0956277  0.0956277  0.2823368  0.1653541  3.119508   3.412      0.02891796 0.457772   59.58896   0.5657851  0.4077203  0.72385   
958.7000000000001 0.237      277.9509   -9999      -9999      6.005034   -9999      -9999      3.96025    -9999      -9999      2.875      3.081      0.563      1.521998   3.285985   0.09836911 0.09836911 0.2876773  0.1858628  2.834628   3.257      0.03163305 0.4571185  59.56037   0.5736611  0.4239796  0.7233427 
958.9      0.238      285.225    -9999      -9999      6.071062   -9999      -9999      4.071486   -9999      -9999      2.68       0.705      0.675      1.501659   3.242059   0.1014668  0.1014668  0.2938929  0.2121136  2.540598   3.206      0.05042562 0.4661804  59.53215   0.5831095  0.443369   0.7228501 
959.1      0.242      292.2209   -9999      -9999      6.138955   -9999      -9999      4.030677   -9999      -9999      2.977      1.705      1.072      1.480714   3.160876   0.1045231  0.1045231  0.3002939  0.2416464  2.270034   3.097      0.05951263 0.4699498  59.50135   0.5932448  0.4642311  0.7222585 
959.3      0.247      298.3825   -9999      -9999      6.201107   -9999      -9999      4.045953   -9999      -9999      2.743      0.482      0.762      1.46142    3.119973   0.1072139  0.1072139  0.3061899  0.2710317  2.04769    2.933      0.05631507 0.4669344  59.47209   0.6029575  0.4841886  0.7217265 
959.5      0.249      303.2329   -9999      -9999      6.249023   -9999      -9999      3.945593   -9999      -9999      1.948      0.546      0.711      1.445632   3.042837   0.1094187  0.1094187  0.311015   0.2977547  1.891255   2.819      0.05548977 0.4655818  59.45439   0.6108978  0.5001588  0.7216368 
959.7000000000001 0.252      306.4522   -9999      -9999      6.274765   -9999      -9999      3.574655   -9999      -9999      1.758      0.505      0.555      1.434483   2.969481   0.1112419  0.1112419  0.314422   0.3218307  1.812209   2.79       0.06445733 0.46968    59.46005   0.6156974  0.5089547  0.72244   
959.9      0.254      307.9243   -9999      -9999      6.272571   -9999      -9999      3.337278   -9999      -9999      2.136      0.652      0.655      1.428416   3.052037   0.1128965  0.1128965  0.316276   0.3453622  1.818814   2.814      0.08011536 0.4766777  59.49598   0.6163017  0.5081992  0.7244042 
960.1      0.25       307.7361   -9999      -9999      6.239657   -9999      -9999      3.263307   -9999      -9999      2.557      0.48       0.738      1.427229   3.213812   0.1146078  0.1146078  0.3166388  0.3715118  1.920861   2.909      0.1061263  0.4883958  59.55951   0.612215   0.4969964  0.7274337 
960.3      0.243      306.1319   -9999      -9999      6.177433   -9999      -9999      3.283522   -9999      -9999      2.516      0.401      0.782      1.430183   3.364439   0.1164955  0.1164955  0.3157362  0.4026586  2.129689   2.959      0.1257741  0.4947328  59.6375    0.6037598  0.4764877  0.7310318 
960.5      0.237      303.4279   -9999      -9999      6.09204    -9999      -9999      3.350484   -9999      -9999      2.48       0.51       1.072      1.436362   3.545673   0.1184636  0.1184636  0.3138478  0.4379165  2.453722   2.954      0.1377535  0.4953706  59.71005   0.5920734  0.449713   0.7344339 
960.7000000000001 0.231      299.934    -9999      -9999      5.992862   -9999      -9999      3.324805   -9999      -9999      2.52       1.387      1.271      1.444946   3.644      0.1202628  0.1202628  0.3112245  0.4728438  2.892438   2.994      0.154354   0.498765   59.75679   0.5786716  0.4204987  0.7368446 
960.9      0.232      295.9099   -9999      -9999      5.890366   -9999      -9999      3.278985   -9999      -9999      2.798      0.49       0.899      1.455317   3.664443   0.1216026  0.1216026  0.308055   0.5006483  3.428404   3.036      0.1679313  0.5009769  59.76382   0.5650073  0.3922999  0.7377146 
961.1      0.237      291.5382   -9999      -9999      5.793958   -9999      -9999      3.204361   -9999      -9999      2.483      0.477      0.843      1.467047   3.735651   0.1222353  0.1222353  0.3044704  0.5143414  4.022862   3.131      0.1835738  0.5058591  59.72884   0.5522277  0.3675042  0.7369512 
961.3      0.236      286.9275   -9999      -9999      5.710433   -9999      -9999      3.102261   -9999      -9999      2.823      1.443      1.309      1.479902   3.766444   0.1219698  0.1219698  0.3005418  0.5085514  4.620606   3.194      0.1896377  0.5063097  59.66228   0.5411273  0.3472925  0.7349622 
961.5      0.232      282.1635   -9999      -9999      5.644124   -9999      -9999      3.107196   -9999      -9999      3.209      2.408      1.406      1.493675   3.79419    0.1206853  0.1206853  0.2963331  0.4814413  5.157767   3.2        0.182851   0.5004091  59.58313   0.5322658  0.3320414  0.7324902 
961.7000000000001 0.231      277.3445   -9999      -9999      5.597093   -9999      -9999      3.194204   -9999      -9999      2.87       0.713      1.088      1.507851   3.778966   0.1184269  0.1184269  0.2920006  0.4372318  5.576192   3.204      0.1697822  0.4925429  59.51188   0.5259809  0.3216322  0.7303297 
961.9      0.233      272.6016   -9999      -9999      5.569797   -9999      -9999      3.128654   -9999      -9999      2.539      0.637      1.215      1.521546   3.725986   0.1154206  0.1154206  0.2878154  0.3846161  5.834444   3.259      0.1577339  0.487426   59.46402   0.5224085  0.3157411  0.7290759 
962.1      0.232      268.1126   -9999      -9999      5.561879   -9999      -9999      2.945507   -9999      -9999      2.688      0.667      1.126      1.533644   3.684647   0.1120225  0.1120225  0.2841184  0.3327256  5.911566   3.44       0.1571755  0.4914832  59.44549   0.5215028  0.3140525  0.7289531 
962.3      0.231      264.0946   -9999      -9999      5.571678   -9999      -9999      2.920554   -9999      -9999      3.175      0.685      1.085      1.54306    3.687112   0.108664   0.108664   0.281241   0.2883224  5.816273   3.596      0.1523585  0.4938598  59.45153   0.5229607  0.3161435  0.7297779 
962.5      0.233      260.7474   -9999      -9999      5.595687   -9999      -9999      3.04754    -9999      -9999      3.886      2.033      1.837      1.549121   3.751485   0.105741   0.105741   0.2793887  0.2545298  5.589213   3.599      0.132327   0.4869271  59.47001   0.5262049  0.321326   0.7310838 
962.7000000000001 0.237      258.2321   -9999      -9999      5.628961   -9999      -9999      3.205951   -9999      -9999      3.384      1.355      1.844      1.551811   3.684195   0.1034976  0.1034976  0.2785664  0.2313051  5.289121   3.563      0.1117888  0.4793946  59.48803   0.5305115  0.3286492  0.7323738 
962.9      0.239      256.6772   -9999      -9999      5.665565   -9999      -9999      3.365119   -9999      -9999      2.69       0.558      0.769      1.551717   3.556634   0.1020084  0.1020084  0.2785954  0.2170708  4.977569   3.552      0.09919976 0.4759335  59.49728   0.5351119  0.3368982  0.7333256 
963.1      0.238      256.1774   -9999      -9999      5.699607   -9999      -9999      3.483265   -9999      -9999      2.647      1.495      1.06       1.549757   3.426089   0.1012185  0.1012185  0.2791942  0.2098799  4.704314   3.603      0.09912721 0.4789458  59.49637   0.5393203  0.3447557  0.7338849 
