~Version
 VERS              .         2.0                           : CWLS LOG ASCII STANDARD - VERSION 2.0
 WRAP              .         NO                            : ONE LINE PER DEPTH STEP
 DLM               .         SPACE                         : DELIMITING CHARACTER(SPACE TAB OR COMMA)
~Well Information
#_______________________________________________________________________________
#
#PARAMETER_NAME    .UNIT     VALUE                         : DESCRIPTION
#_______________________________________________________________________________
STRT               .M        843.7                         : First reference value
STOP               .M        1227.9                        : Last reference value
STEP               .M        0.2                           : Step increment
NULL               .         -9999                         : Missing value
COMP               .                                       : Company
WELL               .         3888                          : Well name
FLD                .         Узень                         : Field
LOC                .                                       : Location
CNTY               .                                       : County
STAT               .                                       : State
CTRY               .                                       : Country
SRVC               .                                       : Service Company
DATE               .                                       : Date
UWI                .                                       : Unique Well ID
Block              .         7                             : 
Cartographic_reference_system .         GCS_WGS_1984                  : ESRI,PE_10_3_1- <?xml version="1.0" encoding="utf-16"?><ILateBoundCoordinateReferenceSystem name="GCS_WGS_1984"><AuthorityCode>EPSG,4326</AuthorityCode></ILateBoundCoordinateReferenceSystem>
Category           .         Нефтяная                      : 
Condition          .         В работе                      : 
Date               .         18.07.2007                    : 
EREF               .m        91.7                          : 100.8
Gorizont           .         14                            : 14
HZCS               .GCS_WGS_1984 WGS_1984_EASE-Grid_2.0_Global : ESRI,PE_10_3_1- <?xml version="1.0" encoding="utf-16"?><ILateBoundCoordinateReferenceSystem name="WGS_1984_EASE-Grid_2.0_Global"><AuthorityCode>EPSG,6933</AuthorityCode></ILateBoundCoordinateReferenceSystem>
Interpretator      .         Кушербаева А.С                : 
Kupol              .         основной                      : osnovnoi
LATI               .dega     0.6623499522                  : GCS_WGS_1984
LONG               .dega     0.4338720478                  : GCS_WGS_1984
Mud                .                                       : 
Mud_density        .                                       : 
Mud_resistivity    .                                       : 
NGDU               .         НГДУ-2                        : 
ORIGINALWELLNAME   .         3888                          : 
Spud_date          .         1990                          : 1961
Viscosity          .                                       : 
X                  .m        41862.7                       : 46154
Y                  .m        84496.33                      : 85761.93
YEAR               .         2019г                         : 
Исправлено         .         14                            : 
~Parameter Information Block
#_______________________________________________________________________________
#
#PARAMETER_NAME    .UNIT     VALUE                         : DESCRIPTION
#_______________________________________________________________________________
SET                .         LQC_KAZNIPI_Petrel            : 
TLFamily_CALI      .         Caliper                       : 
TLFamily_CILD      .         Conductivity                  : 
TLFamily_COLL      .         Net Reservoir Flag            : 
TLFamily_CSAT      .         Fluid Code                    : 
TLFamily_DEPT      .         Measured Depth                : 
TLFamily_GR        .         Russian Gamma Ray             : 
TLFamily_GZ1       .         Gradient 045                  : 
TLFamily_GZ2       .         Gradient 105                  : 
TLFamily_GZ3       .         Gradient 225                  : 
TLFamily_GZ4       .         Gradient 425                  : 
TLFamily_GZ5       .         Gradient 850                  : 
TLFamily_LLS       .         Lateral Log Resistivity       : 
TLFamily_MINV      .         Micro Gradient Resistivity    : 
TLFamily_MNOR      .         Micro Resistivity             : 
TLFamily_NGLD      .         Neutron Gamma                 : 
TLFamily_OGZ       .         Gradient Inverted 225         : 
TLFamily_PHIE      .         Effective Porosity            : 
TLFamily_PHIEN     .         Effective Porosity            : 
TLFamily_PHIT      .         Porosity                      : 
TLFamily_PRMB      .         Permeability                  : 
TLFamily_PRMB_DGR  .         Permeability                  : 
TLFamily_RT        .         Formation Resistivity         : 
TLFamily_SOIL_ARCHIE .         Oil Saturation                : 
TLFamily_SOIL_DW   .         Oil Saturation                : 
TLFamily_SP        .         Spontaneous Potential         : 
TLFamily_VSH_FIN   .         Shale Volume                  : 
TLFamily_VSH_GR    .         Shale Volume                  : 
TLFamily_VSH_SP    .         Shale Volume                  : 
~Curve Information
#_______________________________________________________________________________
#
#LOGNAME           .UNIT     LOG_ID                        : DESCRIPTION
#_______________________________________________________________________________
DEPT               .M                                      : Колонка глубины 
CALI               .м                                      : Каверномер 
CILD               .мСм/м                                  : Индукционный каротаж 
COLL               .unitless                               : Описание 
CSAT               .unitless                               : Описание 
GR                 .uR/h                                   : Гамма каротаж 
GZ1                .Ohmm                                   : Градиент-зонд  длиной 0.45м 
GZ2                .Ohmm                                   : Градиент-зонд  длиной 1.05м 
GZ3                .Ohmm                                   : Градиент-зонд  длиной 2.25м 
GZ4                .Ohmm                                   : Градиент-зонд  длиной 4.5м 
GZ5                .Ohmm                                   : Градиент-зонд  длиной 8.5м 
LLS                .Ohmm                                   : Боковой каротаж 
MINV               .Ohmm                                   : Микро-градиент зонд 
MNOR               .Ohmm                                   : Микро-потенциал зонд 
NGLD               .у.е.                                   : Показания зонда НГК-60 аппаратуры ДРСТ-3-90 
OGZ                .Ohmm                                   :  
PHIE               .v/v                                    : Описание 
PHIEN              .v/v                                    :  
PHIT               .v/v                                    : Описание 
PRMB               .mD                                     :  
PRMB_DGR           .mD                                     :  
RT                 .ohmm                                   : УЭС пласта 
SOIL_ARCHIE        .v/v                                    :  
SOIL_DW            .v/v                                    :  
SP                 .мВ                                     : Потенциал самополяризации 
VSH_FIN            .v/v                                    : Описание 
VSH_GR             .v/v                                    : Shale volume 
VSH_SP             .v/v                                    : Shale Volume 
~Ascii
# ...
1129.7     0.213      106.5369   1          2          7.33978    3.812978   7.666447   9.587995   8.360999   6.306313   6.239      1.629      1.696      1.499643   9.541133   0.2112776  0.2112776  0.294509   22.93678   8.628339   8.676      0.685793   0.7552652  31.68367   0.2522163  0.2691187  0.2353139 
1129.9     0.213      106.4406   1          2          7.369114   3.797393   7.704995   9.598      8.396944   6.470943   5.945      1.719      1.668      1.506781   9.164639   0.2080547  0.2080547  0.2923277  19.99107   8.348956   8.521      0.6788527  0.7503895  31.84207   0.2553726  0.2727602  0.237985  
1130.1     0.213      106.5556   1          2          7.414249   3.756479   7.663831   9.618477   8.455954   6.639804   6.152      1.636      1.736      1.513976   9.014463   0.2045159  0.2045159  0.2901288  17.19049   7.936641   8.469      0.6730806  0.7467256  31.97756   0.2594332  0.2784598  0.2404066 
1130.3     0.212      106.8839   1          2          7.4756     3.717909   7.643439   9.659477   8.511954   6.741807   6.212      1.66       1.782      1.520375   8.975991   0.2008992  0.2008992  0.2881733  14.73325   7.408648   8.469      0.6679606  0.7438412  32.08767   0.2644669  0.2863985  0.2425354 
1130.5     0.21       107.4508   1          2          7.551541   3.699991   7.705934   9.743791   8.615664   7.003732   6.299      1.507      1.567      1.52536    8.937464   0.1974169  0.1974169  0.2866501  12.69986   6.803486   8.489      0.6632383  0.7414927  32.16533   0.2704035  0.2965392  0.2442678 
1130.7     0.21       108.3016   1          2          7.638326   3.758654   7.769934   9.892139   8.775599   7.253925   6.458      1.64       1.556      1.528673   8.847768   0.1942196  0.1942196  0.2856374  11.08095   6.17219    8.529      0.6591676  0.739825   32.20193   0.2770236  0.3085684  0.2454788 
1130.9     0.21       109.4837   8          2          7.730149   3.850782   7.842893   10.01294   8.931214   7.319925   6.359      1.527      1.548      1.530427   8.738884   0.1913944  0.1913944  0.2851016  9.823078   5.567904   8.589      0.6559237  0.7388874  32.19262   0.2839609  0.3218276  0.2460942 
1131.1     0.209      111.0177   8          2          7.819597   3.912446   7.94278    10.29694   9.084134   7.546454   6.359      1.206      1.339      1.530988   8.648884   0.1889893  0.1889893  0.2849301  8.865406   5.036189   8.553      0.6514267  0.7368912  32.14191   0.2907295  0.3352915  0.2461674 
1131.3     0.209      112.8738   8          2          7.897768   3.963878   8.091004   10.80397   9.229281   7.783405   6.463      1.201      1.388      1.530759   8.529679   0.1870834  0.1870834  0.2849999  8.17329    4.613255   8.402      0.6453842  0.7334784  32.06639   0.2967166  0.3475184  0.2459149 
1131.5     0.21       114.9695   8          2          7.955697   3.956313   8.270016   11.11388   9.336398   7.882764   6.23       1.451      1.561      1.530049   8.381168   0.1857952  0.1857952  0.285217   7.736358   4.322923   7.929      0.6334103  0.7249966  31.99301   0.3012782  0.3568659  0.2456906 
1131.7     0.21       117.1967   8          2          7.986267   3.969166   8.459409   11.15249   9.471059   7.974441   5.561      1.079      1.08       1.528952   8.138797   0.1852645  0.1852645  0.2855521  7.563218   4.177151   7.447      0.6215194  0.7161047  31.95302   0.3039018  0.3618996  0.2459041 
1131.9     0.21       119.4661   8          2          7.985847   3.855598   8.200449   10.89378   9.473582   8.014994   4.483      1.268      1.287      1.527366   7.858158   0.1855952  0.1855952  0.2860371  7.670627   4.179122   7.332      0.6193368  0.7143821  31.97316   0.3043694  0.3618299  0.246909  
1132.1     0.21       121.7369   8          2          7.955589   3.550601   7.49574    10.34093   9.295574   7.976856   4.363      1.458      1.494      1.525047   7.68981    0.1867948  0.1867948  0.2867457  8.073282   4.323447   7.392      0.6229118  0.7167034  32.06821   0.3028816  0.3568482  0.248915  
1132.3     0.21       124.0268   8          2          7.901542   3.422975   7.225621   9.943051   9.104429   7.887895   5.287      1.647      1.701      1.521632   7.745712   0.1887791  0.1887791  0.2877892  8.78629    4.593761   7.41       0.6267926  0.7188672  32.23718   0.3000306  0.3481198  0.2519415 
1132.5     0.21       126.4049   8          2          7.833118   3.422976   7.220568   9.797867   9.0055     7.808908   5.59       1.363      1.561      1.516849   7.871986   0.1913748  0.1913748  0.2892511  9.814859   4.960356   7.327      0.6292506  0.71969    32.46403   0.2965947  0.3373751  0.2558143 
1132.7     0.21       128.9593   8          2          7.760321   3.483703   7.203238   9.664652   8.882627   7.694118   5.72       1.548      1.612      1.510719   7.817696   0.1943494  0.1943494  0.2911242  11.14246   5.382554   7.196      0.6310878  0.7199957  32.72217   0.2932569  0.3263076  0.2602062 
1132.9     0.21       131.7635   1          2          7.691788   3.627344   7.153646   9.495602   8.689726   7.579904   5.815      1.568      1.594      1.503577   7.573002   0.1974551  0.1974551  0.2933069  12.72053   5.812808   7.02       0.6318939  0.7195787  32.98065   0.29046    0.3162204  0.2646996 
1133.1     0.21       134.8563   1          2          7.633585   3.71794    7.100275   9.253718   8.531536   7.475204   5.884      1.566      1.609      1.496063   7.30285    0.2004366  0.2004366  0.2956031  14.4454    6.205109   6.817      0.6316298  0.7184734  33.2104    0.2883834  0.3078989  0.2688679 
1133.3     0.21       138.2308   1          2          7.588358   3.748986   7.187435   9.034256   8.340377   7.311864   5.85       1.619      1.612      1.489021   7.061043   0.2030545  0.2030545  0.2977552  16.15174   6.528142   6.594      0.6300403  0.7164865  33.38951   0.2869718  0.3015841  0.2723596 
1133.5     0.211      141.839    1          2          7.55546    3.779445   7.23847    8.841609   8.105417   7.056231   5.389      1.696      1.385      1.483177   6.784697   0.2051538  0.2051538  0.2995411  17.66464   6.773632   6.44       0.6292512  0.7153298  33.5069    0.2860219  0.2970722  0.2749716 
1133.7     0.211      145.5982   1          2          7.531628   3.807493   7.197741   8.618949   7.851052   6.773846   5.202      1.736      1.497      1.478872   6.614388   0.2067209  0.2067209  0.3008568  18.88559   6.957216   6.343      0.6290678  0.7147935  33.56278   0.2852603  0.2938459  0.2766746 
1133.9     0.212      149.4061   1          2          7.511575   3.773777   7.137      8.452719   7.528883   6.469552   5.218      1.545      1.535      1.475973   6.55045    0.2078981  0.2078981  0.3017426  19.85796   7.11554    6.069      0.6231695  0.7096088  33.56686   0.2843774  0.2911583  0.2775965 
1134.1     0.212      153.1517   1          2          7.490245   3.679111   7.082795   8.330328   7.279303   6.255885   5.218      1.533      1.549      1.47394    6.49945    0.2089248  0.2089248  0.3023641  20.74689   7.287895   5.811      0.6170556  0.7041909  33.53508   0.2831492  0.2883267  0.2779716 
1134.3     0.212      156.7222   1          2          7.463794   3.612977   6.957133   8.209726   7.087166   6.192447   5.052      1.54       1.561      1.472077   6.494467   0.210051   0.210051   0.3029333  21.76765   7.507453   5.717      0.6159161  0.7027563  33.4852    0.2814615  0.2848533  0.2780697 
1134.5     0.213      160.0166   1          2          7.430704   3.620442   6.800974   8.140499   6.899811   6.130894   5.003      1.583      1.551      1.469852   6.545429   0.2114298  0.2114298  0.3036132  23.08617   7.791448   5.583      0.6138244  0.700414   33.43218   0.2793434  0.2805671  0.2781197 
1134.7     0.212      162.9574   1          2          7.392653   3.627977   6.650167   8.112459   6.797808   6.059396   4.921      1.678      1.596      1.467122   6.6273     0.2130427  0.2130427  0.3044474  24.73007   8.131313   5.462      0.612407   0.6985464  33.38443   0.2769842  0.275718   0.2782504 
