~Version
 VERS              .         2.0                           : CWLS LOG ASCII STANDARD - VERSION 2.0
 WRAP              .         NO                            : ONE LINE PER DEPTH STEP
 DLM               .         SPACE                         : DELIMITING CHARACTER(SPACE TAB OR COMMA)
~Well Information
#_______________________________________________________________________________
#
#PARAMETER_NAME    .UNIT     VALUE                         : DESCRIPTION
#_______________________________________________________________________________
STRT               .M        843.7                         : First reference value
STOP               .M        1227.9                        : Last reference value
STEP               .M        0.2                           : Step increment
NULL               .         -9999                         : Missing value
COMP               .                                       : Company
WELL               .         3888                          : Well name
FLD                .         Узень                         : Field
LOC                .                                       : Location
CNTY               .                                       : County
STAT               .                                       : State
CTRY               .                                       : Country
SRVC               .                                       : Service Company
DATE               .                                       : Date
UWI                .                                       : Unique Well ID
Block              .         7                             : 
Cartographic_reference_system .         GCS_WGS_1984                  : ESRI,PE_10_3_1- <?xml version="1.0" encoding="utf-16"?><ILateBoundCoordinateReferenceSystem name="GCS_WGS_1984"><AuthorityCode>EPSG,4326</AuthorityCode></ILateBoundCoordinateReferenceSystem>
Category           .         Нефтяная                      : 
Condition          .         В работе                      : 
Date               .         18.07.2007                    : 
EREF               .m        91.7                          : 100.8
Gorizont           .         14                            : 14
HZCS               .GCS_WGS_1984 WGS_1984_EASE-Grid_2.0_Global : ESRI,PE_10_3_1- <?xml version="1.0" encoding="utf-16"?><ILateBoundCoordinateReferenceSystem name="WGS_1984_EASE-Grid_2.0_Global"><AuthorityCode>EPSG,6933</AuthorityCode></ILateBoundCoordinateReferenceSystem>
Interpretator      .         Кушербаева А.С                : 
Kupol              .         основной                      : osnovnoi
LATI               .dega     0.6623499522                  : GCS_WGS_1984
LONG               .dega     0.4338720478                  : GCS_WGS_1984
Mud                .                                       : 
Mud_density        .                                       : 
Mud_resistivity    .                                       : 
NGDU               .         НГДУ-2                        : 
ORIGINALWELLNAME   .         3888                          : 
Spud_date          .         1990                          : 1961
Viscosity          .                                       : 
X                  .m        41862.7                       : 46154
Y                  .m        84496.33                      : 85761.93
YEAR               .         2019г                         : 
Исправлено         .         14                            : 
~Parameter Information Block
#_______________________________________________________________________________
#
#PARAMETER_NAME    .UNIT     VALUE                         : DESCRIPTION
#_______________________________________________________________________________
SET                .         LQC_KAZNIPI_Petrel            : 
TLFamily_CALI      .         Caliper                       : 
TLFamily_CILD      .         Conductivity                  : 
TLFamily_COLL      .         Net Reservoir Flag            : 
TLFamily_CSAT      .         Fluid Code                    : 
TLFamily_DEPT      .         Measured Depth                : 
TLFamily_GR        .         Russian Gamma Ray             : 
TLFamily_GZ1       .         Gradient 045                  : 
TLFamily_GZ2       .         Gradient 105                  : 
TLFamily_GZ3       .         Gradient 225                  : 
TLFamily_GZ4       .         Gradient 425                  : 
TLFamily_GZ5       .         Gradient 850                  : 
TLFamily_LLS       .         Lateral Log Resistivity       : 
TLFamily_MINV      .         Micro Gradient Resistivity    : 
TLFamily_MNOR      .         Micro Resistivity             : 
TLFamily_NGLD      .         Neutron Gamma                 : 
TLFamily_OGZ       .         Gradient Inverted 225         : 
TLFamily_PHIE      .         Effective Porosity            : 
TLFamily_PHIEN     .         Effective Porosity            : 
TLFamily_PHIT      .         Porosity                      : 
TLFamily_PRMB      .         Permeability                  : 
TLFamily_PRMB_DGR  .         Permeability                  : 
TLFamily_RT        .         Formation Resistivity         : 
TLFamily_SOIL_ARCHIE .         Oil Saturation                : 
TLFamily_SOIL_DW   .         Oil Saturation                : 
TLFamily_SP        .         Spontaneous Potential         : 
TLFamily_VSH_FIN   .         Shale Volume                  : 
TLFamily_VSH_GR    .         Shale Volume                  : 
TLFamily_VSH_SP    .         Shale Volume                  : 
~Curve Information
#_______________________________________________________________________________
#
#LOGNAME           .UNIT     LOG_ID                        : DESCRIPTION
#_______________________________________________________________________________
DEPT               .M                                      : Колонка глубины 
CALI               .м                                      : Каверномер 
CILD               .мСм/м                                  : Индукционный каротаж 
COLL               .unitless                               : Описание 
CSAT               .unitless                               : Описание 
GR                 .uR/h                                   : Гамма каротаж 
GZ1                .Ohmm                                   : Градиент-зонд  длиной 0.45м 
GZ2                .Ohmm                                   : Градиент-зонд  длиной 1.05м 
GZ3                .Ohmm                                   : Градиент-зонд  длиной 2.25м 
GZ4                .Ohmm                                   : Градиент-зонд  длиной 4.5м 
GZ5                .Ohmm                                   : Градиент-зонд  длиной 8.5м 
LLS                .Ohmm                                   : Боковой каротаж 
MINV               .Ohmm                                   : Микро-градиент зонд 
MNOR               .Ohmm                                   : Микро-потенциал зонд 
NGLD               .у.е.                                   : Показания зонда НГК-60 аппаратуры ДРСТ-3-90 
OGZ                .Ohmm                                   :  
PHIE               .v/v                                    : Описание 
PHIEN              .v/v                                    :  
PHIT               .v/v                                    : Описание 
PRMB               .mD                                     :  
PRMB_DGR           .mD                                     :  
RT                 .ohmm                                   : УЭС пласта 
SOIL_ARCHIE        .v/v                                    :  
SOIL_DW            .v/v                                    :  
SP                 .мВ                                     : Потенциал самополяризации 
VSH_FIN            .v/v                                    : Описание 
VSH_GR             .v/v                                    : Shale volume 
VSH_SP             .v/v                                    : Shale Volume 
~Ascii
# ...
1025.7     0.257      256.8516   -9999      -9999      5.485324   2.855832   4.996914   4.989489   3.789303   2.934557   2.886      1.029      0.997      1.590609   4.337193   0.1184623  0.1184623  0.2667097  0.4378917  20.37171   3.531      0.2069989  0.4882355  50.04427   0.4492348  0.1894936  0.708976  
1025.9     0.266      262.5284   -9999      -9999      5.59386    2.838086   4.842206   4.839033   3.551189   2.827446   2.247      2.78       0.887      1.561126   4.283499   0.1242812  0.1242812  0.2757198  0.5612375  17.49394   3.234      0.2074221  0.4855697  50.16449   0.4589049  0.2016516  0.7161583 
1026.1     0.272      266.7957   -9999      -9999      5.661637   2.470733   4.363844   4.60702    3.231723   2.681007   2.231      1.558      0.984      1.534489   4.344529   0.1297972  0.1297972  0.2838601  0.7100962  15.90689   3.13       0.2250436  0.4948147  50.3024    0.4668572  0.2096365  0.7240779 
1026.3     0.275      268.9905   -9999      -9999      5.669126   2.078247   3.916948   4.293145   2.910441   2.58047    2.119      2.241      1.093      1.514195   4.470077   0.1345316  0.1345316  0.2900619  0.8689815  15.74062   3.021      0.2362527  0.4994645  50.44033   0.4713037  0.2105379  0.7320696 
1026.5     0.272      268.8003   -9999      -9999      5.607619   1.87975    3.518377   4.013899   2.696476   2.584447   1.986      1.591      0.793      1.502729   4.536998   0.1380685  0.1380685  0.293566   1.010465   17.15944   3.119      0.2644236  0.5158304  50.55336   0.4712045  0.2032476  0.7391614 
1026.7     0.257      266.2854   -9999      -9999      5.482409   1.671583   3.130831   3.801905   2.539937   2.617448   2.048      1.472      0.861      1.501068   4.740655   0.1400476  0.1400476  0.2940735  1.09946    20.45523   3.329      0.2953639  0.5343736  50.61552   0.4667451  0.1891773  0.7443129 
1026.9     0.244      261.8059   -9999      -9999      5.310907   1.558498   3.050711   3.797083   2.453778   2.689417   2.294      1.314      0.951      1.508712   5.146518   0.1402263  0.1402263  0.2917376  1.107871   26.02043   3.464      0.309154   0.5414982  50.6087    0.4591252  0.1714723  0.746778  
1027.1     0.242      255.8736   -9999      -9999      5.116757   1.640221   3.252554   4.016163   2.595697   2.779298   3.383      0.776      0.963      1.524163   5.551808   0.1385544  0.1385544  0.2870159  1.031625   34.16851   3.533      0.3083307  0.5392883  50.52807   0.4498833  0.1534205  0.7463461 
1027.3     0.241      249.05     -9999      -9999      4.922695   1.856778   3.373922   4.21243    2.885608   2.822982   3.684      1.525      0.821      1.545493   5.957542   0.135204   0.135204   0.2804972  0.8942608  44.86264   3.604      0.2999929  0.5329804  50.38048   0.4402824  0.137276   0.7432889 
1027.5     0.241      241.8831   -9999      -9999      4.744826   2.088749   3.450085   4.349452   3.02482    2.853426   3.811      1.958      0.906      1.570911   6.122863   0.1304819  0.1304819  0.2727296  0.7311385  57.58044   3.683      0.2852893  0.5235057  50.17876   0.4310535  0.1239753  0.7381318 
1027.7     0.24       234.858    -9999      -9999      4.59128    2.248173   3.467813   4.305524   3.058      2.894427   3.403      2.23       1.107      1.599004   5.763142   0.1247344  0.1247344  0.2641444  0.5721915  71.42391   3.865      0.2733259  0.5173534  49.93492   0.4224546  0.1135345  0.7313747 
1027.9     0.237      228.3381   -9999      -9999      4.464288   2.284358   3.490501   4.138743   3.045474   2.95818    2.882      2.331      1.202      1.628629   5.141663   0.1183268  0.1183268  0.2550909  0.4353685  85.35532   4.17       0.265811   0.5155853  49.65556   0.4144368  0.105567   0.7233065 
1028.1     0.235      222.5717   -9999      -9999      4.362085   2.192007   3.717546   3.999315   3.063348   3.069736   2.848      2.442      1.307      1.658892   4.519847   0.1116102  0.1116102  0.2458427  0.3269256  98.51704   4.395      0.2462938  0.5064159  49.34078   0.4067654  0.09956278 0.713968  
1028.3     0.235      217.6798   -9999      -9999      4.281694   2.11396    4.06088    4.05928    3.216572   3.20236    3.711      2.536      0.93       1.689078   4.270695   0.1048812  0.1048812  0.2366178  0.2453647  110.2808   4.414      0.2059569  0.4836704  48.98849   0.3992019  0.0950809  0.7033229 
1028.5     0.236      213.7129   -9999      -9999      4.223135   2.178568   4.404644   4.233844   3.374362   3.409397   4.09       1.558      1.042      1.718487   4.286353   0.09835155 0.09835155 0.2276305  0.1857237  119.7251   4.27       0.1470622  0.4490957  48.60256   0.3917543  0.09194367 0.691565  
1028.7     0.237      210.8202   -9999      -9999      4.190014   2.36883    4.592483   4.341874   3.507944   3.663438   4.108      1.907      0.607      1.746074   4.183971   0.09222391 0.09222391 0.2191997  0.1430107  125.4205   4.122      0.08285332 0.4119771  48.1992    0.3847752  0.09021534 0.6793351 
1028.9     0.235      209.3059   -9999      -9999      4.190177   2.544269   4.615488   4.380497   3.72189    3.887725   3.646      1.976      0.859      1.769855   4.066174   0.08686735 0.08686735 0.2119322  0.1138026  125.3918   4.113      0.03279692 0.3852826  47.80869   0.3789844  0.09022377 0.6677449 
1029.1     0.236      209.6443   -9999      -9999      4.235912   2.485725   4.387871   4.459386   3.995074   4.176898   3.079      1.803      1.143      1.786771   4.03296    0.08287928 0.08287928 0.2067627  0.0960027  117.5978   4.491      0.03311276 0.3920888  47.47101   0.3754041  0.09261923 0.6581891 
1029.3     0.239      212.4026   -9999      -9999      4.341545   2.288049   4.12332    5.074753   4.35081    4.485028   3.199      1.645      1.404      1.792913   4.12188    0.0810627  0.0810627  0.2048858  0.08884562 101.3977   5.077      0.06939846 0.4202724  47.22733   0.3752216  0.09839793 0.6520453 
1029.5     0.241      218.0278   -9999      -9999      4.519338   2.210499   4.686687   6.226691   5.073854   4.865952   4.941      3.516      0.925      1.784364   4.292835   0.08291911 0.08291911 0.2074984  0.09616589 79.01031   5.381      0.1121336  0.4459839  47.11063   0.3775129  0.1089498  0.646076  
1029.7     0.242      226.6285   -9999      -9999      4.774079   2.554631   5.988257   7.377243   6.195924   5.444539   7.633      3.798      1.316      1.758629   4.221619   0.08811635 0.08811635 0.2153629  0.1200291  55.26485   4.823      0.1135295  0.4410084  47.13696   0.3855956  0.1260707  0.6451206 
1029.9     0.255      237.8937   -9999      -9999      5.098526   3.29697    7.28642    8.031287   6.850127   5.428047   9.403      3.141      1.012      1.716041   3.808978   0.09625119 0.09625119 0.2283778  0.1698101  35.0539    3.959      0.09947795 0.4244729  47.30003   0.4003838  0.1518262  0.6489413 
1030.1     0.282      251.1699   -9999      -9999      5.472358   4.037263   6.940606   8.214541   6.100787   4.736989   4.24       1.544      0.933      1.660345   3.328358   0.1060218  0.1060218  0.2453986  0.2575961  20.74573   3.358      0.10571    0.4237401  47.57183   0.4223538  0.1880911  0.6566166 
1030.3     0.31       265.6913   -9999      -9999      5.866255   3.231152   5.005715   6.500424   4.539829   4.04586    1.951      0.721      0.918      1.597948   2.847445   0.1155704  0.1155704  0.2644671  0.3870815  11.93698   3.173      0.1480604  0.4522468  47.90863   0.4512021  0.2357123  0.666692  
1030.5     0.326      280.8258   -9999      -9999      6.248993   2.147331   4.12848    4.824756   3.755721   3.754303   1.837      0.558      1.068      1.5361     2.365858   0.1231612  0.1231612  0.2833678  0.5350587  6.976859   3.234      0.2011483  0.4926061  48.2605    0.4854748  0.2935078  0.6774418 
1030.7     0.322      296.175    -9999      -9999      6.595414   1.861874   4.1135     4.553815   3.584255   3.442286   1.972      0.507      1.176      1.480924   2.122443   0.127772   0.127772   0.3002295  0.6513379  4.290981   3.137      0.2151798  0.5099493  48.58283   0.5225985  0.3579482  0.6872488 
