~Version
 VERS              .         2.0                           : CWLS LOG ASCII STANDARD - VERSION 2.0
 WRAP              .         NO                            : ONE LINE PER DEPTH STEP
 DLM               .         SPACE                         : DELIMITING CHARACTER(SPACE TAB OR COMMA)
~Well Information
#_______________________________________________________________________________
#
#PARAMETER_NAME    .UNIT     VALUE                         : DESCRIPTION
#_______________________________________________________________________________
STRT               .M        843.7                         : First reference value
STOP               .M        1227.9                        : Last reference value
STEP               .M        0.2                           : Step increment
NULL               .         -9999                         : Missing value
COMP               .                                       : Company
WELL               .         3888                          : Well name
FLD                .         Узень                         : Field
LOC                .                                       : Location
CNTY               .                                       : County
STAT               .                                       : State
CTRY               .                                       : Country
SRVC               .                                       : Service Company
DATE               .                                       : Date
UWI                .                                       : Unique Well ID
Block              .         7                             : 
Cartographic_reference_system .         GCS_WGS_1984                  : ESRI,PE_10_3_1- <?xml version="1.0" encoding="utf-16"?><ILateBoundCoordinateReferenceSystem name="GCS_WGS_1984"><AuthorityCode>EPSG,4326</AuthorityCode></ILateBoundCoordinateReferenceSystem>
Category           .         Нефтяная                      : 
Condition          .         В работе                      : 
Date               .         18.07.2007                    : 
EREF               .m        91.7                          : 100.8
Gorizont           .         14                            : 14
HZCS               .GCS_WGS_1984 WGS_1984_EASE-Grid_2.0_Global : ESRI,PE_10_3_1- <?xml version="1.0" encoding="utf-16"?><ILateBoundCoordinateReferenceSystem name="WGS_1984_EASE-Grid_2.0_Global"><AuthorityCode>EPSG,6933</AuthorityCode></ILateBoundCoordinateReferenceSystem>
Interpretator      .         Кушербаева А.С                : 
Kupol              .         основной                      : osnovnoi
LATI               .dega     0.6623499522                  : GCS_WGS_1984
LONG               .dega     0.4338720478                  : GCS_WGS_1984
Mud                .                                       : 
Mud_density        .                                       : 
Mud_resistivity    .                                       : 
NGDU               .         НГДУ-2                        : 
ORIGINALWELLNAME   .         3888                          : 
Spud_date          .         1990                          : 1961
Viscosity          .                                       : 
X                  .m        41862.7                       : 46154
Y                  .m        84496.33                      : 85761.93
YEAR               .         2019г                         : 
Исправлено         .         14                            : 
~Parameter Information Block
#_______________________________________________________________________________
#
#PARAMETER_NAME    .UNIT     VALUE                         : DESCRIPTION
#_______________________________________________________________________________
SET                .         LQC_KAZNIPI_Petrel            : 
TLFamily_CALI      .         Caliper                       : 
TLFamily_CILD      .         Conductivity                  : 
TLFamily_COLL      .         Net Reservoir Flag            : 
TLFamily_CSAT      .         Fluid Code                    : 
TLFamily_DEPT      .         Measured Depth                : 
TLFamily_GR        .         Russian Gamma Ray             : 
TLFamily_GZ1       .         Gradient 045                  : 
TLFamily_GZ2       .         Gradient 105                  : 
TLFamily_GZ3       .         Gradient 225                  : 
TLFamily_GZ4       .         Gradient 425                  : 
TLFamily_GZ5       .         Gradient 850                  : 
TLFamily_LLS       .         Lateral Log Resistivity       : 
TLFamily_MINV      .         Micro Gradient Resistivity    : 
TLFamily_MNOR      .         Micro Resistivity             : 
TLFamily_NGLD      .         Neutron Gamma                 : 
TLFamily_OGZ       .         Gradient Inverted 225         : 
TLFamily_PHIE      .         Effective Porosity            : 
TLFamily_PHIEN     .         Effective Porosity            : 
TLFamily_PHIT      .         Porosity                      : 
TLFamily_PRMB      .         Permeability                  : 
TLFamily_PRMB_DGR  .         Permeability                  : 
TLFamily_RT        .         Formation Resistivity         : 
TLFamily_SOIL_ARCHIE .         Oil Saturation                : 
TLFamily_SOIL_DW   .         Oil Saturation                : 
TLFamily_SP        .         Spontaneous Potential         : 
TLFamily_VSH_FIN   .         Shale Volume                  : 
TLFamily_VSH_GR    .         Shale Volume                  : 
TLFamily_VSH_SP    .         Shale Volume                  : 
~Curve Information
#_______________________________________________________________________________
#
#LOGNAME           .UNIT     LOG_ID                        : DESCRIPTION
#_______________________________________________________________________________
DEPT               .M                                      : Колонка глубины 
CALI               .м                                      : Каверномер 
CILD               .мСм/м                                  : Индукционный каротаж 
COLL               .unitless                               : Описание 
CSAT               .unitless                               : Описание 
GR                 .uR/h                                   : Гамма каротаж 
GZ1                .Ohmm                                   : Градиент-зонд  длиной 0.45м 
GZ2                .Ohmm                                   : Градиент-зонд  длиной 1.05м 
GZ3                .Ohmm                                   : Градиент-зонд  длиной 2.25м 
GZ4                .Ohmm                                   : Градиент-зонд  длиной 4.5м 
GZ5                .Ohmm                                   : Градиент-зонд  длиной 8.5м 
LLS                .Ohmm                                   : Боковой каротаж 
MINV               .Ohmm                                   : Микро-градиент зонд 
MNOR               .Ohmm                                   : Микро-потенциал зонд 
NGLD               .у.е.                                   : Показания зонда НГК-60 аппаратуры ДРСТ-3-90 
OGZ                .Ohmm                                   :  
PHIE               .v/v                                    : Описание 
PHIEN              .v/v                                    :  
PHIT               .v/v                                    : Описание 
PRMB               .mD                                     :  
PRMB_DGR           .mD                                     :  
RT                 .ohmm                                   : УЭС пласта 
SOIL_ARCHIE        .v/v                                    :  
SOIL_DW            .v/v                                    :  
SP                 .мВ                                     : Потенциал самополяризации 
VSH_FIN            .v/v                                    : Описание 
VSH_GR             .v/v                                    : Shale volume 
VSH_SP             .v/v                                    : Shale Volume 
~Ascii
# ...
895.7000000000001 0.288      224.1766   -9999      -9999      -9999      -9999      -9999      5.069763   -9999      -9999      3.14       0.577      0.732      -9999      3.692197   -9999      -9999      -9999      -9999      -9999      3.971      -9999      -9999      55.77994   -9999      -9999      0.8       
895.9      0.29       229.7619   -9999      -9999      -9999      -9999      -9999      4.967212   -9999      -9999      2.846      0.664      0.782      -9999      3.706859   -9999      -9999      -9999      -9999      -9999      4.076      -9999      -9999      55.66709   -9999      -9999      0.8       
896.1      0.269      235.4651   -9999      -9999      -9999      -9999      -9999      5.040375   -9999      -9999      3.345      0.746      0.71       -9999      3.960606   -9999      -9999      -9999      -9999      -9999      4.016      -9999      -9999      55.5551    -9999      -9999      0.8       
896.3      0.255      240.9667   -9999      -9999      -9999      -9999      -9999      5.241013   -9999      -9999      3.841      0.743      0.683      -9999      4.24922    -9999      -9999      -9999      -9999      -9999      3.704      -9999      -9999      55.45007   -9999      0.5602952  0.8       
896.5      0.27       245.94     -9999      -9999      -9999      -9999      -9999      5.364253   -9999      -9999      2.983      1.775      0.726      -9999      4.435074   -9999      -9999      -9999      -9999      -9999      3.514      -9999      -9999      55.3562    -9999      0.6336244  0.8       
896.7000000000001 0.284      250.0652   -9999      -9999      -9999      -9999      -9999      5.164144   -9999      -9999      2.759      1.703      0.631      -9999      4.316372   -9999      -9999      -9999      -9999      -9999      3.455      -9999      -9999      55.27496   -9999      0.7769142  0.8       
896.9      0.294      253.0614   -9999      -9999      -9999      -9999      -9999      4.789154   -9999      -9999      2.66       0.529      0.8        -9999      4.086617   -9999      -9999      -9999      -9999      -9999      3.489      -9999      -9999      55.20601   -4999.133  -9999      0.7343425 
897.1      0.294      254.6981   -9999      -9999      -9999      -9999      -9999      4.724032   -9999      -9999      2.752      0.513      0.547      -9999      4.089574   -9999      -9999      -9999      -9999      -9999      3.518      -9999      -9999      55.14645   -4999.135  -9999      0.7305019 
897.3      0.28       254.7996   -9999      -9999      -9999      -9999      -9999      4.844204   -9999      -9999      2.825      0.993      0.511      -9999      4.443078   -9999      -9999      -9999      -9999      -9999      3.471      -9999      -9999      55.08873   -4999.137  -9999      0.7267954 
897.5      0.266      253.2701   -9999      -9999      -9999      -9999      -9999      4.569483   -9999      -9999      2.965      0.766      0.618      -9999      4.877011   -9999      -9999      -9999      -9999      -9999      3.398      -9999      -9999      55.02231   -4999.139  -9999      0.7225497 
897.7000000000001 0.263      250.1091   -9999      -9999      -9999      -9999      -9999      4.028553   -9999      -9999      2.792      0.886      0.69       -9999      5.072461   -9999      -9999      -9999      -9999      -9999      3.407      -9999      -9999      54.93567   -4999.142  -9999      0.7170416 
897.9      0.264      245.4203   -9999      -9999      -9999      -9999      -9999      3.78393    -9999      -9999      2.609      1.004      0.769      -9999      5.220969   -9999      -9999      -9999      -9999      -9999      3.512      -9999      -9999      54.81947   -4999.145  -9999      0.7097079 
898.1      0.254      239.3906   -9999      -9999      9.127872   -9999      -9999      3.778957   -9999      -9999      2.725      1.044      0.881      -9999      5.611125   -9999      -9999      -9999      -9999      -9999      3.727      -9999      -9999      54.6671    0.7500924  0.8        0.7001848 
898.3      0.241      232.2218   -9999      -9999      8.857334   -9999      -9999      3.875685   -9999      -9999      3.42       0.753      0.657      1.393346   6.261571   0.08141275 0.08141275 0.3269934  0.09018198 0.002660713 3.938      0          0.3708981  54.47565   0.7441838  0.8        0.6883676 
898.5      0.239      224.098    -9999      -9999      8.540588   -9999      -9999      4.021951   -9999      -9999      3.616      1.675      1.643      1.406971   6.911887   0.07954818 0.07954818 0.3228296  0.08328817 0.004932607 4.086      0          0.3732708  54.24638   0.7372163  0.8        0.6744326 
898.7000000000001 0.24       215.1646   -9999      -9999      8.199385   -9999      -9999      4.197559   -9999      -9999      4.02       1.259      1.27       1.425437   7.562019   0.07652906 0.07652906 0.3171864  0.07322544 0.009590795 4.238      0          0.3713235  53.97989   0.7292646  0.8        0.6585292 
898.9      0.242      205.5212   -9999      -9999      7.838897   -9999      -9999      4.319487   -9999      -9999      4.502      1.93       0.897      1.452701   8.21209    0.07114322 0.07114322 0.3088546  0.05819735 0.01936219 4.218      0          0.3476152  53.67425   0.7203375  0.8        0.6406749 
899.1      0.246      195.2726   -9999      -9999      7.45918    -9999      -9999      4.233935   -9999      -9999      3.991      1.609      1.627      1.490633   8.563477   0.06283052 0.06283052 0.2972626  0.04082551 0.04058154 4.298      0          0.3188644  53.32553   0.7104002  0.8        0.6208004 
899.3      0.249      184.5841   -9999      -9999      7.056802   -9999      -9999      3.927022   -9999      -9999      3.027      1.445      0.927      1.540288   8.360593   0.05129512 0.05129512 0.282088   0.02496135 0.08889589 4.761      0          0.3021283  52.92735   0.6993724  0.8        0.5987447 
899.5      0.247      173.7092   -9999      -9999      6.629475   -9999      -9999      3.678712   -9999      -9999      3.272      0.455      0.557      1.601297   8.602533   0.03666071 0.03666071 0.2634436  0.01337221 0.2044329  5.34       0          0.2690662  52.47385   0.6872208  0.8        0.5744414 
899.7000000000001 0.236      162.9675   -9999      -9999      6.181748   -9999      -9999      3.805409   -9999      -9999      4.128      0.817      0.626      1.671415   9.548818   0.01956032 0.01956032 0.2420154  0.006448558 0.489199   5.973      0          0.2070131  51.9655    0.6741064  0.8        0.5482128 
899.9      0.221      152.6825   -9999      -9999      5.728329   -9999      -9999      4.444168   -9999      -9999      4.919      0.605      0.869      1.746636   11.80076   0.03315545 0.03315545 0.219028   0.01151536 1.183688   6.415      0          0.2061473  51.41241   0.5632502  0.6056322  0.5208683 
900.1      0.21       143.1075   -9999      -9999      5.293454   -9999      -9999      5.136187   -9999      -9999      6.627      0.539      1.045      1.821573   14.785     0.04397842 0.04397842 0.1961273  0.01827027 2.762454   6.556      0          0.1721926  50.83562   0.4610571  0.4284683  0.4936458 
900.3      0.208      134.3905   6          6          4.906787   -9999      -9999      5.487974   -9999      -9999      5.84       1.066      1.223      1.890453   16.35196   0.04589302 0.04589302 0.1750776  0.01982477 5.868817   6.848      0          0.1173185  50.26431   0.3914686  0.3149846  0.4679525 
900.5      0.211      126.5911   6          6          4.595702   -9999      -9999      5.666991   -9999      -9999      8.274      1.593      1.594      1.948502   17.09311   0.04333605 0.04333605 0.1573378  0.01777652 10.76064   7.297      0          0.05732736 49.72923   0.3454598  0.2459123  0.4450072 
900.7000000000001 0.214      119.7346   6          6          4.376841   -9999      -9999      5.796247   -9999      -9999      11.723     0.835      1.496      1.992974   16.50302   0.03943458 0.03943458 0.143747   0.01505158 16.48436   7.887      0          0.006784782 49.25589   0.3160983  0.206606   0.4255906 
