~Version
 VERS              .         2.0                           : CWLS LOG ASCII STANDARD - VERSION 2.0
 WRAP              .         NO                            : ONE LINE PER DEPTH STEP
 DLM               .         SPACE                         : DELIMITING CHARACTER(SPACE TAB OR COMMA)
~Well Information
#_______________________________________________________________________________
#
#PARAMETER_NAME    .UNIT     VALUE                         : DESCRIPTION
#_______________________________________________________________________________
STRT               .M        843.7                         : First reference value
STOP               .M        1227.9                        : Last reference value
STEP               .M        0.2                           : Step increment
NULL               .         -9999                         : Missing value
COMP               .                                       : Company
WELL               .         3888                          : Well name
FLD                .         Узень                         : Field
LOC                .                                       : Location
CNTY               .                                       : County
STAT               .                                       : State
CTRY               .                                       : Country
SRVC               .                                       : Service Company
DATE               .                                       : Date
UWI                .                                       : Unique Well ID
Block              .         7                             : 
Cartographic_reference_system .         GCS_WGS_1984                  : ESRI,PE_10_3_1- <?xml version="1.0" encoding="utf-16"?><ILateBoundCoordinateReferenceSystem name="GCS_WGS_1984"><AuthorityCode>EPSG,4326</AuthorityCode></ILateBoundCoordinateReferenceSystem>
Category           .         Нефтяная                      : 
Condition          .         В работе                      : 
Date               .         18.07.2007                    : 
EREF               .m        91.7                          : 100.8
Gorizont           .         14                            : 14
HZCS               .GCS_WGS_1984 WGS_1984_EASE-Grid_2.0_Global : ESRI,PE_10_3_1- <?xml version="1.0" encoding="utf-16"?><ILateBoundCoordinateReferenceSystem name="WGS_1984_EASE-Grid_2.0_Global"><AuthorityCode>EPSG,6933</AuthorityCode></ILateBoundCoordinateReferenceSystem>
Interpretator      .         Кушербаева А.С                : 
Kupol              .         основной                      : osnovnoi
LATI               .dega     0.6623499522                  : GCS_WGS_1984
LONG               .dega     0.4338720478                  : GCS_WGS_1984
Mud                .                                       : 
Mud_density        .                                       : 
Mud_resistivity    .                                       : 
NGDU               .         НГДУ-2                        : 
ORIGINALWELLNAME   .         3888                          : 
Spud_date          .         1990                          : 1961
Viscosity          .                                       : 
X                  .m        41862.7                       : 46154
Y                  .m        84496.33                      : 85761.93
YEAR               .         2019г                         : 
Исправлено         .         14                            : 
~Parameter Information Block
#_______________________________________________________________________________
#
#PARAMETER_NAME    .UNIT     VALUE                         : DESCRIPTION
#_______________________________________________________________________________
SET                .         LQC_KAZNIPI_Petrel            : 
TLFamily_CALI      .         Caliper                       : 
TLFamily_CILD      .         Conductivity                  : 
TLFamily_COLL      .         Net Reservoir Flag            : 
TLFamily_CSAT      .         Fluid Code                    : 
TLFamily_DEPT      .         Measured Depth                : 
TLFamily_GR        .         Russian Gamma Ray             : 
TLFamily_GZ1       .         Gradient 045                  : 
TLFamily_GZ2       .         Gradient 105                  : 
TLFamily_GZ3       .         Gradient 225                  : 
TLFamily_GZ4       .         Gradient 425                  : 
TLFamily_GZ5       .         Gradient 850                  : 
TLFamily_LLS       .         Lateral Log Resistivity       : 
TLFamily_MINV      .         Micro Gradient Resistivity    : 
TLFamily_MNOR      .         Micro Resistivity             : 
TLFamily_NGLD      .         Neutron Gamma                 : 
TLFamily_OGZ       .         Gradient Inverted 225         : 
TLFamily_PHIE      .         Effective Porosity            : 
TLFamily_PHIEN     .         Effective Porosity            : 
TLFamily_PHIT      .         Porosity                      : 
TLFamily_PRMB      .         Permeability                  : 
TLFamily_PRMB_DGR  .         Permeability                  : 
TLFamily_RT        .         Formation Resistivity         : 
TLFamily_SOIL_ARCHIE .         Oil Saturation                : 
TLFamily_SOIL_DW   .         Oil Saturation                : 
TLFamily_SP        .         Spontaneous Potential         : 
TLFamily_VSH_FIN   .         Shale Volume                  : 
TLFamily_VSH_GR    .         Shale Volume                  : 
TLFamily_VSH_SP    .         Shale Volume                  : 
~Curve Information
#_______________________________________________________________________________
#
#LOGNAME           .UNIT     LOG_ID                        : DESCRIPTION
#_______________________________________________________________________________
DEPT               .M                                      : Колонка глубины 
CALI               .м                                      : Каверномер 
CILD               .мСм/м                                  : Индукционный каротаж 
COLL               .unitless                               : Описание 
CSAT               .unitless                               : Описание 
GR                 .uR/h                                   : Гамма каротаж 
GZ1                .Ohmm                                   : Градиент-зонд  длиной 0.45м 
GZ2                .Ohmm                                   : Градиент-зонд  длиной 1.05м 
GZ3                .Ohmm                                   : Градиент-зонд  длиной 2.25м 
GZ4                .Ohmm                                   : Градиент-зонд  длиной 4.5м 
GZ5                .Ohmm                                   : Градиент-зонд  длиной 8.5м 
LLS                .Ohmm                                   : Боковой каротаж 
MINV               .Ohmm                                   : Микро-градиент зонд 
MNOR               .Ohmm                                   : Микро-потенциал зонд 
NGLD               .у.е.                                   : Показания зонда НГК-60 аппаратуры ДРСТ-3-90 
OGZ                .Ohmm                                   :  
PHIE               .v/v                                    : Описание 
PHIEN              .v/v                                    :  
PHIT               .v/v                                    : Описание 
PRMB               .mD                                     :  
PRMB_DGR           .mD                                     :  
RT                 .ohmm                                   : УЭС пласта 
SOIL_ARCHIE        .v/v                                    :  
SOIL_DW            .v/v                                    :  
SP                 .мВ                                     : Потенциал самополяризации 
VSH_FIN            .v/v                                    : Описание 
VSH_GR             .v/v                                    : Shale volume 
VSH_SP             .v/v                                    : Shale Volume 
~Ascii
# ...
1108.9     0.237      314.2053   -9999      -9999      7.973922   2.559586   5.608746   6.802333   1.373531   1.290935   5.452      4.585      1.742      1.658244   2.392048   0.08872157 0.08872157 0.2460407  0.1231677  4.235415   3.466      0          0.3960189  54.14207   0.4767248  0.3598584  0.5935912 
1109.1     0.239      342.8302   -9999      -9999      7.934628   3.012071   6.304931   8.079466   1.659831   1.265438   4.993      2.883      1.108      1.627146   2.58132    0.09779683 0.09779683 0.2555442  0.1813813  4.426339   3.071      0          0.3951548  54.36155   0.4780223  0.3534375  0.6026071 
1109.3     0.243      374.6369   -9999      -9999      7.952619   3.464169   7.000881   9.355407   1.906396   1.239932   4.634      1.182      1.23       1.589198   2.675235   0.1079437  0.1079437  0.2671411  0.2796003  4.337883   2.462      0          0.3663762  54.48272   0.4824164  0.3563628  0.60847   
1109.5     0.251      408.0167   -9999      -9999      8.033082   3.507651   6.141607   8.456527   1.890434   1.174894   2.462      0.342      0.471      1.54674    2.587242   0.1183549  0.1183549  0.2801163  0.4358919  3.963383   2.086      0          0.3541778  54.49133   0.4901861  0.3697463  0.6106259 
1109.7     0.26       441.0108   -9999      -9999      8.166784   2.358901   3.854614   5.522995   1.453674   1.006789   1.693      0.426      0.634      1.503615   2.133952   0.1278947  0.1278947  0.2932953  0.654754   3.411223   1.974      0.02544195 0.3733026  54.39584   0.5012138  0.3931055  0.6093221 
1109.9     0.265      471.565    -9999      -9999      8.333336   1.541399   2.827646   3.706149   0.988342   0.8350892  1.67       0.421      0.754      1.464139   1.623483   0.1354547  0.1354547  0.3053591  0.9038748  2.829736   1.86       0.04674788 0.3838324  54.22252   0.5148618  0.4242787  0.605445  
1110.1     0.266      497.7703   -9999      -9999      8.508132   1.394758   2.686549   3.026412   0.8191032  0.6791937  1.73       0.403      0.575      1.431958   1.39081    0.1403015  0.1403015  0.3151937  1.111432   2.325755   1.705      0.03696378 0.3773191  54.00982   0.5299764  0.4596569  0.6002959 
1110.3     0.268      518.0732   -9999      -9999      8.667637   1.329943   2.460371   2.651738   0.8625416  0.5398555  1.714      0.441      0.588      1.40956    1.407918   0.1422204  0.1422204  0.3220384  1.206214   1.944616   1.581      0.0139637  0.3652357  53.80063   0.5449033  0.4945084  0.5952982 
1110.5     0.271      531.4185   -9999      -9999      8.792683   1.223694   2.030652   2.307198   0.9984828  0.4322013  1.599      0.377      0.481      1.398229   1.459462   0.1414677  0.1414677  0.3255011  1.168107   1.690037   1.543      0          0.3605049  53.63313   0.557677   0.5236685  0.5916854 
1110.7     0.273      537.3314   -9999      -9999      8.870088   1.179322   1.640372   2.00469    1.08185    0.3385262  1.466      0.334      0.423      1.398198   1.50019    0.1385673  0.1385673  0.3255106  1.032194   1.549442   1.542      0          0.3553818  53.5376    0.5664947  0.5425743  0.5904151 
1110.9     0.273      535.9589   -9999      -9999      8.893106   1.184399   1.428818   1.798862   1.120312   0.2872281  1.389      0.844      0.588      1.408881   1.571465   0.1340782  0.1340782  0.322246   0.8523383  1.509935   1.558      0          0.3467276  53.53287   0.5702053  0.5483269  0.5920838 
1111.1     0.27       528.0305   -9999      -9999      8.861997   1.127255   1.377264   1.864727   1.231418   0.3133289  1.441      0.931      0.614      1.428868   1.934466   0.1284946  0.1284946  0.3161379  0.6717234  1.563573   1.58       0          0.3330694  53.61746   0.5686159  0.5405666  0.5966652 
1111.3     0.253      514.7151   -9999      -9999      8.783719   1.074427   1.433175   2.117242   1.432008   0.3668637  1.462      0.709      0.749      1.455832   2.650026   0.1223147  0.1223147  0.3078978  0.5160865  1.707122   1.701      0          0.3345096  53.76127   0.5623733  0.5215222  0.6032243 
1111.5     0.233      497.376    -9999      -9999      8.671501   1.094503   1.589151   2.258407   1.684053   0.3637678  1.582      0.989      0.815      1.48661    3.361966   0.1161406  0.1161406  0.2984921  0.3966106  1.936203   1.851      0          0.33698    53.903     0.5525801  0.4953847  0.6097755 
1111.7     0.223      477.3901   6          6          8.542996   1.099644   1.572236   2.279      1.94914    0.3244996  1.917      0.653      0.853      1.51754    3.852132   0.110765   0.110765   0.2890399  0.3153518  2.236526   1.923      0          0.3245515  53.95535   0.5402269  0.4670587  0.6133952 
1111.9     0.216      455.9067   6          6          8.417426   1.102078   1.394482   2.10051    1.880595   0.2939388  2.324      0.931      0.866      1.545049   3.93834    0.1071154  0.1071154  0.280633   0.269895   2.574939   1.991      0          0.3153213  53.81755   0.525811   0.4409449  0.610677  
1112.1     0.213      433.7067   6          6          8.309572   1.247695   1.331256   1.798088   1.603098   0.281425   2.46       0.852      0.89       1.566549   3.827775   0.1060192  0.1060192  0.2740626  0.2575672  2.906207   2.076      0          0.3167086  53.40021   0.5092224  0.4196841  0.5987607 
1112.3     0.21       411.2576   6          6          8.227563   1.434182   1.315962   1.533959   1.402183   0.2724886  2.289      0.798      0.922      1.580992   3.689445   0.10784    0.10784    0.2696489  0.2783659  3.186335   2.203      0          0.3339012  52.65122   0.4903301  0.4042067  0.5764536 
1112.5     0.211      388.7957   6          6          8.172775   1.55006    1.371229   1.382756   1.243354   0.2798214  2.149      0.943      0.891      1.588757   3.759541   0.1123248  0.1123248  0.2672758  0.3370437  3.388368   2.344      0          0.360222   51.57495   0.4695485  0.3941861  0.5449108 
1112.7     0.215      366.4408   6          6          8.140597   1.581833   1.502483   1.344442   1.178497   0.3003165  2.251      1.043      0.985      1.59129    4.004057   0.1186745  0.1186745  0.2665018  0.4418734  3.512948   2.49       0.06721152 0.3906861  50.23989   0.4479614  0.388417   0.5075058 
1112.9     0.218      344.2682   6          6          8.123281   1.501437   1.700783   1.367039   1.276229   0.3208442  2.467      1.099      1.108      1.590468   4.447406   0.1258242  0.1258242  0.266753   0.5994141  3.581871   2.639      0.1373969  0.4213683  48.76711   0.4270569  0.3853475  0.4687664 
1113.1     0.219      322.389    6          6          8.113376   1.491776   1.971898   1.468472   1.497436   0.360211   2.794      1.107      1.194      1.58793    5.027056   0.132804   0.132804   0.2675287  0.8072544  3.621908   2.78       0.1968775  0.4487146  47.30056   0.4082564  0.3836025  0.4329104 
1113.3     0.218      300.9962   8          2          8.106094   1.6213     2.222894   1.60212    1.671644   0.4400545  2.924      0.983      1.146      1.584749   5.431051   0.1389586  0.1389586  0.2685007  1.049562   3.651621   3.001      0.2551703  0.4797495  45.97105   0.3925518  0.3823248  0.4027787 
1113.5     0.214      280.366    8          2          8.099521   1.831533   2.436007   1.817028   1.778696   0.5273727  3.288      0.812      1.108      1.58141    5.809558   0.1440054  0.1440054  0.269521   1.301631   3.678655   3.351      0.3143836  0.5155733  44.86717   0.3803501  0.381175   0.3795253 
1113.7     0.213      260.7866   8          2          8.094388   2.039547   2.648307   2.096395   1.903157   0.5960311  3.401      0.972      1.046      1.578021   6.122012   0.1479373  0.1479373  0.2705569  1.539273   3.699903   3.635      0.3553662  0.5408306  44.02032   0.3715745  0.3802796  0.3628693 
1113.9     0.214      242.5324   8          2          8.092081   2.156156   2.836868   2.349879   2.058287   0.703352   3.466      1.183      1.164      1.574517   6.289246   0.1509372  0.1509372  0.2716275  1.749371   3.709494   3.934      0.3896068  0.5631405  43.40674   0.365728   0.3798779  0.3515782 
