~Version
 VERS              .         2.0                           : CWLS LOG ASCII STANDARD - VERSION 2.0
 WRAP              .         NO                            : ONE LINE PER DEPTH STEP
 DLM               .         SPACE                         : DELIMITING CHARACTER(SPACE TAB OR COMMA)
~Well Information
#_______________________________________________________________________________
#
#PARAMETER_NAME    .UNIT     VALUE                         : DESCRIPTION
#_______________________________________________________________________________
STRT               .M        843.7                         : First reference value
STOP               .M        1227.9                        : Last reference value
STEP               .M        0.2                           : Step increment
NULL               .         -9999                         : Missing value
COMP               .                                       : Company
WELL               .         3888                          : Well name
FLD                .         Узень                         : Field
LOC                .                                       : Location
CNTY               .                                       : County
STAT               .                                       : State
CTRY               .                                       : Country
SRVC               .                                       : Service Company
DATE               .                                       : Date
UWI                .                                       : Unique Well ID
Block              .         7                             : 
Cartographic_reference_system .         GCS_WGS_1984                  : ESRI,PE_10_3_1- <?xml version="1.0" encoding="utf-16"?><ILateBoundCoordinateReferenceSystem name="GCS_WGS_1984"><AuthorityCode>EPSG,4326</AuthorityCode></ILateBoundCoordinateReferenceSystem>
Category           .         Нефтяная                      : 
Condition          .         В работе                      : 
Date               .         18.07.2007                    : 
EREF               .m        91.7                          : 100.8
Gorizont           .         14                            : 14
HZCS               .GCS_WGS_1984 WGS_1984_EASE-Grid_2.0_Global : ESRI,PE_10_3_1- <?xml version="1.0" encoding="utf-16"?><ILateBoundCoordinateReferenceSystem name="WGS_1984_EASE-Grid_2.0_Global"><AuthorityCode>EPSG,6933</AuthorityCode></ILateBoundCoordinateReferenceSystem>
Interpretator      .         Кушербаева А.С                : 
Kupol              .         основной                      : osnovnoi
LATI               .dega     0.6623499522                  : GCS_WGS_1984
LONG               .dega     0.4338720478                  : GCS_WGS_1984
Mud                .                                       : 
Mud_density        .                                       : 
Mud_resistivity    .                                       : 
NGDU               .         НГДУ-2                        : 
ORIGINALWELLNAME   .         3888                          : 
Spud_date          .         1990                          : 1961
Viscosity          .                                       : 
X                  .m        41862.7                       : 46154
Y                  .m        84496.33                      : 85761.93
YEAR               .         2019г                         : 
Исправлено         .         14                            : 
~Parameter Information Block
#_______________________________________________________________________________
#
#PARAMETER_NAME    .UNIT     VALUE                         : DESCRIPTION
#_______________________________________________________________________________
SET                .         LQC_KAZNIPI_Petrel            : 
TLFamily_CALI      .         Caliper                       : 
TLFamily_CILD      .         Conductivity                  : 
TLFamily_COLL      .         Net Reservoir Flag            : 
TLFamily_CSAT      .         Fluid Code                    : 
TLFamily_DEPT      .         Measured Depth                : 
TLFamily_GR        .         Russian Gamma Ray             : 
TLFamily_GZ1       .         Gradient 045                  : 
TLFamily_GZ2       .         Gradient 105                  : 
TLFamily_GZ3       .         Gradient 225                  : 
TLFamily_GZ4       .         Gradient 425                  : 
TLFamily_GZ5       .         Gradient 850                  : 
TLFamily_LLS       .         Lateral Log Resistivity       : 
TLFamily_MINV      .         Micro Gradient Resistivity    : 
TLFamily_MNOR      .         Micro Resistivity             : 
TLFamily_NGLD      .         Neutron Gamma                 : 
TLFamily_OGZ       .         Gradient Inverted 225         : 
TLFamily_PHIE      .         Effective Porosity            : 
TLFamily_PHIEN     .         Effective Porosity            : 
TLFamily_PHIT      .         Porosity                      : 
TLFamily_PRMB      .         Permeability                  : 
TLFamily_PRMB_DGR  .         Permeability                  : 
TLFamily_RT        .         Formation Resistivity         : 
TLFamily_SOIL_ARCHIE .         Oil Saturation                : 
TLFamily_SOIL_DW   .         Oil Saturation                : 
TLFamily_SP        .         Spontaneous Potential         : 
TLFamily_VSH_FIN   .         Shale Volume                  : 
TLFamily_VSH_GR    .         Shale Volume                  : 
TLFamily_VSH_SP    .         Shale Volume                  : 
~Curve Information
#_______________________________________________________________________________
#
#LOGNAME           .UNIT     LOG_ID                        : DESCRIPTION
#_______________________________________________________________________________
DEPT               .M                                      : Колонка глубины 
CALI               .м                                      : Каверномер 
CILD               .мСм/м                                  : Индукционный каротаж 
COLL               .unitless                               : Описание 
CSAT               .unitless                               : Описание 
GR                 .uR/h                                   : Гамма каротаж 
GZ1                .Ohmm                                   : Градиент-зонд  длиной 0.45м 
GZ2                .Ohmm                                   : Градиент-зонд  длиной 1.05м 
GZ3                .Ohmm                                   : Градиент-зонд  длиной 2.25м 
GZ4                .Ohmm                                   : Градиент-зонд  длиной 4.5м 
GZ5                .Ohmm                                   : Градиент-зонд  длиной 8.5м 
LLS                .Ohmm                                   : Боковой каротаж 
MINV               .Ohmm                                   : Микро-градиент зонд 
MNOR               .Ohmm                                   : Микро-потенциал зонд 
NGLD               .у.е.                                   : Показания зонда НГК-60 аппаратуры ДРСТ-3-90 
OGZ                .Ohmm                                   :  
PHIE               .v/v                                    : Описание 
PHIEN              .v/v                                    :  
PHIT               .v/v                                    : Описание 
PRMB               .mD                                     :  
PRMB_DGR           .mD                                     :  
RT                 .ohmm                                   : УЭС пласта 
SOIL_ARCHIE        .v/v                                    :  
SOIL_DW            .v/v                                    :  
SP                 .мВ                                     : Потенциал самополяризации 
VSH_FIN            .v/v                                    : Описание 
VSH_GR             .v/v                                    : Shale volume 
VSH_SP             .v/v                                    : Shale Volume 
~Ascii
# ...
1176.5     0.207      183.0224   1          2          7.961567   4.190807   5.945581   4.942716   2.634096   3.803971   6.113      1.642      1.826      1.555725   5.662476   0.2034935  0.2034935  0.2773705  16.45703   10.79061   5.825      0.6140557  0.6902428  25.50796   0.2238695  0.2456332  0.2021058 
1176.7     0.207      188.4112   1          2          7.832108   4.343194   6.864292   5.475945   2.789159   3.728938   5.529      1.642      1.721      1.55636    5.05851    0.2055007  0.2055007  0.2771764  17.92792   12.26148   5.43       0.6045218  0.6803563  25.22509   0.2171988  0.2331448  0.2012528 
1176.9     0.207      197.5132   1          2          7.739459   4.330527   7.833594   5.671639   2.904865   3.550885   5.248      1.767      1.747      1.558787   4.48942    0.205951   0.205951   0.2764347  18.27552   13.43567   5.042      0.5913009  0.6680718  25.16533   0.2135869  0.2245992  0.2025747 
1177.1     0.208      209.8448   1          2          7.682211   4.267      8.351558   5.807554   2.965816   3.372313   5.404      1.838      1.747      1.563423   4.142468   0.2048102  0.2048102  0.275018   17.40764   14.21675   4.616      0.5719497  0.6512456  25.31691   0.2127509  0.2194761  0.2060256 
1177.3     0.209      224.7755   1          2          7.656211   4.276989   8.518901   6.142635   3.084287   3.183461   5.404      1.854      1.673      1.569668   3.95281    0.2022967  0.2022967  0.2731094  15.63808   14.58633   4.229      0.5491722  0.6322641  25.69823   0.214584   0.2171882  0.2119798 
1177.5     0.21       241.55     1          2          7.656744   4.307451   8.684593   6.581394   3.240265   3.057872   5.468      1.838      1.78       1.576333   3.786862   0.1987206  0.1987206  0.2710725  13.42595   14.57866   3.932      0.5261977  0.6140985  26.35262   0.2192483  0.2172348  0.2212618 
1177.7     0.211      259.3032   1          2          7.679957   4.389069   8.861853   7.057974   3.347784   2.913251   5.442      1.994      1.757      1.581981   3.661572   0.1943578  0.1943578  0.2693466  11.14642   14.24842   3.594      0.4961377  0.5910882  27.33785   0.2272389  0.2192768  0.2352009 
1177.9     0.211      277.0635   1          2          7.724412   4.471453   8.913      7.609434   3.373477   2.691874   5.127      2.053      1.771      1.585296   3.394816   0.1893179  0.1893179  0.2683335  8.990538   13.63671   3.228      0.4578267  0.5628322  28.70739   0.2394409  0.2232412  0.2556407 
1178.1     0.211      293.7865   1          2          7.791828   4.543208   8.804844   7.915195   3.347975   2.32359    4.702      2.063      1.828      1.585323   3.102637   0.1834793  0.1834793  0.2683252  7.008745   12.75879   2.935      0.4173878  0.535545   30.48669   0.2571088  0.2293904  0.2848272 
1178.3     0.212      308.4879   1          2          7.885294   4.462078   8.109061   7.884366   3.159904   2.067913   3.92       1.868      1.739      1.581547   2.973251   0.1765515  0.1765515  0.2694792  5.215786   11.63436   2.736      0.3773457  0.5125187  32.64894   0.281599   0.2381968  0.3250013 
1178.5     0.216      320.3589   1          2          8.006095   3.832606   6.967805   7.333932   2.802367   2.029406   1.96       1.79       1.655      1.573853   2.896244   0.1682837  0.1682837  0.2718304  3.665894   10.32661   2.6        0.335065   0.4926924  35.0957    0.3137779  0.2500814  0.3774744 
1178.7     0.221      328.8373   -9999      -9999      8.151108   3.117552   5.825828   6.098454   2.443348   1.780949   1.895      1.583      1.533      1.562539   3.132334   0.1587328  0.1587328  0.2752881  2.43935    8.949395   2.53       0.2913333  0.4774591  37.65469   0.353198   0.2651338  0.4412623 
1178.9     0.223      333.6371   -9999      -9999      8.310635   2.537574   4.681548   4.745785   2.147895   1.510559   2.066      2.093      1.36       1.548431   3.709838   0.1485342  0.1485342  0.2795994  1.57896    7.645532   2.532      0.2494157  0.4687582  40.09196   0.3971673  0.2827414  0.5115932 
1179.1     0.224      334.7418   -9999      -9999      8.468962   2.183634   4.141997   4.032767   1.988127   1.364715   2.093      1.994      1.505      1.532953   4.28687    0.1390134  0.1390134  0.2843297  1.052019   6.539369   2.573      0.2108076  0.4647651  42.14243   0.4403524  0.3013725  0.5793324 
1179.3     0.231      332.3117   -9999      -9999      8.608092   1.94395    3.617937   3.777971   1.911622   1.28299    2.156      1.287      1.171      1.518096   4.640156   0.1319265  0.1319265  0.2888698  0.7776014  5.700245   2.65       0.1853604  0.4671795  43.55391   0.4755858  0.3187555  0.6324162 
1179.5     0.238      326.5426   -9999      -9999      8.711898   1.807783   2.871478   3.581382   1.820743   1.264933   2.263      0.579      0.812      1.506267   4.650268   0.1288256  0.1288256  0.2924849  0.681272   5.145103   2.711      0.177143   0.472554   44.13504   0.4959373  0.3323749  0.6594996 
1179.7     0.24       317.6239   -9999      -9999      8.770124   1.866251   2.611993   3.324958   1.769      1.197305   2.273      0.79       0.83       1.499817   4.545124   0.1303177  0.1303177  0.2944561  0.7260354  4.857729   2.706      0.1846487  0.4765469  43.79879   0.497389   0.3402675  0.6545105 
1179.9     0.24       305.7512   -9999      -9999      8.780459   1.808432   2.578197   2.996515   1.769      1.090188   1.88       0.699      0.805      1.500467   4.55055    0.1356685  0.1356685  0.2942572  0.9121539  4.808427   2.719      0.2144976  0.4854718  42.58669   0.4805716  0.3416879  0.6194554 
1180.1     0.239      291.1859   -9999      -9999      8.747009   1.70843    2.499188   2.6981     1.754944   1.030473   1.816      0.68       0.764      1.508858   5.133385   0.1430766  0.1430766  0.2916929  1.251075   4.969841   2.924      0.2751904  0.5112025  40.66557   0.4503526  0.3371121  0.5635931 
1180.3     0.237      274.3371   -9999      -9999      8.678358   1.664765   2.387945   2.487809   1.726943   1.015472   2.128      1.722      0.879      1.524227   6.233502   0.1504948  0.1504948  0.2869962  1.716669   5.318289   3.214      0.3365136  0.5382848  38.29221   0.4136407  0.327912   0.4993695 
1180.5     0.227      255.8162   1          2          8.584776   1.728446   2.410167   2.532014   1.684767   1.141641   2.694      1.525      1.15       1.544593   7.332087   0.1571293  0.1571293  0.2807722  2.278109   5.832954   3.415      0.3789145  0.5537436  35.75541   0.3746755  0.3157739  0.4335771 
1180.7     0.215      236.4262   1          2          8.47575    1.904757   2.588154   2.785444   1.923559   1.398219   3.406      1.52       1.421      1.567219   8.429739   0.1616115  0.1616115  0.2738577  2.758002   6.495699   3.682      0.4149795  0.5686087  33.31383   0.3401402  0.3021982  0.3780822 
1180.9     0.208      217.0903   1          2          8.35949    2.089889   2.68348    3.059136   2.506723   1.756699   3.825      1.725      1.692      1.589388   9.526782   0.164231   0.164231   0.2670832  3.084008   7.285579   4.432      0.4711823  0.6034505  31.15262   0.3116731  0.2883642  0.334982  
1181.1     0.205      198.7425   1          2          8.243203   2.35623    2.764088   3.341631   3.039467   2.154826   4.696      1.882      1.887      1.608998   10.40508   0.1656266  0.1656266  0.2610901  3.273133   8.171733   5.287      0.5167683  0.6332579  29.36741   0.2892835  0.2751603  0.3034067 
1181.3     0.205      182.1951   1          2          8.132469   2.64141    3.255042   3.628463   3.540408   2.390565   5.649      2.029      1.995      1.624818   10.56219   0.1664533  0.1664533  0.2562557  3.390602   9.115568   5.436      0.5250936  0.6350344  27.96915   0.2721286  0.2631495  0.2811076 
1181.5     0.206      168.0755   1          2          8.030128   3.027626   4.161294   3.98921    3.989642   2.627352   6.061      1.906      2.016      1.636481   10.11158   0.1671979  0.1671979  0.2526914  3.500008   10.08452   5.903      0.5448829  0.6475029  26.91153   0.2590712  0.2525156  0.2656267 
