~Version
 VERS              .         2.0                           : CWLS LOG ASCII STANDARD - VERSION 2.0
 WRAP              .         NO                            : ONE LINE PER DEPTH STEP
 DLM               .         SPACE                         : DELIMITING CHARACTER(SPACE TAB OR COMMA)
~Well Information
#_______________________________________________________________________________
#
#PARAMETER_NAME    .UNIT     VALUE                         : DESCRIPTION
#_______________________________________________________________________________
STRT               .M        843.7                         : First reference value
STOP               .M        1227.9                        : Last reference value
STEP               .M        0.2                           : Step increment
NULL               .         -9999                         : Missing value
COMP               .                                       : Company
WELL               .         3888                          : Well name
FLD                .         Узень                         : Field
LOC                .                                       : Location
CNTY               .                                       : County
STAT               .                                       : State
CTRY               .                                       : Country
SRVC               .                                       : Service Company
DATE               .                                       : Date
UWI                .                                       : Unique Well ID
Block              .         7                             : 
Cartographic_reference_system .         GCS_WGS_1984                  : ESRI,PE_10_3_1- <?xml version="1.0" encoding="utf-16"?><ILateBoundCoordinateReferenceSystem name="GCS_WGS_1984"><AuthorityCode>EPSG,4326</AuthorityCode></ILateBoundCoordinateReferenceSystem>
Category           .         Нефтяная                      : 
Condition          .         В работе                      : 
Date               .         18.07.2007                    : 
EREF               .m        91.7                          : 100.8
Gorizont           .         14                            : 14
HZCS               .GCS_WGS_1984 WGS_1984_EASE-Grid_2.0_Global : ESRI,PE_10_3_1- <?xml version="1.0" encoding="utf-16"?><ILateBoundCoordinateReferenceSystem name="WGS_1984_EASE-Grid_2.0_Global"><AuthorityCode>EPSG,6933</AuthorityCode></ILateBoundCoordinateReferenceSystem>
Interpretator      .         Кушербаева А.С                : 
Kupol              .         основной                      : osnovnoi
LATI               .dega     0.6623499522                  : GCS_WGS_1984
LONG               .dega     0.4338720478                  : GCS_WGS_1984
Mud                .                                       : 
Mud_density        .                                       : 
Mud_resistivity    .                                       : 
NGDU               .         НГДУ-2                        : 
ORIGINALWELLNAME   .         3888                          : 
Spud_date          .         1990                          : 1961
Viscosity          .                                       : 
X                  .m        41862.7                       : 46154
Y                  .m        84496.33                      : 85761.93
YEAR               .         2019г                         : 
Исправлено         .         14                            : 
~Parameter Information Block
#_______________________________________________________________________________
#
#PARAMETER_NAME    .UNIT     VALUE                         : DESCRIPTION
#_______________________________________________________________________________
SET                .         LQC_KAZNIPI_Petrel            : 
TLFamily_CALI      .         Caliper                       : 
TLFamily_CILD      .         Conductivity                  : 
TLFamily_COLL      .         Net Reservoir Flag            : 
TLFamily_CSAT      .         Fluid Code                    : 
TLFamily_DEPT      .         Measured Depth                : 
TLFamily_GR        .         Russian Gamma Ray             : 
TLFamily_GZ1       .         Gradient 045                  : 
TLFamily_GZ2       .         Gradient 105                  : 
TLFamily_GZ3       .         Gradient 225                  : 
TLFamily_GZ4       .         Gradient 425                  : 
TLFamily_GZ5       .         Gradient 850                  : 
TLFamily_LLS       .         Lateral Log Resistivity       : 
TLFamily_MINV      .         Micro Gradient Resistivity    : 
TLFamily_MNOR      .         Micro Resistivity             : 
TLFamily_NGLD      .         Neutron Gamma                 : 
TLFamily_OGZ       .         Gradient Inverted 225         : 
TLFamily_PHIE      .         Effective Porosity            : 
TLFamily_PHIEN     .         Effective Porosity            : 
TLFamily_PHIT      .         Porosity                      : 
TLFamily_PRMB      .         Permeability                  : 
TLFamily_PRMB_DGR  .         Permeability                  : 
TLFamily_RT        .         Formation Resistivity         : 
TLFamily_SOIL_ARCHIE .         Oil Saturation                : 
TLFamily_SOIL_DW   .         Oil Saturation                : 
TLFamily_SP        .         Spontaneous Potential         : 
TLFamily_VSH_FIN   .         Shale Volume                  : 
TLFamily_VSH_GR    .         Shale Volume                  : 
TLFamily_VSH_SP    .         Shale Volume                  : 
~Curve Information
#_______________________________________________________________________________
#
#LOGNAME           .UNIT     LOG_ID                        : DESCRIPTION
#_______________________________________________________________________________
DEPT               .M                                      : Колонка глубины 
CALI               .м                                      : Каверномер 
CILD               .мСм/м                                  : Индукционный каротаж 
COLL               .unitless                               : Описание 
CSAT               .unitless                               : Описание 
GR                 .uR/h                                   : Гамма каротаж 
GZ1                .Ohmm                                   : Градиент-зонд  длиной 0.45м 
GZ2                .Ohmm                                   : Градиент-зонд  длиной 1.05м 
GZ3                .Ohmm                                   : Градиент-зонд  длиной 2.25м 
GZ4                .Ohmm                                   : Градиент-зонд  длиной 4.5м 
GZ5                .Ohmm                                   : Градиент-зонд  длиной 8.5м 
LLS                .Ohmm                                   : Боковой каротаж 
MINV               .Ohmm                                   : Микро-градиент зонд 
MNOR               .Ohmm                                   : Микро-потенциал зонд 
NGLD               .у.е.                                   : Показания зонда НГК-60 аппаратуры ДРСТ-3-90 
OGZ                .Ohmm                                   :  
PHIE               .v/v                                    : Описание 
PHIEN              .v/v                                    :  
PHIT               .v/v                                    : Описание 
PRMB               .mD                                     :  
PRMB_DGR           .mD                                     :  
RT                 .ohmm                                   : УЭС пласта 
SOIL_ARCHIE        .v/v                                    :  
SOIL_DW            .v/v                                    :  
SP                 .мВ                                     : Потенциал самополяризации 
VSH_FIN            .v/v                                    : Описание 
VSH_GR             .v/v                                    : Shale volume 
VSH_SP             .v/v                                    : Shale Volume 
~Ascii
# ...
1155.7     0.236      475.5018   -9999      -9999      10.27046   2.214697   3.574885   3.461061   2.641402   3.49844    2.134      0.717      0.736      1.332312   4.026053   0.1672515  0.1672515  0.3456455  3.508009   1.471347   1.863      0.2072774  0.4736446  51.28854   0.5405879  0.5541539  0.5270219 
1155.9     0.245      481.4865   -9999      -9999      10.4563    1.83458    2.634274   2.420733   2.922555   3.208021   1.856      0.586      0.553      1.323032   2.617848   0.1616932  0.1616932  0.3484813  2.767629   1.231924   1.808      0.1720341  0.4615383  51.58624   0.5660245  0.5958346  0.5362145 
1156.1     0.262      486.7849   -9999      -9999      10.61833   1.526059   1.681904   1.96608    2.29755    2.322554   1.456      0.421      0.489      1.321295   1.734018   0.154172   0.154172   0.3490121  2.008154   1.055187   1.824      0.1405243  0.4547547  51.9029    0.5904246  0.6347284  0.5461209 
1156.3     0.279      491.2843   -9999      -9999      10.74759   1.425272   1.287478   1.445801   1.589733   1.699303   1.58       0.352      0.53       1.32609    1.424563   0.1456549  0.1456549  0.3475468  1.396496   0.9325716  1.856      0.1042544  0.4465112  52.21419   0.6117936  0.6675656  0.5560216 
1156.5     0.282      494.9785   -9999      -9999      10.84055   1.376808   1.421793   1.164371   1.263477   1.325986   1.689      0.339      0.586      1.335591   1.362      0.1370992  0.1370992  0.3446433  0.9695463  0.853294   1.843      0.05264125 0.4291093  52.51064   0.6289213  0.6922275  0.5656151 
1156.7     0.274      497.9011   -9999      -9999      10.8994    1.314936   1.681824   1.06292    1.054076   1.027969   1.756      0.37       0.69       1.347766   1.37246    0.1291849  0.1291849  0.3409226  0.6917916  0.8066252  1.817      0          0.4084941  52.79437   0.6416295  0.7083096  0.5749494 
1156.9     0.268      500.0645   -9999      -9999      10.93024   1.3047     1.902252   1.080069   0.8494575  0.8942483  1.805      0.367      0.718      1.360858   1.415615   0.1222573  0.1222573  0.3369219  0.5148251  0.7831966  1.799      0          0.389145   53.06861   0.6504989  0.7168862  0.5841116 
1157.1     0.264      501.4561   -9999      -9999      10.94075   1.353345   2.027271   1.141579   0.7459571  0.7984735  1.766      0.365      0.619      1.373634   1.492351   0.1164033  0.1164033  0.3330176  0.4010789  0.7753712  1.784      0          0.3711755  53.33003   0.6564069  0.7198318  0.5929822 
1157.3     0.262      502.0725   -9999      -9999      10.93865   1.361443   1.976902   1.182958   0.738      0.7194706  1.695      0.398      0.624      1.385449   1.567203   0.1115444  0.1115444  0.3294069  0.3260095  0.7769252  1.778      0          0.3561415  53.56612   0.6601893  0.7192435  0.6011351 
1157.5     0.264      501.9288   -9999      -9999      10.92967   1.322744   1.772271   1.293746   0.738      0.6794954  1.813      0.311      0.624      1.396025   1.633603   0.1076054  0.1076054  0.3261749  0.2755952  0.7836236  1.782      0          0.3446224  53.75861   0.6623316  0.7167267  0.6079366 
1157.7     0.264      501.1047   -9999      -9999      10.9169    1.297      1.674375   1.610636   0.738      0.6643824  1.766      0.321      0.435      1.40528    1.710509   0.1045566  0.1045566  0.3233465  0.2419918  0.7932456  1.794      0          0.3365704  53.89222   0.6629995  0.7131639  0.6128352 
1157.9     0.265      499.7956   -9999      -9999      10.90089   1.337857   1.750104   2.020085   0.7459571  0.652      1.819      0.398      0.693      1.413316   1.772381   0.1023694  0.1023694  0.3208908  0.220439   0.8054748  1.811      0          0.3315689  53.96273   0.6621858  0.7087225  0.6156492 
1158.1     0.266      498.2958   -9999      -9999      10.88098   1.39739    1.783852   2.275439   0.8033829  0.6619245  1.906      0.492      0.774      1.420268   1.825702   0.1009781  0.1009781  0.3187662  0.2077387  0.8209503  1.823      0          0.3277274  53.98016   0.659964   0.7032365  0.6166915 
1158.3     0.263      496.9472   -9999      -9999      10.85669   1.389266   1.682762   2.302089   0.8301085  0.672      1.832      0.411      0.761      1.426204   1.728951   0.1002521  0.1002521  0.3169521  0.2014049  0.8402324  1.839      0          0.3264831  53.96773   0.6566668  0.6966015  0.6167321 
1158.5     0.259      496.065    -9999      -9999      10.82837   1.416971   1.59998    2.1593     0.7918933  0.657851   1.846      0.521      0.759      1.431004   1.553579   0.1000333  0.1000333  0.3154851  0.1995341  0.863281   1.851      0          0.326109   53.95678   0.6528844  0.6889462  0.6168224 
1158.7     0.256      495.8844   -9999      -9999      10.79736   1.469498   1.584482   1.953544   0.8065141  0.6298444  1.847      0.632      0.769      1.434301   1.474771   0.100206   0.100206   0.3144775  0.2010089  0.8892525  1.855      0          0.3258066  53.97694   0.6493077  0.6806578  0.6179577 
1158.9     0.252      496.5234   -9999      -9999      10.76621   1.453942   1.598355   1.786442   0.8399851  0.616      1.84       0.615      0.822      1.435641   1.465901   0.1006731  0.1006731  0.314068   0.205054   0.9161213  1.859      0          0.3270178  54.0497    0.6466513  0.6724346  0.6208679 
1159.1     0.249      497.9467   -9999      -9999      10.73765   1.451462   1.641853   1.712951   0.8504822  0.616      1.833      0.581      0.837      1.434658   1.499409   0.1013853  0.1013853  0.3143686  0.2113778  0.941467   1.856      0          0.3285131  54.18246   0.645404   0.6649828  0.6258253 
1159.3     0.246      499.9635   -9999      -9999      10.71368   1.479396   1.719572   1.71543    0.9882793  0.6472094  1.769      0.546      0.852      1.431244   1.536363   0.1023237  0.1023237  0.3154119  0.2200091  0.9632865  1.833      0          0.3279029  54.36887   0.6457218  0.6587906  0.632653  
1159.5     0.244      502.2546   -9999      -9999      10.69528   1.507463   1.796889   1.746431   1.243405   0.7112805  1.679      0.467      0.848      1.42581    1.577367   0.1034243  0.1034243  0.3170725  0.2305831  0.9803753  1.793      0          0.3252645  54.59044   0.6474187  0.6540771  0.6407604 
1159.7     0.245      504.434    -9999      -9999      10.68137   1.49736    1.814498   1.803511   1.492975   0.7786912  1.629      0.525      0.81       1.419303   1.723567   0.1045874  0.1045874  0.319061   0.2423096  0.9934989  1.766      0          0.3255032  54.82199   0.6499198  0.6505351  0.6493045 
1159.9     0.249      506.1026   -9999      -9999      10.66889   1.463942   1.799457   1.888022   1.714531   0.8497588  1.618      0.53       0.759      1.412998   1.939267   0.105695   0.105695   0.3209877  0.2540309  1.005419   1.766      0          0.330589   55.03903   0.652402   0.6473746  0.6574295 
1160.1     0.255      506.8747   -9999      -9999      10.65335   1.451      1.761315   1.931      1.817244   0.9617609  1.718      0.405      0.764      1.408166   2.083592   0.1066724  0.1066724  0.3224646  0.264844   1.020459   1.776      0          0.3365856  55.22057   0.6539156  0.6434615  0.6643696 
1160.3     0.259      506.3989   -9999      -9999      10.63005   1.425272   1.707262   1.931      1.865913   1.139163   1.751      0.38       0.738      1.405711   2.201775   0.1075312  0.1075312  0.3232148  0.274724   1.043436   1.772      0          0.3386756  55.35111   0.6535866  0.6376377  0.6695355 
1160.5     0.262      504.3231   -9999      -9999      10.59587   1.430664   1.666453   1.931      1.858325   1.25296    1.695      0.446      0.789      1.405993   2.30307    0.10833    0.10833    0.3231286  0.2842443  1.07809    1.763      0          0.3385636  55.42319   0.6509051  0.6291875  0.6726227 
1160.7     0.265      500.3095   -9999      -9999      10.54942   1.451462   1.658993   1.892108   1.776117   1.263      1.645      0.515      0.68       1.408888   2.392577   0.1091694  0.1091694  0.3222439  0.2946052  1.127026   1.763      0          0.3391416  55.43316   0.6456802  0.6178852  0.6734751 
