~Version
 VERS              .         2.0                           : CWLS LOG ASCII STANDARD - VERSION 2.0
 WRAP              .         NO                            : ONE LINE PER DEPTH STEP
 DLM               .         SPACE                         : DELIMITING CHARACTER(SPACE TAB OR COMMA)
~Well Information
#_______________________________________________________________________________
#
#PARAMETER_NAME    .UNIT     VALUE                         : DESCRIPTION
#_______________________________________________________________________________
STRT               .M        843.7                         : First reference value
STOP               .M        1227.9                        : Last reference value
STEP               .M        0.2                           : Step increment
NULL               .         -9999                         : Missing value
COMP               .                                       : Company
WELL               .         3888                          : Well name
FLD                .         Узень                         : Field
LOC                .                                       : Location
CNTY               .                                       : County
STAT               .                                       : State
CTRY               .                                       : Country
SRVC               .                                       : Service Company
DATE               .                                       : Date
UWI                .                                       : Unique Well ID
Block              .         7                             : 
Cartographic_reference_system .         GCS_WGS_1984                  : ESRI,PE_10_3_1- <?xml version="1.0" encoding="utf-16"?><ILateBoundCoordinateReferenceSystem name="GCS_WGS_1984"><AuthorityCode>EPSG,4326</AuthorityCode></ILateBoundCoordinateReferenceSystem>
Category           .         Нефтяная                      : 
Condition          .         В работе                      : 
Date               .         18.07.2007                    : 
EREF               .m        91.7                          : 100.8
Gorizont           .         14                            : 14
HZCS               .GCS_WGS_1984 WGS_1984_EASE-Grid_2.0_Global : ESRI,PE_10_3_1- <?xml version="1.0" encoding="utf-16"?><ILateBoundCoordinateReferenceSystem name="WGS_1984_EASE-Grid_2.0_Global"><AuthorityCode>EPSG,6933</AuthorityCode></ILateBoundCoordinateReferenceSystem>
Interpretator      .         Кушербаева А.С                : 
Kupol              .         основной                      : osnovnoi
LATI               .dega     0.6623499522                  : GCS_WGS_1984
LONG               .dega     0.4338720478                  : GCS_WGS_1984
Mud                .                                       : 
Mud_density        .                                       : 
Mud_resistivity    .                                       : 
NGDU               .         НГДУ-2                        : 
ORIGINALWELLNAME   .         3888                          : 
Spud_date          .         1990                          : 1961
Viscosity          .                                       : 
X                  .m        41862.7                       : 46154
Y                  .m        84496.33                      : 85761.93
YEAR               .         2019г                         : 
Исправлено         .         14                            : 
~Parameter Information Block
#_______________________________________________________________________________
#
#PARAMETER_NAME    .UNIT     VALUE                         : DESCRIPTION
#_______________________________________________________________________________
SET                .         LQC_KAZNIPI_Petrel            : 
TLFamily_CALI      .         Caliper                       : 
TLFamily_CILD      .         Conductivity                  : 
TLFamily_COLL      .         Net Reservoir Flag            : 
TLFamily_CSAT      .         Fluid Code                    : 
TLFamily_DEPT      .         Measured Depth                : 
TLFamily_GR        .         Russian Gamma Ray             : 
TLFamily_GZ1       .         Gradient 045                  : 
TLFamily_GZ2       .         Gradient 105                  : 
TLFamily_GZ3       .         Gradient 225                  : 
TLFamily_GZ4       .         Gradient 425                  : 
TLFamily_GZ5       .         Gradient 850                  : 
TLFamily_LLS       .         Lateral Log Resistivity       : 
TLFamily_MINV      .         Micro Gradient Resistivity    : 
TLFamily_MNOR      .         Micro Resistivity             : 
TLFamily_NGLD      .         Neutron Gamma                 : 
TLFamily_OGZ       .         Gradient Inverted 225         : 
TLFamily_PHIE      .         Effective Porosity            : 
TLFamily_PHIEN     .         Effective Porosity            : 
TLFamily_PHIT      .         Porosity                      : 
TLFamily_PRMB      .         Permeability                  : 
TLFamily_PRMB_DGR  .         Permeability                  : 
TLFamily_RT        .         Formation Resistivity         : 
TLFamily_SOIL_ARCHIE .         Oil Saturation                : 
TLFamily_SOIL_DW   .         Oil Saturation                : 
TLFamily_SP        .         Spontaneous Potential         : 
TLFamily_VSH_FIN   .         Shale Volume                  : 
TLFamily_VSH_GR    .         Shale Volume                  : 
TLFamily_VSH_SP    .         Shale Volume                  : 
~Curve Information
#_______________________________________________________________________________
#
#LOGNAME           .UNIT     LOG_ID                        : DESCRIPTION
#_______________________________________________________________________________
DEPT               .M                                      : Колонка глубины 
CALI               .м                                      : Каверномер 
CILD               .мСм/м                                  : Индукционный каротаж 
COLL               .unitless                               : Описание 
CSAT               .unitless                               : Описание 
GR                 .uR/h                                   : Гамма каротаж 
GZ1                .Ohmm                                   : Градиент-зонд  длиной 0.45м 
GZ2                .Ohmm                                   : Градиент-зонд  длиной 1.05м 
GZ3                .Ohmm                                   : Градиент-зонд  длиной 2.25м 
GZ4                .Ohmm                                   : Градиент-зонд  длиной 4.5м 
GZ5                .Ohmm                                   : Градиент-зонд  длиной 8.5м 
LLS                .Ohmm                                   : Боковой каротаж 
MINV               .Ohmm                                   : Микро-градиент зонд 
MNOR               .Ohmm                                   : Микро-потенциал зонд 
NGLD               .у.е.                                   : Показания зонда НГК-60 аппаратуры ДРСТ-3-90 
OGZ                .Ohmm                                   :  
PHIE               .v/v                                    : Описание 
PHIEN              .v/v                                    :  
PHIT               .v/v                                    : Описание 
PRMB               .mD                                     :  
PRMB_DGR           .mD                                     :  
RT                 .ohmm                                   : УЭС пласта 
SOIL_ARCHIE        .v/v                                    :  
SOIL_DW            .v/v                                    :  
SP                 .мВ                                     : Потенциал самополяризации 
VSH_FIN            .v/v                                    : Описание 
VSH_GR             .v/v                                    : Shale volume 
VSH_SP             .v/v                                    : Shale Volume 
~Ascii
# ...
984.1      0.261      358.3469   -9999      -9999      7.243923   -9999      -9999      3.596646   -9999      -9999      2.203      0.381      0.55       1.371368   2.427995   0.1300216  0.1300216  0.33371    0.7169261  1.727292   2.615      0.1581002  0.5012958  58.84152   0.6172373  0.5190268  0.7154479 
984.3      0.267      369.9944   -9999      -9999      7.209463   -9999      -9999      3.400524   -9999      -9999      2.308      0.386      0.611      1.361916   2.394191   0.1344571  0.1344571  0.3365985  0.8662246  1.812864   2.606      0.1810171  0.5091709  58.8465    0.6125497  0.5088795  0.7162197 
984.5      0.274      381.9329   -9999      -9999      7.16252    -9999      -9999      3.268094   -9999      -9999      2.462      0.5        0.736      1.350743   2.376412   0.1400181  0.1400181  0.3400128  1.098078   1.936296   2.474      0.1898989  0.5068103  58.84416   0.6060447  0.495375   0.7167143 
984.7000000000001 0.275      393.3564   -9999      -9999      7.112064   -9999      -9999      3.191398   -9999      -9999      2.405      0.65       0.726      1.337934   2.41245    0.1462059  0.1462059  0.3439274  1.429703   2.07835    2.263      0.1865146  0.4961264  58.83772   0.5991561  0.4812591  0.7170529 
984.9      0.271      403.1866   -9999      -9999      7.064969   -9999      -9999      3.109496   -9999      -9999      2.09       0.477      0.597      1.324672   2.442954   0.15234    0.15234    0.3479801  1.857222   2.22033    2.11       0.1889068  0.4898426  58.82758   0.5928489  0.4684469  0.717251  
985.1      0.273      410.2627   -9999      -9999      7.023964   -9999      -9999      2.954892   -9999      -9999      1.693      0.436      0.446      1.313237   2.458      0.1576002  0.1576002  0.3514749  2.324323   2.351827   2.046      0.2010722  0.491642   58.8169    0.5874989  0.4575694  0.7174284 
985.3      0.283      413.5795   -9999      -9999      6.986129   -9999      -9999      2.731141   -9999      -9999      1.615      0.39       0.418      1.306581   2.432366   0.1611686  0.1611686  0.353509   2.706396   2.480057   2.024      0.2125155  0.4949861  58.81506   0.5828497  0.447757   0.7179424 
985.5      0.293      412.5141   -9999      -9999      6.944454   -9999      -9999      2.570212   -9999      -9999      1.488      0.35       0.438      1.307631   2.394467   0.1623541  0.1623541  0.3531879  2.846755   2.629404   2.021      0.2169812  0.4957177  58.83735   0.5782843  0.4371922  0.7193764 
985.7000000000001 0.295      406.9733   -9999      -9999      6.890728   -9999      -9999      2.454308   -9999      -9999      1.503      0.354      0.459      1.31841    2.442238   0.1607509  0.1607509  0.3498939  2.658615   2.835287   2.059      0.2170583  0.4955842  58.90068   0.5731604  0.4239393  0.7223814 
985.9      0.292      397.4113   -9999      -9999      6.818965   -9999      -9999      2.329485   -9999      -9999      1.723      0.382      0.492      1.339291   2.596781   0.1563539  0.1563539  0.3435127  2.204002   3.135655   2.167      0.2169293  0.4974201  59.01704   0.5671479  0.4068617  0.727434  
986.1      0.285      384.7544   -9999      -9999      6.728319   -9999      -9999      2.281      -9999      -9999      1.934      0.393      0.596      1.368701   2.786381   0.1495801  0.1495801  0.3345249  1.650988   3.560957   2.28       0.2053162  0.4935035  59.1874    0.5604389  0.38627    0.7346076 
986.3      0.277      370.271    -9999      -9999      6.624103   -9999      -9999      2.291476   -9999      -9999      2.159      0.439      0.614      1.40314    3.077911   0.1412962  0.1412962  0.3240004  1.159597   4.121679   2.423      0.1883903  0.4879642  59.39812   0.553649   0.3638806  0.7434174 
986.5      0.263      355.3857   -9999      -9999      6.517191   -9999      -9999      2.311978   -9999      -9999      2.589      0.971      0.833      1.43785    3.321805   0.132695   0.132695   0.3133931  0.8035088  4.788779   2.644      0.1771615  0.4876696  59.6232    0.5475702  0.3422597  0.7528806 
986.7000000000001 0.246      341.4883   -9999      -9999      6.423013   -9999      -9999      2.377829   -9999      -9999      3.106      1.504      1.239      1.467794   3.411081   0.1250429  0.1250429  0.3042422  0.5797699  5.465318   2.832      0.1609608  0.4844699  59.83163   0.5430282  0.3242808  0.7617757 
986.9      0.24       329.7831   -9999      -9999      6.358557   -9999      -9999      2.467779   -9999      -9999      3.544      2.036      1.646      1.488558   3.475484   0.1194541  0.1194541  0.2978968  0.456813   5.982649   2.971      0.1462861  0.48131    59.99518   0.5407354  0.3125235  0.7689472 
987.1      0.237      321.1532   -9999      -9999      6.338237   -9999      -9999      2.534279   -9999      -9999      3.686      2.568      1.709      1.49728    3.410686   0.1166136  0.1166136  0.2952314  0.4046924  6.15568    3.062      0.1404583  0.4816345  60.09581   0.541266   0.308906   0.7736259 
987.3      0.238      316.0637   -9999      -9999      6.370836   -9999      -9999      2.608678   -9999      -9999      3.507      1.784      1.429      1.49327    3.214761   0.1165589  0.1165589  0.2964567  0.4037487  5.880459   3.16       0.1527255  0.4909962  60.12825   0.545145   0.3147298  0.7755601 
987.5      0.239      314.5334   -9999      -9999      6.457104   -9999      -9999      2.659981   -9999      -9999      3.347      0.926      1.686      1.478093   2.982379   0.11866    0.11866    0.3010948  0.4416003  5.210035   3.183      0.1686413  0.5010737  60.09879   0.5528327  0.3306772  0.7749882 
987.7000000000001 0.242      316.1808   -9999      -9999      6.589257   -9999      -9999      2.662489   -9999      -9999      3.633      1.312      2.481      1.455047   2.722615   0.1218281  0.1218281  0.3081376  0.5054866  4.328216   3.035      0.1691445  0.5013148  60.02094   0.5645742  0.3566876  0.7724607 
987.9      0.252      320.3391   -9999      -9999      6.752969   -9999      -9999      2.657499   -9999      -9999      3.352      0.404      1.619      1.428278   2.484704   0.124853   0.124853   0.3163182  0.5750925  3.439894   2.864      0.1642675  0.4996159  59.91058   0.5801978  0.3917643  0.7686312 
988.1      0.267      326.1868   -9999      -9999      6.930692   -9999      -9999      2.646968   -9999      -9999      2.366      0.459      0.757      1.401885   2.366363   0.1267385  0.1267385  0.324384   0.6232508  2.680675   2.767      0.1616612  0.501747   59.78216   0.5989258  0.4337583  0.7640933 
988.3      0.281      332.8735   -9999      -9999      7.105312   -9999      -9999      2.685006   -9999      -9999      2.265      0.502      0.68       1.379183   2.342      0.126941   0.126941   0.3313217  0.6286563  2.098134   2.689      0.1515168  0.5016576  59.64602   0.6193355  0.4794009  0.75927   
988.5      0.288      339.6478   -9999      -9999      7.263473   -9999      -9999      2.767332   -9999      -9999      2.038      0.447      0.665      1.36222    2.344499   0.1254156  0.1254156  0.3365056  0.5890602  1.680555   2.627      0.1330981  0.4986516  59.50961   0.6396666  0.5248731  0.75446   
988.7000000000001 0.283      345.9234   -9999      -9999      7.397463   -9999      -9999      2.828336   -9999      -9999      2.074      0.375      0.546      1.351728   2.366411   0.1224596  0.1224596  0.339712   0.5192859  1.392519   2.585      0.1081811  0.4934142  59.37958   0.6583407  0.5667551  0.7499263 
988.9      0.272      351.2945   -9999      -9999      7.505794   -9999      -9999      2.924744   -9999      -9999      2.084      0.338      0.563      1.34737    2.417308   0.118457   0.118457   0.3410439  0.4377941  1.196151   2.523      0.07147471 0.4825306  59.26352   0.6745055  0.6030475  0.7459635 
989.1      0.268      355.5383   -9999      -9999      7.591508   -9999      -9999      3.01243    -9999      -9999      1.9        0.325      0.515      1.348166   2.448      0.1137102  0.1137102  0.3408004  0.3575585  1.060604   2.481      0.03019542 0.470469   59.17007   0.6881521  0.6334026  0.7429015 
