~Version
 VERS              .         2.0                           : CWLS LOG ASCII STANDARD - VERSION 2.0
 WRAP              .         NO                            : ONE LINE PER DEPTH STEP
 DLM               .         SPACE                         : DELIMITING CHARACTER(SPACE TAB OR COMMA)
~Well Information
#_______________________________________________________________________________
#
#PARAMETER_NAME    .UNIT     VALUE                         : DESCRIPTION
#_______________________________________________________________________________
STRT               .M        843.7                         : First reference value
STOP               .M        1227.9                        : Last reference value
STEP               .M        0.2                           : Step increment
NULL               .         -9999                         : Missing value
COMP               .                                       : Company
WELL               .         3888                          : Well name
FLD                .         Узень                         : Field
LOC                .                                       : Location
CNTY               .                                       : County
STAT               .                                       : State
CTRY               .                                       : Country
SRVC               .                                       : Service Company
DATE               .                                       : Date
UWI                .                                       : Unique Well ID
Block              .         7                             : 
Cartographic_reference_system .         GCS_WGS_1984                  : ESRI,PE_10_3_1- <?xml version="1.0" encoding="utf-16"?><ILateBoundCoordinateReferenceSystem name="GCS_WGS_1984"><AuthorityCode>EPSG,4326</AuthorityCode></ILateBoundCoordinateReferenceSystem>
Category           .         Нефтяная                      : 
Condition          .         В работе                      : 
Date               .         18.07.2007                    : 
EREF               .m        91.7                          : 100.8
Gorizont           .         14                            : 14
HZCS               .GCS_WGS_1984 WGS_1984_EASE-Grid_2.0_Global : ESRI,PE_10_3_1- <?xml version="1.0" encoding="utf-16"?><ILateBoundCoordinateReferenceSystem name="WGS_1984_EASE-Grid_2.0_Global"><AuthorityCode>EPSG,6933</AuthorityCode></ILateBoundCoordinateReferenceSystem>
Interpretator      .         Кушербаева А.С                : 
Kupol              .         основной                      : osnovnoi
LATI               .dega     0.6623499522                  : GCS_WGS_1984
LONG               .dega     0.4338720478                  : GCS_WGS_1984
Mud                .                                       : 
Mud_density        .                                       : 
Mud_resistivity    .                                       : 
NGDU               .         НГДУ-2                        : 
ORIGINALWELLNAME   .         3888                          : 
Spud_date          .         1990                          : 1961
Viscosity          .                                       : 
X                  .m        41862.7                       : 46154
Y                  .m        84496.33                      : 85761.93
YEAR               .         2019г                         : 
Исправлено         .         14                            : 
~Parameter Information Block
#_______________________________________________________________________________
#
#PARAMETER_NAME    .UNIT     VALUE                         : DESCRIPTION
#_______________________________________________________________________________
SET                .         LQC_KAZNIPI_Petrel            : 
TLFamily_CALI      .         Caliper                       : 
TLFamily_CILD      .         Conductivity                  : 
TLFamily_COLL      .         Net Reservoir Flag            : 
TLFamily_CSAT      .         Fluid Code                    : 
TLFamily_DEPT      .         Measured Depth                : 
TLFamily_GR        .         Russian Gamma Ray             : 
TLFamily_GZ1       .         Gradient 045                  : 
TLFamily_GZ2       .         Gradient 105                  : 
TLFamily_GZ3       .         Gradient 225                  : 
TLFamily_GZ4       .         Gradient 425                  : 
TLFamily_GZ5       .         Gradient 850                  : 
TLFamily_LLS       .         Lateral Log Resistivity       : 
TLFamily_MINV      .         Micro Gradient Resistivity    : 
TLFamily_MNOR      .         Micro Resistivity             : 
TLFamily_NGLD      .         Neutron Gamma                 : 
TLFamily_OGZ       .         Gradient Inverted 225         : 
TLFamily_PHIE      .         Effective Porosity            : 
TLFamily_PHIEN     .         Effective Porosity            : 
TLFamily_PHIT      .         Porosity                      : 
TLFamily_PRMB      .         Permeability                  : 
TLFamily_PRMB_DGR  .         Permeability                  : 
TLFamily_RT        .         Formation Resistivity         : 
TLFamily_SOIL_ARCHIE .         Oil Saturation                : 
TLFamily_SOIL_DW   .         Oil Saturation                : 
TLFamily_SP        .         Spontaneous Potential         : 
TLFamily_VSH_FIN   .         Shale Volume                  : 
TLFamily_VSH_GR    .         Shale Volume                  : 
TLFamily_VSH_SP    .         Shale Volume                  : 
~Curve Information
#_______________________________________________________________________________
#
#LOGNAME           .UNIT     LOG_ID                        : DESCRIPTION
#_______________________________________________________________________________
DEPT               .M                                      : Колонка глубины 
CALI               .м                                      : Каверномер 
CILD               .мСм/м                                  : Индукционный каротаж 
COLL               .unitless                               : Описание 
CSAT               .unitless                               : Описание 
GR                 .uR/h                                   : Гамма каротаж 
GZ1                .Ohmm                                   : Градиент-зонд  длиной 0.45м 
GZ2                .Ohmm                                   : Градиент-зонд  длиной 1.05м 
GZ3                .Ohmm                                   : Градиент-зонд  длиной 2.25м 
GZ4                .Ohmm                                   : Градиент-зонд  длиной 4.5м 
GZ5                .Ohmm                                   : Градиент-зонд  длиной 8.5м 
LLS                .Ohmm                                   : Боковой каротаж 
MINV               .Ohmm                                   : Микро-градиент зонд 
MNOR               .Ohmm                                   : Микро-потенциал зонд 
NGLD               .у.е.                                   : Показания зонда НГК-60 аппаратуры ДРСТ-3-90 
OGZ                .Ohmm                                   :  
PHIE               .v/v                                    : Описание 
PHIEN              .v/v                                    :  
PHIT               .v/v                                    : Описание 
PRMB               .mD                                     :  
PRMB_DGR           .mD                                     :  
RT                 .ohmm                                   : УЭС пласта 
SOIL_ARCHIE        .v/v                                    :  
SOIL_DW            .v/v                                    :  
SP                 .мВ                                     : Потенциал самополяризации 
VSH_FIN            .v/v                                    : Описание 
VSH_GR             .v/v                                    : Shale volume 
VSH_SP             .v/v                                    : Shale Volume 
~Ascii
# ...
1197.3     0.227      372.5398   -9999      -9999      9.07354    2.360646   2.997956   2.671513   2.061498   2.249994   1.884      1.194      1.118      1.482513   3.139396   0.1462118  0.1462118  0.2997442  1.430063   3.60052    2.355      0.2127199  0.4688383  28.77648   0.4652496  0.3845313  0.5459679 
1197.5     0.231      363.4001   -9999      -9999      8.95771    2.17786    2.720871   2.540256   1.95434    2.259995   1.905      0.943      1.27       1.488467   3.098461   0.141716   0.141716   0.2979246  1.180542   4.036631   2.497      0.2129355  0.475976   29.24665   0.4733594  0.3669918  0.5797271 
1197.7     0.232      353.8314   -9999      -9999      8.757802   2.020542   2.593596   2.449468   1.798128   2.20829    1.957      1.024      1.364      1.50136    3.146349   0.1392049  0.1392049  0.2939844  1.060648   4.917177   2.624      0.2189801  0.4810575  29.24023   0.4690288  0.3385817  0.5994759 
1197.9     0.23       344.7404   -9999      -9999      8.506812   1.987975   2.526      2.437      1.753469   2.147994   2.057      1.104      1.455      1.519509   3.251741   0.1387099  0.1387099  0.2884381  1.038491   6.299562   2.747      0.2332151  0.4861146  28.68215   0.4537218  0.3060054  0.6014382 
1198.1     0.223      336.9522   -9999      -9999      8.24842    1.964723   2.546417   2.430491   1.821561   2.16835    2.453      1.242      1.527      1.540228   3.343611   0.1398124  0.1398124  0.2821063  1.088487   8.129766   2.817      0.2474231  0.4871344  27.60923   0.4311934  0.2757395  0.5866472 
1198.3     0.216      331.1218   -9999      -9999      8.025416   2.093269   2.584441   2.417491   1.911257   2.180961   3.318      1.339      1.547      1.560558   3.325284   0.1454098  0.1454098  0.2758936  1.381973   10.13153   2.869      0.2789334  0.4926566  26.14823   0.3954056  0.2520365  0.5387746 
1198.5     0.212      327.6856   1          2          7.869366   2.333067   2.706886   2.431414   1.91633    2.148916   3.687      1.359      1.513      1.577961   3.173941   0.1509115  0.1509115  0.2705752  1.747451   11.81873   2.914      0.3069633  0.4980228  24.47654   0.3626172  0.2366725  0.4885619 
1198.7     0.209      326.8515   1          2          7.794422   2.576509   3.012167   2.439468   1.871904   2.110914   3.392      1.275      1.475      1.590866   2.986672   0.1558041  0.1558041  0.2666314  2.152916   12.72618   2.934      0.3281165  0.5016756  22.78202   0.3358405  0.2296303  0.4420508 
1198.9     0.207      328.6105   1          2          7.797902   2.912139   3.405287   2.401365   1.833902   1.998406   3.061      1.295      1.493      1.598801   2.795647   0.1597855  0.1597855  0.2642063  2.551371   12.68254   2.898      0.3389024  0.5009268  21.22727   0.3164267  0.2299526  0.4029008 
1199.1     0.207      332.7531   1          2          7.865171   3.098824   3.683996   2.407294   1.789318   1.878253   2.849      1.17       1.503      1.602175   2.613792   0.1627249  0.1627249  0.2631755  2.892129   11.86777   2.839      0.3430043  0.4982993  19.92882   0.3043957  0.2362727  0.3725187 
1199.3     0.207      338.9019   1          2          7.977062   2.983479   3.811779   2.470793   1.738313   1.80909    2.682      1.198      1.439      1.601864   2.448456   0.1645845  0.1645845  0.2632705  3.130847   10.62683   2.79       0.3441377  0.496346   18.95906   0.2990485  0.247172   0.350925  
1199.5     0.207      346.5443   1          2          8.115559   2.785947   3.875434   2.546129   1.710498   1.732583   2.758      1.219      1.449      1.598885   2.310543   0.1653772  0.1653772  0.2641806  3.23851    9.269001   2.671      0.3333798  0.4873039  18.35018   0.2994043  0.261362   0.3374466 
1199.7     0.206      355.0711   1          2          8.267047   2.687148   3.94126    2.633141   1.717971   1.666765   2.493      1.229      1.447      1.594227   2.187771   0.165126   0.165126   0.2656042  3.203993   7.981652   2.533      0.3156713  0.4748787  18.09925   0.3044795  0.2778175  0.3311416 
1199.9     0.206      363.8568   1          2          8.422987   2.628957   3.855909   2.704855   1.714951   1.639      2.375      1.298      1.409      1.588767   2.093146   0.1638146  0.1638146  0.2672727  3.029722   6.842964   2.451      0.3001786  0.4664344  18.18398   0.3135093  0.2958394  0.3311793 
1200.1     0.206      372.3482   1          2          8.578012   2.590898   3.63835    2.760858   1.676814   1.600549   2.339      1.415      1.447      1.583141   2.003351   0.1614412  0.1614412  0.268992   2.73805    5.872031   2.392      0.2830756  0.4587803  18.57012   0.3259116  0.3149142  0.336909  
1200.3     0.206      380.1207   1          2          8.728676   2.516483   3.375822   2.763382   1.613041   1.508552   2.27       1.349      1.432      1.577805   1.927331   0.158022   0.158022   0.2706229  2.366512   5.060595   2.333      0.2609729  0.4492462  19.21474   0.3412149  0.3346302  0.3477995 
1200.5     0.207      386.9322   1          2          8.873649   2.401661   3.140197   2.707328   1.56245    1.449485   2.305      1.292      1.419      1.572971   1.902      0.1536061  0.1536061  0.2721     1.960267   4.385859   2.283      0.2347624  0.4387555  20.07015   0.3590725  0.3547659  0.3633791 
1200.7     0.207      392.7255   1          2          9.014455   2.331488   3.000718   2.734874   1.536945   1.436485   2.365      1.127      1.406      1.568556   1.909485   0.1482661  0.1482661  0.2734493  1.561013   3.816751   2.259      0.20689    0.4295289  21.08858   0.3793429  0.3754821  0.3832038 
1200.9     0.206      397.5869   -9999      -9999      9.15539    2.310963   2.826569   2.84994    1.541895   1.437978   2.428      1.196      1.434      1.56408    1.937392   0.1421012  0.1421012  0.2748173  1.2001     3.321067   2.258      0.1768335  0.4215734  22.22895   0.4021698  0.3974285  0.4069111 
1201.1     0.206      401.6878   -9999      -9999      9.301673   2.308476   2.711471   2.916983   1.599988   1.460923   2.393      1.421      1.391      1.558757   1.968472   0.1352407  0.1352407  0.276444   0.8956628  2.874545   2.264      0.141651   0.4132695  23.45801   0.4278886  0.4215656  0.4342117 
1201.3     0.207      405.2134   -9999      -9999      9.457903   2.328979   2.749527   2.896339   1.6815     1.491419   2.243      1.109      1.276      1.551793   1.965957   0.1277882  0.1277882  0.278572   0.6517868  2.463748   2.252      0.09596136 0.4016511  24.74988   0.4569207  0.4489648  0.4648766 
1201.5     0.208      408.3081   -9999      -9999      9.625455   2.351467   2.759696   2.80638    1.750776   1.526869   2.103      1.129      1.27       1.542629   1.914113   0.1198355  0.1198355  0.2813726  0.4643034  2.08819    2.224      0.0382969  0.3869998  26.08327   0.4895065  0.4803318  0.4986811 
1201.7     0.209      411.0553   -9999      -9999      9.800609   2.257606   2.628494   2.678624   1.799383   1.534449   2.22       1.441      1.401      1.53118    1.850324   0.1115014  0.1115014  0.2848714  0.3254133  1.756649   2.197      0          0.3715555  27.43629   0.5253636  0.5154672  0.5352598 
1201.9     0.211      413.5131   -9999      -9999      9.974304   2.153498   2.553967   2.584869   1.860059   1.557095   2.175      1.962      1.396      1.517961   1.856724   0.1030015  0.1030015  0.288911   0.2264622  1.479876   2.172      0          0.3554864  28.77985   0.5633621  0.5528477  0.5738766 
1202.1     0.215      415.7705   -9999      -9999      10.13305   2.130401   2.574489   2.504929   1.973613   1.61337    1.918      1.766      1.14       1.504147   1.920733   0.09472068 0.09472068 0.2931326  0.1590797  1.265249   2.146      0          0.3385551  30.07115   0.6012483  0.5893757  0.613121  
1202.3     0.218      417.9873   -9999      -9999      10.26247   2.011186   2.459599   2.395345   2.087145   1.66422    1.876      1.656      1.17       1.491306   2.006273   0.08722238 0.08722238 0.2970569  0.1155389  1.113514   2.149      0          0.3261822  31.2538    0.6358622  0.6209358  0.6507885 
