~Version
 VERS              .         2.0                           : CWLS LOG ASCII STANDARD - VERSION 2.0
 WRAP              .         NO                            : ONE LINE PER DEPTH STEP
 DLM               .         SPACE                         : DELIMITING CHARACTER(SPACE TAB OR COMMA)
~Well Information
#_______________________________________________________________________________
#
#PARAMETER_NAME    .UNIT     VALUE                         : DESCRIPTION
#_______________________________________________________________________________
STRT               .M        843.7                         : First reference value
STOP               .M        1227.9                        : Last reference value
STEP               .M        0.2                           : Step increment
NULL               .         -9999                         : Missing value
COMP               .                                       : Company
WELL               .         3888                          : Well name
FLD                .         Узень                         : Field
LOC                .                                       : Location
CNTY               .                                       : County
STAT               .                                       : State
CTRY               .                                       : Country
SRVC               .                                       : Service Company
DATE               .                                       : Date
UWI                .                                       : Unique Well ID
Block              .         7                             : 
Cartographic_reference_system .         GCS_WGS_1984                  : ESRI,PE_10_3_1- <?xml version="1.0" encoding="utf-16"?><ILateBoundCoordinateReferenceSystem name="GCS_WGS_1984"><AuthorityCode>EPSG,4326</AuthorityCode></ILateBoundCoordinateReferenceSystem>
Category           .         Нефтяная                      : 
Condition          .         В работе                      : 
Date               .         18.07.2007                    : 
EREF               .m        91.7                          : 100.8
Gorizont           .         14                            : 14
HZCS               .GCS_WGS_1984 WGS_1984_EASE-Grid_2.0_Global : ESRI,PE_10_3_1- <?xml version="1.0" encoding="utf-16"?><ILateBoundCoordinateReferenceSystem name="WGS_1984_EASE-Grid_2.0_Global"><AuthorityCode>EPSG,6933</AuthorityCode></ILateBoundCoordinateReferenceSystem>
Interpretator      .         Кушербаева А.С                : 
Kupol              .         основной                      : osnovnoi
LATI               .dega     0.6623499522                  : GCS_WGS_1984
LONG               .dega     0.4338720478                  : GCS_WGS_1984
Mud                .                                       : 
Mud_density        .                                       : 
Mud_resistivity    .                                       : 
NGDU               .         НГДУ-2                        : 
ORIGINALWELLNAME   .         3888                          : 
Spud_date          .         1990                          : 1961
Viscosity          .                                       : 
X                  .m        41862.7                       : 46154
Y                  .m        84496.33                      : 85761.93
YEAR               .         2019г                         : 
Исправлено         .         14                            : 
~Parameter Information Block
#_______________________________________________________________________________
#
#PARAMETER_NAME    .UNIT     VALUE                         : DESCRIPTION
#_______________________________________________________________________________
SET                .         LQC_KAZNIPI_Petrel            : 
TLFamily_CALI      .         Caliper                       : 
TLFamily_CILD      .         Conductivity                  : 
TLFamily_COLL      .         Net Reservoir Flag            : 
TLFamily_CSAT      .         Fluid Code                    : 
TLFamily_DEPT      .         Measured Depth                : 
TLFamily_GR        .         Russian Gamma Ray             : 
TLFamily_GZ1       .         Gradient 045                  : 
TLFamily_GZ2       .         Gradient 105                  : 
TLFamily_GZ3       .         Gradient 225                  : 
TLFamily_GZ4       .         Gradient 425                  : 
TLFamily_GZ5       .         Gradient 850                  : 
TLFamily_LLS       .         Lateral Log Resistivity       : 
TLFamily_MINV      .         Micro Gradient Resistivity    : 
TLFamily_MNOR      .         Micro Resistivity             : 
TLFamily_NGLD      .         Neutron Gamma                 : 
TLFamily_OGZ       .         Gradient Inverted 225         : 
TLFamily_PHIE      .         Effective Porosity            : 
TLFamily_PHIEN     .         Effective Porosity            : 
TLFamily_PHIT      .         Porosity                      : 
TLFamily_PRMB      .         Permeability                  : 
TLFamily_PRMB_DGR  .         Permeability                  : 
TLFamily_RT        .         Formation Resistivity         : 
TLFamily_SOIL_ARCHIE .         Oil Saturation                : 
TLFamily_SOIL_DW   .         Oil Saturation                : 
TLFamily_SP        .         Spontaneous Potential         : 
TLFamily_VSH_FIN   .         Shale Volume                  : 
TLFamily_VSH_GR    .         Shale Volume                  : 
TLFamily_VSH_SP    .         Shale Volume                  : 
~Curve Information
#_______________________________________________________________________________
#
#LOGNAME           .UNIT     LOG_ID                        : DESCRIPTION
#_______________________________________________________________________________
DEPT               .M                                      : Колонка глубины 
CALI               .м                                      : Каверномер 
CILD               .мСм/м                                  : Индукционный каротаж 
COLL               .unitless                               : Описание 
CSAT               .unitless                               : Описание 
GR                 .uR/h                                   : Гамма каротаж 
GZ1                .Ohmm                                   : Градиент-зонд  длиной 0.45м 
GZ2                .Ohmm                                   : Градиент-зонд  длиной 1.05м 
GZ3                .Ohmm                                   : Градиент-зонд  длиной 2.25м 
GZ4                .Ohmm                                   : Градиент-зонд  длиной 4.5м 
GZ5                .Ohmm                                   : Градиент-зонд  длиной 8.5м 
LLS                .Ohmm                                   : Боковой каротаж 
MINV               .Ohmm                                   : Микро-градиент зонд 
MNOR               .Ohmm                                   : Микро-потенциал зонд 
NGLD               .у.е.                                   : Показания зонда НГК-60 аппаратуры ДРСТ-3-90 
OGZ                .Ohmm                                   :  
PHIE               .v/v                                    : Описание 
PHIEN              .v/v                                    :  
PHIT               .v/v                                    : Описание 
PRMB               .mD                                     :  
PRMB_DGR           .mD                                     :  
RT                 .ohmm                                   : УЭС пласта 
SOIL_ARCHIE        .v/v                                    :  
SOIL_DW            .v/v                                    :  
SP                 .мВ                                     : Потенциал самополяризации 
VSH_FIN            .v/v                                    : Описание 
VSH_GR             .v/v                                    : Shale volume 
VSH_SP             .v/v                                    : Shale Volume 
~Ascii
# ...
1046.5     0.306      390.6873   -9999      -9999      9.327205   1.677499   2.238625   2.271978   1.745075   1.682985   1.824      0.379      0.608      1.350095   2.278175   0.130606   0.130606   0.3402109  0.7350189  1.670504   2.331      0.1148962  0.4791126  54.32642   0.6351662  0.5261603  0.7441722 
1046.7     0.307      390.1813   -9999      -9999      9.371204   1.572218   2.185464   2.240625   1.681814   1.69       1.926      0.499      0.692      1.347294   2.227465   0.1304716  0.1304716  0.341067   0.7308165  1.595063   2.346      0.1167644  0.4814245  54.27734   0.6381678  0.5361831  0.7401525 
1046.9     0.306      389.662    -9999      -9999      9.416826   1.545092   2.203289   2.189977   1.661992   1.69       2.138      0.41       0.614      1.346147   2.224977   0.1295769  0.1295769  0.3414175  0.7034548  1.520437   2.327      0.108058   0.4783697  54.25284   0.6419414  0.5467771  0.7371057 
1047.1     0.305      389.1282   -9999      -9999      9.461098   1.62635    2.338553   2.220622   1.671993   1.69       2.144      0.323      0.494      1.346119   2.278085   0.1280999  0.1280999  0.3414261  0.6605107  1.451359   2.3        0.0941607  0.4731708  54.26854   0.6464429  0.5572576  0.7356283 
1047.3     0.306      388.6159   -9999      -9999      9.50108    1.693376   2.45798    2.262      1.751831   1.664305   2.036      0.359      0.602      1.34663    2.34241    0.126341   0.126341   0.34127    0.6127722  1.391676   2.312      0.0854225  0.47179    54.32424   0.6513002  0.5668951  0.7357053 
1047.5     0.308      388.1982   -9999      -9999      9.533398   1.688307   2.361189   2.262      1.815946   1.639      1.923      0.405      0.629      1.347211   2.350467   0.1246746  0.1246746  0.3410922  0.5707347  1.345231   2.346      0.08110193 0.4729779  54.40652   0.6558109  0.574807   0.7368148 
1047.7     0.309      387.9468   -9999      -9999      9.555046   1.624044   2.233355   2.262      1.787945   1.639      1.934      0.295      0.573      1.347589   2.338      0.1234516  0.1234516  0.340977   0.5417287  1.31499    2.371      0.07777741 0.4738177  54.49498   0.6591676  0.5801685  0.7381667 
1047.9     0.3        387.8862   -9999      -9999      9.56353    1.596465   2.228406   2.302635   1.774      1.639      2.097      0.28       0.505      1.347661   2.338      0.1229375  0.1229375  0.3409548  0.5299782  1.303325   2.386      0.07715403 0.4746788  54.57096   0.6606585  0.5822833  0.7390338 
1048.1     0.284      387.981    -9999      -9999      9.55681    1.616969   2.336787   2.364411   1.801783   1.641997   2.073      0.367      0.609      1.347432   2.347979   0.1232881  0.1232881  0.3410246  0.5379639  1.312555   2.365      0.07561374 0.4729517  54.624     0.6598076  0.5806077  0.7390076 
1048.3     0.284      388.1434   -9999      -9999      9.534438   1.657219   2.437979   2.390992   1.857789   1.648496   1.995      0.367      0.647      1.346976   2.345467   0.1244988  0.1244988  0.3411642  0.5664723  1.343762   2.321      0.07533509 0.4699547  54.65339   0.6565617  0.5750636  0.7380598 
1048.5     0.3        388.2834   -9999      -9999      9.498648   1.718229   2.488662   2.403491   1.931452   1.655496   2.079      0.357      0.525      1.346421   2.335499   0.1263719  0.1263719  0.3413338  0.6135824  1.395235   2.296      0.08263313 0.4700627  54.66688   0.6513996  0.5663042  0.736495  
1048.7     0.315      388.3967   -9999      -9999      9.454238   1.774317   2.470295   2.397467   1.978      1.656498   1.909      0.346      0.491      1.345958   2.335499   0.1285521  0.1285521  0.3414753  0.6733719  1.461854   2.277      0.09266717 0.4712315  54.67753   0.6452218  0.5556206  0.734823  
1048.9     0.326      388.6114   -9999      -9999      9.408961   1.673559   2.302515   2.282811   1.854121   1.640949   1.784      0.295      0.505      1.345909   2.252097   0.1305416  0.1305416  0.3414901  0.7330028  1.533049   2.304      0.1096614  0.4772357  54.69814   0.6392377  0.5449359  0.7335394 
1049.1     0.326      389.1862   -9999      -9999      9.373049   1.527234   2.09876    2.172464   1.673295   1.648373   1.714      0.359      0.607      1.346606   2.174      0.1318005  0.1318005  0.3412771  0.7734337  1.591976   2.378      0.130074   0.4870002  54.73657   0.6347775  0.5366074  0.7329476 
1049.3     0.321      390.4448   -9999      -9999      9.357195   1.483924   2.159005   2.212853   1.630877   1.689376   2.054      0.299      0.377      1.348175   2.244361   0.1318921  0.1318921  0.3407978  0.7764597  1.618706   2.421      0.1378806  0.491246   54.79486   0.6330479  0.5329713  0.7331244 
1049.5     0.301      392.6456   -9999      -9999      9.36974    1.508957   2.437813   2.322813   1.820771   1.730379   2.287      0.28       0.385      1.350432   2.409648   0.1306017  0.1306017  0.3401079  0.7348839  1.597517   2.389      0.1250205  0.4853686  54.86829   0.6348673  0.5358466  0.733888  
1049.7     0.282      395.8567   -9999      -9999      9.413631   1.634686   2.595676   2.430465   2.028396   1.766432   2.426      0.321      0.477      1.352902   2.539279   0.1280107  0.1280107  0.339353   0.6580002  1.525547   2.344      0.1016347  0.4759613  54.94641   0.6404314  0.5460285  0.7348343 
1049.9     0.301      399.8866   -9999      -9999      9.484198   1.754235   2.613899   2.514784   2.053994   1.796937   2.214      0.36       0.624      1.355007   2.605791   0.1244917  0.1244917  0.33871    0.566299   1.416572   2.323      0.07566232 0.4676968  55.01696   0.6491464  0.5628057  0.7354873 
1050.1     0.32       404.2879   -9999      -9999      9.569582   1.772456   2.403194   2.509712   2.063994   1.805488   1.76       0.461      0.706      1.356318   2.595135   0.1206337  0.1206337  0.3383092  0.4803829  1.295067   2.251      0.0358281  0.4527857  55.06968   0.6596227  0.5837965  0.7354488 
1050.3     0.325      408.4464   -9999      -9999      9.653501   1.681761   2.203352   2.430654   2.040808   1.79299    1.717      0.458      0.703      1.356732   2.48461    0.11713    0.11713    0.3381828  0.4137043  1.185809   2.164      0          0.435968   55.09957   0.669857   0.6051897  0.7345242 
1050.5     0.328      411.7261   -9999      -9999      9.719444   1.568027   2.220584   2.351185   1.848259   1.735251   1.758      0.324      0.579      1.356582   2.398916   0.1145925  0.1145925  0.3382285  0.3712696  1.10646    2.126      0          0.4266536  55.1093    0.6776847  0.6225493  0.7328201 
1050.7     0.329      413.6124   -9999      -9999      9.755348   1.501739   2.261498   2.287358   1.658565   1.630106   1.614      0.315      0.523      1.356563   2.358411   0.1133492  0.1133492  0.3382343  0.3520951  1.065513   2.103      0          0.4213554  55.10897   0.6814701  0.6322094  0.7307308 
1050.9     0.331      413.8139   -9999      -9999      9.756933   1.422086   2.199722   2.243928   1.569172   1.56445    1.602      0.293      0.489      1.3574     2.324964   0.1133413  0.1133413  0.3379785  0.3519765  1.063741   2.106      0          0.4214672  55.1126    0.6807188  0.6326393  0.7287984 
1051.1     0.325      412.3102   -9999      -9999      9.728226   1.372      2.061487   2.207927   1.519      1.561968   1.598      0.369      0.658      1.35947    2.323472   0.1141783  0.1141783  0.3373458  0.3647688  1.096302   2.144      0          0.4273718  55.13603   0.6762651  0.6248983  0.727632  
1051.3     0.315      409.3196   -9999      -9999      9.679343   1.381964   1.945119   2.16435    1.528967   1.587424   1.665      0.313      0.454      1.362636   2.346472   0.1153229  0.1153229  0.3363783  0.3830163  1.154056   2.187      0          0.4339261  55.194     0.669865   0.6119344  0.7277956 
1051.5     0.304      405.2085   -9999      -9999      9.623259   1.432413   1.914983   2.149474   1.559365   1.618426   1.889      0.3        0.452      1.366262   2.40356    0.1163127  0.1163127  0.3352703  0.3995311  1.224077   2.244      0.003248992 0.4416224  55.29519   0.6635081  0.5973913  0.7296249 
