~Version
 VERS              .         2.0                           : CWLS LOG ASCII STANDARD - VERSION 2.0
 WRAP              .         NO                            : ONE LINE PER DEPTH STEP
 DLM               .         SPACE                         : DELIMITING CHARACTER(SPACE TAB OR COMMA)
~Well Information
#_______________________________________________________________________________
#
#PARAMETER_NAME    .UNIT     VALUE                         : DESCRIPTION
#_______________________________________________________________________________
STRT               .M        843.7                         : First reference value
STOP               .M        1227.9                        : Last reference value
STEP               .M        0.2                           : Step increment
NULL               .         -9999                         : Missing value
COMP               .                                       : Company
WELL               .         3888                          : Well name
FLD                .         Узень                         : Field
LOC                .                                       : Location
CNTY               .                                       : County
STAT               .                                       : State
CTRY               .                                       : Country
SRVC               .                                       : Service Company
DATE               .                                       : Date
UWI                .                                       : Unique Well ID
Block              .         7                             : 
Cartographic_reference_system .         GCS_WGS_1984                  : ESRI,PE_10_3_1- <?xml version="1.0" encoding="utf-16"?><ILateBoundCoordinateReferenceSystem name="GCS_WGS_1984"><AuthorityCode>EPSG,4326</AuthorityCode></ILateBoundCoordinateReferenceSystem>
Category           .         Нефтяная                      : 
Condition          .         В работе                      : 
Date               .         18.07.2007                    : 
EREF               .m        91.7                          : 100.8
Gorizont           .         14                            : 14
HZCS               .GCS_WGS_1984 WGS_1984_EASE-Grid_2.0_Global : ESRI,PE_10_3_1- <?xml version="1.0" encoding="utf-16"?><ILateBoundCoordinateReferenceSystem name="WGS_1984_EASE-Grid_2.0_Global"><AuthorityCode>EPSG,6933</AuthorityCode></ILateBoundCoordinateReferenceSystem>
Interpretator      .         Кушербаева А.С                : 
Kupol              .         основной                      : osnovnoi
LATI               .dega     0.6623499522                  : GCS_WGS_1984
LONG               .dega     0.4338720478                  : GCS_WGS_1984
Mud                .                                       : 
Mud_density        .                                       : 
Mud_resistivity    .                                       : 
NGDU               .         НГДУ-2                        : 
ORIGINALWELLNAME   .         3888                          : 
Spud_date          .         1990                          : 1961
Viscosity          .                                       : 
X                  .m        41862.7                       : 46154
Y                  .m        84496.33                      : 85761.93
YEAR               .         2019г                         : 
Исправлено         .         14                            : 
~Parameter Information Block
#_______________________________________________________________________________
#
#PARAMETER_NAME    .UNIT     VALUE                         : DESCRIPTION
#_______________________________________________________________________________
SET                .         LQC_KAZNIPI_Petrel            : 
TLFamily_CALI      .         Caliper                       : 
TLFamily_CILD      .         Conductivity                  : 
TLFamily_COLL      .         Net Reservoir Flag            : 
TLFamily_CSAT      .         Fluid Code                    : 
TLFamily_DEPT      .         Measured Depth                : 
TLFamily_GR        .         Russian Gamma Ray             : 
TLFamily_GZ1       .         Gradient 045                  : 
TLFamily_GZ2       .         Gradient 105                  : 
TLFamily_GZ3       .         Gradient 225                  : 
TLFamily_GZ4       .         Gradient 425                  : 
TLFamily_GZ5       .         Gradient 850                  : 
TLFamily_LLS       .         Lateral Log Resistivity       : 
TLFamily_MINV      .         Micro Gradient Resistivity    : 
TLFamily_MNOR      .         Micro Resistivity             : 
TLFamily_NGLD      .         Neutron Gamma                 : 
TLFamily_OGZ       .         Gradient Inverted 225         : 
TLFamily_PHIE      .         Effective Porosity            : 
TLFamily_PHIEN     .         Effective Porosity            : 
TLFamily_PHIT      .         Porosity                      : 
TLFamily_PRMB      .         Permeability                  : 
TLFamily_PRMB_DGR  .         Permeability                  : 
TLFamily_RT        .         Formation Resistivity         : 
TLFamily_SOIL_ARCHIE .         Oil Saturation                : 
TLFamily_SOIL_DW   .         Oil Saturation                : 
TLFamily_SP        .         Spontaneous Potential         : 
TLFamily_VSH_FIN   .         Shale Volume                  : 
TLFamily_VSH_GR    .         Shale Volume                  : 
TLFamily_VSH_SP    .         Shale Volume                  : 
~Curve Information
#_______________________________________________________________________________
#
#LOGNAME           .UNIT     LOG_ID                        : DESCRIPTION
#_______________________________________________________________________________
DEPT               .M                                      : Колонка глубины 
CALI               .м                                      : Каверномер 
CILD               .мСм/м                                  : Индукционный каротаж 
COLL               .unitless                               : Описание 
CSAT               .unitless                               : Описание 
GR                 .uR/h                                   : Гамма каротаж 
GZ1                .Ohmm                                   : Градиент-зонд  длиной 0.45м 
GZ2                .Ohmm                                   : Градиент-зонд  длиной 1.05м 
GZ3                .Ohmm                                   : Градиент-зонд  длиной 2.25м 
GZ4                .Ohmm                                   : Градиент-зонд  длиной 4.5м 
GZ5                .Ohmm                                   : Градиент-зонд  длиной 8.5м 
LLS                .Ohmm                                   : Боковой каротаж 
MINV               .Ohmm                                   : Микро-градиент зонд 
MNOR               .Ohmm                                   : Микро-потенциал зонд 
NGLD               .у.е.                                   : Показания зонда НГК-60 аппаратуры ДРСТ-3-90 
OGZ                .Ohmm                                   :  
PHIE               .v/v                                    : Описание 
PHIEN              .v/v                                    :  
PHIT               .v/v                                    : Описание 
PRMB               .mD                                     :  
PRMB_DGR           .mD                                     :  
RT                 .ohmm                                   : УЭС пласта 
SOIL_ARCHIE        .v/v                                    :  
SOIL_DW            .v/v                                    :  
SP                 .мВ                                     : Потенциал самополяризации 
VSH_FIN            .v/v                                    : Описание 
VSH_GR             .v/v                                    : Shale volume 
VSH_SP             .v/v                                    : Shale Volume 
~Ascii
# ...
1088.1     0.261      289.3496   -9999      -9999      8.315674   2.056483   3.225207   3.121396   2.492416   2.242439   2.356      0.443      0.795      1.410484   4.251      0.1392346  0.1392346  0.3217562  1.061989   2.661293   3.031      0.2599188  0.5376697  56.49158   0.5530959  0.4350455  0.6711463 
1088.3     0.259      282.3376   -9999      -9999      8.268528   2.034229   3.117853   3.118915   2.575717   2.27544    2.535      0.532      1.007      1.419379   4.366919   0.1379598  0.1379598  0.3190377  1.005793   2.807368   3.097      0.2614699  0.5386034  56.52014   0.548721   0.4256558  0.6717861 
1088.5     0.246      273.9751   -9999      -9999      8.207295   2.100976   3.029393   3.142      2.672796   2.367264   2.745      0.654      1.137      1.435137   4.529291   0.1348757  0.1348757  0.3142221  0.881825   3.009125   3.202      0.2584761  0.538012   56.56974   0.5434741  0.4137625  0.6731858 
1088.7     0.232      264.636    -9999      -9999      8.132042   2.141776   3.034347   3.167397   2.706      2.489593   2.877      0.871      1.011      1.457832   4.623719   0.1299413  0.1299413  0.3072865  0.7144727  3.277045   3.358      0.2509202  0.5361329  56.6368    0.5374098  0.3996     0.6752197 
1088.9     0.229      254.8191   -9999      -9999      8.043379   2.192909   3.118041   3.203483   2.706      2.579116   3.016      0.69       1.022      1.486862   4.692966   0.1233321  0.1233321  0.2984149  0.5389734  3.623477   3.54       0.2352547  0.5308486  56.71254   0.5305542  0.3835346  0.6775737 
1089.1     0.229      245.1255   -9999      -9999      7.942794   2.207994   3.212738   3.188398   2.736824   2.701845   2.745      0.962      0.867      1.520897   4.685431   0.1154303  0.1154303  0.2880139  0.3847755  4.061035   3.749      0.2113729  0.5223199  56.78656   0.5229807  0.3660896  0.6798717 
1089.3     0.228      236.2204   -9999      -9999      7.833797   2.177351   3.202594   3.177964   2.907009   2.86234    2.911      1.292      0.88       1.557734   4.718631   0.106823   0.106823   0.2767566  0.2665504  4.595036   3.999      0.1814835  0.5120851  56.85083   0.5149503  0.3480804  0.6818202 
1089.5     0.227      228.7612   -9999      -9999      7.723663   2.227186   3.098038   3.273973   3.153351   3.021019   3.788      1.37       1.29       1.594239   4.848973   0.0982703  0.0982703  0.2656005  0.1850812  5.205958   4.257      0.1452258  0.4997262  56.90323   0.5070613  0.3307829  0.6833397 
1089.7     0.228      223.3047   -9999      -9999      7.623976   2.315476   3.216188   3.460407   3.322345   3.156958   4.927      1.449      1.239      1.626645   5.017063   0.09062442 0.09062442 0.2556973  0.1335802  5.828677   4.477      0.104182   0.4855238  56.94776   0.500221   0.3158685  0.6845734 
1089.9     0.229      220.2247   -9999      -9999      7.549599   2.637625   3.866549   3.804588   3.459762   3.289168   6.41       4.97       1.409      1.651053   5.145906   0.08472975 0.08472975 0.2482381  0.1038864  6.341336   4.466      0.04904248 0.4623937  56.99148   0.49548    0.3051806  0.6857793 
1090.1     0.231      219.6663   -9999      -9999      7.515288   3.307278   4.877685   4.250437   3.612581   3.394363   5.614      4.978      1.522      1.664297   5.09688    0.08124042 0.08124042 0.2441909  0.08952159 6.5928     4.425      0.009287684 0.4460742  57.04116   0.4937894  0.3003728  0.687206  
1090.3     0.231      221.5407   -9999      -9999      7.532389   3.534964   5.229623   4.472453   3.722894   3.455861   3.309      1.587      1.56       1.664671   4.790335   0.08044308 0.08044308 0.2440765  0.08652847 6.466249   4.5        0.008590596 0.4486743  57.09962   0.4958588  0.3027595  0.6889581 
1090.5     0.229      225.5629   -9999      -9999      7.605387   3.355445   5.04899    4.56394    3.697113   3.406573   4.529      3.273      1.491      1.652222   4.339541   0.08220503 0.08220503 0.247881   0.09328133 5.952785   4.309      0.007120271 0.4464156  57.16404   0.5020483  0.3131627  0.6909339 
1090.7     0.234      231.3301   -9999      -9999      7.729379   3.514208   5.78655    4.727595   3.707448   3.240345   3.927      4.96       1.381      1.628692   3.834222   0.08602192 0.08602192 0.2550717  0.1097723  5.172338   3.926      0.002988749 0.439645   57.22767   0.512272   0.3316592  0.6928848 
1090.9     0.246      238.4389   -9999      -9999      7.890091   3.571336   6.268854   4.879149   3.748929   3.071906   2.798      0.476      1.093      1.597143   3.440138   0.09116252 0.09116252 0.2647131  0.1366813  4.311007   3.705      0.02601232 0.4482064  57.28355   0.5259108  0.3572683  0.6945533 
1091.1     0.258      246.5889   -9999      -9999      8.067204   3.225364   5.536449   4.710248   3.604003   2.931916   2.638      0.502      0.953      1.56123    3.218598   0.09689421 0.09689421 0.2756882  0.1745315  3.526937   3.654      0.07036147 0.4702653  57.32833   0.5418001  0.3877871  0.6958131 
1091.3     0.266      255.6328   -9999      -9999      8.239273   2.879337   4.803615   4.456855   3.240345   2.804151   2.539      0.451      0.92       1.524272   3.055221   0.1027318  0.1027318  0.2869826  0.2238727  2.902014   3.624      0.1131182  0.492293   57.36409   0.5583356  0.4199315  0.6967397 
1091.5     0.263      265.5515   -9999      -9999      8.389544   2.533099   4.505183   4.390394   2.919066   2.684516   2.689      0.924      1.123      1.488638   2.917184   0.1084936  0.1084936  0.2978722  0.2862345  2.447548   3.529      0.1436746  0.5073355  57.39734   0.5738748  0.4501758  0.6975738 
1091.7     0.255      276.3693   -9999      -9999      8.510335   2.399266   4.602294   4.483744   2.803384   2.62147    2.989      0.609      1.134      1.455721   2.771444   0.1141189  0.1141189  0.3079317  0.3638454  2.134389   3.388      0.1647277  0.5165962  57.43475   0.5873114  0.4760589  0.6985638 
1091.9     0.253      288.0437   -9999      -9999      8.603113   2.452919   4.566316   4.666664   2.79296    2.613995   3.111      0.547      1.022      1.426158   2.698499   0.1195066  0.1195066  0.316966   0.4578373  1.921344   3.273      0.1845136  0.5251187  57.47814   0.5983616  0.4969455  0.6997777 
1092.1     0.259      300.3703   -9999      -9999      8.675303   2.493416   4.382255   4.824411   2.823457   2.623995   3.043      0.519      0.948      1.400164   2.687969   0.1244652  0.1244652  0.3249099  0.5656596  1.770399   3.131      0.1963282  0.5290306  57.52137   0.6074083  0.5138288  0.7009877 
1092.3     0.267      312.9653   -9999      -9999      8.735717   2.584511   4.279      4.909967   2.869338   2.659325   2.769      0.443      0.826      1.377896   2.592219   0.1287504  0.1287504  0.331715   0.679092   1.653229   2.907      0.1920154  0.5235033  57.55098   0.6150441  0.5283984  0.7016898 
1092.5     0.271      325.3102   -9999      -9999      8.791045   2.571629   4.201804   4.730846   2.887473   2.677471   2.349      0.362      0.64       1.359503   2.4732     0.1321742  0.1321742  0.3373359  0.7858603  1.552739   2.693      0.1814229  0.5148375  57.55136   0.6217022  0.5421035  0.7013009 
1092.7     0.275      336.836    -9999      -9999      8.843618   2.365959   3.964853   4.458517   2.836239   2.639377   2.152      0.357      0.566      1.344999   2.421965   0.13471    0.13471    0.3417682  0.8756167  1.462918   2.571      0.1771516  0.5109525  57.51235   0.627449   0.5554554  0.6994426 
1092.9     0.284      347.051    -9999      -9999      8.891554   2.158166   3.581125   4.177783   2.772383   2.546632   2.07       0.285      0.548      1.334267   2.411499   0.1364781  0.1364781  0.345048   0.9442008  1.385558   2.515      0.1779931  0.5108563  57.43444   0.6320299  0.5679159  0.6961439 
1093.1     0.287      355.6381   -9999      -9999      8.930734   1.971615   3.30138    3.87136    2.734471   2.455368   2.085      0.336      0.609      1.32696    2.434414   0.137701   0.137701   0.347281   0.9947499  1.325376   2.469      0.1772583  0.5099337  57.32993   0.635091   0.5783077  0.6918743 
