~Version
 VERS              .         2.0                           : CWLS LOG ASCII STANDARD - VERSION 2.0
 WRAP              .         NO                            : ONE LINE PER DEPTH STEP
 DLM               .         SPACE                         : DELIMITING CHARACTER(SPACE TAB OR COMMA)
~Well Information
#_______________________________________________________________________________
#
#PARAMETER_NAME    .UNIT     VALUE                         : DESCRIPTION
#_______________________________________________________________________________
STRT               .M        843.7                         : First reference value
STOP               .M        1227.9                        : Last reference value
STEP               .M        0.2                           : Step increment
NULL               .         -9999                         : Missing value
COMP               .                                       : Company
WELL               .         3888                          : Well name
FLD                .         Узень                         : Field
LOC                .                                       : Location
CNTY               .                                       : County
STAT               .                                       : State
CTRY               .                                       : Country
SRVC               .                                       : Service Company
DATE               .                                       : Date
UWI                .                                       : Unique Well ID
Block              .         7                             : 
Cartographic_reference_system .         GCS_WGS_1984                  : ESRI,PE_10_3_1- <?xml version="1.0" encoding="utf-16"?><ILateBoundCoordinateReferenceSystem name="GCS_WGS_1984"><AuthorityCode>EPSG,4326</AuthorityCode></ILateBoundCoordinateReferenceSystem>
Category           .         Нефтяная                      : 
Condition          .         В работе                      : 
Date               .         18.07.2007                    : 
EREF               .m        91.7                          : 100.8
Gorizont           .         14                            : 14
HZCS               .GCS_WGS_1984 WGS_1984_EASE-Grid_2.0_Global : ESRI,PE_10_3_1- <?xml version="1.0" encoding="utf-16"?><ILateBoundCoordinateReferenceSystem name="WGS_1984_EASE-Grid_2.0_Global"><AuthorityCode>EPSG,6933</AuthorityCode></ILateBoundCoordinateReferenceSystem>
Interpretator      .         Кушербаева А.С                : 
Kupol              .         основной                      : osnovnoi
LATI               .dega     0.6623499522                  : GCS_WGS_1984
LONG               .dega     0.4338720478                  : GCS_WGS_1984
Mud                .                                       : 
Mud_density        .                                       : 
Mud_resistivity    .                                       : 
NGDU               .         НГДУ-2                        : 
ORIGINALWELLNAME   .         3888                          : 
Spud_date          .         1990                          : 1961
Viscosity          .                                       : 
X                  .m        41862.7                       : 46154
Y                  .m        84496.33                      : 85761.93
YEAR               .         2019г                         : 
Исправлено         .         14                            : 
~Parameter Information Block
#_______________________________________________________________________________
#
#PARAMETER_NAME    .UNIT     VALUE                         : DESCRIPTION
#_______________________________________________________________________________
SET                .         LQC_KAZNIPI_Petrel            : 
TLFamily_CALI      .         Caliper                       : 
TLFamily_CILD      .         Conductivity                  : 
TLFamily_COLL      .         Net Reservoir Flag            : 
TLFamily_CSAT      .         Fluid Code                    : 
TLFamily_DEPT      .         Measured Depth                : 
TLFamily_GR        .         Russian Gamma Ray             : 
TLFamily_GZ1       .         Gradient 045                  : 
TLFamily_GZ2       .         Gradient 105                  : 
TLFamily_GZ3       .         Gradient 225                  : 
TLFamily_GZ4       .         Gradient 425                  : 
TLFamily_GZ5       .         Gradient 850                  : 
TLFamily_LLS       .         Lateral Log Resistivity       : 
TLFamily_MINV      .         Micro Gradient Resistivity    : 
TLFamily_MNOR      .         Micro Resistivity             : 
TLFamily_NGLD      .         Neutron Gamma                 : 
TLFamily_OGZ       .         Gradient Inverted 225         : 
TLFamily_PHIE      .         Effective Porosity            : 
TLFamily_PHIEN     .         Effective Porosity            : 
TLFamily_PHIT      .         Porosity                      : 
TLFamily_PRMB      .         Permeability                  : 
TLFamily_PRMB_DGR  .         Permeability                  : 
TLFamily_RT        .         Formation Resistivity         : 
TLFamily_SOIL_ARCHIE .         Oil Saturation                : 
TLFamily_SOIL_DW   .         Oil Saturation                : 
TLFamily_SP        .         Spontaneous Potential         : 
TLFamily_VSH_FIN   .         Shale Volume                  : 
TLFamily_VSH_GR    .         Shale Volume                  : 
TLFamily_VSH_SP    .         Shale Volume                  : 
~Curve Information
#_______________________________________________________________________________
#
#LOGNAME           .UNIT     LOG_ID                        : DESCRIPTION
#_______________________________________________________________________________
DEPT               .M                                      : Колонка глубины 
CALI               .м                                      : Каверномер 
CILD               .мСм/м                                  : Индукционный каротаж 
COLL               .unitless                               : Описание 
CSAT               .unitless                               : Описание 
GR                 .uR/h                                   : Гамма каротаж 
GZ1                .Ohmm                                   : Градиент-зонд  длиной 0.45м 
GZ2                .Ohmm                                   : Градиент-зонд  длиной 1.05м 
GZ3                .Ohmm                                   : Градиент-зонд  длиной 2.25м 
GZ4                .Ohmm                                   : Градиент-зонд  длиной 4.5м 
GZ5                .Ohmm                                   : Градиент-зонд  длиной 8.5м 
LLS                .Ohmm                                   : Боковой каротаж 
MINV               .Ohmm                                   : Микро-градиент зонд 
MNOR               .Ohmm                                   : Микро-потенциал зонд 
NGLD               .у.е.                                   : Показания зонда НГК-60 аппаратуры ДРСТ-3-90 
OGZ                .Ohmm                                   :  
PHIE               .v/v                                    : Описание 
PHIEN              .v/v                                    :  
PHIT               .v/v                                    : Описание 
PRMB               .mD                                     :  
PRMB_DGR           .mD                                     :  
RT                 .ohmm                                   : УЭС пласта 
SOIL_ARCHIE        .v/v                                    :  
SOIL_DW            .v/v                                    :  
SP                 .мВ                                     : Потенциал самополяризации 
VSH_FIN            .v/v                                    : Описание 
VSH_GR             .v/v                                    : Shale volume 
VSH_SP             .v/v                                    : Shale Volume 
~Ascii
# ...
1004.9     0.233      238.7326   -9999      -9999      4.402105   -9999      -9999      4.620903   -9999      -9999      4.626      2.44       1.205      1.739765   3.429484   0.1245402  0.1245402  0.2211278  0.5674729  93.13733   4.2        0.3001764  0.4833908  48.82739   0.2926896  0.1018721  0.4835072 
1005.1     0.234      247.1492   -9999      -9999      4.531354   -9999      -9999      5.017738   -9999      -9999      4.631      1.855      1.307      1.716582   3.401282   0.1301418  0.1301418  0.2282124  0.7206097  77.6893    4.055      0.3152889  0.493059   48.83534   0.2971837  0.1097025  0.4846648 
1005.3     0.235      258.5771   -9999      -9999      4.73556    -9999      -9999      5.332946   -9999      -9999      3.676      1.774      1.337      1.680142   3.295829   0.13809    0.13809    0.2393487  1.011393   58.33395   3.921      0.3394088  0.5107162  49.0094    0.3068444  0.1233189  0.49037   
1005.5     0.237      272.4077   -9999      -9999      5.002658   -9999      -9999      5.536736   -9999      -9999      3.298      1.335      1.33       1.632317   3.062138   0.1476315  0.1476315  0.253964   1.519329   40.10109   3.735      0.3623757  0.5289438  49.34817   0.3222198  0.1437117  0.500728  
1005.7     0.24       287.6485   -9999      -9999      5.312219   -9999      -9999      5.621418   -9999      -9999      2.816      1.844      1.192      1.577417   2.828032   0.1573852  0.1573852  0.2707413  2.303102   25.97258   3.266      0.3577387  0.527473   49.83097   0.3435033  0.1716012  0.5154053 
1005.9     0.258      303.1129   -9999      -9999      5.640087   -9999      -9999      5.512273   -9999      -9999      2.19       1.614      0.647      1.521404   2.637494   0.1656349  0.1656349  0.2878589  3.274294   16.39524   2.722      0.3308569  0.5112057  50.42289   0.3703759  0.2070639  0.5336879 
1006.1     0.289      317.6713   -9999      -9999      5.962893   -9999      -9999      4.935994   -9999      -9999      1.703      0.469      0.553      1.470443   2.496843   0.1708128  0.1708128  0.3034326  4.083434   10.42329   2.52       0.324555   0.513873   51.08302   0.4018782  0.2491316  0.5546249 
1006.3     0.302      330.4778   -9999      -9999      6.261716   -9999      -9999      4.399566   -9999      -9999      1.501      0.411      0.38       1.429343   2.372099   0.1719639  0.1719639  0.3159929  4.28891    6.853408   2.561      0.333561   0.5307454  51.77393   0.4364515  0.2956552  0.5772477 
1006.5     0.285      341.0755   -9999      -9999      6.523941   -9999      -9999      4.088083   -9999      -9999      1.665      0.353      0.515      1.400605   2.245758   0.1689598  0.1689598  0.324775   3.773137   4.743638   2.636      0.3323572  0.5420065  52.46759   0.4721676  0.3435858  0.6007493 
1006.7     0.275      349.3641   -9999      -9999      6.742063   -9999      -9999      3.851009   -9999      -9999      2.09       0.708      0.642      1.384239   2.285803   0.1624987  0.1624987  0.3297765  2.864366   3.49294    2.608      0.3058255  0.5369514  53.1442    0.5069025  0.3893239  0.6244812 
1006.9     0.285      355.4813   -9999      -9999      6.912159   -9999      -9999      3.878467   -9999      -9999      1.911      0.444      0.601      1.378277   2.42902    0.1538837  0.1538837  0.3315984  1.983613   2.751295   2.495      0.2568091  0.5183183  53.78894   0.5385296  0.429177   0.6478821 
1007.1     0.287      359.6526   -9999      -9999      7.032738   -9999      -9999      3.989447   -9999      -9999      1.988      1.363      0.66       1.379705   2.55732    0.1446751  0.1446751  0.3311623  1.339341   2.323051   2.437      0.2070708  0.500807   54.3876    0.5651128  0.4598753  0.6703502 
1007.3     0.283      362.1048   -9999      -9999      7.104015   -9999      -9999      3.961203   -9999      -9999      2.051      1.042      0.611      1.385442   2.6399     0.1363304  0.1363304  0.3294088  0.938268   2.101956   2.416      0.1615643  0.4858015  54.92315   0.5850862  0.4790448  0.6911277 
1007.5     0.28       363.0701   -9999      -9999      7.128171   -9999      -9999      3.705498   -9999      -9999      2.145      0.721      0.341      1.39302    2.667995   0.1299151  0.1299151  0.327093   0.7136744  2.031904   2.424      0.1269729  0.4752005  55.37567   0.5975089  0.4857212  0.7092966 
1007.7     0.275      362.8148   -9999      -9999      7.110079   -9999      -9999      3.456101   -9999      -9999      2.124      0.762      0.392      1.400706   2.677995   0.1259666  0.1259666  0.3247441  0.6030673  2.084147   2.458      0.1090297  0.4705654  55.72785   0.602356   0.4807121  0.724     
1007.9     0.271      361.6461   -9999      -9999      7.057646   -9999      -9999      3.351089   -9999      -9999      2.2        1.164      0.619      1.407532   2.793236   0.1244567  0.1244567  0.3226582  0.5654553  2.243262   2.494      0.1057449  0.469932   55.97161   0.6006106  0.4664855  0.7347356 
1008.1     0.271      359.9018   -9999      -9999      6.981073   -9999      -9999      3.210822   -9999      -9999      2.308      1.378      0.65       1.412951   2.985955   0.1249852  0.1249852  0.3210021  0.5783461  2.49771    2.53       0.1150112  0.4727865  56.11118   0.5939906  0.4464619  0.7415193 
1008.3     0.271      357.9099   -9999      -9999      6.891617   -9999      -9999      3.021279   -9999      -9999      2.444      0.523      0.703      1.416545   3.086432   0.1270102  0.1270102  0.3199037  0.6305152  2.831755   2.563      0.1326038  0.4780864  56.16276   0.5845258  0.4241552  0.7448963 
1008.5     0.275      355.9066   -9999      -9999      6.799702   -9999      -9999      2.819227   -9999      -9999      2.542      0.908      0.851      1.418168   3.094475   0.1299627  0.1299627  0.3194077  0.7151245  3.221568   2.594      0.1545746  0.4850255  56.15001   0.574076   0.4023958  0.7457563 
1008.7     0.278      353.9917   -9999      -9999      6.713034   -9999      -9999      2.679686   -9999      -9999      2.401      1.271      0.438      1.41797    3.043257   0.1333643  0.1333643  0.3194685  0.8267767  3.638155   2.601      0.1744315  0.4906245  56.09611   0.563952   0.382902   0.7450021 
1008.9     0.279      352.1697   -9999      -9999      6.635824   -9999      -9999      2.62647    -9999      -9999      2.164      1.36       0.813      1.41639    2.990967   0.1368673  0.1368673  0.3199511  0.960001   4.054448   2.555      0.1860781  0.4914343  56.01715   0.5547995  0.3663324  0.7432666 
1009.1     0.281      350.4409   -9999      -9999      6.568978   -9999      -9999      2.616499   -9999      -9999      2.087      0.927      0.695      1.414129   2.962967   0.1402338  0.1402338  0.3206423  1.108228   4.453138   2.511      0.1966005  0.4922912  55.91983   0.5466923  0.3525673  0.7408172 
1009.3     0.279      348.8642   -9999      -9999      6.511691   -9999      -9999      2.63942    -9999      -9999      2.027      0.32       0.517      1.411961   2.965454   0.1432974  0.1432974  0.3213047  1.262913   4.825881   2.564      0.2192708  0.5022438  55.80389   0.5394161  0.3411828  0.7376494 
1009.5     0.273      347.5641   -9999      -9999      6.463181   -9999      -9999      2.66       -9999      -9999      2.295      0.865      0.83       1.410536   2.998455   0.1459203  0.1459203  0.3217401  1.412395   5.165799   2.658      0.244383   0.5148467  55.66863   0.5327873  0.3318305  0.733744  
1009.7     0.27       346.7063   -9999      -9999      6.424431   -9999      -9999      2.669981   -9999      -9999      2.422      1.411      0.92       1.410272   3.035431   0.1479496  0.1479496  0.321821   1.540083   5.454447   2.7        0.2588904  0.5212039  55.51694   0.526883   0.3245445  0.7292215 
1009.9     0.269      346.4348   -9999      -9999      6.398077   -9999      -9999      2.69048    -9999      -9999      2.531      1.604      1.067      1.411368   3.066482   0.1492123  0.1492123  0.3214859  1.625292   5.659929   2.682      0.2620426  0.5208263  55.35691   0.5220412  0.3196806  0.7244018 
