~Version
 VERS              .         2.0                           : CWLS LOG ASCII STANDARD - VERSION 2.0
 WRAP              .         NO                            : ONE LINE PER DEPTH STEP
 DLM               .         SPACE                         : DELIMITING CHARACTER(SPACE TAB OR COMMA)
~Well Information
#_______________________________________________________________________________
#
#PARAMETER_NAME    .UNIT     VALUE                         : DESCRIPTION
#_______________________________________________________________________________
STRT               .M        843.7                         : First reference value
STOP               .M        1227.9                        : Last reference value
STEP               .M        0.2                           : Step increment
NULL               .         -9999                         : Missing value
COMP               .                                       : Company
WELL               .         3888                          : Well name
FLD                .         Узень                         : Field
LOC                .                                       : Location
CNTY               .                                       : County
STAT               .                                       : State
CTRY               .                                       : Country
SRVC               .                                       : Service Company
DATE               .                                       : Date
UWI                .                                       : Unique Well ID
Block              .         7                             : 
Cartographic_reference_system .         GCS_WGS_1984                  : ESRI,PE_10_3_1- <?xml version="1.0" encoding="utf-16"?><ILateBoundCoordinateReferenceSystem name="GCS_WGS_1984"><AuthorityCode>EPSG,4326</AuthorityCode></ILateBoundCoordinateReferenceSystem>
Category           .         Нефтяная                      : 
Condition          .         В работе                      : 
Date               .         18.07.2007                    : 
EREF               .m        91.7                          : 100.8
Gorizont           .         14                            : 14
HZCS               .GCS_WGS_1984 WGS_1984_EASE-Grid_2.0_Global : ESRI,PE_10_3_1- <?xml version="1.0" encoding="utf-16"?><ILateBoundCoordinateReferenceSystem name="WGS_1984_EASE-Grid_2.0_Global"><AuthorityCode>EPSG,6933</AuthorityCode></ILateBoundCoordinateReferenceSystem>
Interpretator      .         Кушербаева А.С                : 
Kupol              .         основной                      : osnovnoi
LATI               .dega     0.6623499522                  : GCS_WGS_1984
LONG               .dega     0.4338720478                  : GCS_WGS_1984
Mud                .                                       : 
Mud_density        .                                       : 
Mud_resistivity    .                                       : 
NGDU               .         НГДУ-2                        : 
ORIGINALWELLNAME   .         3888                          : 
Spud_date          .         1990                          : 1961
Viscosity          .                                       : 
X                  .m        41862.7                       : 46154
Y                  .m        84496.33                      : 85761.93
YEAR               .         2019г                         : 
Исправлено         .         14                            : 
~Parameter Information Block
#_______________________________________________________________________________
#
#PARAMETER_NAME    .UNIT     VALUE                         : DESCRIPTION
#_______________________________________________________________________________
SET                .         LQC_KAZNIPI_Petrel            : 
TLFamily_CALI      .         Caliper                       : 
TLFamily_CILD      .         Conductivity                  : 
TLFamily_COLL      .         Net Reservoir Flag            : 
TLFamily_CSAT      .         Fluid Code                    : 
TLFamily_DEPT      .         Measured Depth                : 
TLFamily_GR        .         Russian Gamma Ray             : 
TLFamily_GZ1       .         Gradient 045                  : 
TLFamily_GZ2       .         Gradient 105                  : 
TLFamily_GZ3       .         Gradient 225                  : 
TLFamily_GZ4       .         Gradient 425                  : 
TLFamily_GZ5       .         Gradient 850                  : 
TLFamily_LLS       .         Lateral Log Resistivity       : 
TLFamily_MINV      .         Micro Gradient Resistivity    : 
TLFamily_MNOR      .         Micro Resistivity             : 
TLFamily_NGLD      .         Neutron Gamma                 : 
TLFamily_OGZ       .         Gradient Inverted 225         : 
TLFamily_PHIE      .         Effective Porosity            : 
TLFamily_PHIEN     .         Effective Porosity            : 
TLFamily_PHIT      .         Porosity                      : 
TLFamily_PRMB      .         Permeability                  : 
TLFamily_PRMB_DGR  .         Permeability                  : 
TLFamily_RT        .         Formation Resistivity         : 
TLFamily_SOIL_ARCHIE .         Oil Saturation                : 
TLFamily_SOIL_DW   .         Oil Saturation                : 
TLFamily_SP        .         Spontaneous Potential         : 
TLFamily_VSH_FIN   .         Shale Volume                  : 
TLFamily_VSH_GR    .         Shale Volume                  : 
TLFamily_VSH_SP    .         Shale Volume                  : 
~Curve Information
#_______________________________________________________________________________
#
#LOGNAME           .UNIT     LOG_ID                        : DESCRIPTION
#_______________________________________________________________________________
DEPT               .M                                      : Колонка глубины 
CALI               .м                                      : Каверномер 
CILD               .мСм/м                                  : Индукционный каротаж 
COLL               .unitless                               : Описание 
CSAT               .unitless                               : Описание 
GR                 .uR/h                                   : Гамма каротаж 
GZ1                .Ohmm                                   : Градиент-зонд  длиной 0.45м 
GZ2                .Ohmm                                   : Градиент-зонд  длиной 1.05м 
GZ3                .Ohmm                                   : Градиент-зонд  длиной 2.25м 
GZ4                .Ohmm                                   : Градиент-зонд  длиной 4.5м 
GZ5                .Ohmm                                   : Градиент-зонд  длиной 8.5м 
LLS                .Ohmm                                   : Боковой каротаж 
MINV               .Ohmm                                   : Микро-градиент зонд 
MNOR               .Ohmm                                   : Микро-потенциал зонд 
NGLD               .у.е.                                   : Показания зонда НГК-60 аппаратуры ДРСТ-3-90 
OGZ                .Ohmm                                   :  
PHIE               .v/v                                    : Описание 
PHIEN              .v/v                                    :  
PHIT               .v/v                                    : Описание 
PRMB               .mD                                     :  
PRMB_DGR           .mD                                     :  
RT                 .ohmm                                   : УЭС пласта 
SOIL_ARCHIE        .v/v                                    :  
SOIL_DW            .v/v                                    :  
SP                 .мВ                                     : Потенциал самополяризации 
VSH_FIN            .v/v                                    : Описание 
VSH_GR             .v/v                                    : Shale volume 
VSH_SP             .v/v                                    : Shale Volume 
~Ascii
# ...
1067.3     0.264      337.6956   -9999      -9999      8.896012   2.243978   3.574866   2.926983   2.005729   1.838967   2.615      0.507      1.101      1.436685   2.480415   0.1108968  0.1108968  0.3137492  0.3171287  1.378574   2.684      0.04471572 0.4579664  55.06569   0.6147043  0.569089   0.6603196 
1067.5     0.26       345.5955   -9999      -9999      9.139772   2.274408   3.651217   2.934499   2.071737   1.804853   2.308      0.505      0.76       1.422957   2.462998   0.1042813  0.1042813  0.3179443  0.2391668  1.045786   2.557      0          0.4375979  55.0076    0.6474637  0.6370521  0.6578754 
1067.7     0.261      353.0204   -9999      -9999      9.350294   2.211999   3.357953   2.911428   2.105      1.768952   2.107      0.491      0.716      1.414221   2.466      0.09634636 0.09634636 0.320614   0.1705008  0.8237908  2.514      0          0.4206468  54.99234   0.679599   0.7022453  0.6569528 
1067.9     0.265      359.3917   -9999      -9999      9.506206   2.003103   3.011254   2.870427   1.997769   1.743455   1.94       0.428      0.803      1.410153   2.466      0.08875192 0.08875192 0.3218574  0.1233272  0.6903542  2.461      0          0.4000015  55.03187   0.7063802  0.7547904  0.65797   
1068.1     0.271      364.2169   -9999      -9999      9.590468   1.863913   2.890351   2.821861   1.883459   1.711389   1.954      0.39       0.652      1.409827   2.518932   0.0833749  0.0833749  0.3219569  0.09805356 0.6274731  2.409      0          0.381444   55.1321    0.7229758  0.784807   0.6611447 
1068.3     0.275      367.1338   -9999      -9999      9.593474   1.791701   2.768697   2.816906   1.871      1.672892   1.939      0.332      0.65       1.412103   2.726897   0.08160759 0.08160759 0.3212612  0.09093447 0.6253388  2.371      0          0.3713523  55.29426   0.7262231  0.7858995  0.6665465 
1068.5     0.274      367.9415   -9999      -9999      9.514715   1.698017   2.634912   2.850481   1.871      1.658993   1.966      0.313      0.599      1.416006   2.975729   0.08380137 0.08380137 0.3200686  0.09985339 0.6837277  2.364      0          0.3740833  55.51649   0.7159612  0.7577689  0.6741535 
1068.7     0.27       366.6089   -9999      -9999      9.363122   1.688225   2.493479   2.822237   1.890894   1.668993   2.067      0.351      0.729      1.420903   3.137127   0.08917748 0.08917748 0.3185721  0.125586   0.8119002  2.391      0          0.3879981  55.79378   0.6951353  0.7064269  0.6838438 
1068.9     0.27       363.2579   -9999      -9999      9.155538   1.733935   2.391456   2.761912   2.000886   1.692893   2.214      0.392      0.831      1.426632   3.285655   0.09620941 0.09620941 0.3168214  0.1695078  1.027266   2.421      0          0.4046424  56.11633   0.6685212  0.6417171  0.6953252 
1069.1     0.275      358.1335   -9999      -9999      8.912203   1.764432   2.363888   2.718415   2.115401   1.730401   2.325      0.428      0.706      1.433477   3.446902   0.1032901  0.1032901  0.3147295  0.2292667  1.353508   2.452      0          0.4199378  56.46859   0.6407256  0.5733693  0.7080818 
1069.3     0.277      351.5452   -9999      -9999      8.651697   1.764432   2.396979   2.658221   2.136      1.767898   2.208      0.339      0.568      1.441911   3.588101   0.10927    0.10927    0.3121518  0.2958719  1.818404   2.544      0.007706859 0.4385037  56.82902   0.6147935  0.5082459  0.721341  
1069.5     0.271      343.8094   -9999      -9999      8.387985   1.736455   2.394467   2.622499   2.136      1.829495   2.057      0.458      0.7        1.452461   3.765409   0.1135835  0.1135835  0.3089281  0.3556308  2.451875   2.661      0.06064012 0.4547694  57.17019   0.5919533  0.4498513  0.7340554 
1069.7     0.257      335.208    -9999      -9999      8.128983   1.791672   2.350796   2.625      2.136      1.883471   2.33       0.565      1.04       1.465461   3.93626    0.1161838  0.1161838  0.3049552  0.3973423  3.288425   2.72       0.0884076  0.4605779  57.46255   0.5720345  0.3990348  0.7450342 
1069.9     0.244      325.9672   -9999      -9999      7.877985   1.95374    2.447023   2.61247    2.145977   1.903974   2.625      0.69       0.976      1.4809     4.053325   0.1173401  0.1173401  0.3002369  0.4174283  4.370573   2.759      0.1022539  0.4609539  57.68044   0.5542328  0.355272   0.7531935 
1070.1     0.242      316.2729   -9999      -9999      7.636664   2.110604   2.666097   2.561211   2.165977   1.924471   2.192      0.657      0.742      1.498368   4.135493   0.1174318  0.1174318  0.2948987  0.4190627  5.745454   2.801      0.1092019  0.4590045  57.80806   0.5377785  0.3177289  0.7578281 
1070.3     0.252      306.3218   -9999      -9999      7.407144   1.994684   2.689239   2.49737    2.186475   1.921956   2.163      0.448      0.64       1.517033   4.060682   0.1168413  0.1168413  0.2891947  0.4086409  7.452505   2.9        0.1197476  0.4606814  57.84472   0.5222831  0.2857091  0.7588571 
1070.5     0.247      296.3618   -9999      -9999      7.19397    1.944483   2.511504   2.435734   2.197      1.924438   2.398      0.896      1.007      1.535694   4.043001   0.1158923  0.1158923  0.283492   0.3924319  9.489289   3.035      0.1322014  0.4645109  57.80603   0.507878   0.2588672  0.7568888 
1070.7     0.234      286.7011   -9999      -9999      7.004949   2.098233   2.614592   2.386965   2.183961   1.994242   2.717      1.787      0.777      1.552966   4.174446   0.1148189  0.1148189  0.2782135  0.3748719  11.75645   3.237      0.1511974  0.4734824  57.72095   0.4951352  0.2371836  0.7530867 
1070.9     0.232      277.668    -9999      -9999      6.84991    2.11896    2.846      2.394412   2.181475   2.103794   2.835      2.679      1.3        1.567536   4.310463   0.1137786  0.1137786  0.2737609  0.3586029  14.01496   3.437      0.1681762  0.4820579  57.62389   0.4847949  0.2207611  0.7488288 
1071.1     0.232      269.5392   -9999      -9999      6.738074   2.205643   2.855983   2.415      2.21488    2.214779   3.7        3.57       1.361      1.578263   4.388988   0.1129245  0.1129245  0.270483   0.3457747  15.90894   3.508      0.1706947  0.4819722  57.54428   0.47745    0.2096255  0.7452744 
1071.3     0.232      262.482    -9999      -9999      6.67394    2.377999   3.12252    2.628557   2.27076    2.318524   3.913      3.498      1.129      1.584643   4.388989   0.1123461  0.1123461  0.268533   0.3373497  17.10843   3.553      0.1719452  0.4819256  57.49941   0.4732937  0.2034948  0.7430926 
1071.5     0.231      256.5409   -9999      -9999      6.654774   2.57472    3.580801   3.044139   2.336767   2.412542   3.265      3.108      0.946      1.587026   4.379      0.1120406  0.1120406  0.267805   0.3329831  17.48413   3.597      0.1747593  0.4837027  57.49068   0.4720131  0.2016978  0.7423285 
1071.7     0.231      251.6545   -9999      -9999      6.670601   2.74623    3.842287   3.366972   2.438024   2.523189   3.166      3.36       1.127      1.586385   4.442046   0.1119659  0.1119659  0.2680006  0.3319242  17.17331   3.675      0.1825508  0.4893218  57.50546   0.4728323  0.2031806  0.742484  
1071.9     0.232      247.7165   -9999      -9999      6.706078   2.837996   4.14865    3.601042   2.558492   2.618322   3.625      3.613      1.56       1.584077   4.546815   0.1120646  0.1120646  0.268706   0.3333234  16.49646   3.725      0.1883409  0.4937671  57.52427   0.4746709  0.2065442  0.7427976 
1072.1     0.232      244.6446   -9999      -9999      6.744455   2.986941   4.625882   3.795885   2.69269    2.679821   4.15       1.691      1.07       1.581354   4.523547   0.1123165  0.1123165  0.2695383  0.3369235  15.79429   3.705      0.1878774  0.4938124  57.53039   0.4764298  0.2102454  0.7426142 
1072.3     0.232      242.4067   -9999      -9999      6.771838   2.89036    4.49615    3.919877   2.808334   2.720982   2.972      0.755      0.994      1.578874   4.309459   0.1127892  0.1127892  0.270296   0.3437853  15.31164   3.746      0.1950109  0.4982583  57.51679   0.4772935  0.2129268  0.7416602 
