~Version
 VERS              .         2.0                           : CWLS LOG ASCII STANDARD - VERSION 2.0
 WRAP              .         NO                            : ONE LINE PER DEPTH STEP
 DLM               .         SPACE                         : DELIMITING CHARACTER(SPACE TAB OR COMMA)
~Well Information
#_______________________________________________________________________________
#
#PARAMETER_NAME    .UNIT     VALUE                         : DESCRIPTION
#_______________________________________________________________________________
STRT               .M        836.2                         : First reference value
STOP               .M        1231.4                        : Last reference value
STEP               .M        0.2                           : Step increment
NULL               .         -9999                         : Missing value
COMP               .                                       : Company
WELL               .         3891                          : Well name
FLD                .         Узень                         : Field
LOC                .                                       : Location
CNTY               .                                       : County
STAT               .                                       : State
CTRY               .                                       : Country
SRVC               .                                       : Service Company
DATE               .                                       : Date
UWI                .                                       : Unique Well ID
_скв_14_гор_       .         7                             : 
Block              .         7                             : 
Category           .         Нефтяная                      : 
Condition          .         В работе                      : 
Date               .         30.09.1990                    : 
EREF               .m        86.8                          : 100.8
Gorizont           .         14                            : 14
Interpretator      .         Бекбулатова А.А.              : 
Kupol              .         Основной                      : osnovnoi
METD               .         GZ1 GZ2                       : 
Mud                .         0                             : 
Mud_density        .         0                             : 
Mud_resistivity    .         0                             : 
NGDU               .         НГДУ-2                        : 
ORIGINALWELLNAME   .         3891                          : 
Spud_date          .         1990                          : 1961
Viscosity          .         0                             : 
X                  .m        42675                         : 46154
Y                  .m        84511.63                      : 85761.93
YEAR               .         2019                          : 
Отбивки_горизонт_14 .         1                             : 
~Parameter Information Block
#_______________________________________________________________________________
#
#PARAMETER_NAME    .UNIT     VALUE                         : DESCRIPTION
#_______________________________________________________________________________
SET                .         LQC_KAZNIPI_Petrel            : 
TLFamily_CALI      .         Caliper                       : 
TLFamily_CILD      .         Conductivity                  : 
TLFamily_COLL      .         Net Reservoir Flag            : 
TLFamily_CSAT      .         Fluid Code                    : 
TLFamily_DEPT      .         Measured Depth                : 
TLFamily_GR        .         Russian Gamma Ray             : 
TLFamily_GZ1       .         Gradient 045                  : 
TLFamily_GZ2       .         Gradient 105                  : 
TLFamily_GZ3       .         Gradient 225                  : 
TLFamily_GZ4       .         Gradient 425                  : 
TLFamily_GZ5       .         Gradient 850                  : 
TLFamily_LLS       .         Lateral Log Resistivity       : 
TLFamily_MINV      .         Micro Gradient Resistivity    : 
TLFamily_MNOR      .         Micro Resistivity             : 
TLFamily_NGLD      .         Neutron Gamma                 : 
TLFamily_OGZ       .         Gradient Inverted 225         : 
TLFamily_PHIE      .         Effective Porosity            : 
TLFamily_PHIEN     .         Effective Porosity            : 
TLFamily_PHIT      .         Porosity                      : 
TLFamily_PRMB      .         Permeability                  : 
TLFamily_PRMB_DGR  .         Permeability                  : 
TLFamily_RT        .         Formation Resistivity         : 
TLFamily_SOIL_ARCHIE .         Oil Saturation                : 
TLFamily_SOIL_DW   .         Oil Saturation                : 
TLFamily_SP        .         Spontaneous Potential         : 
TLFamily_VSH_FIN   .         Shale Volume                  : 
TLFamily_VSH_GR    .         Shale Volume                  : 
TLFamily_VSH_SP    .         Shale Volume                  : 
~Curve Information
#_______________________________________________________________________________
#
#LOGNAME           .UNIT     LOG_ID                        : DESCRIPTION
#_______________________________________________________________________________
DEPT               .M                                      : Колонка глубины 
CALI               .м                                      : Каверномер 
CILD               .мСм/м                                  : Индукционный каротаж 
COLL               .unitless                               : Описание 
CSAT               .unitless                               : Описание 
GR                 .uR/h                                   : Гамма каротаж 
GZ1                .Ом·м                                   :  
GZ2                .Ом·м                                   :  
GZ3                .Ом·м                                   :  
GZ4                .Ом·м                                   :  
GZ5                .Ом·м                                   :  
LLS                .Ohmm                                   : Боковой каротаж 
MINV               .Ohmm                                   : Микро-градиент зонд 
MNOR               .Ohmm                                   : Микро-потенциал зонд 
NGLD               .у.е.                                   : Показания зонда НГК-60 аппаратуры ДРСТ-3-90 
OGZ                .Ом·м                                   :  
PHIE               .v/v                                    : Описание 
PHIEN              .v/v                                    :  
PHIT               .v/v                                    : Описание 
PRMB               .mD                                     :  
PRMB_DGR           .mD                                     :  
RT                 .ohmm                                   : УЭС пласта 
SOIL_ARCHIE        .v/v                                    :  
SOIL_DW            .v/v                                    :  
SP                 .мВ                                     : Потенциал самополяризации 
VSH_FIN            .v/v                                    : Описание 
VSH_GR             .v/v                                    : Shale volume 
VSH_SP             .v/v                                    : Shale Volume 
~Ascii
# ...
935        0.216      205        -9999      -9999      4.245      -9999      -9999      6.174      -9999      -9999      5.15       3.315      2.919      1.288      4.585      0.08634948 0.08634948 0.241444   0.1113166  3.067354   4.878      0.1025403  0.4796824  30.473     0.4699834  0.4105369  0.5294299 
935.2000000000001 0.217      212        -9999      -9999      4.42       -9999      -9999      5.773      -9999      -9999      3.914      2.455      2.527      1.288      4.585      0.0841837  0.0841837  0.241444   0.1014949  2.588722   4.717      0.06789896 0.4661437  29.973     0.4765464  0.4399847  0.513108  
935.4      0.217      203        -9999      -9999      4.195      -9999      -9999      5.346      -9999      -9999      3.22       1.885      2.059      1.303      4.635      0.07934291 0.07934291 0.2365765  0.08256219 3.219696   4.926      0.03832515 0.459601   31.097     0.4764655  0.4024912  0.5504397 
935.6      0.219      192        -9999      -9999      4.082      -9999      -9999      5.723      -9999      -9999      4.522      1.835      1.718      1.343      4.986      0.06712756 0.06712756 0.2235965  0.04903694 3.592447   5.208      0          0.4226396  31.472     0.4741482  0.3848839  0.5634126 
935.8      0.211      194        -9999      -9999      3.982      -9999      -9999      6.576      -9999      -9999      6.351      2.138      1.655      1.442      5.111      0.04031129 0.04031129 0.191471   0.01562503 3.95815    5.155      0          0.2427929  30.972     0.4580597  0.3699458  0.5461736 
936        0.213      198        -9999      -9999      3.844      -9999      -9999      7.003      -9999      -9999      7.553      2.581      1.706      1.458      4.585      0.03975795 0.03975795 0.186279   0.01526061 4.524734   5.051      0          0.2168529  30.722     0.4440032  0.3502786  0.5377278 
936.2000000000001 0.215      214        -9999      -9999      3.819      -9999      -9999      7.028      -9999      -9999      5.824      4.795      3.449      1.474      4.034      0.03444069 0.03444069 0.181087   0.01216419 4.635734   4.673      0          0.1343455  30.847     0.4443828  0.3468292  0.5419363 
936.4      0.215      231        -9999      -9999      4.032      -9999      -9999      6.576      -9999      -9999      5.003      2.632      2.034      1.347      3.533      0.06921469 0.06921469 0.2222985  0.05360212 3.770868   4.329      0          0.3707636  31.097     0.4638903  0.377341   0.5504397 
936.6      0.214      242        -9999      -9999      4.245      -9999      -9999      5.798      -9999      -9999      3.363      2.961      1.706      1.166      3.257      0.1203313  0.1203313  0.281033   0.474227   3.067354   4.132      0.27336    0.5448667  31.472     0.4869747  0.4105369  0.5634126 
936.8      0.214      249        -9999      -9999      4.345      -9999      -9999      5.145      -9999      -9999      2.974      4.011      2.615      1.132      3.383      0.1271838  0.1271838  0.292066   0.6352     2.783954   4.016      0.2982645  0.5585511  31.721     0.4996431  0.427114   0.5721721 
937        0.215      252        -9999      -9999      4.42       -9999      -9999      4.794      -9999      -9999      2.89       2.404      1.731      1.134      3.683      0.1236783  0.1236783  0.291417   0.5469908  2.588722   3.968      0.2769042  0.5506388  31.846     0.5082992  0.4399847  0.5766135 
937.2000000000001 0.215      252        -9999      -9999      4.508      -9999      -9999      4.894      -9999      -9999      3.197      2.151      2.287      1.181      4.059      0.1058533  0.1058533  0.2761655  0.2557513  2.377035   3.968      0.1719382  0.5079014  31.846     0.5160976  0.4555817  0.5766135 
937.4      0.215      256        -9999      -9999      4.332      -9999      -9999      4.995      -9999      -9999      3.83       2.202      1.807      1.218      4.335      0.1003607  0.1003607  0.264159   0.2023396  2.819261   3.906      0.1261702  0.4798221  31.597     0.4963585  0.4249217  0.5677954 
937.6      0.212      264        -9999      -9999      4.232      -9999      -9999      5.02       -9999      -9999      4.33       2.088      1.643      1.228      4.234      0.1012783  0.1012783  0.260914   0.2104158  3.106255   3.788      0.1205005  0.4693204  31.347     0.4837444  0.4084297  0.5590591 
937.8      0.213      269        -9999      -9999      4.145      -9999      -9999      4.919      -9999      -9999      3.387      2.138      2.022      1.161      4.084001   0.1267234  0.1267234  0.2826555  0.6228498  3.379605   3.717      0.2700168  0.5309851  31.097     0.4725214  0.3946031  0.5504397 
938        0.215      257        -9999      -9999      4.044      -9999      -9999      4.995      -9999      -9999      3.747      2.784      2.337      1.181      3.959      0.1241883  0.1241883  0.2761655  0.5590189  3.727253   3.891      0.272835   0.5313495  30.847     0.460537   0.3791377  0.5419363 
938.2000000000001 0.213      261        -9999      -9999      3.957      -9999      -9999      5.045      -9999      -9999      4.207      2.72       1.92       1.204      3.809      0.115299   0.115299   0.268702   0.3826261  4.05525    3.831      0.2185651  0.5060263  31.472     0.4648577  0.3663028  0.5634126 
938.4      0.213      264        -9999      -9999      4.032      -9999      -9999      4.718999   -9999      -9999      3.538      2.619      2.022      1.201      3.658      0.1115353  0.1115353  0.2696755  0.3258835  3.770868   3.788      0.1913765  0.4982665  31.971     0.4792128  0.377341   0.5810845 
938.6      0.212      266        -9999      -9999      4.107      -9999      -9999      4.392      -9999      -9999      3.243      2.859      2.262      1.186      3.583      0.112284   0.112284   0.274543   0.3364571  3.506426   3.759      0.19317    0.5032322  32.346     0.491694   0.3887118  0.5946763 
938.8      0.212      263        -9999      -9999      4.044      -9999      -9999      4.091      -9999      -9999      2.869      3.593      2.893      1.226      3.783      0.09859651 0.09859651 0.261563   0.1876742  3.727253   3.802      0.1012587  0.4660236  32.721     0.4938379  0.3791377  0.6085381 
939        0.213      253        -9999      -9999      3.932      -9999      -9999      3.991      -9999      -9999      3.29       2.062      1.883      1.216      3.959      0.1014411  0.1014411  0.264808   0.2118813  4.154736   3.953      0.1391271  0.4857154  33.22      0.4950514  0.3626956  0.6274071 
939.2000000000001 0.213      249        -9999      -9999      4.032      -9999      -9999      4.016      -9999      -9999      3.914      3.252      2.944      1.243      4.034      0.09026305 0.09026305 0.2560465  0.1315373  3.770868   4.016      0.05403024 0.4565172  33.22      0.5023741  0.377341   0.6274071 
939.4      0.213      249        -9999      -9999      4.032      -9999      -9999      4.116      -9999      -9999      4.028      2.657      1.832      1.268      3.984      0.08526395 0.08526395 0.247934   0.1062804  3.770868   4.016      0.005903393 0.4338572  32.721     0.4929395  0.377341   0.6085381 
939.6      0.212      251        -9999      -9999      4.019      -9999      -9999      4.242      -9999      -9999      3.942      2.113      1.428      1.281      3.834      0.07903909 0.07903909 0.2437155  0.08149927 3.818691   3.984      0          0.4099402  33.095     0.4990194  0.3754041  0.6226347 
939.8      0.213      253        -9999      -9999      4.107      -9999      -9999      4.392      -9999      -9999      4.087      2.062      1.592      1.273      3.708      0.08022173 0.08022173 0.2463115  0.08571544 3.506426   3.953      0          0.4147264  32.97      0.5033023  0.3887118  0.6178929 
940        0.213      262        -9999      -9999      4.245      -9999      -9999      4.468      -9999      -9999      4.177      2.429      1.958      1.213      3.608      0.09763412 0.09763412 0.2657815  0.180127   3.067354   3.817      0.09522115 0.4706909  32.721     0.5095375  0.4105369  0.6085381 
