~Version
 VERS              .         2.0                           : CWLS LOG ASCII STANDARD - VERSION 2.0
 WRAP              .         NO                            : ONE LINE PER DEPTH STEP
 DLM               .         SPACE                         : DELIMITING CHARACTER(SPACE TAB OR COMMA)
~Well Information
#_______________________________________________________________________________
#
#PARAMETER_NAME    .UNIT     VALUE                         : DESCRIPTION
#_______________________________________________________________________________
STRT               .M        836.2                         : First reference value
STOP               .M        1231.4                        : Last reference value
STEP               .M        0.2                           : Step increment
NULL               .         -9999                         : Missing value
COMP               .                                       : Company
WELL               .         3891                          : Well name
FLD                .         Узень                         : Field
LOC                .                                       : Location
CNTY               .                                       : County
STAT               .                                       : State
CTRY               .                                       : Country
SRVC               .                                       : Service Company
DATE               .                                       : Date
UWI                .                                       : Unique Well ID
_скв_14_гор_       .         7                             : 
Block              .         7                             : 
Category           .         Нефтяная                      : 
Condition          .         В работе                      : 
Date               .         30.09.1990                    : 
EREF               .m        86.8                          : 100.8
Gorizont           .         14                            : 14
Interpretator      .         Бекбулатова А.А.              : 
Kupol              .         Основной                      : osnovnoi
METD               .         GZ1 GZ2                       : 
Mud                .         0                             : 
Mud_density        .         0                             : 
Mud_resistivity    .         0                             : 
NGDU               .         НГДУ-2                        : 
ORIGINALWELLNAME   .         3891                          : 
Spud_date          .         1990                          : 1961
Viscosity          .         0                             : 
X                  .m        42675                         : 46154
Y                  .m        84511.63                      : 85761.93
YEAR               .         2019                          : 
Отбивки_горизонт_14 .         1                             : 
~Parameter Information Block
#_______________________________________________________________________________
#
#PARAMETER_NAME    .UNIT     VALUE                         : DESCRIPTION
#_______________________________________________________________________________
SET                .         LQC_KAZNIPI_Petrel            : 
TLFamily_CALI      .         Caliper                       : 
TLFamily_CILD      .         Conductivity                  : 
TLFamily_COLL      .         Net Reservoir Flag            : 
TLFamily_CSAT      .         Fluid Code                    : 
TLFamily_DEPT      .         Measured Depth                : 
TLFamily_GR        .         Russian Gamma Ray             : 
TLFamily_GZ1       .         Gradient 045                  : 
TLFamily_GZ2       .         Gradient 105                  : 
TLFamily_GZ3       .         Gradient 225                  : 
TLFamily_GZ4       .         Gradient 425                  : 
TLFamily_GZ5       .         Gradient 850                  : 
TLFamily_LLS       .         Lateral Log Resistivity       : 
TLFamily_MINV      .         Micro Gradient Resistivity    : 
TLFamily_MNOR      .         Micro Resistivity             : 
TLFamily_NGLD      .         Neutron Gamma                 : 
TLFamily_OGZ       .         Gradient Inverted 225         : 
TLFamily_PHIE      .         Effective Porosity            : 
TLFamily_PHIEN     .         Effective Porosity            : 
TLFamily_PHIT      .         Porosity                      : 
TLFamily_PRMB      .         Permeability                  : 
TLFamily_PRMB_DGR  .         Permeability                  : 
TLFamily_RT        .         Formation Resistivity         : 
TLFamily_SOIL_ARCHIE .         Oil Saturation                : 
TLFamily_SOIL_DW   .         Oil Saturation                : 
TLFamily_SP        .         Spontaneous Potential         : 
TLFamily_VSH_FIN   .         Shale Volume                  : 
TLFamily_VSH_GR    .         Shale Volume                  : 
TLFamily_VSH_SP    .         Shale Volume                  : 
~Curve Information
#_______________________________________________________________________________
#
#LOGNAME           .UNIT     LOG_ID                        : DESCRIPTION
#_______________________________________________________________________________
DEPT               .M                                      : Колонка глубины 
CALI               .м                                      : Каверномер 
CILD               .мСм/м                                  : Индукционный каротаж 
COLL               .unitless                               : Описание 
CSAT               .unitless                               : Описание 
GR                 .uR/h                                   : Гамма каротаж 
GZ1                .Ом·м                                   :  
GZ2                .Ом·м                                   :  
GZ3                .Ом·м                                   :  
GZ4                .Ом·м                                   :  
GZ5                .Ом·м                                   :  
LLS                .Ohmm                                   : Боковой каротаж 
MINV               .Ohmm                                   : Микро-градиент зонд 
MNOR               .Ohmm                                   : Микро-потенциал зонд 
NGLD               .у.е.                                   : Показания зонда НГК-60 аппаратуры ДРСТ-3-90 
OGZ                .Ом·м                                   :  
PHIE               .v/v                                    : Описание 
PHIEN              .v/v                                    :  
PHIT               .v/v                                    : Описание 
PRMB               .mD                                     :  
PRMB_DGR           .mD                                     :  
RT                 .ohmm                                   : УЭС пласта 
SOIL_ARCHIE        .v/v                                    :  
SOIL_DW            .v/v                                    :  
SP                 .мВ                                     : Потенциал самополяризации 
VSH_FIN            .v/v                                    : Описание 
VSH_GR             .v/v                                    : Shale volume 
VSH_SP             .v/v                                    : Shale Volume 
~Ascii
# ...
1153.4     0.21       416        -9999      -9999      7.627      2.192      3.04       2.46       2.792      1.082      2.18       1.404      1.112      1.112      2.957      0.1126784  0.1126784  0.298556   0.3421655  1.040881   2.404      0.02169715 0.4191343  11.989     0.5632653  0.6382764  0.4882542 
1153.6     0.21       420        -9999      -9999      7.865      1.839      2.838      2.309      2.465      1.057      1.928      1.48       1.061      1.099      3.132      0.08091249 0.08091249 0.3027745  0.08827823 0.6681315  2.381      0          0.3521698  14.737     0.6723092  0.7649426  0.5796757 
1153.8     0.211      422        -9999      -9999      8.072      1.612      2.66       2.209      2.34       1.031      1.9        1.518      1.314      1.093      3.358      0.06625967 0.06625967 0.3047215  0.04725502 0.4543617  2.37       0          0.3119672  16.485     0.7226115  0.8        0.6452231 
1154       0.213      425        -9999      -9999      8.028      1.537      2.534      2.184      2.264      1.057      1.9        1.619      1.289      1.102      3.733      0.05671054 0.05671054 0.301801   0.03144668 0.4931701  2.353      0          0.2725662  17.484     0.7426984  0.8        0.6853967 
1154.2     0.214      422        -9999      -9999      7.803      1.512      2.407      2.133      2.239      1.132      1.807      1.822      1.453      1.122      4.335      0.06096611 0.06096611 0.295311   0.03770494 0.7499269  2.37       0          0.2790325  17.609     0.7101361  0.7297062  0.6905659 
1154.4     0.214      398        -9999      -9999      7.414      1.36       2.154      2.133      2.214      1.258      1.694      1.442      1.036      1.174      5.086      0.08078393 0.08078393 0.278437   0.08779555 1.547801   2.513      0          0.3325643  16.735     0.5989487  0.5428091  0.6550882 
1154.6     0.215      362        -9999      -9999      7.101      1.159      1.85       2.209      2.289      1.434      2.073      1.544      1.402      1.248      5.788      0.08670165 0.08670165 0.254424   0.1130012  2.772862   2.762      0          0.3405599  14.987     0.5082495  0.4278108  0.5886882 
1154.8     0.213      326        -9999      -9999      6.688      1.537      2.255      2.41       2.491      1.56       3.387      1.632      1.857      1.283      6.54       0.105724   0.105724   0.2430665  0.2543449  5.984667   3.067      0.07757331 0.4004714  12.988     0.4161894  0.3124804  0.5198984 
1155       0.206      292        1          2          6.299      2.035      2.711      2.661      2.717      1.66       5.076      1.645      2.097      1.293      6.388999   0.156955   0.156955   0.2398215  2.261237   12.35197   3.425      0.3791663  0.5102092  2.623      0.2511105  0.2324458  0.2697752 
1155.2     0.205      277        1          2          6.249      2.693      3.344      2.886      2.893      1.736      6.17       1.619      2.173      1.288      5.613      0.1698799  0.1698799  0.241444   3.92415    13.55769   3.61       0.4346435  0.5400469  -1.624     0.2168609  0.2237716  0.2099503 
1155.4     0.205      264        1          2          6.337      3.552      4.408      2.987      2.994      1.786      6.632      1.657      2.198      1.273      4.761      0.1761124  0.1761124  0.2463115  5.119015   11.50786   3.788      0.4643453  0.5627824  -3.872     0.2127246  0.2392625  0.1861868 
1155.6     0.205      257        1          2          6.525      4.031001   5.878      3.087      3.119      1.811      6.443      1.835      2.312      1.251      4.109      0.17867    0.17867    0.2534505  5.708996   8.107836   3.891      0.4776475  0.5782893  -4.871     0.2266075  0.2760437  0.1771713 
1155.8     0.205      253        1          2          6.475      4.358      7.271      3.213      3.119      1.761      5.782      1.746      2.211      1.271      3.558      0.1742276  0.1742276  0.2469605  4.723632   8.899275   3.953      0.4700126  0.5707501  -5.12      0.2204027  0.2657425  0.1750628 
1156       0.205      249        1          2          6.425      4.333      7.905      3.288      2.918      1.811      4.967      1.771      2.198      1.308      3.207      0.1636852  0.1636852  0.234954   3.013047   9.767954   4.016      0.4445404  0.5500299  -4.996     0.2159659  0.2558258  0.1761061 
1156.2     0.205      244        1          2          6.25       3.955      8.183999   3.439      2.943      1.912      4.457      1.715      2.211      1.308      2.881      0.1676676  0.1676676  0.234954   3.57082    13.53245   4.098      0.4611836  0.5589711  -4.121     0.2038983  0.2239419  0.1838548 
1156.4     0.205      253        1          2          6.074      4.006      8.69       3.765      3.019      1.987      5.003      1.291      1.908      1.338      2.631      0.1611695  0.1611695  0.225219   2.706496   18.78272   3.953      0.4328035  0.5320881  -3.247     0.1940895  0.1958827  0.1922962 
1156.6     0.205      274        6          6          5.974      4.207      9.146      4.041      2.943      2.063      5.34       1.531      1.744      1.37       2.38       0.1511822  0.1511822  0.214835   1.76774    22.62857   3.65       0.3774375  0.4859527  -2.123     0.1928874  0.1815359  0.2042389 
1156.8     0.208      308        6          6          5.848      3.451      7.245999   4.292      2.642      2.138      4.689      2.708      2.78       1.372      2.13       0.1500462  0.1500462  0.214186   1.684138   28.61473   3.247      0.3379675  0.45231    -0.5       0.1943631  0.1649453  0.2237808 
1157       0.213      341        6          6          6.55       3.678      7.600999   4.844      2.365      2.164      10.838     3.174      3.943      1.295      1.879      0.1499118  0.1499118  0.2391725  1.674514   7.73892    2.933      0.3050626  0.4598586  1.998      0.270487   0.2813432  0.2596307 
1157.2     0.215      375        6          6          7.277      4.711      9.476      5.472001   2.164      2.088      6.037      3.619      5.054      1.156      1.679      0.1494373  0.1494373  0.284278   1.640967   1.997775   2.667      0.2713479  0.4887901  5.745      0.4086081  0.4890925  0.3281237 
1157.4     0.214      400        7          7          7.402      4.358      7.829      5.748      2.314      2.289      2.932      3.087      2.944      1.037      1.979      0.1631655  0.1631655  0.3228935  2.946986   1.582789   2.5        0.304247   0.527924   9.991      0.4840245  0.5378771  0.4301718 
1157.6     0.214      417        7          7          7.349      3.225      6.055      5.045      2.164      2.566      1.886      2.353      1.769      1.006      2.656      0.1658688  0.1658688  0.332953   3.307124   1.747026   2.398      0.3005947  0.5299627  12.239     0.5063158  0.5166248  0.4960067 
1157.8     0.215      426        7          7          7.302      1.99       4.687      5.013      2.44       2.767      1.833      1.941      1.603      0.973      3.859      0.1665017  0.1665017  0.3436615  3.397608   1.906873   2.347      0.295843   0.5347155  14.612     0.5368479  0.498482   0.575214  
1158       0.217      414        7          7          7.101      2.192      5.65       5.072001   2.893      2.969      2.028      1.569      1.453      1.012      5.312      0.1640297  0.1640297  0.331006   3.057634   2.772862   2.415      0.2961071  0.5279009  14.862     0.5059889  0.4278108  0.5841671 
1158.2     0.218      407        7          7          7.201      1.763      4.028      4.806      3.296      3.019      2.149      1.126      1.226      1.062      5.888      0.1440666  0.1440666  0.314781   1.305029   2.301598   2.457      0.21823    0.4926074  14.55      0.5173165  0.4616209  0.5730119 
1158.4     0.225      401        -9999      -9999      7.552      1.864      2.964      3.765      2.868      2.792      1.999      0.962      1.162      1.109      5.976      0.08864653 0.08864653 0.2995295  0.1227741  1.196946   2.494      0          0.3813249  17.235     0.6390393  0.6028838  0.6751949 
