~Version
 VERS              .         2.0                           : CWLS LOG ASCII STANDARD - VERSION 2.0
 WRAP              .         NO                            : ONE LINE PER DEPTH STEP
 DLM               .         SPACE                         : DELIMITING CHARACTER(SPACE TAB OR COMMA)
~Well Information
#_______________________________________________________________________________
#
#PARAMETER_NAME    .UNIT     VALUE                         : DESCRIPTION
#_______________________________________________________________________________
STRT               .M        836.2                         : First reference value
STOP               .M        1231.4                        : Last reference value
STEP               .M        0.2                           : Step increment
NULL               .         -9999                         : Missing value
COMP               .                                       : Company
WELL               .         3891                          : Well name
FLD                .         Узень                         : Field
LOC                .                                       : Location
CNTY               .                                       : County
STAT               .                                       : State
CTRY               .                                       : Country
SRVC               .                                       : Service Company
DATE               .                                       : Date
UWI                .                                       : Unique Well ID
_скв_14_гор_       .         7                             : 
Block              .         7                             : 
Category           .         Нефтяная                      : 
Condition          .         В работе                      : 
Date               .         30.09.1990                    : 
EREF               .m        86.8                          : 100.8
Gorizont           .         14                            : 14
Interpretator      .         Бекбулатова А.А.              : 
Kupol              .         Основной                      : osnovnoi
METD               .         GZ1 GZ2                       : 
Mud                .         0                             : 
Mud_density        .         0                             : 
Mud_resistivity    .         0                             : 
NGDU               .         НГДУ-2                        : 
ORIGINALWELLNAME   .         3891                          : 
Spud_date          .         1990                          : 1961
Viscosity          .         0                             : 
X                  .m        42675                         : 46154
Y                  .m        84511.63                      : 85761.93
YEAR               .         2019                          : 
Отбивки_горизонт_14 .         1                             : 
~Parameter Information Block
#_______________________________________________________________________________
#
#PARAMETER_NAME    .UNIT     VALUE                         : DESCRIPTION
#_______________________________________________________________________________
SET                .         LQC_KAZNIPI_Petrel            : 
TLFamily_CALI      .         Caliper                       : 
TLFamily_CILD      .         Conductivity                  : 
TLFamily_COLL      .         Net Reservoir Flag            : 
TLFamily_CSAT      .         Fluid Code                    : 
TLFamily_DEPT      .         Measured Depth                : 
TLFamily_GR        .         Russian Gamma Ray             : 
TLFamily_GZ1       .         Gradient 045                  : 
TLFamily_GZ2       .         Gradient 105                  : 
TLFamily_GZ3       .         Gradient 225                  : 
TLFamily_GZ4       .         Gradient 425                  : 
TLFamily_GZ5       .         Gradient 850                  : 
TLFamily_LLS       .         Lateral Log Resistivity       : 
TLFamily_MINV      .         Micro Gradient Resistivity    : 
TLFamily_MNOR      .         Micro Resistivity             : 
TLFamily_NGLD      .         Neutron Gamma                 : 
TLFamily_OGZ       .         Gradient Inverted 225         : 
TLFamily_PHIE      .         Effective Porosity            : 
TLFamily_PHIEN     .         Effective Porosity            : 
TLFamily_PHIT      .         Porosity                      : 
TLFamily_PRMB      .         Permeability                  : 
TLFamily_PRMB_DGR  .         Permeability                  : 
TLFamily_RT        .         Formation Resistivity         : 
TLFamily_SOIL_ARCHIE .         Oil Saturation                : 
TLFamily_SOIL_DW   .         Oil Saturation                : 
TLFamily_SP        .         Spontaneous Potential         : 
TLFamily_VSH_FIN   .         Shale Volume                  : 
TLFamily_VSH_GR    .         Shale Volume                  : 
TLFamily_VSH_SP    .         Shale Volume                  : 
~Curve Information
#_______________________________________________________________________________
#
#LOGNAME           .UNIT     LOG_ID                        : DESCRIPTION
#_______________________________________________________________________________
DEPT               .M                                      : Колонка глубины 
CALI               .м                                      : Каверномер 
CILD               .мСм/м                                  : Индукционный каротаж 
COLL               .unitless                               : Описание 
CSAT               .unitless                               : Описание 
GR                 .uR/h                                   : Гамма каротаж 
GZ1                .Ом·м                                   :  
GZ2                .Ом·м                                   :  
GZ3                .Ом·м                                   :  
GZ4                .Ом·м                                   :  
GZ5                .Ом·м                                   :  
LLS                .Ohmm                                   : Боковой каротаж 
MINV               .Ohmm                                   : Микро-градиент зонд 
MNOR               .Ohmm                                   : Микро-потенциал зонд 
NGLD               .у.е.                                   : Показания зонда НГК-60 аппаратуры ДРСТ-3-90 
OGZ                .Ом·м                                   :  
PHIE               .v/v                                    : Описание 
PHIEN              .v/v                                    :  
PHIT               .v/v                                    : Описание 
PRMB               .mD                                     :  
PRMB_DGR           .mD                                     :  
RT                 .ohmm                                   : УЭС пласта 
SOIL_ARCHIE        .v/v                                    :  
SOIL_DW            .v/v                                    :  
SP                 .мВ                                     : Потенциал самополяризации 
VSH_FIN            .v/v                                    : Описание 
VSH_GR             .v/v                                    : Shale volume 
VSH_SP             .v/v                                    : Shale Volume 
~Ascii
# ...
1044.2     0.215      358        -9999      -9999      6.475      1.965      3.142      2.435      2.138      1.686      2.727      2.037      1.579      1.151      2.355      0.09971953 0.09971953 0.2859005  0.1968819  1.800019   2.793      0          0.4141726  28.849     0.5641847  0.5103593  0.6180101 
1044.4     0.226      362        -9999      -9999      6.362      1.94       3.04       2.435      2.138      1.686      2.36       1.632      1.643      1.097      2.355      0.1206365  0.1206365  0.3034235  0.4804386  2.088801   2.762      0.1241036  0.4702025  29.099     0.5539001  0.4802744  0.6275258 
1044.6     0.235      358        -9999      -9999      6.249      2.074      3.319      2.435      2.164      1.686      2.43       1.746      1.769      1.077      2.33       0.1310052  0.1310052  0.3099135  0.7476398  2.423915   2.793      0.1890589  0.4956189  29.224     0.5421463  0.451963   0.6323297 
1044.8     0.216      363        -9999      -9999      6.45       1.965      2.99       2.485      2.164      1.686      2.708      1.582      1.579      1.062      2.28       0.1297244  0.1297244  0.314781   0.7078947  1.86026    2.755      0.1768152  0.4953142  28.849     0.5607775  0.503545   0.6180101 
1045       0.23       367        -9999      -9999      6.512      2.015      3.218      2.51       2.138      1.686      2.394      1.784      1.769      1.079      2.23       0.1213915  0.1213915  0.3092645  0.4961614  1.714423   2.725      0.1233196  0.4742552  28.849     0.5693122  0.5206141  0.6180101 
1045.2     0.225      381        -9999      -9999      6.475      2.066      3.344      2.585      2.113      1.635      2.555      1.809      1.655      1.057      2.18       0.12944    0.12944    0.3164035  0.6993604  1.800019   2.625      0.1563187  0.4842369  28.974     0.566556   0.5103593  0.6227527 
1045.4     0.225      398        -9999      -9999      6.713      2.015      3.192      2.585      2.088      1.509      2.464      2.05       1.44       1.027      2.08       0.1300116  0.1300116  0.3261385  0.71662    1.315752   2.513      0.1421763  0.483756   28.599     0.5943239  0.5800312  0.6086165 
1045.6     0.231      417        -9999      -9999      6.888      1.839      2.99       2.435      2.038      1.56       2.149      1.442      1.238      0.998      1.979      0.1299796  0.1299796  0.335549   0.7156419  1.044957   2.398      0.1229233  0.4809869  28.599     0.6229375  0.6372585  0.6086165 
1045.8     0.237      427        -9999      -9999      7.151      1.637      2.787      2.309      1.912      1.509      1.914      1.24       1.263      1.027      1.954      0.1022652  0.1022652  0.3261385  0.2194612  0.7390929  2.342      0          0.4182793  28.974     0.678404   0.7340552  0.6227527 
1046       0.238      435        -9999      -9999      7.439      1.512      2.635      2.184      1.836      1.484      1.807      1.404      1.352      0.998      1.979      0.1023548  0.1023548  0.335549   0.2203014  0.5058281  2.299      0          0.4240137  28.724     0.7066491  0.8        0.6132981 
1046.2     0.24       430        -9999      -9999      7.214      1.486      2.534      2.184      1.811      1.459      1.971      1.607      1.39       0.968      2.055      0.1218515  0.1218515  0.345284   0.5059927  0.6802546  2.326      0.05881378 0.4706319  28.225     0.6770681  0.7593464  0.5947897 
1046.4     0.236      435        -9999      -9999      7.039      1.512      2.407      2.184      1.862      1.459      2.073      1.657      1.466      0.995      2.105      0.1212877  0.1212877  0.3365225  0.4939697  0.8565392  2.299      0.04981224 0.4577013  28.724     0.6522267  0.6911553  0.6132981 
1046.6     0.233      440        -9999      -9999      7.277      1.587      2.382      2.184      1.887      1.484      2.073      1.708      1.415      1.01       2.155      0.09691394 0.09691394 0.331655   0.1746785  0.6261011  2.273      0          0.4054989  29.349     0.7113366  0.7855086  0.6371644 
1046.8     0.228      444        -9999      -9999      7.402      1.587      2.331      2.184      1.912      1.535      2.088      1.885      1.352      1.025      2.205      0.08476793 0.08476793 0.3267875  0.1040557  0.5310825  2.252      0          0.370037   30.098     0.7333927  0.8        0.6667854 
1047       0.225      436        -9999      -9999      7.339      1.587      2.204      2.184      1.912      1.585      2.149      1.948      1.276      1.03       2.255      0.07893112 0.07893112 0.325165   0.08112483 0.5770175  2.294      0          0.3595675  30.722     0.7461633  0.8        0.6923265 
1047.2     0.23       429        -9999      -9999      7.226      1.637      2.356      2.184      1.937      1.635      2.057      2.05       1.289      1.025      2.305      0.08729838 0.08729838 0.3267875  0.115914   0.6695909  2.331      0          0.386572   30.598     0.7257246  0.7642614  0.6871879 
1047.4     0.227      421        -9999      -9999      7.089      1.637      2.407      2.184      1.987      1.686      2.149      1.948      1.327      1.012      2.355      0.09962405 0.09962405 0.331006   0.1960818  0.8019628  2.375      0          0.422947   30.722     0.7011575  0.7099883  0.6923265 
1047.6     0.23       414        -9999      -9999      7.302      1.637      2.508      2.133      2.038      1.686      2.165      1.759      1.504      1.052      2.405      0.07242921 0.07242921 0.318026   0.06147842 0.6058261  2.415      0          0.3492765  30.722     0.7442327  0.7961387  0.6923265 
1047.8     0.222      405        -9999      -9999      7.264      1.587      2.483      2.133      2.063      1.711      2.228      1.809      1.718      1.097      2.43       0.06218083 0.06218083 0.3034235  0.03970981 0.636911   2.469      0          0.3041434  30.473     0.7310384  0.7800372  0.6820396 
1048       0.216      401        -9999      -9999      7.051      1.738      2.61       2.133      2.113      1.711      2.447      2.164      1.782      1.094      2.405      0.07538432 0.07538432 0.304397   0.06973623 0.8431115  2.494      0          0.3479354  30.722     0.6939778  0.6956292  0.6923265 
1048.2     0.216      402        -9999      -9999      6.851      1.839      2.686      2.133      2.113      1.711      2.708      1.986      1.617      1.134      2.28       0.07410663 0.07410663 0.291417   0.0660378  1.097128   2.488      0          0.3236932  30.722     0.6585163  0.6247061  0.6923265 
1048.4     0.221      407        -9999      -9999      6.537      1.889      2.736      2.133      2.138      1.711      2.343      1.518      1.516      1.065      2.205      0.1116498  0.1116498  0.3138075  0.3274789  1.658904   2.457      0.01012133 0.434893   30.847     0.612599   0.5276595  0.6975386 
1048.6     0.224      410        -9999      -9999      6.575      1.839      2.762      2.133      2.138      1.736      2.212      1.835      1.39       1.077      2.23       0.1059587  0.1059587  0.3099135  0.2569033  1.577941   2.439      0          0.4176381  30.847     0.6180449  0.5385512  0.6975386 
1048.8     0.222      409        -9999      -9999      6.75       1.763      2.787      2.108      2.138      1.736      2.165      2.113      1.352      1.084      2.28       0.0923081  0.0923081  0.307642   0.1435252  1.253185   2.445      0          0.3874481  31.222     0.652527   0.591686   0.7133679 
1049       0.221      407        -9999      -9999      6.876      1.738      2.787      2.108      2.113      1.736      2.18       1.822      1.402      1.084      2.355      0.08546489 0.08546489 0.307642   0.1071952  1.0616     2.457      0          0.373277   31.222     0.673264   0.6331601  0.7133679 
1049.2     0.226      407        -9999      -9999      6.813      1.713      2.66       2.058      2.113      1.711      2.196      1.695      1.478      1.099      2.455      0.08407694 0.08407694 0.3027745  0.1010339  1.153421   2.457      0          0.3631139  31.222     0.6627199  0.6120719  0.7133679 
