~Version
 VERS              .         2.0                           : CWLS LOG ASCII STANDARD - VERSION 2.0
 WRAP              .         NO                            : ONE LINE PER DEPTH STEP
 DLM               .         SPACE                         : DELIMITING CHARACTER(SPACE TAB OR COMMA)
~Well Information
#_______________________________________________________________________________
#
#PARAMETER_NAME    .UNIT     VALUE                         : DESCRIPTION
#_______________________________________________________________________________
STRT               .M        836.2                         : First reference value
STOP               .M        1231.4                        : Last reference value
STEP               .M        0.2                           : Step increment
NULL               .         -9999                         : Missing value
COMP               .                                       : Company
WELL               .         3891                          : Well name
FLD                .         Узень                         : Field
LOC                .                                       : Location
CNTY               .                                       : County
STAT               .                                       : State
CTRY               .                                       : Country
SRVC               .                                       : Service Company
DATE               .                                       : Date
UWI                .                                       : Unique Well ID
_скв_14_гор_       .         7                             : 
Block              .         7                             : 
Category           .         Нефтяная                      : 
Condition          .         В работе                      : 
Date               .         30.09.1990                    : 
EREF               .m        86.8                          : 100.8
Gorizont           .         14                            : 14
Interpretator      .         Бекбулатова А.А.              : 
Kupol              .         Основной                      : osnovnoi
METD               .         GZ1 GZ2                       : 
Mud                .         0                             : 
Mud_density        .         0                             : 
Mud_resistivity    .         0                             : 
NGDU               .         НГДУ-2                        : 
ORIGINALWELLNAME   .         3891                          : 
Spud_date          .         1990                          : 1961
Viscosity          .         0                             : 
X                  .m        42675                         : 46154
Y                  .m        84511.63                      : 85761.93
YEAR               .         2019                          : 
Отбивки_горизонт_14 .         1                             : 
~Parameter Information Block
#_______________________________________________________________________________
#
#PARAMETER_NAME    .UNIT     VALUE                         : DESCRIPTION
#_______________________________________________________________________________
SET                .         LQC_KAZNIPI_Petrel            : 
TLFamily_CALI      .         Caliper                       : 
TLFamily_CILD      .         Conductivity                  : 
TLFamily_COLL      .         Net Reservoir Flag            : 
TLFamily_CSAT      .         Fluid Code                    : 
TLFamily_DEPT      .         Measured Depth                : 
TLFamily_GR        .         Russian Gamma Ray             : 
TLFamily_GZ1       .         Gradient 045                  : 
TLFamily_GZ2       .         Gradient 105                  : 
TLFamily_GZ3       .         Gradient 225                  : 
TLFamily_GZ4       .         Gradient 425                  : 
TLFamily_GZ5       .         Gradient 850                  : 
TLFamily_LLS       .         Lateral Log Resistivity       : 
TLFamily_MINV      .         Micro Gradient Resistivity    : 
TLFamily_MNOR      .         Micro Resistivity             : 
TLFamily_NGLD      .         Neutron Gamma                 : 
TLFamily_OGZ       .         Gradient Inverted 225         : 
TLFamily_PHIE      .         Effective Porosity            : 
TLFamily_PHIEN     .         Effective Porosity            : 
TLFamily_PHIT      .         Porosity                      : 
TLFamily_PRMB      .         Permeability                  : 
TLFamily_PRMB_DGR  .         Permeability                  : 
TLFamily_RT        .         Formation Resistivity         : 
TLFamily_SOIL_ARCHIE .         Oil Saturation                : 
TLFamily_SOIL_DW   .         Oil Saturation                : 
TLFamily_SP        .         Spontaneous Potential         : 
TLFamily_VSH_FIN   .         Shale Volume                  : 
TLFamily_VSH_GR    .         Shale Volume                  : 
TLFamily_VSH_SP    .         Shale Volume                  : 
~Curve Information
#_______________________________________________________________________________
#
#LOGNAME           .UNIT     LOG_ID                        : DESCRIPTION
#_______________________________________________________________________________
DEPT               .M                                      : Колонка глубины 
CALI               .м                                      : Каверномер 
CILD               .мСм/м                                  : Индукционный каротаж 
COLL               .unitless                               : Описание 
CSAT               .unitless                               : Описание 
GR                 .uR/h                                   : Гамма каротаж 
GZ1                .Ом·м                                   :  
GZ2                .Ом·м                                   :  
GZ3                .Ом·м                                   :  
GZ4                .Ом·м                                   :  
GZ5                .Ом·м                                   :  
LLS                .Ohmm                                   : Боковой каротаж 
MINV               .Ohmm                                   : Микро-градиент зонд 
MNOR               .Ohmm                                   : Микро-потенциал зонд 
NGLD               .у.е.                                   : Показания зонда НГК-60 аппаратуры ДРСТ-3-90 
OGZ                .Ом·м                                   :  
PHIE               .v/v                                    : Описание 
PHIEN              .v/v                                    :  
PHIT               .v/v                                    : Описание 
PRMB               .mD                                     :  
PRMB_DGR           .mD                                     :  
RT                 .ohmm                                   : УЭС пласта 
SOIL_ARCHIE        .v/v                                    :  
SOIL_DW            .v/v                                    :  
SP                 .мВ                                     : Потенциал самополяризации 
VSH_FIN            .v/v                                    : Описание 
VSH_GR             .v/v                                    : Shale volume 
VSH_SP             .v/v                                    : Shale Volume 
~Ascii
# ...
1002.6     0.258      446        -9999      -9999      4.946      -9999      -9999      1.782      -9999      -9999      2.117      1.151      1.238      1.017      3.583      0.1498624  0.1498624  0.3293835  1.670985   1.554636   2.242      0.200338   0.4846247  30.972     0.5440035  0.5418334  0.5461736 
1002.8     0.27       435        -9999      -9999      5.021      -9999      -9999      1.707      -9999      -9999      1.971      1.594      1.213      1.062      3.834      0.1311532  0.1311532  0.314781   0.7523724  1.445613   2.299      0.1123739  0.4497407  31.222     0.5564479  0.558161   0.5547349 
1003       0.252      414        -9999      -9999      5.034      -9999      -9999      1.832      -9999      -9999      2.028      1.657      1.251      1.114      4.285      0.1159158  0.1159158  0.297907   0.3928257  1.427509   2.415      0.0341434  0.4184065  30.847     0.5514885  0.5610408  0.5419363 
1003.2     0.235      385        -9999      -9999      4.853      -9999      -9999      1.908      -9999      -9999      2.277      1.619      2.148      1.156      4.761      0.110751   0.110751   0.284278   0.315163   1.701311   2.597      0.02871733 0.4125323  30.473     0.5258394  0.5222489  0.5294299 
1003.4     0.221      356        -9999      -9999      4.671      -9999      -9999      1.958      -9999      -9999      2.611      1.911      2.085      1.206      5.337      0.1025427  0.1025427  0.268053   0.2220738  2.029595   2.809      0          0.3970014  30.098     0.5015464  0.4859467  0.5171461 
1003.6     0.213      331        -9999      -9999      4.307      -9999      -9999      2.033      -9999      -9999      3.017      2.214      2.426      1.276      5.688      0.0925722  0.0925722  0.245338   0.1451509  2.888421   3.021      0          0.3615743  29.723     0.4629267  0.4207373  0.505116  
1003.8     0.218      320        -9999      -9999      4.044      -9999      -9999      2.108      -9999      -9999      3.487      2.429      1.769      1.328      5.962999   0.08385728 0.08385728 0.228464   0.1000918  3.727253   3.125      0          0.3192653  29.474     0.4382022  0.3791377  0.4972668 
1004       0.209      317        -9999      -9999      3.881      -9999      -9999      2.133      -9999      -9999      3.614      1.974      1.44       1.367      5.813001   0.0770271  0.0770271  0.2158085  0.07479747 4.365313   3.155      0          0.2756591  29.099     0.4205497  0.3554468  0.4856526 
1004.2     0.214      316        -9999      -9999      3.907      -9999      -9999      2.083      -9999      -9999      2.974      2.973      2.489      1.4        5.462      0.06696682 0.06696682 0.2051     0.0487019  4.256659   3.165      0          0.2151572  28.849     0.4185854  0.359124   0.4780469 
1004.4     0.221      286        -9999      -9999      3.881      -9999      -9999      2.159      -9999      -9999      2.36       3.758      3.614      1.375      5.763      0.08168989 0.08168989 0.2132125  0.09125424 4.365313   3.497      0          0.3209351  27.6       0.3985533  0.3554468  0.4416599 
1004.6     0.212      254        -9999      -9999      3.969      -9999      -9999      2.384      -9999      -9999      3.412      3.024      2.944      1.427      6.214      0.07145224 0.07145224 0.1963385  0.05896942 4.008348   3.937      0          0.2921397  25.602     0.3784432  0.3680469  0.3888394 
1004.8     0.209      238        -9999      -9999      3.618      -9999      -9999      2.56       -9999      -9999      5.076      1.835      1.832      1.521      5.987999   0.05514611 0.05514611 0.1658355  0.02941696 5.63305    4.202      0          0.1628506  23.978     0.3354224  0.3203026  0.3505421 
1005       0.21       231        -9999      -9999      2.992      -9999      -9999      2.736      -9999      -9999      4.362      3.075      2.982      1.611      5.487      0.04110473 0.04110473 0.1366305  0.01616283 10.33481   4.329      0          0          22.979     0.2894721  0.2500004  0.3289438 
1005.2     0.211      221        -9999      -9999      2.579      -9999      -9999      3.012      -9999      -9999      3.775      3.872      2.413      1.65       5.512      0.03879522 0.03879522 0.123975   0.0146467  15.42353   4.525      0          0          21.73      0.2581206  0.2122947  0.3039465 
1005.4     0.21       208        -9999      -9999      2.629      -9999      -9999      3.363      -9999      -9999      4.896      3.125      2.502      1.631      5.588      0.04838876 0.04838876 0.1301405  0.02205136 14.69376   4.808      0          0.04096805 20.357     0.2477325  0.2165384  0.2789266 
1005.6     0.209      202        -9999      -9999      2.666      -9999      -9999      3.715      -9999      -9999      5.699      2.164      2.161      1.658      5.362      0.04151918 0.04151918 0.121379   0.01645107 14.17605   4.95       0          0          19.482     0.2419994  0.2197333  0.2642656 
1005.8     0.209      199        -9999      -9999      2.767      -9999      -9999      4.166      -9999      -9999      4.588      3.1        2.514      1.695      4.761      0.02453106 0.02453106 0.1093725  0.007971367 12.85381   5.025      0          0          20.731     0.2570952  0.2286965  0.285494  
1006       0.21       198        -9999      -9999      3.03       -9999      -9999      4.593      -9999      -9999      4.932      4.137      2.881      1.611      4.485001   0.04538373 0.04538373 0.1366305  0.01939879 9.961017   5.051      0          0.07287354 21.481     0.2765054  0.2537894  0.2992215 
1006.2     0.208      198        -9999      -9999      3.205      -9999      -9999      4.945      -9999      -9999      4.237      2.429      2.767      1.529      4.159      0.06577596 0.06577596 0.1632395  0.04629013 8.406689   5.051      0          0.2753226  22.48      0.295344   0.2719937  0.3186943 
1006.4     0.207      202        -9999      -9999      3.393      -9999      -9999      5.145      -9999      -9999      5.456      3.492      3.02       1.482      3.783      0.07321607 0.07321607 0.178491   0.06357661 7.006051   4.95       0          0.3348616  23.729     0.3190149  0.2930078  0.3450221 
1006.6     0.211      205        -9999      -9999      3.418      -9999      -9999      5.421      -9999      -9999      3.858      3.517      3.26       1.472      3.383      0.07319448 0.07319448 0.181736   0.06351808 6.838295   4.878      0          0.3375223  24.478     0.3289137  0.2959219  0.3619055 
1006.8     0.211      218        -9999      -9999      3.543      -9999      -9999      5.748      -9999      -9999      4.425      1.366      1.365      1.437      3.207      0.07914951 0.07914951 0.1930935  0.08188398 6.057875   4.587      0.0034882  0.3611305  25.227     0.3452848  0.3109329  0.3796366 
1007       0.212      234        -9999      -9999      3.769      -9999      -9999      5.698      3.17       -9999      5.188      1.923      1.933      1.397      2.982      0.08425484 0.08425484 0.2060735  0.1018033  4.865972   4.274      0.02446542 0.3792599  25.977     0.3691475  0.3400321  0.3982629 
1007.2     0.217      243        -9999      -9999      4.007      -9999      -9999      5.221      3.094      -9999      3.151      1.961      2.451      1.357      3.082      0.08395029 0.08395029 0.2190535  0.1004896  3.863374   4.115      0.003818052 0.3907509  27.725     0.4094037  0.3736251  0.4451823 
1007.4     0.225      234        -9999      -9999      4.245      -9999      -9999      5.02       2.969      -9999      2.611      1.784      2.009      1.3        3.307      0.09865076 0.09865076 0.23755    0.188109   3.067354   4.274      0.1496895  0.4645779  27.226     0.4209068  0.4105369  0.4312768 
1007.6     0.21       229        -9999      -9999      4.52       -9999      -9999      5.546999   3.472      -9999      3.387      3.29       3.209      1.256      3.708      0.1051384  0.1051384  0.251828   0.2480712  2.349543   4.367      0.2036588  0.5013179  27.226     0.4445139  0.4577509  0.4312768 
