~Version
 VERS              .         2.0                           : CWLS LOG ASCII STANDARD - VERSION 2.0
 WRAP              .         NO                            : ONE LINE PER DEPTH STEP
 DLM               .         SPACE                         : DELIMITING CHARACTER(SPACE TAB OR COMMA)
~Well Information
#_______________________________________________________________________________
#
#PARAMETER_NAME    .UNIT     VALUE                         : DESCRIPTION
#_______________________________________________________________________________
STRT               .M        836.2                         : First reference value
STOP               .M        1231.4                        : Last reference value
STEP               .M        0.2                           : Step increment
NULL               .         -9999                         : Missing value
COMP               .                                       : Company
WELL               .         3891                          : Well name
FLD                .         Узень                         : Field
LOC                .                                       : Location
CNTY               .                                       : County
STAT               .                                       : State
CTRY               .                                       : Country
SRVC               .                                       : Service Company
DATE               .                                       : Date
UWI                .                                       : Unique Well ID
_скв_14_гор_       .         7                             : 
Block              .         7                             : 
Category           .         Нефтяная                      : 
Condition          .         В работе                      : 
Date               .         30.09.1990                    : 
EREF               .m        86.8                          : 100.8
Gorizont           .         14                            : 14
Interpretator      .         Бекбулатова А.А.              : 
Kupol              .         Основной                      : osnovnoi
METD               .         GZ1 GZ2                       : 
Mud                .         0                             : 
Mud_density        .         0                             : 
Mud_resistivity    .         0                             : 
NGDU               .         НГДУ-2                        : 
ORIGINALWELLNAME   .         3891                          : 
Spud_date          .         1990                          : 1961
Viscosity          .         0                             : 
X                  .m        42675                         : 46154
Y                  .m        84511.63                      : 85761.93
YEAR               .         2019                          : 
Отбивки_горизонт_14 .         1                             : 
~Parameter Information Block
#_______________________________________________________________________________
#
#PARAMETER_NAME    .UNIT     VALUE                         : DESCRIPTION
#_______________________________________________________________________________
SET                .         LQC_KAZNIPI_Petrel            : 
TLFamily_CALI      .         Caliper                       : 
TLFamily_CILD      .         Conductivity                  : 
TLFamily_COLL      .         Net Reservoir Flag            : 
TLFamily_CSAT      .         Fluid Code                    : 
TLFamily_DEPT      .         Measured Depth                : 
TLFamily_GR        .         Russian Gamma Ray             : 
TLFamily_GZ1       .         Gradient 045                  : 
TLFamily_GZ2       .         Gradient 105                  : 
TLFamily_GZ3       .         Gradient 225                  : 
TLFamily_GZ4       .         Gradient 425                  : 
TLFamily_GZ5       .         Gradient 850                  : 
TLFamily_LLS       .         Lateral Log Resistivity       : 
TLFamily_MINV      .         Micro Gradient Resistivity    : 
TLFamily_MNOR      .         Micro Resistivity             : 
TLFamily_NGLD      .         Neutron Gamma                 : 
TLFamily_OGZ       .         Gradient Inverted 225         : 
TLFamily_PHIE      .         Effective Porosity            : 
TLFamily_PHIEN     .         Effective Porosity            : 
TLFamily_PHIT      .         Porosity                      : 
TLFamily_PRMB      .         Permeability                  : 
TLFamily_PRMB_DGR  .         Permeability                  : 
TLFamily_RT        .         Formation Resistivity         : 
TLFamily_SOIL_ARCHIE .         Oil Saturation                : 
TLFamily_SOIL_DW   .         Oil Saturation                : 
TLFamily_SP        .         Spontaneous Potential         : 
TLFamily_VSH_FIN   .         Shale Volume                  : 
TLFamily_VSH_GR    .         Shale Volume                  : 
TLFamily_VSH_SP    .         Shale Volume                  : 
~Curve Information
#_______________________________________________________________________________
#
#LOGNAME           .UNIT     LOG_ID                        : DESCRIPTION
#_______________________________________________________________________________
DEPT               .M                                      : Колонка глубины 
CALI               .м                                      : Каверномер 
CILD               .мСм/м                                  : Индукционный каротаж 
COLL               .unitless                               : Описание 
CSAT               .unitless                               : Описание 
GR                 .uR/h                                   : Гамма каротаж 
GZ1                .Ом·м                                   :  
GZ2                .Ом·м                                   :  
GZ3                .Ом·м                                   :  
GZ4                .Ом·м                                   :  
GZ5                .Ом·м                                   :  
LLS                .Ohmm                                   : Боковой каротаж 
MINV               .Ohmm                                   : Микро-градиент зонд 
MNOR               .Ohmm                                   : Микро-потенциал зонд 
NGLD               .у.е.                                   : Показания зонда НГК-60 аппаратуры ДРСТ-3-90 
OGZ                .Ом·м                                   :  
PHIE               .v/v                                    : Описание 
PHIEN              .v/v                                    :  
PHIT               .v/v                                    : Описание 
PRMB               .mD                                     :  
PRMB_DGR           .mD                                     :  
RT                 .ohmm                                   : УЭС пласта 
SOIL_ARCHIE        .v/v                                    :  
SOIL_DW            .v/v                                    :  
SP                 .мВ                                     : Потенциал самополяризации 
VSH_FIN            .v/v                                    : Описание 
VSH_GR             .v/v                                    : Shale volume 
VSH_SP             .v/v                                    : Shale Volume 
~Ascii
# ...
961        0.213      322        -9999      -9999      5.159      -9999      -9999      3.79       -9999      -9999      3.747      1.468      1.339      1.07       2.556      0.1275615  0.1275615  0.312185   0.6455155  1.264595   3.106      0.2103804  0.5192344  30.473     0.5594651  0.5895002  0.5294299 
961.2000000000001 0.217      347        -9999      -9999      5.021      -9999      -9999      3.564      -9999      -9999      3.011      1.227      0.973      1.017      2.405      0.1450422  0.1450422  0.3293835  1.360477   1.445613   2.882      0.2687003  0.5398413  31.347     0.5586101  0.558161   0.5590591 
961.4      0.241      366        -9999      -9999      4.859      -9999      -9999      3.238      -9999      -9999      2.293      1.708      1.327      1.001      2.205      0.1545133  0.1545133  0.3345755  2.037599   1.691443   2.732      0.2903206  0.5429444  31.597     0.5456431  0.5234908  0.5677954 
961.6      0.254      373        -9999      -9999      4.683      -9999      -9999      3.037      -9999      -9999      2.134      1.974      1.402      0.985      2.305      0.1655183  0.1655183  0.3397675  3.258049   2.006121   2.681      0.3256608  0.5547852  31.597     0.528028   0.4882606  0.5677954 
961.8      0.253      380        -9999      -9999      4.746      -9999      -9999      2.886      -9999      -9999      2.212      1.999      1.491      0.968      2.355      0.166065   0.166065   0.345284   3.33492    1.887265   2.632      0.3217494  0.5556736  32.096     0.5430878  0.5005903  0.5855853 
962        0.248      377        -9999      -9999      4.896      -9999      -9999      2.786      -9999      -9999      2.36       1.594      1.314      0.973      2.455      0.1571321  0.1571321  0.3436615  2.278378   1.631848   2.653      0.2909367  0.5467499  32.471     0.5652406  0.5312145  0.5992668 
962.2000000000001 0.246      390        -9999      -9999      5.134      -9999      -9999      2.912      -9999      -9999      2.5        1.202      0.998      0.98       2.455      0.1454389  0.1454389  0.34139    1.383692   1.295618   2.564      0.2292927  0.5234849  32.596     0.5937912  0.5836951  0.6038873 
962.4      0.251      411        -9999      -9999      5.322      -9999      -9999      2.761      -9999      -9999      2.228      1          0.986      0.98       2.38       0.1379981  0.1379981  0.34139    1.007435   1.079755   2.433      0.1731214  0.5013061  32.596     0.6163392  0.6287911  0.6038873 
962.6      0.255      431        -9999      -9999      5.222      -9999      -9999      2.585      -9999      -9999      1.957      1.354      0.922      0.968      2.405      0.1428255  0.1428255  0.345284   1.23775    1.189671   2.32       0.1794062  0.4992999  33.095     0.6135106  0.6043865  0.6226347 
962.8      0.258      417        -9999      -9999      5.059      -9999      -9999      2.435      -9999      -9999      1.82       2.227      1.402      0.97       2.581      0.1522636  0.1522636  0.344635   1.851182   1.393328   2.398      0.2358387  0.5184581  32.471     0.5829437  0.5666206  0.5992668 
963        0.253      398        -9999      -9999      5.222      -9999      -9999      2.384      -9999      -9999      2.117      2.088      1.44       1          2.756      0.1370546  0.1370546  0.3349     0.9677038  1.189671   2.513      0.1806995  0.5020457  32.346     0.5995314  0.6043865  0.5946763 
963.2000000000001 0.242      381        -9999      -9999      4.984      -9999      -9999      2.435      -9999      -9999      2.5        1.86       1.263      1.05       3.107      0.1312959  0.1312959  0.318675   0.7569671  1.498407   2.625      0.166715   0.4892387  32.096     0.5678154  0.5500455  0.5855853 
963.4      0.231      375        -9999      -9999      5.184      -9999      -9999      2.485      -9999      -9999      2.849      2.202      1.478      1.072      3.207      0.1181598  0.1181598  0.311536   0.4322798  1.234315   2.667      0.09336602 0.4658941  31.846     0.5859883  0.5953631  0.5766135 
963.6      0.227      372        -9999      -9999      5.209      -9999      -9999      2.435      -9999      -9999      2.767      2.024      1.428      1.065      3.257      0.1194543  0.1194543  0.3138075  0.456817   1.204759   2.688      0.1052284  0.4725221  31.846     0.5889489  0.6012843  0.5766135 
963.8      0.229      368        -9999      -9999      5.072      -9999      -9999      2.384      -9999      -9999      2.747      2.277      1.504      1.04       3.282      0.134259   0.134259   0.32192    0.8589359  1.375879   2.717      0.1958598  0.505238   31.597     0.5686697  0.569544   0.5677954 
964        0.234      360        -9999      -9999      4.821      -9999      -9999      2.334      -9999      -9999      2.688      2.239      1.832      1.055      3.307      0.1353446  0.1353446  0.3170525  0.8996373  1.754916   2.778      0.2097566  0.5074345  32.096     0.5506302  0.5156751  0.5855853 
964.2000000000001 0.231      348        -9999      -9999      4.696      -9999      -9999      2.41       -9999      -9999      2.808      1.468      1.15       1.082      3.332      0.1314334  0.1314334  0.308291   0.7614185  1.980997   2.874      0.2021363  0.5017288  31.971     0.5359321  0.4907797  0.5810845 
964.4      0.225      346        -9999      -9999      4.783      -9999      -9999      2.435      -9999      -9999      2.974      1.67       1.137      1.06       3.383      0.1349924  0.1349924  0.31543    0.8862252  1.82077    2.89       0.2225164  0.5150424  32.096     0.5467808  0.5079762  0.5855853 
964.6      0.224      346        -9999      -9999      4.846      -9999      -9999      2.309      -9999      -9999      2.537      2.417      1.276      1.112      3.508      0.1145018  0.1145018  0.298556   0.3698358  1.712894   2.89       0.1026505  0.4667359  32.346     0.55774    0.5208037  0.5946763 
964.8      0.236      347        -9999      -9999      4.671      -9999      -9999      2.209      -9999      -9999      2.327      1.999      1.44       1.082      3.658      0.1245876  0.1245876  0.308291   0.568621   2.029595   2.882      0.1651754  0.4925567  33.22      0.5566769  0.4859467  0.6274071 
965        0.231      336        -9999      -9999      4.445      -9999      -9999      2.234      -9999      -9999      2.65       2.784      1.782      1.109      3.809      0.1258012  0.1258012  0.2995295  0.5988281  2.526735   2.976      0.1845686  0.4932294  32.721     0.5264493  0.4443606  0.6085381 
965.2000000000001 0.225      325        -9999      -9999      4.257      -9999      -9999      2.334      -9999      -9999      2.787      2.366      1.491      1.119      4.009      0.128582   0.128582   0.2962845  0.6742305  3.031878   3.077      0.2123818  0.5022225  32.596     0.5081895  0.4124917  0.6038873 
965.4      0.218      316        -9999      -9999      4.182      -9999      -9999      2.435      -9999      -9999      3.083      1.898      1.124      1.13       4.034      0.1285232  0.1285232  0.292715   0.6725435  3.260529   3.165      0.2224257  0.5053563  32.346     0.4975508  0.4004253  0.5946763 
965.6      0.217      327        -9999      -9999      4.107      -9999      -9999      2.51       -9999      -9999      2.91       2.303      1.756      1.141      3.984      0.1291291  0.1291291  0.2891455  0.6901479  3.506426   3.058      0.2130048  0.4937812  31.971     0.4848982  0.3887118  0.5810845 
965.8      0.227      313        -9999      -9999      4.007      -9999      -9999      2.56       -9999      -9999      2.611      2.708      1.478      1.146      4.059      0.1269958  0.1269958  0.287523   0.6301287  3.863374   3.195      0.2177575  0.4999025  32.471     0.4864459  0.3736251  0.5992668 
966        0.227      297        -9999      -9999      4.069      -9999      -9999      2.61       -9999      -9999      3.017      1.695      1.491      1.122      4.285      0.1362522  0.1362522  0.295311   0.9351451  3.638008   3.367      0.2821327  0.5333878  31.971     0.4819964  0.3829083  0.5810845 
