~Version
 VERS              .         2.0                           : CWLS LOG ASCII STANDARD - VERSION 2.0
 WRAP              .         NO                            : ONE LINE PER DEPTH STEP
 DLM               .         SPACE                         : DELIMITING CHARACTER(SPACE TAB OR COMMA)
~Well Information
#_______________________________________________________________________________
#
#PARAMETER_NAME    .UNIT     VALUE                         : DESCRIPTION
#_______________________________________________________________________________
STRT               .M        836.2                         : First reference value
STOP               .M        1231.4                        : Last reference value
STEP               .M        0.2                           : Step increment
NULL               .         -9999                         : Missing value
COMP               .                                       : Company
WELL               .         3891                          : Well name
FLD                .         Узень                         : Field
LOC                .                                       : Location
CNTY               .                                       : County
STAT               .                                       : State
CTRY               .                                       : Country
SRVC               .                                       : Service Company
DATE               .                                       : Date
UWI                .                                       : Unique Well ID
_скв_14_гор_       .         7                             : 
Block              .         7                             : 
Category           .         Нефтяная                      : 
Condition          .         В работе                      : 
Date               .         30.09.1990                    : 
EREF               .m        86.8                          : 100.8
Gorizont           .         14                            : 14
Interpretator      .         Бекбулатова А.А.              : 
Kupol              .         Основной                      : osnovnoi
METD               .         GZ1 GZ2                       : 
Mud                .         0                             : 
Mud_density        .         0                             : 
Mud_resistivity    .         0                             : 
NGDU               .         НГДУ-2                        : 
ORIGINALWELLNAME   .         3891                          : 
Spud_date          .         1990                          : 1961
Viscosity          .         0                             : 
X                  .m        42675                         : 46154
Y                  .m        84511.63                      : 85761.93
YEAR               .         2019                          : 
Отбивки_горизонт_14 .         1                             : 
~Parameter Information Block
#_______________________________________________________________________________
#
#PARAMETER_NAME    .UNIT     VALUE                         : DESCRIPTION
#_______________________________________________________________________________
SET                .         LQC_KAZNIPI_Petrel            : 
TLFamily_CALI      .         Caliper                       : 
TLFamily_CILD      .         Conductivity                  : 
TLFamily_COLL      .         Net Reservoir Flag            : 
TLFamily_CSAT      .         Fluid Code                    : 
TLFamily_DEPT      .         Measured Depth                : 
TLFamily_GR        .         Russian Gamma Ray             : 
TLFamily_GZ1       .         Gradient 045                  : 
TLFamily_GZ2       .         Gradient 105                  : 
TLFamily_GZ3       .         Gradient 225                  : 
TLFamily_GZ4       .         Gradient 425                  : 
TLFamily_GZ5       .         Gradient 850                  : 
TLFamily_LLS       .         Lateral Log Resistivity       : 
TLFamily_MINV      .         Micro Gradient Resistivity    : 
TLFamily_MNOR      .         Micro Resistivity             : 
TLFamily_NGLD      .         Neutron Gamma                 : 
TLFamily_OGZ       .         Gradient Inverted 225         : 
TLFamily_PHIE      .         Effective Porosity            : 
TLFamily_PHIEN     .         Effective Porosity            : 
TLFamily_PHIT      .         Porosity                      : 
TLFamily_PRMB      .         Permeability                  : 
TLFamily_PRMB_DGR  .         Permeability                  : 
TLFamily_RT        .         Formation Resistivity         : 
TLFamily_SOIL_ARCHIE .         Oil Saturation                : 
TLFamily_SOIL_DW   .         Oil Saturation                : 
TLFamily_SP        .         Spontaneous Potential         : 
TLFamily_VSH_FIN   .         Shale Volume                  : 
TLFamily_VSH_GR    .         Shale Volume                  : 
TLFamily_VSH_SP    .         Shale Volume                  : 
~Curve Information
#_______________________________________________________________________________
#
#LOGNAME           .UNIT     LOG_ID                        : DESCRIPTION
#_______________________________________________________________________________
DEPT               .M                                      : Колонка глубины 
CALI               .м                                      : Каверномер 
CILD               .мСм/м                                  : Индукционный каротаж 
COLL               .unitless                               : Описание 
CSAT               .unitless                               : Описание 
GR                 .uR/h                                   : Гамма каротаж 
GZ1                .Ом·м                                   :  
GZ2                .Ом·м                                   :  
GZ3                .Ом·м                                   :  
GZ4                .Ом·м                                   :  
GZ5                .Ом·м                                   :  
LLS                .Ohmm                                   : Боковой каротаж 
MINV               .Ohmm                                   : Микро-градиент зонд 
MNOR               .Ohmm                                   : Микро-потенциал зонд 
NGLD               .у.е.                                   : Показания зонда НГК-60 аппаратуры ДРСТ-3-90 
OGZ                .Ом·м                                   :  
PHIE               .v/v                                    : Описание 
PHIEN              .v/v                                    :  
PHIT               .v/v                                    : Описание 
PRMB               .mD                                     :  
PRMB_DGR           .mD                                     :  
RT                 .ohmm                                   : УЭС пласта 
SOIL_ARCHIE        .v/v                                    :  
SOIL_DW            .v/v                                    :  
SP                 .мВ                                     : Потенциал самополяризации 
VSH_FIN            .v/v                                    : Описание 
VSH_GR             .v/v                                    : Shale volume 
VSH_SP             .v/v                                    : Shale Volume 
~Ascii
# ...
1200.2     0.209      441        -9999      -9999      6.963      1.713      2.635      3.363      4.276999   0.679      2.18       1.442      1.63       1.226      1.779      0.1656447  0.1656447  0.261563   3.275668   3.585656   2.268      0.2812145  0.4406827  -2.872     0.2906615  0.3851814  0.1961417 
1200.4     0.208      449        -9999      -9999      6.963      1.738      2.483      3.137      4.101      0.679      2.117      1.278      1.466      1.212      1.779      0.1681474  0.1681474  0.266106   3.644655   3.585656   2.227      0.2844418  0.444692   -1.748     0.2968441  0.3851814  0.2085069 
1200.6     0.21       454        -9999      -9999      6.913      1.713      2.356      2.962      4.025      0.704      1.943      1.771      1.782      1.204      1.804      0.1716358  0.1716358  0.268702   4.229308   3.935663   2.203      0.293542   0.4494996  -0.999     0.29414    0.3708075  0.2174726 
1200.8     0.21       461        -9999      -9999      6.888      1.713      2.458      2.761      4.025      0.755      2.043      1.379      1.529      1.201      1.854      0.1752411  0.1752411  0.2696755  4.932284   4.123279   2.169      0.3011352  0.4510633  -1.748     0.2861649  0.3638229  0.2085069 
1201       0.209      466        -9999      -9999      6.688      1.663      2.204      2.41       3.623      0.855      2.134      1.222      1.46       1.213      1.854      0.1833047  0.1833047  0.2657815  6.956727   5.984667   2.146      0.3246179  0.4535716  -3.747     0.2499298  0.3124804  0.1873792 
1201.2     0.208      461        1          2          6.45       1.512      1.926      2.033      3.296      0.931      1.86       1.063      1.39       1.234      1.779      0.1882132  0.1882132  0.258967   8.576769   9.323505   2.169      0.3432784  0.4541684  -5.995     0.2144054  0.2607369  0.1680739 
1201.4     0.208      450        1          2          6.475      1.537      2.103      1.983      3.069      1.057      2.103      1.619      1.63       1.247      1.779      0.1861423  0.1861423  0.2547485  7.851728   8.899275   2.222      0.344389   0.4530106  -8.742     0.2078976  0.2657425  0.1500526 
1201.6     0.206      442        1          2          6.162      1.713      2.356      2.033      3.22       1.233      2.343      1.265      1.415      1.246      1.854      0.1973789  0.1973789  0.255073   12.67927   15.9429    2.262      0.382212   0.4714114  -10.74     0.1748306  0.209443   0.1402182 
1201.8     0.205      437        1          2          5.823      1.864      2.559      2.133      3.472      1.535      2.464      1.328      1.567      1.215      1.979      0.2161857  0.2161857  0.2651325  28.27753   29.97881   2.288      0.4323445  0.5054253  -12.114    0.1483236  0.1618384  0.1348089 
1202       0.205      436        1          2          6.174      1.99       2.635      2.309      3.547      1.937      2.611      1.341      1.668      1.195      2.03       0.2147196  0.2147196  0.2716225  26.5635    15.59049   2.294      0.4296714  0.5115076  -12.489    0.1724331  0.2113633  0.1335029 
1202.2     0.206      442        1          2          6.387      1.99       2.584      2.209      3.447      2.239      2.412      1.354      1.731      1.22       1.979      0.199953   0.199953   0.26351    14.15053   10.48444   2.262      0.3891445  0.4841069  -11.615    0.192597   0.2485372  0.1366567 
1202.4     0.205      434        1          2          6.487      1.94       2.66       2.184      3.245      2.516      2.244      1.43       1.769      1.209      1.954      0.1995137  0.1995137  0.2670795  13.88789   8.702552   2.304      0.3932343  0.4923429  -10.491    0.2047448  0.2681792  0.1413104 
1202.6     0.204      431        1          2          6.562      2.015      2.711      2.184      3.145      2.742      2.293      1.392      1.756      1.199      1.954      0.200161   0.200161   0.2703245  14.27664   7.567855   2.32       0.3969054  0.4983184  -10.491    0.2126166  0.2839228  0.1413104 
1202.8     0.205      434        1          2          6.65       1.94       2.635      2.159      3.044      2.918      2.26       1.354      1.744      1.172      1.979      0.2049977  0.2049977  0.279086   17.54737   6.423644   2.304      0.407396   0.5107474  -9.616     0.2245101  0.3035778  0.1454423 
1203       0.206      436        1          2          6.475      1.889      2.584      2.108      2.843      3.044      2.149      1.341      1.718      1.138      1.954      0.2213972  0.2213972  0.290119   35.31593   8.899275   2.294      0.4446829  0.5358104  -8.617     0.208248   0.2657425  0.1507535 
1203.2     0.206      439        1          2          6.481      1.94       2.61       2.108      2.692      3.119      2.228      1.366      1.668      1.111      1.954      0.2315162  0.2315162  0.2988805  54.37513   8.800361   2.278      0.4641258  0.5506697  -10.491    0.2041342  0.2669581  0.1413104 
1203.4     0.204      440        1          2          6.487      1.965      2.584      2.058      2.591      3.22       2.36       1.468      1.693      1.156      2.03       0.215715   0.215715   0.284278   27.71556   8.702552   2.273      0.4295077  0.522957   -9.242     0.2077666  0.2681792  0.147354  
1203.6     0.206      442        1          2          6.675      1.839      2.483      2.033      2.491      3.296      2.165      1.328      1.744      1.158      2.08       0.2067138  0.2067138  0.283629   18.87984   6.13136    2.262      0.4065821  0.5125496  -7.618     0.2330765  0.3094058  0.1567472 
1203.8     0.208      444        -9999      -9999      6.963      1.789      2.534      1.982      2.39       3.296      2.043      1.404      1.744      1.125      2.155      0.2055517  0.2055517  0.2943375  17.96691   3.585656   2.252      0.40242    0.5208189  -8.243     0.269048   0.3851814  0.1529146 
1204       0.208      444        -9999      -9999      6.963      1.763      2.483      1.982      2.34       3.296      2.117      1.506      1.68       1.095      2.23       0.2155258  0.2155258  0.3040725  27.49283   3.585656   2.252      0.4265794  0.5390044  -8.492     0.2683232  0.3851814  0.151465  
1204.2     0.208      442        1          2          6.55       1.688      2.407      1.982      2.264      3.296      2.073      1.303      1.579      1.142      2.28       0.2171714  0.2171714  0.288821   29.49166   7.73892    2.262      0.4315487  0.5275159  -8.246     0.21712    0.2813432  0.1528969 
1204.4     0.209      437        1          2          6.675      1.688      2.382      1.982      2.189      3.27       2.073      1.101      1.453      1.166      2.23       0.2045027  0.2045027  0.281033   17.18086   6.13136    2.288      0.404202   0.5105322  -7.993     0.2319099  0.3094058  0.154414  
1204.6     0.208      431        1          2          6.55       1.763      2.458      1.983      2.113      3.22       2.196      1.392      1.617      1.186      2.13       0.2034766  0.2034766  0.274543   16.44516   7.73892    2.32       0.4054735  0.5062219  -8.867     0.2153527  0.2813432  0.1493623 
1204.8     0.204      425        1          2          6.312      1.839      2.508      1.933      2.088      3.119      2.412      1.265      1.478      1.241      2.03       0.1953327  0.1953327  0.2566955  11.61967   12.05645   2.353      0.3880118  0.4813679  -11.49     0.1859478  0.2347557  0.1371399 
1205       0.203      420        1          2          6.086      1.965      2.483      1.882      2.013      2.969      2.5        1.151      1.504      1.288      1.854      0.1877694  0.1877694  0.241444   8.41595    18.36753   2.381      0.3701035  0.4568525  -14.487    0.1626503  0.1976788  0.1276218 
1205.2     0.205      425        1          2          5.898      2.015      2.432      1.782      1.862      2.792      2.611      1.253      1.668      1.308      1.704      0.1862675  0.1862675  0.234954   7.893776   26.06997   2.353      0.3621514  0.443072   -16.235    0.1475347  0.1713392  0.1237303 
