~Version
 VERS              .         2.0                           : CWLS LOG ASCII STANDARD - VERSION 2.0
 WRAP              .         NO                            : ONE LINE PER DEPTH STEP
 DLM               .         SPACE                         : DELIMITING CHARACTER(SPACE TAB OR COMMA)
~Well Information
#_______________________________________________________________________________
#
#PARAMETER_NAME    .UNIT     VALUE                         : DESCRIPTION
#_______________________________________________________________________________
STRT               .M        836.2                         : First reference value
STOP               .M        1231.4                        : Last reference value
STEP               .M        0.2                           : Step increment
NULL               .         -9999                         : Missing value
COMP               .                                       : Company
WELL               .         3891                          : Well name
FLD                .         Узень                         : Field
LOC                .                                       : Location
CNTY               .                                       : County
STAT               .                                       : State
CTRY               .                                       : Country
SRVC               .                                       : Service Company
DATE               .                                       : Date
UWI                .                                       : Unique Well ID
_скв_14_гор_       .         7                             : 
Block              .         7                             : 
Category           .         Нефтяная                      : 
Condition          .         В работе                      : 
Date               .         30.09.1990                    : 
EREF               .m        86.8                          : 100.8
Gorizont           .         14                            : 14
Interpretator      .         Бекбулатова А.А.              : 
Kupol              .         Основной                      : osnovnoi
METD               .         GZ1 GZ2                       : 
Mud                .         0                             : 
Mud_density        .         0                             : 
Mud_resistivity    .         0                             : 
NGDU               .         НГДУ-2                        : 
ORIGINALWELLNAME   .         3891                          : 
Spud_date          .         1990                          : 1961
Viscosity          .         0                             : 
X                  .m        42675                         : 46154
Y                  .m        84511.63                      : 85761.93
YEAR               .         2019                          : 
Отбивки_горизонт_14 .         1                             : 
~Parameter Information Block
#_______________________________________________________________________________
#
#PARAMETER_NAME    .UNIT     VALUE                         : DESCRIPTION
#_______________________________________________________________________________
SET                .         LQC_KAZNIPI_Petrel            : 
TLFamily_CALI      .         Caliper                       : 
TLFamily_CILD      .         Conductivity                  : 
TLFamily_COLL      .         Net Reservoir Flag            : 
TLFamily_CSAT      .         Fluid Code                    : 
TLFamily_DEPT      .         Measured Depth                : 
TLFamily_GR        .         Russian Gamma Ray             : 
TLFamily_GZ1       .         Gradient 045                  : 
TLFamily_GZ2       .         Gradient 105                  : 
TLFamily_GZ3       .         Gradient 225                  : 
TLFamily_GZ4       .         Gradient 425                  : 
TLFamily_GZ5       .         Gradient 850                  : 
TLFamily_LLS       .         Lateral Log Resistivity       : 
TLFamily_MINV      .         Micro Gradient Resistivity    : 
TLFamily_MNOR      .         Micro Resistivity             : 
TLFamily_NGLD      .         Neutron Gamma                 : 
TLFamily_OGZ       .         Gradient Inverted 225         : 
TLFamily_PHIE      .         Effective Porosity            : 
TLFamily_PHIEN     .         Effective Porosity            : 
TLFamily_PHIT      .         Porosity                      : 
TLFamily_PRMB      .         Permeability                  : 
TLFamily_PRMB_DGR  .         Permeability                  : 
TLFamily_RT        .         Formation Resistivity         : 
TLFamily_SOIL_ARCHIE .         Oil Saturation                : 
TLFamily_SOIL_DW   .         Oil Saturation                : 
TLFamily_SP        .         Spontaneous Potential         : 
TLFamily_VSH_FIN   .         Shale Volume                  : 
TLFamily_VSH_GR    .         Shale Volume                  : 
TLFamily_VSH_SP    .         Shale Volume                  : 
~Curve Information
#_______________________________________________________________________________
#
#LOGNAME           .UNIT     LOG_ID                        : DESCRIPTION
#_______________________________________________________________________________
DEPT               .M                                      : Колонка глубины 
CALI               .м                                      : Каверномер 
CILD               .мСм/м                                  : Индукционный каротаж 
COLL               .unitless                               : Описание 
CSAT               .unitless                               : Описание 
GR                 .uR/h                                   : Гамма каротаж 
GZ1                .Ом·м                                   :  
GZ2                .Ом·м                                   :  
GZ3                .Ом·м                                   :  
GZ4                .Ом·м                                   :  
GZ5                .Ом·м                                   :  
LLS                .Ohmm                                   : Боковой каротаж 
MINV               .Ohmm                                   : Микро-градиент зонд 
MNOR               .Ohmm                                   : Микро-потенциал зонд 
NGLD               .у.е.                                   : Показания зонда НГК-60 аппаратуры ДРСТ-3-90 
OGZ                .Ом·м                                   :  
PHIE               .v/v                                    : Описание 
PHIEN              .v/v                                    :  
PHIT               .v/v                                    : Описание 
PRMB               .mD                                     :  
PRMB_DGR           .mD                                     :  
RT                 .ohmm                                   : УЭС пласта 
SOIL_ARCHIE        .v/v                                    :  
SOIL_DW            .v/v                                    :  
SP                 .мВ                                     : Потенциал самополяризации 
VSH_FIN            .v/v                                    : Описание 
VSH_GR             .v/v                                    : Shale volume 
VSH_SP             .v/v                                    : Shale Volume 
~Ascii
# ...
1111.8     0.213      120        1          2          6.136      3.754      9.02       10.247     10.415     9.031      6.49       2.379      2.818      1.186      6.239      0.2167783  0.2167783  0.274543   29.00132   21.9287    8.333      0.6868772  0.7426123  13.363     0.1750446  0.1838798  0.1662095 
1112       0.213      123        1          2          6.237      3.779      9.096      10.491     9.61       9.535      6.777      2.568      2.855      1.166      5.938      0.2211055  0.2211055  0.281033   34.8793    18.31529   8.13       0.6886385  0.7450514  13.238     0.1815986  0.1979088  0.1652883 
1112.2     0.212      125        1          2          6.162      3.779      9.07       10.734     9.686001   10.063     6.827      2.682      2.957      1.139      5.663      0.2306598  0.2306598  0.2897945  52.42481   20.93545   8          0.6976231  0.7519708  13.987     0.1791961  0.1873932  0.1709989 
1112.4     0.211      128        1          2          6.136      3.754      9.045      10.978     10.138     10.566     6.875      2.771      2.893      1.164      5.487      0.2222814  0.2222814  0.281682   36.6732    21.9287    7.812      0.684216   0.7408397  14.612     0.1800018  0.1838798  0.1761239 
1112.6     0.211      130        1          2          5.986      3.905      9.349      11.295     10.314     11.195     7.18       2.834      3.045      1.179      5.187      0.219652   0.219652   0.2768145  32.78286   28.65166   7.692      0.6786     0.7348505  15.236     0.1732195  0.1648585  0.1815806 
1112.8     0.21       135        1          2          5.961      4.081      9.805      11.671     10.44      11.95      7.553      2.885      3.159      1.156      4.935999   0.2262452  0.2262452  0.284278   43.42781   29.95754   7.407      0.681174   0.7372198  16.111     0.175857   0.1618853  0.1898286 
1113       0.209      144        1          2          6.287      4.132      10.236     11.922     10.943     12.453     7.285      2.859      3.07       1.189      4.510001   0.2075528  0.2075528  0.2735695  19.5677    16.75334   6.944      0.6457366  0.7122687  16.61      0.2000505  0.2052451  0.194856  
1113.2     0.209      157        1          2          6.75       4.509      10.616     12.048     11.195     12.579     6.875      2.973      2.957      1.226      4.034      0.1813232  0.1813232  0.261563   6.392972   7.338802   6.369      0.5850028  0.6738081  16.985     0.2431511  0.2875084  0.1987937 
1113.4     0.21       174        1          2          6.976      4.106      9.905999   10.918     11.447     12.201     5.699      3.29       2.11       1.258      3.633      0.1617848  0.1617848  0.251179   2.778464   4.905073   5.747      0.5190343  0.6315241  17.359     0.2708915  0.3389226  0.2028605 
1113.6     0.21       192        -9999      -9999      7.264      3.678      9.172      9.964      10.44      10.608     4.621      2.467      2.363      1.278      3.383      0.1417893  0.1417893  0.244689   1.184241   2.935366   5.208      0.4349523  0.58544    17.609     0.3118173  0.4179767  0.2056579 
1113.8     0.21       207        -9999      -9999      7.464      2.998      7.626      9.211001   9.233      9.686001   4.028      1.847      2.11       1.261      3.157      0.1360248  0.1360248  0.2502055  0.9261221  2.055004   4.831      0.3931265  0.5683348  17.859     0.3460019  0.4834842  0.2085196 
1114       0.21       221        -9999      -9999      7.314      2.67       6.309      8.358      8.629      9.308      3.775      1.999      2.274      1.251      3.057      0.1465474  0.1465474  0.2534505  1.450678   2.685033   4.525      0.4135243  0.5702563  18.358     0.3239488  0.4334706  0.214427  
1114.2     0.21       232        -9999      -9999      7.452      2.519      5.701      7.605      7.899      8.956      3.641      2.062      2.148      1.236      3.107      0.1430952  0.1430952  0.258318   1.252069   2.099441   4.31       0.3873847  0.5605886  18.733     0.3491601  0.4792791  0.219041  
1114.4     0.211      242        -9999      -9999      7.577      2.444      5.321      7.203      7.647999   8.881      3.641      2.088      2.11       1.241      3.232      0.1331525  0.1331525  0.2566955  0.8193439  1.680052   4.132      0.3346918  0.5366508  19.108     0.3743725  0.5249372  0.2238079 
1114.6     0.21       251        -9999      -9999      7.627      2.519      5.169      7.152999   7.623      8.855      3.775      2.05       2.186      1.223      3.458      0.1346964  0.1346964  0.2625365  0.8751077  1.536776   3.984      0.3299671  0.5366576  19.607     0.3873943  0.5443958  0.2303928 
1114.8     0.208      258        -9999      -9999      7.69       2.645      5.219      7.128      7.774      8.653999   4.028      1.948      2.148      1.256      3.683      0.1168466  0.1168466  0.251828   0.408733   1.373514   3.876      0.2318082  0.4910938  20.856     0.4090346  0.5699442  0.248125  
1115       0.209      276        -9999      -9999      7.966      2.872      4.914999   6.902      8.024999   8.277      4.237      2.214      2.072      1.231      3.683      0.09686498 0.09686498 0.2599405  0.1743141  0.8397318  3.623      0.0663919  0.4473152  23.479     0.4941683  0.6967709  0.2915656 
1115.2     0.21       296        -9999      -9999      8.041      2.544      4.535      6.174      7.245      7.647999   3.339      2.1        1.807      1.216      3.508      0.08704953 0.08704953 0.264808   0.1146903  0.7346354  3.378      0          0.4129617  25.977     0.5386621  0.7358705  0.3414537 
1115.4     0.212      313        -9999      -9999      8.241      2.368      3.952      5.447      6.541      6.942999   2.747      1.86       1.832      1.201      3.33       0.07160119 0.07160119 0.2696755  0.05934523 0.5143073  3.195      0          0.3638291  28.474     0.6002252  0.8        0.4004504 
1115.6     0.213      320        -9999      -9999      8.166      1.864      3.572      4.718999   5.836      6.39       2.482      1.86       1.365      1.174      3.483      0.07431541 0.07431541 0.278437   0.06662846 0.5878834  3.125      0          0.3780255  29.848     0.6185502  0.8        0.4371004 
1115.8     0.213      325        -9999      -9999      8.091      1.789      3.091      4.066      5.157001   6.063001   2.669      2.417      1.693      1.137      3.783      0.09684954 0.09684954 0.2904435  0.1741993  0.671986   3.077      0          0.4419536  28.849     0.5866484  0.7631479  0.4101489 
1116       0.215      318        -9999      -9999      7.952      1.688      3.192      3.865      4.931001   5.912      2.747      2.189      1.377      1.176      4.36       0.1039403  0.1039403  0.277788   0.2357139  0.8609542  3.145      0.06171766 0.4457213  26.976     0.5268111  0.6897058  0.3639164 
1116.2     0.215      313        -9999      -9999      7.778      1.915      3.446      3.815      4.981      5.887001   3.106      1.923      1.744      1.184      5.011      0.1224722  0.1224722  0.275192   0.5195661  1.174084   3.195      0.1926524  0.4789671  24.853     0.4627872  0.6076501  0.3179242 
1116.4     0.212      311        -9999      -9999      7.565      2.116      3.116      3.715      5.131999   5.912      3.563      1.986      2.148      1.184      5.187      0.1423363  0.1423363  0.275192   1.212191   1.716382   3.215      0.2937885  0.5094702  23.104     0.4025931  0.5203715  0.2848148 
1116.6     0.21       298        -9999      -9999      7.49       1.94       2.812      3.614      4.906      6.113      3.062      2.189      1.756      1.164      5.337      0.1533825  0.1533825  0.281682   1.941666   1.961926   3.356      0.3514912  0.5402518  23.106     0.3887863  0.4927222  0.2848503 
1116.8     0.212      279        -9999      -9999      7.364      2.066      3.142      3.489      4.83       6.415      3.412      2.227      2.059      1.146      5.987999   0.1753343  0.1753343  0.287523   4.951933   2.456053   3.584      0.4403381  0.5832875  19.607     0.3399657  0.4495387  0.2303928 
