~Version
 VERS              .         2.0                           : CWLS LOG ASCII STANDARD - VERSION 2.0
 WRAP              .         NO                            : ONE LINE PER DEPTH STEP
 DLM               .         SPACE                         : DELIMITING CHARACTER(SPACE TAB OR COMMA)
~Well Information
#_______________________________________________________________________________
#
#PARAMETER_NAME    .UNIT     VALUE                         : DESCRIPTION
#_______________________________________________________________________________
STRT               .M        836.2                         : First reference value
STOP               .M        1231.4                        : Last reference value
STEP               .M        0.2                           : Step increment
NULL               .         -9999                         : Missing value
COMP               .                                       : Company
WELL               .         3891                          : Well name
FLD                .         Узень                         : Field
LOC                .                                       : Location
CNTY               .                                       : County
STAT               .                                       : State
CTRY               .                                       : Country
SRVC               .                                       : Service Company
DATE               .                                       : Date
UWI                .                                       : Unique Well ID
_скв_14_гор_       .         7                             : 
Block              .         7                             : 
Category           .         Нефтяная                      : 
Condition          .         В работе                      : 
Date               .         30.09.1990                    : 
EREF               .m        86.8                          : 100.8
Gorizont           .         14                            : 14
Interpretator      .         Бекбулатова А.А.              : 
Kupol              .         Основной                      : osnovnoi
METD               .         GZ1 GZ2                       : 
Mud                .         0                             : 
Mud_density        .         0                             : 
Mud_resistivity    .         0                             : 
NGDU               .         НГДУ-2                        : 
ORIGINALWELLNAME   .         3891                          : 
Spud_date          .         1990                          : 1961
Viscosity          .         0                             : 
X                  .m        42675                         : 46154
Y                  .m        84511.63                      : 85761.93
YEAR               .         2019                          : 
Отбивки_горизонт_14 .         1                             : 
~Parameter Information Block
#_______________________________________________________________________________
#
#PARAMETER_NAME    .UNIT     VALUE                         : DESCRIPTION
#_______________________________________________________________________________
SET                .         LQC_KAZNIPI_Petrel            : 
TLFamily_CALI      .         Caliper                       : 
TLFamily_CILD      .         Conductivity                  : 
TLFamily_COLL      .         Net Reservoir Flag            : 
TLFamily_CSAT      .         Fluid Code                    : 
TLFamily_DEPT      .         Measured Depth                : 
TLFamily_GR        .         Russian Gamma Ray             : 
TLFamily_GZ1       .         Gradient 045                  : 
TLFamily_GZ2       .         Gradient 105                  : 
TLFamily_GZ3       .         Gradient 225                  : 
TLFamily_GZ4       .         Gradient 425                  : 
TLFamily_GZ5       .         Gradient 850                  : 
TLFamily_LLS       .         Lateral Log Resistivity       : 
TLFamily_MINV      .         Micro Gradient Resistivity    : 
TLFamily_MNOR      .         Micro Resistivity             : 
TLFamily_NGLD      .         Neutron Gamma                 : 
TLFamily_OGZ       .         Gradient Inverted 225         : 
TLFamily_PHIE      .         Effective Porosity            : 
TLFamily_PHIEN     .         Effective Porosity            : 
TLFamily_PHIT      .         Porosity                      : 
TLFamily_PRMB      .         Permeability                  : 
TLFamily_PRMB_DGR  .         Permeability                  : 
TLFamily_RT        .         Formation Resistivity         : 
TLFamily_SOIL_ARCHIE .         Oil Saturation                : 
TLFamily_SOIL_DW   .         Oil Saturation                : 
TLFamily_SP        .         Spontaneous Potential         : 
TLFamily_VSH_FIN   .         Shale Volume                  : 
TLFamily_VSH_GR    .         Shale Volume                  : 
TLFamily_VSH_SP    .         Shale Volume                  : 
~Curve Information
#_______________________________________________________________________________
#
#LOGNAME           .UNIT     LOG_ID                        : DESCRIPTION
#_______________________________________________________________________________
DEPT               .M                                      : Колонка глубины 
CALI               .м                                      : Каверномер 
CILD               .мСм/м                                  : Индукционный каротаж 
COLL               .unitless                               : Описание 
CSAT               .unitless                               : Описание 
GR                 .uR/h                                   : Гамма каротаж 
GZ1                .Ом·м                                   :  
GZ2                .Ом·м                                   :  
GZ3                .Ом·м                                   :  
GZ4                .Ом·м                                   :  
GZ5                .Ом·м                                   :  
LLS                .Ohmm                                   : Боковой каротаж 
MINV               .Ohmm                                   : Микро-градиент зонд 
MNOR               .Ohmm                                   : Микро-потенциал зонд 
NGLD               .у.е.                                   : Показания зонда НГК-60 аппаратуры ДРСТ-3-90 
OGZ                .Ом·м                                   :  
PHIE               .v/v                                    : Описание 
PHIEN              .v/v                                    :  
PHIT               .v/v                                    : Описание 
PRMB               .mD                                     :  
PRMB_DGR           .mD                                     :  
RT                 .ohmm                                   : УЭС пласта 
SOIL_ARCHIE        .v/v                                    :  
SOIL_DW            .v/v                                    :  
SP                 .мВ                                     : Потенциал самополяризации 
VSH_FIN            .v/v                                    : Описание 
VSH_GR             .v/v                                    : Shale volume 
VSH_SP             .v/v                                    : Shale Volume 
~Ascii
# ...
1179.4     0.21       153        1          2          5.723      4.509      12.61      18.95      13.585     4.101      6.214      1.253      1.706      1.226      3.007      0.2141063  0.2141063  0.261563   25.87772   36.11711   6.536      0.6501964  0.7038761  -11.365    0.1438083  0.149985   0.1376315 
1179.6     0.21       174        1          2          5.598      4.382999   11.98      18.197     13.459     4          5.951      1.468      1.845      1.204      2.831      0.2235709  0.2235709  0.268702   38.74667   45.58652   5.747      0.6421667  0.694719   -11.49     0.1367608  0.1363816  0.1371399 
1179.8     0.211      202        1          2          5.447      4.257      11.351     17.193     12.956     3.824      5.699      1.518      1.908      1.206      2.656      0.2251161  0.2251161  0.268053   41.3861    60.39398   4.95       0.6184946  0.6715671  -11.115    0.1301118  0.1215836  0.1386401 
1180       0.213      242        1          2          5.397      4.257      10.489     15.562     11.572     3.472      5.699      1.43       2.072      1.226      2.506      0.2189341  0.2189341  0.261563   31.79433   66.28925   4.132      0.574554   0.6310813  -10.491    0.1291784  0.1170464  0.1413104 
1180.2     0.213      269        1          2          5.397      4.232      9.678001   13.604     10.34      3.145      5.003      1.088      1.958      1.204      2.355      0.2250759  0.2250759  0.268702   41.31525   66.28925   3.717      0.563534   0.6214849  -9.242     0.1322002  0.1170464  0.147354  
1180.4     0.211      307        1          2          5.485      3.98       8.918      11.646     9.434      2.818      4.147      1.392      1.933      1.184      2.23       0.228413   0.228413   0.275192   47.63437   56.26677   3.257      0.5415336  0.603633   -7.368     0.1417546  0.1251491  0.15836   
1180.6     0.211      341        1          2          5.698      3.678      8.108      9.688      8.327      2.541      3.461      1.379      1.87       1.166      2.08       0.2230522  0.2230522  0.281033   37.89883   37.83884   2.933      0.5083627  0.583159   -2.123     0.1756994  0.1471599  0.2042389 
1180.8     0.22       370        1          2          5.798      3.275      6.815      8.358      7.547      2.289      2.932      1.265      1.769      1.149      2.23       0.2140835  0.2140835  0.2865495  25.85255   31.40792   2.703      0.470567   0.5631743  3.247      0.219594   0.15879    0.2803979 
1181       0.219      385        -9999      -9999      5.986      2.696      5.498      7.053      6.969      2.164      2.36       1.455      1.68       1.149      2.455      0.1907769  0.1907769  0.2865495  9.567728   22.12837   2.597      0.4035669  0.5325391  8.742      0.29022    0.1832004  0.3972396 
1181.2     0.219      395        -9999      -9999      6.212      2.141      4.307      5.798      6.138      2.088      1.957      1.771      1.958      1.164      2.656      0.1632968  0.1632968  0.281682   2.963538   14.52507   2.532      0.3088717  0.4906194  12.364     0.3587431  0.2175617  0.4999244 
1181.4     0.218      377        -9999      -9999      6.324      1.738      3.37       4.718999   5.61       2.038      1.874      2.328      1.731      1.141      2.856      0.1744258  0.1744258  0.2891455  4.763728   11.78994   2.653      0.3615793  0.522894   10.99      0.3476354  0.2369083  0.4583626 
1181.6     0.215      355        -9999      -9999      6.331      1.537      2.812      3.941      5.082      2.063      2.165      1.253      1.289      1.159      2.881      0.1863113  0.1863113  0.2833045  7.908509   11.63721   2.817      0.4139308  0.5437286  6.744      0.2939189  0.238173   0.3496647 
1181.8     0.213      331        -9999      -9999      6.337      1.688      2.508      3.514      4.453      2.164      2.708      1.151      1.162      1.216      2.856      0.1808168  0.1808168  0.264808   6.256391   11.50786   3.021      0.4178661  0.5358509  2.623      0.2545188  0.2392625  0.2697752 
1182       0.213      309        -9999      -9999      6.4        2.116      3.142      3.765      4.654      2.289      3.412      1.189      0.998      1.281      2.957      0.1637253  0.1637253  0.2437155  3.018193   10.2336    3.236      0.385432   0.5094435  0.25       0.2423946  0.251007   0.2337823 
1182.2     0.212      297        -9999      -9999      6.011      2.746      3.952      4.016      5.157001   2.465      4.791      1.101      1.554      1.263      3.082      0.1831189  0.1831189  0.2495565  6.901825   21.12149   3.367      0.4528091  0.547198   -1.124     0.2013261  0.1867175  0.2159348 
1182.4     0.213      311        -9999      -9999      5.949      3.401      4.713      4.066      5.635      2.566      6.125      0.784      1.339      1.295      2.856      0.1720474  0.1720474  0.2391725  4.30421    23.7073    3.215      0.4096045  0.512481   -0.125     0.2034094  0.1781164  0.2287024 
1182.6     0.213      332        -9999      -9999      5.886      3.527      5.143      3.74       5.257999   2.541      4.147      1.202      1.794      1.226      2.581      0.1893772  0.1893772  0.261563   9.013307   26.65926   3.012      0.4400692  0.5406771  2.498      0.2187448  0.1697825  0.2677071 
1182.8     0.216      352        -9999      -9999      6.149      2.847      4.510001   3.112      4.527999   2.465      2.974      1.531      2.009      1.181      2.255      0.1899103  0.1899103  0.2761655  9.220563   16.33369   2.841      0.4259062  0.5423937  5.12       0.2613794  0.2073822  0.3153767 
1183       0.224      366        -9999      -9999      6.7        2.267      4.079      2.661      3.824      2.39       2.394      1.48       2.161      1.149      1.929      0.1878907  0.1878907  0.2865495  8.459605   5.852379   2.732      0.4097991  0.5413789  3.372      0.298966   0.3153456  0.2825864 
1183.2     0.231      372        -9999      -9999      7.439      1.839      3.876      2.56       3.346      2.314      2.212      1.392      1.756      1.127      2.13       0.1503684  0.1503684  0.2936885  1.707443   1.477374   2.688      0.2779416  0.5020075  5.12       0.4343032  0.5532298  0.3153767 
1183.4     0.229      377        -9999      -9999      7.114      1.814      3.8        2.711      3.421      2.415      2.134      1.24       1.44       1.149      2.355      0.1571028  0.1571028  0.2865495  2.275533   2.706522   2.653      0.3006871  0.4998526  6.869      0.3922626  0.432062   0.3524632 
1183.6     0.225      387        -9999      -9999      6.826      1.763      3.319      2.861      3.522      2.516      2.26       1.67       1.643      1.164      2.506      0.1727858  0.1727858  0.281682   4.441919   4.628067   2.584      0.3482954  0.5070908  4.996      0.3299884  0.3470638  0.312913  
1183.8     0.219      396        -9999      -9999      7.001      1.612      2.787      2.686      3.119      2.616      2.117      1.468      1.445      1.181      2.481      0.1688711  0.1688711  0.2761655  3.758899   3.340619   2.525      0.3279116  0.4907595  1.624      0.3251345  0.3964771  0.253792  
1184       0.218      405        -9999      -9999      7.101      1.663      2.534      2.572      2.943      2.767      2.18       1.632      1.541      1.211      2.455      0.1578294  0.1578294  0.2664305  2.347151   2.772862   2.469      0.2795981  0.4593342  0          0.3290944  0.4278108  0.2303779 
1184.2     0.219      398        -9999      -9999      6.926      1.763      2.66       2.786      2.818      2.918      2.31       1.721      1.351      1.251      2.656      0.1491453  0.1491453  0.2534505  1.620657   3.841502   2.513      0.2494469  0.4351378  1.873      0.3160762  0.3744923  0.2576602 
1184.4     0.217      390        -9999      -9999      7.001      1.789      2.812      2.987      3.044      3.069      2.343      1.417      1.516      1.211      2.907      0.154385   0.154385   0.2664305  2.026486   3.340619   2.564      0.2785165  0.4647345  3.372      0.3395317  0.3964771  0.2825864 
