~Version
 VERS              .         2.0                           : CWLS LOG ASCII STANDARD - VERSION 2.0
 WRAP              .         NO                            : ONE LINE PER DEPTH STEP
 DLM               .         SPACE                         : DELIMITING CHARACTER(SPACE TAB OR COMMA)
~Well Information
#_______________________________________________________________________________
#
#PARAMETER_NAME    .UNIT     VALUE                         : DESCRIPTION
#_______________________________________________________________________________
STRT               .M        836.2                         : First reference value
STOP               .M        1231.4                        : Last reference value
STEP               .M        0.2                           : Step increment
NULL               .         -9999                         : Missing value
COMP               .                                       : Company
WELL               .         3891                          : Well name
FLD                .         Узень                         : Field
LOC                .                                       : Location
CNTY               .                                       : County
STAT               .                                       : State
CTRY               .                                       : Country
SRVC               .                                       : Service Company
DATE               .                                       : Date
UWI                .                                       : Unique Well ID
_скв_14_гор_       .         7                             : 
Block              .         7                             : 
Category           .         Нефтяная                      : 
Condition          .         В работе                      : 
Date               .         30.09.1990                    : 
EREF               .m        86.8                          : 100.8
Gorizont           .         14                            : 14
Interpretator      .         Бекбулатова А.А.              : 
Kupol              .         Основной                      : osnovnoi
METD               .         GZ1 GZ2                       : 
Mud                .         0                             : 
Mud_density        .         0                             : 
Mud_resistivity    .         0                             : 
NGDU               .         НГДУ-2                        : 
ORIGINALWELLNAME   .         3891                          : 
Spud_date          .         1990                          : 1961
Viscosity          .         0                             : 
X                  .m        42675                         : 46154
Y                  .m        84511.63                      : 85761.93
YEAR               .         2019                          : 
Отбивки_горизонт_14 .         1                             : 
~Parameter Information Block
#_______________________________________________________________________________
#
#PARAMETER_NAME    .UNIT     VALUE                         : DESCRIPTION
#_______________________________________________________________________________
SET                .         LQC_KAZNIPI_Petrel            : 
TLFamily_CALI      .         Caliper                       : 
TLFamily_CILD      .         Conductivity                  : 
TLFamily_COLL      .         Net Reservoir Flag            : 
TLFamily_CSAT      .         Fluid Code                    : 
TLFamily_DEPT      .         Measured Depth                : 
TLFamily_GR        .         Russian Gamma Ray             : 
TLFamily_GZ1       .         Gradient 045                  : 
TLFamily_GZ2       .         Gradient 105                  : 
TLFamily_GZ3       .         Gradient 225                  : 
TLFamily_GZ4       .         Gradient 425                  : 
TLFamily_GZ5       .         Gradient 850                  : 
TLFamily_LLS       .         Lateral Log Resistivity       : 
TLFamily_MINV      .         Micro Gradient Resistivity    : 
TLFamily_MNOR      .         Micro Resistivity             : 
TLFamily_NGLD      .         Neutron Gamma                 : 
TLFamily_OGZ       .         Gradient Inverted 225         : 
TLFamily_PHIE      .         Effective Porosity            : 
TLFamily_PHIEN     .         Effective Porosity            : 
TLFamily_PHIT      .         Porosity                      : 
TLFamily_PRMB      .         Permeability                  : 
TLFamily_PRMB_DGR  .         Permeability                  : 
TLFamily_RT        .         Formation Resistivity         : 
TLFamily_SOIL_ARCHIE .         Oil Saturation                : 
TLFamily_SOIL_DW   .         Oil Saturation                : 
TLFamily_SP        .         Spontaneous Potential         : 
TLFamily_VSH_FIN   .         Shale Volume                  : 
TLFamily_VSH_GR    .         Shale Volume                  : 
TLFamily_VSH_SP    .         Shale Volume                  : 
~Curve Information
#_______________________________________________________________________________
#
#LOGNAME           .UNIT     LOG_ID                        : DESCRIPTION
#_______________________________________________________________________________
DEPT               .M                                      : Колонка глубины 
CALI               .м                                      : Каверномер 
CILD               .мСм/м                                  : Индукционный каротаж 
COLL               .unitless                               : Описание 
CSAT               .unitless                               : Описание 
GR                 .uR/h                                   : Гамма каротаж 
GZ1                .Ом·м                                   :  
GZ2                .Ом·м                                   :  
GZ3                .Ом·м                                   :  
GZ4                .Ом·м                                   :  
GZ5                .Ом·м                                   :  
LLS                .Ohmm                                   : Боковой каротаж 
MINV               .Ohmm                                   : Микро-градиент зонд 
MNOR               .Ohmm                                   : Микро-потенциал зонд 
NGLD               .у.е.                                   : Показания зонда НГК-60 аппаратуры ДРСТ-3-90 
OGZ                .Ом·м                                   :  
PHIE               .v/v                                    : Описание 
PHIEN              .v/v                                    :  
PHIT               .v/v                                    : Описание 
PRMB               .mD                                     :  
PRMB_DGR           .mD                                     :  
RT                 .ohmm                                   : УЭС пласта 
SOIL_ARCHIE        .v/v                                    :  
SOIL_DW            .v/v                                    :  
SP                 .мВ                                     : Потенциал самополяризации 
VSH_FIN            .v/v                                    : Описание 
VSH_GR             .v/v                                    : Shale volume 
VSH_SP             .v/v                                    : Shale Volume 
~Ascii
# ...
1023.4     0.247      441        -9999      -9999      6.249      1.663      2.66       2.184      2.491      2.113      2.343      1.354      1.668      0.938      1.779      0.1807908  0.1807908  0.355019   6.249468   2.423915   2.268      0.324558   0.5445608  28.474     0.5279641  0.451963   0.6039652 
1023.6     0.23       461        -9999      -9999      6.337      1.713      2.508      2.133      2.516      2.063      2.394      1.619      1.453      0.933      1.704      0.1788     0.1788     0.3566415  5.740751   2.158708   2.169      0.3035783  0.533601   28.474     0.5389135  0.4738618  0.6039652 
1023.8     0.246      475        -9999      -9999      6.475      1.688      2.458      2.008      2.465      2.063      1.971      1.506      1.226      0.935      1.604      0.1721289  0.1721289  0.3559925  4.319204   1.800019   2.105      0.2699395  0.519079   28.474     0.5571623  0.5103593  0.6039652 
1024       0.243      482        -9999      -9999      6.75       1.612      2.382      1.933      2.289      2.013      1.886      1.189      1.213      0.948      1.579      0.1537241  0.1537241  0.351774   1.970158   1.253185   2.075      0.1889298  0.4907657  28.599     0.6001512  0.591686   0.6086165 
1024.2     0.24       487        -9999      -9999      6.938      1.461      2.356      1.933      2.214      1.987      1.833      0.987      1.327      0.96       1.604      0.1386731  0.1386731  0.34788    1.036858   0.9783748  2.053      0.1083267  0.4645292  28.724     0.6339605  0.6546229  0.6132981 
1024.4     0.236      496        -9999      -9999      6.938      1.436      2.331      1.933      2.164      1.962      1.928      1.417      1.162      0.943      1.604      0.1426295  0.1426295  0.3533965  1.227447   0.9783748  2.016      0.1224508  0.4704654  28.974     0.6386878  0.6546229  0.6227527 
1024.6     0.234      509        -9999      -9999      6.75       1.436      2.23       1.908      2.063      1.962      1.847      1.43       1.112      0.93       1.629      0.1572326  0.1572326  0.357615   2.288166   1.253185   1.965      0.1841258  0.4864207  28.974     0.6072193  0.591686   0.6227527 
1024.8     0.229      520        -9999      -9999      6.537      1.436      2.052      1.807      1.962      1.912      1.82       1.341      1.188      0.935      1.654      0.166957   0.166957   0.3559925  3.464233   1.658904   1.923      0.2177824  0.4909689  28.849     0.5728348  0.5276595  0.6180101 
1025       0.225      530        -9999      -9999      6.7        1.31       1.926      1.732      1.887      1.811      1.768      1.177      1.137      0.93       1.579      0.1621548  0.1621548  0.357615   2.822654   1.338469   1.887      0.1904972  0.4819207  28.599     0.5923038  0.575991   0.6086165 
1025.2     0.231      529        -9999      -9999      6.938      1.285      1.875      1.682      1.811      1.736      1.731      1.404      1.087      0.926      1.503      0.151246   0.151246   0.358913   1.772557   0.9783748  1.89       0.1405169  0.469954   28.474     0.629294   0.6546229  0.6039652 
1025.4     0.23       524        -9999      -9999      7.126      1.285      1.85       1.631      1.761      1.711      1.78       1.392      1.061      0.928      1.528      0.1391078  0.1391078  0.358264   1.056264   0.7638279  1.908      0.07965798 0.4555026  28.474     0.6641096  0.7242541  0.6039652 
1025.6     0.229      515        -9999      -9999      7.151      1.31       1.875      1.657      1.711      1.66       1.833      1.291      1.137      0.928      1.553      0.1367232  0.1367232  0.358264   0.9541199  0.7390929  1.942      0.07340502 0.4569248  28.599     0.6713359  0.7340552  0.6086165 
1025.8     0.231      523        -9999      -9999      7.026      1.386      1.926      1.657      1.66       1.66       1.874      1.341      1.213      0.913      1.553      0.1463435  0.1463435  0.3631315  1.438116   0.8713277  1.912      0.1202839  0.4705485  29.099     0.6569335  0.6863411  0.6275258 
1026       0.225      533        -9999      -9999      6.888      1.411      1.951      1.707      1.61       1.66       1.86       1.075      1.087      0.916      1.553      0.1596226  0.1596226  0.362158   2.533707   1.044957   1.876      0.1770698  0.481449   28.1       0.6137435  0.6372585  0.5902286 
1026.2     0.228      538        -9999      -9999      7.013      1.36       1.926      1.631      1.585      1.686      1.755      1.037      1.049      0.893      1.553      0.160524   0.160524   0.3696215  2.633005   0.8863715  1.859      0.1775901  0.4867897  27.975     0.6336288  0.6815605  0.5856973 
1026.4     0.217      536        -9999      -9999      7.151      1.335      1.9        1.581      1.56       1.686      1.705      1.139      1.124      0.861      1.553      0.1622463  0.1622463  0.3800055  2.833699   0.7390929  1.866      0.1866349  0.4985961  27.975     0.6598763  0.7340552  0.5856973 
1026.6     0.226      533        -9999      -9999      7.339      1.285      1.875      1.556      1.56       1.686      1.668      1.316      1.124      0.888      1.553      0.1426039  0.1426039  0.371244   1.226109   0.5770175  1.876      0.09216407 0.4680204  27.975     0.6928486  0.8        0.5856973 
1026.8     0.235      528        -9999      -9999      7.126      1.285      1.723      1.556      1.56       1.711      1.742      0.987      0.986      0.908      1.579      0.1455978  0.1455978  0.364754   1.393102   0.7638279  1.894      0.1124305  0.4685594  28.474     0.6641096  0.7242541  0.6039652 
1027       0.231      524        -9999      -9999      7.176      1.335      1.824      1.581      1.585      1.736      1.82       1.139      1.124      0.901      1.604      0.14837    0.14837    0.3670255  1.567943   0.7151585  1.908      0.1299037  0.4762061  27.85      0.6625924  0.743989   0.5811958 
1027.2     0.229      546        -9999      -9999      7.126      1.335      1.875      1.581      1.585      1.736      1.86       1.328      1.175      0.923      1.629      0.1422443  0.1422443  0.3598865  1.207444   0.7638279  1.832      0.07997529 0.4503698  28.225     0.6595219  0.7242541  0.5947897 
1027.4     0.228      559        -9999      -9999      7.026      1.31       1.85       1.506      1.585      1.686      1.694      1.088      1.061      0.943      1.654      0.1420099  0.1420099  0.3533965  1.195435   0.8713277  1.789      0.06832653 0.4369815  28.225     0.6405655  0.6863411  0.5947897 
1027.6     0.225      553        -9999      -9999      7.251      1.234      1.748      1.481      1.56       1.686      1.657      1.025      1.036      0.923      1.704      0.1361795  0.1361795  0.3598865  0.9322523  0.6479071  1.808      0.03845869 0.4379878  27.85      0.6778999  0.774604   0.5811958 
1027.8     0.216      550        -9999      -9999      7.176      1.31       1.9        1.456      1.509      1.66       1.668      1.063      1.099      0.948      1.754      0.1353174  0.1353174  0.351774   0.8985951  0.7151585  1.818      0.03562443 0.4299825  27.475     0.6559291  0.743989   0.5678692 
1028       0.229      551        -9999      -9999      7.277      1.285      1.723      1.456      1.434      1.61       1.645      1.126      1.023      0.926      1.829      0.1334068  0.1334068  0.358913   0.8282756  0.6261011  1.815      0.02284935 0.4339546  27.85      0.6833522  0.7855086  0.5811958 
1028.2     0.23       546        -9999      -9999      7.214      1.26       1.672      1.481      1.384      1.585      1.668      1.063      1.036      0.945      1.904      0.1300676  0.1300676  0.3527475  0.718334   0.6802546  1.832      0.005397648 0.4251024  28.1       0.6747875  0.7593464  0.5902286 
1028.4     0.234      533        -9999      -9999      7.302      1.234      1.672      1.481      1.409      1.56       1.705      1.265      1.112      0.968      2.004      0.1150233  0.1150233  0.345284   0.3781533  0.6058261  1.876      0          0.3986189  28.35      0.6977598  0.7961387  0.599381  
