~Version
 VERS              .         2.0                           : CWLS LOG ASCII STANDARD - VERSION 2.0
 WRAP              .         NO                            : ONE LINE PER DEPTH STEP
 DLM               .         SPACE                         : DELIMITING CHARACTER(SPACE TAB OR COMMA)
~Well Information
#_______________________________________________________________________________
#
#PARAMETER_NAME    .UNIT     VALUE                         : DESCRIPTION
#_______________________________________________________________________________
STRT               .M        836.2                         : First reference value
STOP               .M        1231.4                        : Last reference value
STEP               .M        0.2                           : Step increment
NULL               .         -9999                         : Missing value
COMP               .                                       : Company
WELL               .         3891                          : Well name
FLD                .         Узень                         : Field
LOC                .                                       : Location
CNTY               .                                       : County
STAT               .                                       : State
CTRY               .                                       : Country
SRVC               .                                       : Service Company
DATE               .                                       : Date
UWI                .                                       : Unique Well ID
_скв_14_гор_       .         7                             : 
Block              .         7                             : 
Category           .         Нефтяная                      : 
Condition          .         В работе                      : 
Date               .         30.09.1990                    : 
EREF               .m        86.8                          : 100.8
Gorizont           .         14                            : 14
Interpretator      .         Бекбулатова А.А.              : 
Kupol              .         Основной                      : osnovnoi
METD               .         GZ1 GZ2                       : 
Mud                .         0                             : 
Mud_density        .         0                             : 
Mud_resistivity    .         0                             : 
NGDU               .         НГДУ-2                        : 
ORIGINALWELLNAME   .         3891                          : 
Spud_date          .         1990                          : 1961
Viscosity          .         0                             : 
X                  .m        42675                         : 46154
Y                  .m        84511.63                      : 85761.93
YEAR               .         2019                          : 
Отбивки_горизонт_14 .         1                             : 
~Parameter Information Block
#_______________________________________________________________________________
#
#PARAMETER_NAME    .UNIT     VALUE                         : DESCRIPTION
#_______________________________________________________________________________
SET                .         LQC_KAZNIPI_Petrel            : 
TLFamily_CALI      .         Caliper                       : 
TLFamily_CILD      .         Conductivity                  : 
TLFamily_COLL      .         Net Reservoir Flag            : 
TLFamily_CSAT      .         Fluid Code                    : 
TLFamily_DEPT      .         Measured Depth                : 
TLFamily_GR        .         Russian Gamma Ray             : 
TLFamily_GZ1       .         Gradient 045                  : 
TLFamily_GZ2       .         Gradient 105                  : 
TLFamily_GZ3       .         Gradient 225                  : 
TLFamily_GZ4       .         Gradient 425                  : 
TLFamily_GZ5       .         Gradient 850                  : 
TLFamily_LLS       .         Lateral Log Resistivity       : 
TLFamily_MINV      .         Micro Gradient Resistivity    : 
TLFamily_MNOR      .         Micro Resistivity             : 
TLFamily_NGLD      .         Neutron Gamma                 : 
TLFamily_OGZ       .         Gradient Inverted 225         : 
TLFamily_PHIE      .         Effective Porosity            : 
TLFamily_PHIEN     .         Effective Porosity            : 
TLFamily_PHIT      .         Porosity                      : 
TLFamily_PRMB      .         Permeability                  : 
TLFamily_PRMB_DGR  .         Permeability                  : 
TLFamily_RT        .         Formation Resistivity         : 
TLFamily_SOIL_ARCHIE .         Oil Saturation                : 
TLFamily_SOIL_DW   .         Oil Saturation                : 
TLFamily_SP        .         Spontaneous Potential         : 
TLFamily_VSH_FIN   .         Shale Volume                  : 
TLFamily_VSH_GR    .         Shale Volume                  : 
TLFamily_VSH_SP    .         Shale Volume                  : 
~Curve Information
#_______________________________________________________________________________
#
#LOGNAME           .UNIT     LOG_ID                        : DESCRIPTION
#_______________________________________________________________________________
DEPT               .M                                      : Колонка глубины 
CALI               .м                                      : Каверномер 
CILD               .мСм/м                                  : Индукционный каротаж 
COLL               .unitless                               : Описание 
CSAT               .unitless                               : Описание 
GR                 .uR/h                                   : Гамма каротаж 
GZ1                .Ом·м                                   :  
GZ2                .Ом·м                                   :  
GZ3                .Ом·м                                   :  
GZ4                .Ом·м                                   :  
GZ5                .Ом·м                                   :  
LLS                .Ohmm                                   : Боковой каротаж 
MINV               .Ohmm                                   : Микро-градиент зонд 
MNOR               .Ohmm                                   : Микро-потенциал зонд 
NGLD               .у.е.                                   : Показания зонда НГК-60 аппаратуры ДРСТ-3-90 
OGZ                .Ом·м                                   :  
PHIE               .v/v                                    : Описание 
PHIEN              .v/v                                    :  
PHIT               .v/v                                    : Описание 
PRMB               .mD                                     :  
PRMB_DGR           .mD                                     :  
RT                 .ohmm                                   : УЭС пласта 
SOIL_ARCHIE        .v/v                                    :  
SOIL_DW            .v/v                                    :  
SP                 .мВ                                     : Потенциал самополяризации 
VSH_FIN            .v/v                                    : Описание 
VSH_GR             .v/v                                    : Shale volume 
VSH_SP             .v/v                                    : Shale Volume 
~Ascii
# ...
1091       0.212      184        6          6          4.671      5.996      11.756     6.626      7.849      8.302      10.684     3.049      2.489      1.539      8.068      0.03213503 0.03213503 0.1599945  0.01102495 298.7341   5.435      0          0.1053933  37.716     0.3874529  0.0632955  0.7116103 
1091.2     0.215      198        -9999      -9999      5.159      5.341      11.3       5.671999   6.566      6.742      7.391      3.049      2.527      1.454      6.69       0.04623166 0.04623166 0.187577   0.02011317 125.1562   5.051      0          0.2553408  38.965     0.4283192  0.09029307 0.7663453 
1091.4     0.218      224        -9999      -9999      5.748      4.711      10.996     4.668      5.283      5.057      5.378      2.657      2.274      1.362      5.337      0.06255651 0.06255651 0.217431   0.0403512  43.79461   4.464      0          0.3496053  39.839     0.4693166  0.1386333  0.8       
1091.6     0.221      253        -9999      -9999      6.199      4.081      8.665      4.066      3.975      3.623      4.621      1          1.958      1.308      3.508      0.07119001 0.07119001 0.234954   0.05831358 19.59907   3.953      0          0.3712664  40.713     0.4962546  0.1925091  0.8       
1091.8     0.226      282        -9999      -9999      6.6        3.099      7.018001   3.564      2.365      2.566      3.775      1.493      1.567      1.285      2.781      0.06788591 0.06788591 0.2424175  0.05064888 9.588759   3.546      0          0.3396682  41.338     0.5288836  0.2577673  0.8       
1092       0.236      311        -9999      -9999      6.813      2.141      5.853      3.313      1.786      1.686      2.277      1.961      1.958      1.248      2.581      0.0727588  0.0727588  0.254424   0.06234872 6.559149   3.215      0          0.3437452  40.589     0.5505006  0.3010011  0.8       
1092.2     0.222      322        -9999      -9999      7.026      2.192      5.041999   3.74       1.384      1.132      2.593      1.594      1.226      1.2        2.706      0.08000477 0.08000477 0.27       0.08492595 4.486763   3.106      0          0.3781695  40.464     0.5757431  0.3514861  0.8       
1092.4     0.216      337        -9999      -9999      7.439      1.864      4.028      3.765      1.057      0.805      2.767      1.695      1.339      1.226      2.781      0.05122683 0.05122683 0.261563   0.02488876 2.148666   2.967      0          0.2540393  40.214     0.6373824  0.4747648  0.8       
1092.6     0.213      350        -9999      -9999      7.477      1.763      3.42       3.69       0.855      0.604      2.63       1.765      1.403      1.223      2.831      0.05273778 0.05273778 0.2625365  0.02654543 2.007925   2.857      0          0.2480734  39.34      0.6357536  0.4880814  0.7834259 
1092.8     0.214      356        -9999      -9999      7.49       1.713      2.964      3.865      0.73       0.528      3.039      1.835      1.466      1.201      3.032      0.06830595 0.06830595 0.2696755  0.05156441 1.961926   2.809      0          0.311335   38.091     0.6102108  0.4927222  0.7276993 
1093       0.215      363        -9999      -9999      7.728      1.688      2.584      3.79       0.629      0.453      2.869      1.506      1.453      1.209      3.282      0.05898643 0.05898643 0.2670795  0.03465212 1.283546   2.755      0          0.2678362  36.842     0.6305851  0.5859305  0.6752396 
1093.2     0.213      353        -9999      -9999      7.502      1.663      2.736      3.74       0.579      0.377      2.932      1.683      1.44       1.233      3.558      0.0716099  0.0716099  0.2592915  0.05936727 1.920399   2.833      0          0.3061894  35.968     0.5687321  0.4970452  0.6404189 
1093.4     0.213      341        -9999      -9999      7.464      1.763      2.863      3.715      0.679      0.403      2.995      1.911      1.541      1.209      3.884      0.07672732 0.07672732 0.2670795  0.07384723 2.055004   2.933      0          0.3464564  36.717     0.5768248  0.4834842  0.6701654 
1093.6     0.213      330        -9999      -9999      7.427      1.864      3.04       3.664      0.805      0.428      3.243      1.164      1.175      1.186      4.234      0.1034292  0.1034292  0.274543   0.230631   2.195128   3.03       0.04106328 0.4300157  33.969     0.5185267  0.4706355  0.5664178 
1093.8     0.21       323        -9999      -9999      7.815      1.99       2.812      3.464      0.906      0.403      3.694      1.885      1.605      1.218      4.31       0.07536495 0.07536495 0.264159   0.06967865 1.099138   3.096      0          0.3553999  32.596     0.5721031  0.6242394  0.5199668 
1094       0.213      316        -9999      -9999      7.928      1.763      2.584      3.238      1.082      0.377      3.128      1.43       1.226      1.226      4.26       0.06852765 0.06852765 0.261563   0.05205428 0.8985913  3.165      0          0.3381939  31.721     0.5849556  0.6777605  0.4921508 
1094.2     0.215      303        -9999      -9999      7.915      1.814      3.015      3.112      1.434      0.403      2.767      1.518      1.516      1.206      4.385      0.08164074 0.08164074 0.268053   0.09106312 0.9196603  3.3        0          0.3978802  30.597     0.5648857  0.6713767  0.4583946 
1094.4     0.211      289        -9999      -9999      7.991      1.94       3.294      3.238      1.937      0.428      3.412      1.936      1.971      1.194      4.711      0.08444324 0.08444324 0.271947   0.1026247  0.8031275  3.46       0          0.4241361  29.474     0.5681932  0.7095677  0.4268187 
1094.6     0.211      279        -9999      -9999      7.69       2.066      3.42       3.313      2.516      0.453      3.914      1.835      1.794      1.184      5.011      0.1121651  0.1121651  0.275192   0.3347555  1.373514   3.584      0.174155   0.4918137  29.15      0.4940209  0.5699442  0.4180976 
1094.8     0.212      273        -9999      -9999      7.753      2.242      3.496      3.263      3.145      0.478      3.72       1.683      1.908      1.196      5.262001   0.1051693  0.1051693  0.271298   0.2483988  1.227596   3.663      0.1354017  0.480749   28.849     0.5034202  0.5966914  0.4101489 
1095       0.212      266        -9999      -9999      7.702      2.318      3.572      3.263      3.723      0.528      3.858      1.683      1.946      1.206      5.462      0.108672   0.108672   0.268053   0.2884206  1.344441   3.759      0.1698629  0.489572   28.1       0.4829729  0.5749449  0.3910009 
1095.2     0.212      256        -9999      -9999      7.79       2.318      3.8        3.313      4.201      0.553      3.914      1.506      1.883      1.181      5.938      0.1130331  0.1130331  0.2761655  0.3473798  1.149234   3.906      0.2121399  0.5156667  27.475     0.4943407  0.6129816  0.3756998 
1095.4     0.212      244        -9999      -9999      7.765      2.393      4.13       3.489      4.527999   0.604      4.087      1.556      1.908      1.209      6.464      0.1067492  0.1067492  0.2670795  0.2657121  1.201613   4.098      0.1903353  0.5068131  27.226     0.4858495  0.6019267  0.3697723 
1095.6     0.212      231        -9999      -9999      7.702      2.57       4.535      3.74       4.855      0.629      4.425      1.531      1.908      1.241      7.116001   0.1017834  0.1017834  0.2566955  0.2149973  1.344441   4.329      0.1774784  0.4992932  26.976     0.4694306  0.5749449  0.3639164 
1095.8     0.212      221        -9999      -9999      7.815      2.771      4.966      4.066      5.182001   0.604      4.861      1.442      1.946      1.263      7.666999   0.08651077 0.08651077 0.2495565  0.112085   1.099138   4.525      0.07185046 0.4715893  26.976     0.494078   0.6242394  0.3639164 
1096       0.212      217        -9999      -9999      7.69       2.973      5.219      4.242      5.308001   0.629      5.076      1.746      2.161      1.276      7.868001   0.09125099 0.09125099 0.245338   0.137198   1.373514   4.608      0.1215117  0.480415   26.976     0.4669303  0.5699442  0.3639164 
