~Version
 VERS              .         2.0                           : CWLS LOG ASCII STANDARD - VERSION 2.0
 WRAP              .         NO                            : ONE LINE PER DEPTH STEP
 DLM               .         SPACE                         : DELIMITING CHARACTER(SPACE TAB OR COMMA)
~Well Information
#_______________________________________________________________________________
#
#PARAMETER_NAME    .UNIT     VALUE                         : DESCRIPTION
#_______________________________________________________________________________
STRT               .M        836.2                         : First reference value
STOP               .M        1231.4                        : Last reference value
STEP               .M        0.2                           : Step increment
NULL               .         -9999                         : Missing value
COMP               .                                       : Company
WELL               .         3891                          : Well name
FLD                .         Узень                         : Field
LOC                .                                       : Location
CNTY               .                                       : County
STAT               .                                       : State
CTRY               .                                       : Country
SRVC               .                                       : Service Company
DATE               .                                       : Date
UWI                .                                       : Unique Well ID
_скв_14_гор_       .         7                             : 
Block              .         7                             : 
Category           .         Нефтяная                      : 
Condition          .         В работе                      : 
Date               .         30.09.1990                    : 
EREF               .m        86.8                          : 100.8
Gorizont           .         14                            : 14
Interpretator      .         Бекбулатова А.А.              : 
Kupol              .         Основной                      : osnovnoi
METD               .         GZ1 GZ2                       : 
Mud                .         0                             : 
Mud_density        .         0                             : 
Mud_resistivity    .         0                             : 
NGDU               .         НГДУ-2                        : 
ORIGINALWELLNAME   .         3891                          : 
Spud_date          .         1990                          : 1961
Viscosity          .         0                             : 
X                  .m        42675                         : 46154
Y                  .m        84511.63                      : 85761.93
YEAR               .         2019                          : 
Отбивки_горизонт_14 .         1                             : 
~Parameter Information Block
#_______________________________________________________________________________
#
#PARAMETER_NAME    .UNIT     VALUE                         : DESCRIPTION
#_______________________________________________________________________________
SET                .         LQC_KAZNIPI_Petrel            : 
TLFamily_CALI      .         Caliper                       : 
TLFamily_CILD      .         Conductivity                  : 
TLFamily_COLL      .         Net Reservoir Flag            : 
TLFamily_CSAT      .         Fluid Code                    : 
TLFamily_DEPT      .         Measured Depth                : 
TLFamily_GR        .         Russian Gamma Ray             : 
TLFamily_GZ1       .         Gradient 045                  : 
TLFamily_GZ2       .         Gradient 105                  : 
TLFamily_GZ3       .         Gradient 225                  : 
TLFamily_GZ4       .         Gradient 425                  : 
TLFamily_GZ5       .         Gradient 850                  : 
TLFamily_LLS       .         Lateral Log Resistivity       : 
TLFamily_MINV      .         Micro Gradient Resistivity    : 
TLFamily_MNOR      .         Micro Resistivity             : 
TLFamily_NGLD      .         Neutron Gamma                 : 
TLFamily_OGZ       .         Gradient Inverted 225         : 
TLFamily_PHIE      .         Effective Porosity            : 
TLFamily_PHIEN     .         Effective Porosity            : 
TLFamily_PHIT      .         Porosity                      : 
TLFamily_PRMB      .         Permeability                  : 
TLFamily_PRMB_DGR  .         Permeability                  : 
TLFamily_RT        .         Formation Resistivity         : 
TLFamily_SOIL_ARCHIE .         Oil Saturation                : 
TLFamily_SOIL_DW   .         Oil Saturation                : 
TLFamily_SP        .         Spontaneous Potential         : 
TLFamily_VSH_FIN   .         Shale Volume                  : 
TLFamily_VSH_GR    .         Shale Volume                  : 
TLFamily_VSH_SP    .         Shale Volume                  : 
~Curve Information
#_______________________________________________________________________________
#
#LOGNAME           .UNIT     LOG_ID                        : DESCRIPTION
#_______________________________________________________________________________
DEPT               .M                                      : Колонка глубины 
CALI               .м                                      : Каверномер 
CILD               .мСм/м                                  : Индукционный каротаж 
COLL               .unitless                               : Описание 
CSAT               .unitless                               : Описание 
GR                 .uR/h                                   : Гамма каротаж 
GZ1                .Ом·м                                   :  
GZ2                .Ом·м                                   :  
GZ3                .Ом·м                                   :  
GZ4                .Ом·м                                   :  
GZ5                .Ом·м                                   :  
LLS                .Ohmm                                   : Боковой каротаж 
MINV               .Ohmm                                   : Микро-градиент зонд 
MNOR               .Ohmm                                   : Микро-потенциал зонд 
NGLD               .у.е.                                   : Показания зонда НГК-60 аппаратуры ДРСТ-3-90 
OGZ                .Ом·м                                   :  
PHIE               .v/v                                    : Описание 
PHIEN              .v/v                                    :  
PHIT               .v/v                                    : Описание 
PRMB               .mD                                     :  
PRMB_DGR           .mD                                     :  
RT                 .ohmm                                   : УЭС пласта 
SOIL_ARCHIE        .v/v                                    :  
SOIL_DW            .v/v                                    :  
SP                 .мВ                                     : Потенциал самополяризации 
VSH_FIN            .v/v                                    : Описание 
VSH_GR             .v/v                                    : Shale volume 
VSH_SP             .v/v                                    : Shale Volume 
~Ascii
# ...
1070.2     0.211      289        -9999      -9999      5.786      2.822      4.282      3.037      2.692      2.365      3.942      2.391      2.363      1.223      3.934      0.1099704  0.1099704  0.2625365  0.3048436  4.45953    3.46       0.1458211  0.4632571  27.6       0.4623214  0.3523609  0.5722819 
1070.4     0.212      294        -9999      -9999      5.685      2.973      4.636      3.087      2.717      2.289      4.3        2.834      2.641      1.204      3.608      0.119209   0.119209   0.268702   0.4520623  5.093862   3.401      0.1973214  0.4821887  27.6       0.453009   0.3337362  0.5722819 
1070.6     0.22       297        -9999      -9999      5.811      2.57       4.358      3.012      2.541      2.138      3.243      2.024      1.933      1.199      3.282      0.1176997  0.1176997  0.2703245  0.4238798  4.315117   3.367      0.1845284  0.4790766  27.475     0.4624993  0.3571293  0.5678692 
1070.8     0.238      297        -9999      -9999      5.898      2.318      4.231      2.962      2.34       1.987      2.827      1.797      1.794      1.194      3.082      0.1186498  0.1186498  0.271947   0.4414088  3.848052   3.367      0.1902186  0.48258    27.101     0.4645368  0.3742319  0.5548418 
1071       0.23       291        -9999      -9999      5.811      2.167      4.079      2.912      2.214      1.912      2.669      1.898      1.731      1.179      3.082      0.1241897  0.1241897  0.2768145  0.5590531  4.315117   3.436      0.2291452  0.502018   27.475     0.4624993  0.3571293  0.5678692 
1071.2     0.226      292        -9999      -9999      5.898      2.116      4.282      2.912      2.239      1.887      2.808      1.506      1.883      1.141      3.132      0.1322377  0.1322377  0.2891455  0.7879922  3.848052   3.425      0.2690707  0.5259205  27.725     0.475478   0.3742319  0.5767241 
1071.4     0.226      297        -9999      -9999      5.736      2.192      3.978      2.987      2.314      1.887      2.89       1.923      2.009      1.124      3.207      0.1406769  0.1406769  0.294662   1.12937    4.763017   3.367      0.3018386  0.5383694  28.1       0.4666215  0.3430144  0.5902286 
1071.6     0.224      298        -9999      -9999      5.635      2.066      3.851      3.137      2.365      1.887      2.91       1.708      1.769      1.149      3.282      0.1348034  0.1348034  0.2865495  0.8791106  5.440514   3.356      0.2743041  0.521857   28.225     0.4598367  0.3248836  0.5947897 
1071.8     0.226      298        -9999      -9999      5.692      2.217      3.927      3.313      2.415      1.937      3.106      1.797      1.819      1.134      3.332      0.1402456  0.1402456  0.291417   1.108784   5.047124   3.356      0.298893   0.5338864  27.85      0.4580952  0.3349946  0.5811958 
1072       0.221      298        -9999      -9999      5.773      2.217      3.648      3.439      2.465      1.962      3.062      1.835      1.819      1.161      3.332      0.1252667  0.1252667  0.2826555  0.5853295  4.536526   3.356      0.2264154  0.5042655  28.474     0.4769359  0.3499066  0.6039652 
1072.2     0.225      299        -9999      -9999      5.598      2.267      3.826      3.514      2.44       1.987      2.995      1.48       1.744      1.174      3.358      0.1284994  0.1284994  0.278437   0.6718591  5.712141   3.344      0.2421203  0.5034584  28.1       0.4543564  0.3184842  0.5902286 
1072.4     0.225      303        -9999      -9999      5.498      2.393      3.978      3.614      2.44       2.013      3.128      1.596      1.866      1.149      3.383      0.1401104  0.1401104  0.2865495  1.102409   6.516057   3.3        0.292741   0.5248517  27.975     0.4437548  0.3018123  0.5856973 
1072.6     0.221      308        -9999      -9999      5.811      2.318      3.927      3.489      2.44       2.013      3.243      1.708      1.984      1.124      3.458      0.1360814  0.1360814  0.294662   0.9283596  4.315117   3.247      0.2690049  0.523967   28.474     0.4805472  0.3571293  0.6039652 
1072.8     0.218      311        -9999      -9999      6.011      2.242      3.851      3.388      2.465      2.038      2.808      1.911      1.883      1.107      3.508      0.1341405  0.1341405  0.3001785  0.854606   3.316045   3.215      0.2563533  0.5245538  28.599     0.5031454  0.3976743  0.6086165 
1073       0.227      316        -9999      -9999      6.149      2.192      3.775      3.238      2.491      1.962      2.827      1.645      1.832      1.092      3.658      0.1339542  0.1339542  0.305046   0.8478401  2.765052   3.165      0.2499556  0.5253735  28.599     0.5184602  0.4283037  0.6086165 
1073.2     0.219      322        -9999      -9999      6.099      2.116      3.623      3.087      2.44       2.063      2.932      1.961      1.958      1.089      3.658      0.1368022  0.1368022  0.3060195  0.9573427  2.953225   3.106      0.2570425  0.5255829  28.599     0.5127796  0.4169427  0.6086165 
1073.4     0.223      328        -9999      -9999      6.011      2.066      3.496      3.012      2.365      2.013      2.708      1.531      1.769      1.112      3.633      0.1340419  0.1340419  0.298556   0.8510186  3.316045   3.049      0.2371327  0.5099894  28.35      0.4985276  0.3976743  0.599381  
1073.6     0.23       323        -9999      -9999      5.848      2.041      3.42       2.987      2.34       2.013      2.574      1.923      1.643      1.114      3.809      0.1366025  0.1366025  0.297907   0.9492204  4.109922   3.096      0.2549696  0.5165094  28.724     0.4888017  0.3643052  0.6132981 
1073.8     0.219      321        -9999      -9999      5.723      1.99       3.395      2.962      2.44       2.063      2.464      2.176      1.592      1.07       3.959      0.1540102  0.1540102  0.312185   1.994344   4.845252   3.115      0.3307962  0.5526322  28.849     0.4793176  0.3406251  0.6180101 
1074       0.226      316        -9999      -9999      5.961      1.94       3.294      2.937      2.516      2.138      2.669      1.809      1.668      1.045      4.059      0.15288    0.15288    0.3202975  1.900495   3.541713   3.165      0.3315036  0.561935   29.099     0.5073258  0.3871257  0.6275258 
1074.2     0.226      307        -9999      -9999      5.635      1.889      3.167      2.912      2.591      2.214      2.593      2.024      1.718      1.065      4.159      0.1566599  0.1566599  0.3138075  2.232954   5.440514   3.257      0.3543143  0.5667338  29.099     0.4762047  0.3248836  0.6275258 
1074.4     0.221      297        -9999      -9999      5.773      2.066      3.37       2.937      2.692      2.289      2.827      1.923      1.718      1.089      4.31       0.1470907  0.1470907  0.3060195  1.484688   4.536526   3.367      0.3284288  0.5566446  28.724     0.4816023  0.3499066  0.6132981 
1074.6     0.219      287        -9999      -9999      5.698      2.041      3.218      3.012      2.818      2.415      3.039      2.1        1.933      1.134      4.485001   0.137824   0.137824   0.291417   0.999983   5.007407   3.484      0.3005702  0.5394899  28.225     0.4654334  0.3360771  0.5947897 
1074.8     0.219      276        -9999      -9999      5.585      2.141      3.37       3.112      2.969      2.667      3.128      2.505      1.946      1.193      4.635      0.1219473  0.1219473  0.2722715  0.5080641  5.810763   3.623      0.2360507  0.5066391  28.225     0.4555278  0.3162659  0.5947897 
1075       0.218      257        -9999      -9999      5.473      1.94       3.598      3.439      3.22       2.893      3.243      1.911      2.502      1.256      4.935999   0.1014997  0.1014997  0.251828   0.2124117  6.734128   3.891      0.1331533  0.4648435  28.724     0.4555403  0.2977825  0.6132981 
1075.2     0.217      238        6          6          5.385      2.444      4.332      3.815      3.522      3.069      4.33       1.151      1.883      1.303      5.337      0.08537865 0.08537865 0.2365765  0.1068016  7.561451   4.202      0.02793951 0.4296787  29.224     0.4581753  0.2840209  0.6323297 
