~Version
 VERS              .         2.0                           : CWLS LOG ASCII STANDARD - VERSION 2.0
 WRAP              .         NO                            : ONE LINE PER DEPTH STEP
 DLM               .         SPACE                         : DELIMITING CHARACTER(SPACE TAB OR COMMA)
~Well Information
#_______________________________________________________________________________
#
#PARAMETER_NAME    .UNIT     VALUE                         : DESCRIPTION
#_______________________________________________________________________________
STRT               .M        836.2                         : First reference value
STOP               .M        1231.4                        : Last reference value
STEP               .M        0.2                           : Step increment
NULL               .         -9999                         : Missing value
COMP               .                                       : Company
WELL               .         3891                          : Well name
FLD                .         Узень                         : Field
LOC                .                                       : Location
CNTY               .                                       : County
STAT               .                                       : State
CTRY               .                                       : Country
SRVC               .                                       : Service Company
DATE               .                                       : Date
UWI                .                                       : Unique Well ID
_скв_14_гор_       .         7                             : 
Block              .         7                             : 
Category           .         Нефтяная                      : 
Condition          .         В работе                      : 
Date               .         30.09.1990                    : 
EREF               .m        86.8                          : 100.8
Gorizont           .         14                            : 14
Interpretator      .         Бекбулатова А.А.              : 
Kupol              .         Основной                      : osnovnoi
METD               .         GZ1 GZ2                       : 
Mud                .         0                             : 
Mud_density        .         0                             : 
Mud_resistivity    .         0                             : 
NGDU               .         НГДУ-2                        : 
ORIGINALWELLNAME   .         3891                          : 
Spud_date          .         1990                          : 1961
Viscosity          .         0                             : 
X                  .m        42675                         : 46154
Y                  .m        84511.63                      : 85761.93
YEAR               .         2019                          : 
Отбивки_горизонт_14 .         1                             : 
~Parameter Information Block
#_______________________________________________________________________________
#
#PARAMETER_NAME    .UNIT     VALUE                         : DESCRIPTION
#_______________________________________________________________________________
SET                .         LQC_KAZNIPI_Petrel            : 
TLFamily_CALI      .         Caliper                       : 
TLFamily_CILD      .         Conductivity                  : 
TLFamily_COLL      .         Net Reservoir Flag            : 
TLFamily_CSAT      .         Fluid Code                    : 
TLFamily_DEPT      .         Measured Depth                : 
TLFamily_GR        .         Russian Gamma Ray             : 
TLFamily_GZ1       .         Gradient 045                  : 
TLFamily_GZ2       .         Gradient 105                  : 
TLFamily_GZ3       .         Gradient 225                  : 
TLFamily_GZ4       .         Gradient 425                  : 
TLFamily_GZ5       .         Gradient 850                  : 
TLFamily_LLS       .         Lateral Log Resistivity       : 
TLFamily_MINV      .         Micro Gradient Resistivity    : 
TLFamily_MNOR      .         Micro Resistivity             : 
TLFamily_NGLD      .         Neutron Gamma                 : 
TLFamily_OGZ       .         Gradient Inverted 225         : 
TLFamily_PHIE      .         Effective Porosity            : 
TLFamily_PHIEN     .         Effective Porosity            : 
TLFamily_PHIT      .         Porosity                      : 
TLFamily_PRMB      .         Permeability                  : 
TLFamily_PRMB_DGR  .         Permeability                  : 
TLFamily_RT        .         Formation Resistivity         : 
TLFamily_SOIL_ARCHIE .         Oil Saturation                : 
TLFamily_SOIL_DW   .         Oil Saturation                : 
TLFamily_SP        .         Spontaneous Potential         : 
TLFamily_VSH_FIN   .         Shale Volume                  : 
TLFamily_VSH_GR    .         Shale Volume                  : 
TLFamily_VSH_SP    .         Shale Volume                  : 
~Curve Information
#_______________________________________________________________________________
#
#LOGNAME           .UNIT     LOG_ID                        : DESCRIPTION
#_______________________________________________________________________________
DEPT               .M                                      : Колонка глубины 
CALI               .м                                      : Каверномер 
CILD               .мСм/м                                  : Индукционный каротаж 
COLL               .unitless                               : Описание 
CSAT               .unitless                               : Описание 
GR                 .uR/h                                   : Гамма каротаж 
GZ1                .Ом·м                                   :  
GZ2                .Ом·м                                   :  
GZ3                .Ом·м                                   :  
GZ4                .Ом·м                                   :  
GZ5                .Ом·м                                   :  
LLS                .Ohmm                                   : Боковой каротаж 
MINV               .Ohmm                                   : Микро-градиент зонд 
MNOR               .Ohmm                                   : Микро-потенциал зонд 
NGLD               .у.е.                                   : Показания зонда НГК-60 аппаратуры ДРСТ-3-90 
OGZ                .Ом·м                                   :  
PHIE               .v/v                                    : Описание 
PHIEN              .v/v                                    :  
PHIT               .v/v                                    : Описание 
PRMB               .mD                                     :  
PRMB_DGR           .mD                                     :  
RT                 .ohmm                                   : УЭС пласта 
SOIL_ARCHIE        .v/v                                    :  
SOIL_DW            .v/v                                    :  
SP                 .мВ                                     : Потенциал самополяризации 
VSH_FIN            .v/v                                    : Описание 
VSH_GR             .v/v                                    : Shale volume 
VSH_SP             .v/v                                    : Shale Volume 
~Ascii
# ...
1132.6     0.209      148        1          2          5.285      5.391      13.295     10.416     8.855      6.063001   6.925      1.468      2.198      1.281      4.209      0.205817   0.205817   0.2437155  18.1714    99.97634   6.757      0.6385348  0.6870223  6.244      0.1148439  0.09896678 0.130721  
1132.8     0.208      179        1          2          5.548      4.434      11.256     9.688      7.623      5.082      5.15       1.619      1.984      1.236      3.483      0.2165137  0.2165137  0.258318   28.67586   62.55619   5.587      0.621861   0.6742267  7.119      0.1266799  0.1198497  0.13351   
1133       0.207      207        1          2          5.698      3.804      9.324      9.362      6.39       4.252      3.747      1.506      1.744      1.196      2.907      0.2269226  0.2269226  0.271298   44.70082   47.87767   4.831      0.611384   0.6661314  7.618      0.1344709  0.1336779  0.1352638 
1133.2     0.208      224        1          2          5.685      3.199      8.032      8.584      5.333001   3.547      3.243      1.265      1.63       1.127      2.481      0.2493681  0.2493681  0.2936885  116.4288   49.00025   4.464      0.6285114  0.6811956  7.868      0.1343042  0.1324189  0.1361896 
1133.4     0.208      238        1          2          5.798      2.872      7.069      7.906      4.403      3.069      3.339      1.366      1.68       1.134      2.23       0.2452233  0.2452233  0.291417   97.56388   40.05977   4.202      0.6121963  0.6675788  7.868      0.1399809  0.1437722  0.1361896 
1133.6     0.21       252        1          2          5.635      2.721      6.207      7.178      3.723      2.742      3.315      1.291      1.655      1.144      1.904      0.2447853  0.2447853  0.288172   95.75818   53.56862   3.968      0.6010068  0.6554443  7.618      0.1314747  0.1276857  0.1352638 
1133.8     0.211      267        1          2          5.698      2.595      5.422      6.476      3.396      2.541      3.197      1.43       1.579      1.164      1.629      0.2369146  0.2369146  0.281682   68.45269   47.87767   3.745      0.5781916  0.6356342  8.243      0.1356589  0.1336779  0.1376398 
1134       0.209      282        1          2          5.711      2.469      4.814      5.798      3.069      2.44       3.083      1.366      1.579      1.186      1.478      0.2297267  0.2297267  0.274543   50.37957   46.78084   3.546      0.5554747  0.614975   7.993      0.1358069  0.134949   0.1366647 
1134.2     0.208      294        1          2          5.635      2.318      4.408      5.421      2.893      2.44       2.974      1.404      1.592      1.226      1.428      0.2176185  0.2176185  0.261563   30.05944   53.56862   3.401      0.5247893  0.5863431  8.492      0.1331652  0.1276857  0.1386446 
1134.4     0.208      304        1          2          5.999      2.267      4.231      5.196      2.943      2.591      2.869      1.518      1.554      1.199      1.403      0.2195465  0.2195465  0.2703245  32.63556   27.99526   3.289      0.5209571  0.5888206  9.117      0.1538729  0.166426   0.1413198 
1134.6     0.208      317        1          2          6.237      2.343      4.307      5.371      3.069      2.767      3.017      1.468      1.516      1.164      1.478      0.2248189  0.2248189  0.281682   40.86484   18.31529   3.155      0.5215077  0.5941385  10.241     0.1723123  0.1979088  0.1467159 
1134.8     0.208      340        1          2          6.412      2.519      4.662      5.497001   3.371      2.943      3.083      1.404      1.541      1.139      1.604      0.2244881  0.2244881  0.2897945  40.29226   13.40666   2.941      0.5048388  0.5862455  13.987     0.1978982  0.2247975  0.1709989 
1135       0.209      366        0          0          6.725      2.444      4.155      5.045      3.774      3.094      2.91       1.645      1.643      1.176      1.629      0.1990534  0.1990534  0.277788   13.61791   7.673288   2.732      0.4308142  0.5373992  16.61      0.2385896  0.2823233  0.194856  
1135.2     0.21       392        0          0          6.976      2.141      3.674      4.543      3.899      3.296      2.464      1.582      1.478      1.179      1.679      0.1847505  0.1847505  0.2768145  7.399208   4.905073   2.551      0.3727667  0.5053606  18.733     0.2789818  0.3389226  0.219041  
1135.4     0.211      411        0          0          7.032      1.94       3.344      4.292      3.95       3.421      2.18       1.43       1.314      1.161      1.829      0.1861122  0.1861122  0.2826555  7.84165    4.439023   2.433      0.3627595  0.5012301  19.732     0.2925555  0.3530247  0.2320862 
1135.6     0.211      429        0          0          7.089      1.864      3.674      4.518001   4.327      3.472      2.149      1.392      1.428      1.164      2.105      0.1806342  0.1806342  0.281682   6.207861   4.010102   2.331      0.3326832  0.4831578  20.606     0.3062054  0.3679813  0.2444295 
1135.8     0.211      460        0          0          6.963      2.192      4.104      4.166      4.73       3.472      2.574      1.461      1.598      1.161      2.155      0.1834234  0.1834234  0.2826555  6.992035   5.020081   2.174      0.3196275  0.4692251  21.98      0.3007035  0.3357303  0.2656766 
1136       0.212      500        0          0          6.826      1.738      2.483      3.338      5.057      3.27       1.957      1.531      1.769      1.134      1.804      0.1927931  0.1927931  0.291417   10.42688   6.408881   2          0.3225094  0.4674501  23.604     0.2988603  0.3038632  0.2938575 
1136.2     0.217      539        0          0          7.013      1.587      2.179      2.56       4.075      2.918      1.645      0.898      0.973      1.109      1.629      0.1916543  0.1916543  0.2995295  9.932558   4.591962   1.855      0.2945236  0.4546616  24.228     0.3268945  0.3481755  0.3056135 
1136.4     0.214      559        0          0          7.089      1.411      1.926      2.133      3.321      2.591      1.53       1.379      1.036      1.079      1.453      0.1985169  0.1985169  0.3092645  13.30986   4.010102   1.789      0.3040814  0.4628691  24.103     0.3355987  0.3679813  0.3032161 
1136.6     0.216      570        0          0          7.151      1.209      1.774      1.782      2.893      2.264      1.455      1.278      0.948      1.097      1.303      0.1910353  0.1910353  0.3034235  9.673779   3.590477   1.754      0.2737002  0.4427516  23.729     0.3405702  0.3849701  0.2961702 
1136.8     0.218      564        0          0          7.064      1.159      1.647      1.606      2.591      2.088      1.519      1.075      0.872      1.047      1.278      0.2133444  0.2133444  0.3196485  25.05031   4.192871   1.773      0.3436389  0.4861919  22.997     0.3221337  0.3613449  0.2829226 
1137       0.219      551        0          0          6.988      1.108      1.495      1.481      2.415      1.987      1.609      1.151      0.935      1.022      1.303      0.2264877  0.2264877  0.327761   43.87922   4.801251   1.815      0.3837477  0.5117297  22.355     0.306889   0.3418963  0.2718816 
1137.2     0.216      520        0          0          7.151      1.058      1.343      1.556      2.318      2.239      1.705      1.253      0.897      1.087      1.553      0.1996466  0.1996466  0.3066685  13.96679   3.590477   1.705      0.2917066  0.4483043  21.855     0.3243089  0.3849701  0.2636476 
1137.4     0.215      475        0          0          6.988      1.234      1.672      1.807      2.633      2.44       2.103      1.341      0.948      1.107      1.804      0.2043242  0.2043242  0.3001785  17.05053   4.801251   2.103      0.3709338  0.5016421  20.232     0.2904676  0.3418963  0.2390388 
1137.6     0.214      439        1          2          6.876      1.688      2.204      2.108      2.948      2.642      3.083      1.354      1.226      1.124      2.08       0.2130714  0.2130714  0.294662   24.76039   5.862327   3.083      0.4931498  0.5910051  14.987     0.2472443  0.3151269  0.1793616 
