~Version
 VERS              .         2.0                           : CWLS LOG ASCII STANDARD - VERSION 2.0
 WRAP              .         NO                            : ONE LINE PER DEPTH STEP
 DLM               .         SPACE                         : DELIMITING CHARACTER(SPACE TAB OR COMMA)
~Well Information
#_______________________________________________________________________________
#
#PARAMETER_NAME    .UNIT     VALUE                         : DESCRIPTION
#_______________________________________________________________________________
STRT               .M        836.2                         : First reference value
STOP               .M        1231.4                        : Last reference value
STEP               .M        0.2                           : Step increment
NULL               .         -9999                         : Missing value
COMP               .                                       : Company
WELL               .         3891                          : Well name
FLD                .         Узень                         : Field
LOC                .                                       : Location
CNTY               .                                       : County
STAT               .                                       : State
CTRY               .                                       : Country
SRVC               .                                       : Service Company
DATE               .                                       : Date
UWI                .                                       : Unique Well ID
_скв_14_гор_       .         7                             : 
Block              .         7                             : 
Category           .         Нефтяная                      : 
Condition          .         В работе                      : 
Date               .         30.09.1990                    : 
EREF               .m        86.8                          : 100.8
Gorizont           .         14                            : 14
Interpretator      .         Бекбулатова А.А.              : 
Kupol              .         Основной                      : osnovnoi
METD               .         GZ1 GZ2                       : 
Mud                .         0                             : 
Mud_density        .         0                             : 
Mud_resistivity    .         0                             : 
NGDU               .         НГДУ-2                        : 
ORIGINALWELLNAME   .         3891                          : 
Spud_date          .         1990                          : 1961
Viscosity          .         0                             : 
X                  .m        42675                         : 46154
Y                  .m        84511.63                      : 85761.93
YEAR               .         2019                          : 
Отбивки_горизонт_14 .         1                             : 
~Parameter Information Block
#_______________________________________________________________________________
#
#PARAMETER_NAME    .UNIT     VALUE                         : DESCRIPTION
#_______________________________________________________________________________
SET                .         LQC_KAZNIPI_Petrel            : 
TLFamily_CALI      .         Caliper                       : 
TLFamily_CILD      .         Conductivity                  : 
TLFamily_COLL      .         Net Reservoir Flag            : 
TLFamily_CSAT      .         Fluid Code                    : 
TLFamily_DEPT      .         Measured Depth                : 
TLFamily_GR        .         Russian Gamma Ray             : 
TLFamily_GZ1       .         Gradient 045                  : 
TLFamily_GZ2       .         Gradient 105                  : 
TLFamily_GZ3       .         Gradient 225                  : 
TLFamily_GZ4       .         Gradient 425                  : 
TLFamily_GZ5       .         Gradient 850                  : 
TLFamily_LLS       .         Lateral Log Resistivity       : 
TLFamily_MINV      .         Micro Gradient Resistivity    : 
TLFamily_MNOR      .         Micro Resistivity             : 
TLFamily_NGLD      .         Neutron Gamma                 : 
TLFamily_OGZ       .         Gradient Inverted 225         : 
TLFamily_PHIE      .         Effective Porosity            : 
TLFamily_PHIEN     .         Effective Porosity            : 
TLFamily_PHIT      .         Porosity                      : 
TLFamily_PRMB      .         Permeability                  : 
TLFamily_PRMB_DGR  .         Permeability                  : 
TLFamily_RT        .         Formation Resistivity         : 
TLFamily_SOIL_ARCHIE .         Oil Saturation                : 
TLFamily_SOIL_DW   .         Oil Saturation                : 
TLFamily_SP        .         Spontaneous Potential         : 
TLFamily_VSH_FIN   .         Shale Volume                  : 
TLFamily_VSH_GR    .         Shale Volume                  : 
TLFamily_VSH_SP    .         Shale Volume                  : 
~Curve Information
#_______________________________________________________________________________
#
#LOGNAME           .UNIT     LOG_ID                        : DESCRIPTION
#_______________________________________________________________________________
DEPT               .M                                      : Колонка глубины 
CALI               .м                                      : Каверномер 
CILD               .мСм/м                                  : Индукционный каротаж 
COLL               .unitless                               : Описание 
CSAT               .unitless                               : Описание 
GR                 .uR/h                                   : Гамма каротаж 
GZ1                .Ом·м                                   :  
GZ2                .Ом·м                                   :  
GZ3                .Ом·м                                   :  
GZ4                .Ом·м                                   :  
GZ5                .Ом·м                                   :  
LLS                .Ohmm                                   : Боковой каротаж 
MINV               .Ohmm                                   : Микро-градиент зонд 
MNOR               .Ohmm                                   : Микро-потенциал зонд 
NGLD               .у.е.                                   : Показания зонда НГК-60 аппаратуры ДРСТ-3-90 
OGZ                .Ом·м                                   :  
PHIE               .v/v                                    : Описание 
PHIEN              .v/v                                    :  
PHIT               .v/v                                    : Описание 
PRMB               .mD                                     :  
PRMB_DGR           .mD                                     :  
RT                 .ohmm                                   : УЭС пласта 
SOIL_ARCHIE        .v/v                                    :  
SOIL_DW            .v/v                                    :  
SP                 .мВ                                     : Потенциал самополяризации 
VSH_FIN            .v/v                                    : Описание 
VSH_GR             .v/v                                    : Shale volume 
VSH_SP             .v/v                                    : Shale Volume 
~Ascii
# ...
981.8      0.234      351        -9999      -9999      5.047      -9999      -9999      2.41       -9999      -9999      2.458      1.177      1.226      1.007      2.781      0.1414576  0.1414576  0.3326285  1.167605   1.409632   2.849      0.2485363  0.5357385  32.346     0.5793058  0.5639353  0.5946763 
982        0.25       341        -9999      -9999      4.846      -9999      -9999      2.56       -9999      -9999      2.65       1.594      1.605      1.025      2.756      0.1442333  0.1442333  0.3267875  1.314344   1.712894   2.933      0.271154   0.5406334  32.096     0.5531945  0.5208037  0.5855853 
982.2000000000001 0.239      333        -9999      -9999      4.884      -9999      -9999      2.635      -9999      -9999      2.869      1.227      1.365      1.027      2.731      0.1437623  0.1437623  0.3261385  1.288203   1.650943   3.003      0.2771198  0.5448979  31.846     0.5526553  0.5286971  0.5766135 
982.4      0.242      341        -9999      -9999      5.184      -9999      -9999      2.686      -9999      -9999      3.017      0.734      1.137      1.037      2.556      0.1272895  0.1272895  0.3228935  0.6380702  1.234315   2.933      0.1873472  0.5153874  32.221     0.5927395  0.5953631  0.5901158 
982.6      0.245      342        -9999      -9999      4.946      -9999      -9999      2.736      -9999      -9999      2.767      0.949      1.112      1.037      2.455      0.134612   0.134612   0.3228935  0.8719644  1.554636   2.924      0.2248694  0.5244415  32.471     0.5705501  0.5418334  0.5992668 
982.8      0.24       340        -9999      -9999      5.084      -9999      -9999      2.736      -9999      -9999      2.727      0.645      1.099      1.02       2.38       0.1343464  0.1343464  0.32841    0.8621423  1.359965   2.941      0.2256442  0.5305398  32.596     0.5880716  0.5722558  0.6038873 
983        0.245      351        -9999      -9999      5.31       -9999      -9999      2.711      -9999      -9999      2.593      1.278      0.948      0.998      2.28       0.128768   0.128768   0.335549   0.6795993  1.092389   2.849      0.1844343  0.5222292  33.22      0.6266092  0.6258113  0.6274071 
983.2000000000001 0.248      357        -9999      -9999      5.26       -9999      -9999      2.661      -9999      -9999      2.43       1.006      1.081      1.052      2.155      0.1179118  0.1179118  0.318026   0.4277305  1.146643   2.801      0.1123613  0.4853062  32.471     0.6064067  0.6135467  0.5992668 
983.4      0.26       355        -9999      -9999      5.222      -9999      -9999      2.661      -9999      -9999      2.18       1.215      1.529      1.017      2.13       0.1337808  0.1337808  0.3293835  0.8415945  1.189671   2.817      0.206923   0.5204808  31.971     0.5927355  0.6043865  0.5810845 
983.6      0.251      351        -9999      -9999      5.147      -9999      -9999      2.736      -9999      -9999      2.412      1.556      1.327      0.995      2.13       0.1415943  0.1415943  0.3365225  1.174433   1.279392   2.849      0.2491684  0.5393007  32.346     0.5906914  0.5867066  0.5946763 
983.8      0.24       341        -9999      -9999      5.021      -9999      -9999      2.811      -9999      -9999      2.65       1.012      1.365      1.015      2.13       0.142057   0.142057   0.3300325  1.197839   1.445613   2.933      0.2614385  0.5408892  31.971     0.5696228  0.558161   0.5810845 
984        0.231      367        -9999      -9999      5.097      -9999      -9999      2.836      -9999      -9999      2.727      1.923      1.011      1.002      2.08       0.1442004  0.1442004  0.334251   1.3125     1.342933   2.725      0.2454066  0.5300971  31.846     0.5759109  0.5752084  0.5766135 
984.2000000000001 0.228      387        -9999      -9999      5.234      -9999      -9999      2.836      -9999      -9999      2.708      0.949      1.263      1.02       2.055      0.1345252  0.1345252  0.32841    0.8687413  1.175912   2.584      0.1781146  0.4994023  31.597     0.5875298  0.6072643  0.5677954 
984.4      0.24       385        -9999      -9999      5.385      -9999      -9999      2.836      -9999      -9999      2.65       0.822      1.074      1.02       2.004      0.1290764  0.1290764  0.32841    0.6885996  1.015782   2.597      0.1499825  0.4930921  31.472     0.6040411  0.6446696  0.5634126 
984.6      0.25       378        -9999      -9999      5.473      -9999      -9999      2.786      -9999      -9999      2.447      0.987      0.986      1          2.004      0.1325141  0.1325141  0.3349     0.7973334  0.9327196  2.646      0.1764755  0.5087349  31.347     0.6132907  0.6675224  0.5590591 
984.8      0.251      405        -9999      -9999      5.385      -9999      -9999      2.711      -9999      -9999      2.293      0.822      1.2        0.978      2.03       0.1412601  0.1412601  0.342039   1.157812   1.015782   2.469      0.1953424  0.509755   31.721     0.6084208  0.6446696  0.5721721 
985        0.253      421        -9999      -9999      5.285      -9999      -9999      2.635      -9999      -9999      2.165      0.911      0.998      0.943      2.105      0.1530329  0.1530329  0.3533965  1.912928   1.119187   2.375      0.235737   0.5245926  32.346     0.6071624  0.6196486  0.5946763 
985.2000000000001 0.248      440        -9999      -9999      5.347      -9999      -9999      2.56       -9999      -9999      2.117      1.075      0.91       0.935      2.18       0.153841   0.153841   0.3559925  1.980007   1.0539     2.273      0.223401   0.5172191  32.221     0.6125803  0.6350448  0.5901158 
985.4      0.244      461        -9999      -9999      5.523      -9999      -9999      2.435      -9999      -9999      2.043      0.949      0.884      0.975      2.28       0.134048   0.134048   0.3430125  0.851242   0.8885874  2.169      0.104976   0.4678455  32.096     0.6332256  0.6808659  0.5855853 
985.6      0.251      481        -9999      -9999      5.285      -9999      -9999      2.259      -9999      -9999      1.86       0.848      0.96       0.955      2.38       0.1498914  0.1498914  0.3495025  1.673055   1.119187   2.079      0.1716456  0.4843706  32.221     0.6048822  0.6196486  0.5901158 
985.8      0.256      492        -9999      -9999      5.46       -9999      -9999      2.108      -9999      -9999      1.705      0.848      1.023      0.933      2.481      0.1474243  0.1474243  0.3566415  1.505958   0.9445487  2.033      0.1507145  0.4820299  32.596     0.6339917  0.6640961  0.6038873 
986        0.25       480        -9999      -9999      5.585      -9999      -9999      1.958      -9999      -9999      1.742      0.607      1.112      0.948      2.506      0.1354648  0.1354648  0.351774   0.9042632  0.8367521  2.083      0.09613615 0.4676828  32.845     0.6554824  0.6977832  0.6131817 
986.2000000000001 0.244      465        -9999      -9999      5.435      -9999      -9999      1.933      -9999      -9999      1.943      1.063      1.023      0.983      2.455      0.129185   0.129185   0.3404165  0.6917947  0.9677202  2.151      0.07208015 0.4558352  33.095     0.6400955  0.6575564  0.6226347 
986.4      0.238      452        -9999      -9999      5.297      -9999      -9999      1.933      -9999      -9999      2.149      0.911      1.137      1.01       2.631      0.1277512  0.1277512  0.331655   0.6507587  1.106243   2.212      0.07523161 0.4521544  32.845     0.6178904  0.6225991  0.6131817 
986.6      0.232      455        -9999      -9999      5.172      -9999      -9999      1.908      -9999      -9999      2.134      1.037      1.251      1.032      2.706      0.1286251  0.1286251  0.324516   0.6754699  1.248757   2.198      0.07796293 0.444087   32.346     0.593609   0.5925416  0.5946763 
986.8      0.253      442        -9999      -9999      4.934      -9999      -9999      1.857      -9999      -9999      1.957      1.24       1.15       1.05       2.681      0.1285212  0.1285212  0.318675   0.6724854  1.572827   2.262      0.08965816 0.4454711  32.845     0.5762236  0.5392656  0.6131817 
