~Version
 VERS              .         2.0                           : CWLS LOG ASCII STANDARD - VERSION 2.0
 WRAP              .         NO                            : ONE LINE PER DEPTH STEP
 DLM               .         SPACE                         : DELIMITING CHARACTER(SPACE TAB OR COMMA)
~Well Information
#_______________________________________________________________________________
#
#PARAMETER_NAME    .UNIT     VALUE                         : DESCRIPTION
#_______________________________________________________________________________
STRT               .M        836.2                         : First reference value
STOP               .M        1231.4                        : Last reference value
STEP               .M        0.2                           : Step increment
NULL               .         -9999                         : Missing value
COMP               .                                       : Company
WELL               .         3891                          : Well name
FLD                .         Узень                         : Field
LOC                .                                       : Location
CNTY               .                                       : County
STAT               .                                       : State
CTRY               .                                       : Country
SRVC               .                                       : Service Company
DATE               .                                       : Date
UWI                .                                       : Unique Well ID
_скв_14_гор_       .         7                             : 
Block              .         7                             : 
Category           .         Нефтяная                      : 
Condition          .         В работе                      : 
Date               .         30.09.1990                    : 
EREF               .m        86.8                          : 100.8
Gorizont           .         14                            : 14
Interpretator      .         Бекбулатова А.А.              : 
Kupol              .         Основной                      : osnovnoi
METD               .         GZ1 GZ2                       : 
Mud                .         0                             : 
Mud_density        .         0                             : 
Mud_resistivity    .         0                             : 
NGDU               .         НГДУ-2                        : 
ORIGINALWELLNAME   .         3891                          : 
Spud_date          .         1990                          : 1961
Viscosity          .         0                             : 
X                  .m        42675                         : 46154
Y                  .m        84511.63                      : 85761.93
YEAR               .         2019                          : 
Отбивки_горизонт_14 .         1                             : 
~Parameter Information Block
#_______________________________________________________________________________
#
#PARAMETER_NAME    .UNIT     VALUE                         : DESCRIPTION
#_______________________________________________________________________________
SET                .         LQC_KAZNIPI_Petrel            : 
TLFamily_CALI      .         Caliper                       : 
TLFamily_CILD      .         Conductivity                  : 
TLFamily_COLL      .         Net Reservoir Flag            : 
TLFamily_CSAT      .         Fluid Code                    : 
TLFamily_DEPT      .         Measured Depth                : 
TLFamily_GR        .         Russian Gamma Ray             : 
TLFamily_GZ1       .         Gradient 045                  : 
TLFamily_GZ2       .         Gradient 105                  : 
TLFamily_GZ3       .         Gradient 225                  : 
TLFamily_GZ4       .         Gradient 425                  : 
TLFamily_GZ5       .         Gradient 850                  : 
TLFamily_LLS       .         Lateral Log Resistivity       : 
TLFamily_MINV      .         Micro Gradient Resistivity    : 
TLFamily_MNOR      .         Micro Resistivity             : 
TLFamily_NGLD      .         Neutron Gamma                 : 
TLFamily_OGZ       .         Gradient Inverted 225         : 
TLFamily_PHIE      .         Effective Porosity            : 
TLFamily_PHIEN     .         Effective Porosity            : 
TLFamily_PHIT      .         Porosity                      : 
TLFamily_PRMB      .         Permeability                  : 
TLFamily_PRMB_DGR  .         Permeability                  : 
TLFamily_RT        .         Formation Resistivity         : 
TLFamily_SOIL_ARCHIE .         Oil Saturation                : 
TLFamily_SOIL_DW   .         Oil Saturation                : 
TLFamily_SP        .         Spontaneous Potential         : 
TLFamily_VSH_FIN   .         Shale Volume                  : 
TLFamily_VSH_GR    .         Shale Volume                  : 
TLFamily_VSH_SP    .         Shale Volume                  : 
~Curve Information
#_______________________________________________________________________________
#
#LOGNAME           .UNIT     LOG_ID                        : DESCRIPTION
#_______________________________________________________________________________
DEPT               .M                                      : Колонка глубины 
CALI               .м                                      : Каверномер 
CILD               .мСм/м                                  : Индукционный каротаж 
COLL               .unitless                               : Описание 
CSAT               .unitless                               : Описание 
GR                 .uR/h                                   : Гамма каротаж 
GZ1                .Ом·м                                   :  
GZ2                .Ом·м                                   :  
GZ3                .Ом·м                                   :  
GZ4                .Ом·м                                   :  
GZ5                .Ом·м                                   :  
LLS                .Ohmm                                   : Боковой каротаж 
MINV               .Ohmm                                   : Микро-градиент зонд 
MNOR               .Ohmm                                   : Микро-потенциал зонд 
NGLD               .у.е.                                   : Показания зонда НГК-60 аппаратуры ДРСТ-3-90 
OGZ                .Ом·м                                   :  
PHIE               .v/v                                    : Описание 
PHIEN              .v/v                                    :  
PHIT               .v/v                                    : Описание 
PRMB               .mD                                     :  
PRMB_DGR           .mD                                     :  
RT                 .ohmm                                   : УЭС пласта 
SOIL_ARCHIE        .v/v                                    :  
SOIL_DW            .v/v                                    :  
SP                 .мВ                                     : Потенциал самополяризации 
VSH_FIN            .v/v                                    : Описание 
VSH_GR             .v/v                                    : Shale volume 
VSH_SP             .v/v                                    : Shale Volume 
~Ascii
# ...
1221       0.213      420        -9999      -9999      6.613      2.267      3.066      2.836      -9999      1.711      2.43       2.505      1.731      1.313      2.631      0.1260092  0.1260092  0.2333315  0.6041637  6.881994   2.381      0.1084663  0.3477715  6.994      0.3252191  0.2951532  0.355285  
1221.2     0.211      427        -9999      -9999      6.8        1.94       2.483      2.259      -9999      1.535      2.277      1.708      1.567      1.214      2.305      0.1572757  0.1572757  0.265457   2.292377   4.857729   2.342      0.2592593  0.4428653  5.12       0.3278221  0.3402675  0.3153767 
1221.4     0.208      431        -9999      -9999      7.039      1.763      2.28       1.882      -9999      1.384      2.043      1.873      1.377      1.187      1.879      0.1602546  0.1602546  0.2742185  2.602924   3.112328   2.32       0.2680312  0.4551283  3.372      0.3453452  0.4081041  0.2825864 
1221.6     0.206      425        -9999      -9999      7.239      1.663      2.407      1.657      -9999      1.182      1.985      1.417      1.453      1.168      1.654      0.1581492  0.1581492  0.280384   2.37939    2.144312   2.353      0.2644431  0.4633206  2.373      0.3704084  0.4751581  0.2656586 
1221.8     0.206      429        -9999      -9999      7.258      1.612      2.508      1.556      -9999      1.082      2.014      1.885      1.238      1.141      1.553      0.1667641  0.1667641  0.2891455  3.435839   2.069747   2.331      0.2945471  0.4817519  1.998      0.3708529  0.482075   0.2596307 
1222       0.208      431        -9999      -9999      6.738      1.637      2.61       1.556      -9999      1.031      2.018      1.657      1.365      1.171      1.553      0.1816809  0.1816809  0.2794105  6.491275   5.452439   2.32       0.3438146  0.4878519  2.498      0.2961502  0.3245933  0.2677071 
1222.2     0.211      437        -9999      -9999      6.851      1.713      2.61       1.606      -9999      0.981      2.057      1.822      1.478      1.187      1.604      0.1688624  0.1688624  0.2742185  3.757504   4.417488   2.288      0.2960645  0.4627638  3.497      0.3192609  0.3537265  0.2847953 
1222.4     0.215      445        -9999      -9999      6.876      1.763      2.534      1.657      -9999      0.931      2.028      1.695      1.365      1.2        1.654      0.1660017  0.1660017  0.27       3.325929   4.216484   2.247      0.2794225  0.449062   2.623      0.3151462  0.3605172  0.2697752 
1222.6     0.208      456        -9999      -9999      6.863      1.688      2.407      1.682      -9999      0.881      2.073      1.556      1.541      1.22       1.679      0.1689807  0.1689807  0.26351    3.776512   4.319837   2.193      0.2823536  0.4382728  -1.124     0.2864524  0.3569699  0.2159348 
1222.8     0.206      466        -9999      -9999      6.788      1.688      2.255      1.657      -9999      0.855      2.103      1.974      1.769      1.205      1.654      0.1814252  0.1814252  0.2683775  6.420843   4.96754    2.146      0.3185282  0.4543712  -3.497     0.2634919  0.3371758  0.189808  
1223       0.208      472        -9999      -9999      6.763      1.612      2.128      1.631      -9999      0.78       2.028      1.784      1.668      1.199      1.604      0.185592   0.185592   0.2703245  7.669584   5.204343   2.119      0.3278918  0.458327   -4.246     0.2567652  0.3308248  0.1827056 
1223.2     0.211      479        -9999      -9999      6.713      1.587      2.128      1.732      -9999      0.73       1.807      1.354      1.39       1.189      1.729      0.1912462  0.1912462  0.2735695  9.761164   5.712361   2.088      0.3406879  0.464807   -4.496     0.2494646  0.3184792  0.1804499 
1223.4     0.208      487        -9999      -9999      6.537      1.612      2.154      1.832      -9999      0.73       1.807      1.164      1.233      1.181      1.854      0.2004264  0.2004264  0.2761655  14.43915   7.928612   2.053      0.3620279  0.4735861  -4.496     0.2295124  0.2785749  0.1804499 
1223.6     0.204      499        -9999      -9999      6.625      1.637      2.128      1.707      -9999      0.73       1.9        0.848      1.251      1.173      1.704      0.1998404  0.1998404  0.2787615  14.08276   6.729864   2.004      0.3531072  0.4694459  -4.496     0.2391547  0.2978596  0.1804499 
1223.8     0.2        509        -9999      -9999      6.525      1.637      2.052      1.606      -9999      0.78       1.9        1.037      1.314      1.232      1.604      0.1685215  0.1685215  0.259616   3.703264   8.107836   1.965      0.2426223  0.4006603  -9999      0.276044   0.2760437  -9999     
1224       0.198      518        -9999      -9999      6.462      1.612      2.103      1.531      -9999      0.981      1.886      1.265      1.415      1.203      -9999      0.1821943  0.1821943  0.2690265  6.634957   9.11741    1.931      0.2865521  0.4266134  -9999      0.263128   0.2631277  -9999     
1224.2     0.199      524        -9999      -9999      6.387      1.612      2.052      1.581      -9999      1.157      1.971      1.177      1.428      1.17       -9999      0.1977178  0.1977178  0.279735   12.86386   10.48444   1.908      0.3318471  0.4549587  -9999      0.248537   0.2485372  -9999     
1224.4     0.198      523        -9999      -9999      6.375      1.637      2.078      1.707      -9999      1.409      1.943      1.113      1.39       1.197      -9999      0.1897014  0.1897014  0.2709735  9.138789   10.72144   1.912      0.3080024  0.4356917  -9999      0.246279   0.246279   -9999     
1224.6     0.2        518        -9999      -9999      6.525      1.637      2.078      1.857      -9999      1.56       1.9        1.202      1.415      1.204      -9999      0.1776075  0.1776075  0.268702   5.456064   8.107836   1.931      0.2705311  0.4201644  -9999      0.276044   0.2760437  -9999     
1224.8     0.203      513        -9999      -9999      6.537      1.612      2.052      1.933      -9999      1.61       1.886      1.417      1.466      1.169      -9999      0.1881297  0.1881297  0.2800595  8.546282   7.928612   1.949      0.3092112  0.449914   -9999      0.278575   0.2785749  -9999     
1225       0.206      509        -9999      -9999      6.775      1.612      2.052      1.983      -9999      1.635      1.886      1.227      1.39       1.139      -9999      0.1796213  0.1796213  0.2897945  5.945399   5.089301   1.965      0.2835518  0.4528927  -9999      0.333858   0.3338582  -9999     
1225.2     0.207      503        -9999      -9999      6.638      1.612      2.052      1.983      -9999      1.635      1.9        1.075      1.377      1.121      -9999      0.1963649  0.1963649  0.2956355  12.14261   6.568852   1.988      0.3406709  0.4816369  -9999      0.30082    0.3008195  -9999     
1225.4     0.207      499        -9999      -9999      6.901      1.612      2.052      1.958      -9999      1.635      1.914      1.253      1.44       1.111      -9999      0.177626   0.177626   0.2988805  5.460372   4.024627   2.004      0.2831885  0.4657277  -9999      0.367438   0.3674383  -9999     
1225.6     0.206      497        -9999      -9999      6.8        1.612      2.052      1.958      -9999      1.635      1.914      1.189      1.39       1.119      -9999      0.1839961  0.1839961  0.2962845  7.164929   4.857729   2.012      0.30615    0.4715742  -9999      0.340268   0.3402675  -9999     
1225.8     0.206      497        -9999      -9999      6.725      1.612      2.052      1.933      -9999      1.635      1.886      1.139      1.428      1.116      -9999      0.191196   0.191196   0.297258   9.74028    5.586086   2.012      0.3289627  0.4807672  -9999      0.3214     0.3213995  -9999     
1226       0.206      504        -9999      -9999      6.851      1.637      2.027      -9999      -9999      1.635      1.9        1.126      1.352      1.105      -9999      0.1840979  0.1840979  0.3008275  7.196115   4.417488   1.984      0.3019084  0.4727761  -9999      0.353726   0.3537265  -9999     
