~Version
 VERS              .         2.0                           : CWLS LOG ASCII STANDARD - VERSION 2.0
 WRAP              .         NO                            : ONE LINE PER DEPTH STEP
 DLM               .         SPACE                         : DELIMITING CHARACTER(SPACE TAB OR COMMA)
~Well Information
#_______________________________________________________________________________
#
#PARAMETER_NAME    .UNIT     VALUE                         : DESCRIPTION
#_______________________________________________________________________________
STRT               .M        836.2                         : First reference value
STOP               .M        1231.4                        : Last reference value
STEP               .M        0.2                           : Step increment
NULL               .         -9999                         : Missing value
COMP               .                                       : Company
WELL               .         3891                          : Well name
FLD                .         Узень                         : Field
LOC                .                                       : Location
CNTY               .                                       : County
STAT               .                                       : State
CTRY               .                                       : Country
SRVC               .                                       : Service Company
DATE               .                                       : Date
UWI                .                                       : Unique Well ID
_скв_14_гор_       .         7                             : 
Block              .         7                             : 
Category           .         Нефтяная                      : 
Condition          .         В работе                      : 
Date               .         30.09.1990                    : 
EREF               .m        86.8                          : 100.8
Gorizont           .         14                            : 14
Interpretator      .         Бекбулатова А.А.              : 
Kupol              .         Основной                      : osnovnoi
METD               .         GZ1 GZ2                       : 
Mud                .         0                             : 
Mud_density        .         0                             : 
Mud_resistivity    .         0                             : 
NGDU               .         НГДУ-2                        : 
ORIGINALWELLNAME   .         3891                          : 
Spud_date          .         1990                          : 1961
Viscosity          .         0                             : 
X                  .m        42675                         : 46154
Y                  .m        84511.63                      : 85761.93
YEAR               .         2019                          : 
Отбивки_горизонт_14 .         1                             : 
~Parameter Information Block
#_______________________________________________________________________________
#
#PARAMETER_NAME    .UNIT     VALUE                         : DESCRIPTION
#_______________________________________________________________________________
SET                .         LQC_KAZNIPI_Petrel            : 
TLFamily_CALI      .         Caliper                       : 
TLFamily_CILD      .         Conductivity                  : 
TLFamily_COLL      .         Net Reservoir Flag            : 
TLFamily_CSAT      .         Fluid Code                    : 
TLFamily_DEPT      .         Measured Depth                : 
TLFamily_GR        .         Russian Gamma Ray             : 
TLFamily_GZ1       .         Gradient 045                  : 
TLFamily_GZ2       .         Gradient 105                  : 
TLFamily_GZ3       .         Gradient 225                  : 
TLFamily_GZ4       .         Gradient 425                  : 
TLFamily_GZ5       .         Gradient 850                  : 
TLFamily_LLS       .         Lateral Log Resistivity       : 
TLFamily_MINV      .         Micro Gradient Resistivity    : 
TLFamily_MNOR      .         Micro Resistivity             : 
TLFamily_NGLD      .         Neutron Gamma                 : 
TLFamily_OGZ       .         Gradient Inverted 225         : 
TLFamily_PHIE      .         Effective Porosity            : 
TLFamily_PHIEN     .         Effective Porosity            : 
TLFamily_PHIT      .         Porosity                      : 
TLFamily_PRMB      .         Permeability                  : 
TLFamily_PRMB_DGR  .         Permeability                  : 
TLFamily_RT        .         Formation Resistivity         : 
TLFamily_SOIL_ARCHIE .         Oil Saturation                : 
TLFamily_SOIL_DW   .         Oil Saturation                : 
TLFamily_SP        .         Spontaneous Potential         : 
TLFamily_VSH_FIN   .         Shale Volume                  : 
TLFamily_VSH_GR    .         Shale Volume                  : 
TLFamily_VSH_SP    .         Shale Volume                  : 
~Curve Information
#_______________________________________________________________________________
#
#LOGNAME           .UNIT     LOG_ID                        : DESCRIPTION
#_______________________________________________________________________________
DEPT               .M                                      : Колонка глубины 
CALI               .м                                      : Каверномер 
CILD               .мСм/м                                  : Индукционный каротаж 
COLL               .unitless                               : Описание 
CSAT               .unitless                               : Описание 
GR                 .uR/h                                   : Гамма каротаж 
GZ1                .Ом·м                                   :  
GZ2                .Ом·м                                   :  
GZ3                .Ом·м                                   :  
GZ4                .Ом·м                                   :  
GZ5                .Ом·м                                   :  
LLS                .Ohmm                                   : Боковой каротаж 
MINV               .Ohmm                                   : Микро-градиент зонд 
MNOR               .Ohmm                                   : Микро-потенциал зонд 
NGLD               .у.е.                                   : Показания зонда НГК-60 аппаратуры ДРСТ-3-90 
OGZ                .Ом·м                                   :  
PHIE               .v/v                                    : Описание 
PHIEN              .v/v                                    :  
PHIT               .v/v                                    : Описание 
PRMB               .mD                                     :  
PRMB_DGR           .mD                                     :  
RT                 .ohmm                                   : УЭС пласта 
SOIL_ARCHIE        .v/v                                    :  
SOIL_DW            .v/v                                    :  
SP                 .мВ                                     : Потенциал самополяризации 
VSH_FIN            .v/v                                    : Описание 
VSH_GR             .v/v                                    : Shale volume 
VSH_SP             .v/v                                    : Shale Volume 
~Ascii
# ...
914.2000000000001 0.216      497        1          3          2.34       -9999      -9999      1.631      -9999      -9999      2.228      1.632      1.617      1.139      1.954      0.2217072  0.2217072  0.2897945  35.78603   19.44499   2.012      0.4018261  0.4971477  16.36      0.2063251  0.1931306  0.2195196 
914.4      0.217      501        1          3          2.228      -9999      -9999      1.556      -9999      -9999      2.043      1.037      1.668      1.129      1.904      0.2268442  0.2268442  0.2930395  44.55155   21.67514   1.996      0.4114403  0.5031788  16.111     0.2005919  0.1847551  0.2164287 
914.6      0.217      494        1          3          2.34       -9999      -9999      1.556      -9999      -9999      1.957      1.366      1.516      1.109      1.904      0.2319522  0.2319522  0.2995295  55.39568   19.44499   2.024      0.4265063  0.5173905  16.111     0.2047797  0.1931306  0.2164287 
914.8      0.216      486        1          3          2.228      -9999      -9999      1.506      -9999      -9999      1.985      1.885      1.718      1.144      2.03       0.2219767  0.2219767  0.288172   36.19964   21.67514   2.058      0.4087636  0.5014253  16.111     0.2005919  0.1847551  0.2164287 
915        0.217      479        1          3          2.128      -9999      -9999      1.631      -9999      -9999      2.073      1.48       1.402      1.186      2.23       0.2090209  0.2090209  0.274543   20.83202   23.88163   2.088      0.3811876  0.477904   16.36      0.198552   0.1775844  0.2195196 
915.2000000000001 0.218      465        1          3          2.052      -9999      -9999      1.657      -9999      -9999      2.277      1.354      1.352      1.149      2.43       0.2211066  0.2211066  0.2865495  34.88099   25.70759   2.151      0.4189157  0.5099138  16.735     0.1983118  0.1723213  0.2243022 
915.4      0.215      471        1          3          2.153      -9999      -9999      1.581      -9999      -9999      2.343      1.177      1.2        1.151      2.481      0.2187575  0.2187575  0.2859005  31.55562   23.30979   2.123      0.4098673  0.5038302  16.985     0.2034638  0.1793505  0.227577  
915.6      0.213      480        1          3          2.165      -9999      -9999      1.481      -9999      -9999      2.196      1.392      1.365      1.164      2.38       0.2141235  0.2141235  0.281682   25.89677   23.04019   2.083      0.393369   0.4901955  17.11      0.2047226  0.1802045  0.2292407 
915.8      0.213      481        1          3          2.19       -9999      -9999      1.406      -9999      -9999      1.928      1.341      1.428      1.139      2.581      0.2219403  0.2219403  0.2897945  36.14359   22.48851   2.079      0.4114898  0.5055339  17.11      0.2056187  0.1819967  0.2292407 
916        0.213      470        1          3          2.253      -9999      -9999      1.531      -9999      -9999      2.014      1.113      1.339      1.132      2.856      0.2239996  0.2239996  0.292066   39.46161   21.15614   2.128      0.4225519  0.5153505  16.86      0.2062617  0.1865925  0.2259309 
916.2000000000001 0.215      462        1          3          2.303      -9999      -9999      1.657      -9999      -9999      2.103      1.05       1.213      1.114      3.007      0.227265   0.227265   0.297907   45.35826   20.15512   2.165      0.4343786  0.5278804  17.734     0.2140668  0.1903225  0.2378111 
916.4      0.215      459        1          3          2.391      -9999      -9999      1.657      -9999      -9999      2.212      1.784      1.579      1.137      3.182      0.2189774  0.2189774  0.2904435  31.85308   18.50698   2.179      0.4175436  0.5149291  17.609     0.2165639  0.1970692  0.2360585 
916.6      0.214      452        1          3          2.466      -9999      -9999      1.631      -9999      -9999      2.212      1.392      1.327      1.109      3.408      0.2273698  0.2273698  0.2995295  45.56154   17.20914   2.212      0.4402753  0.5344882  17.484     0.2186658  0.2030077  0.2343239 
916.8      0.215      445        1          3          2.503      -9999      -9999      1.556      -9999      -9999      2.228      1.012      1.39       1.097      3.608      0.2301942  0.2301942  0.3034235  51.39401   16.6028    2.247      0.4503258  0.5439467  17.734     0.221907   0.206003   0.2378111 
917        0.214      437        1          3          2.453      -9999      -9999      1.506      -9999      -9999      2.212      1.493      1.807      1.104      3.809      0.2285888  0.2285888  0.301152   47.993     17.42739   2.288      0.451638   0.5447405  17.734     0.2198884  0.2019657  0.2378111 
917.2000000000001 0.212      429        1          3          2.378      -9999      -9999      1.531      -9999      -9999      2.117      2.164      2.514      1.114      4.209      0.2254331  0.2254331  0.297907   41.94942   18.7417    2.331      0.4497868  0.5434622  18.109     0.2196179  0.1960577  0.2431782 
917.4      0.215      420        1          3          2.466      -9999      -9999      1.556      -9999      -9999      2.36       2.05       2.565      1.117      4.585      0.223611   0.223611   0.2969335  38.81296   17.20914   2.381      0.4513752  0.5458843  17.984     0.2221893  0.2030077  0.2413709 
917.6      0.215      400        1          3          2.566      -9999      -9999      1.606      -9999      -9999      2.293      1.556      2.161      1.107      5.287      0.2246021  0.2246021  0.3001785  40.48878   15.61913   2.5        0.4658499  0.5604362  18.358     0.2290192  0.211205   0.2468335 
917.8      0.213      363        1          3          2.29       -9999      -9999      1.807      -9999      -9999      2.212      1.43       1.756      1.099      6.695      0.2285879  0.2285879  0.3027745  47.9911    20.41073   2.755      0.4974081  0.5864131  19.233     0.2248079  0.1893456  0.2602701 
918        0.213      323        1          3          2.453      -9999      -9999      2.259      -9999      -9999      2.611      1.484      2.009      1.129      8.168      0.2136923  0.2136923  0.2930395  25.42481   17.42739   3.096      0.49543    0.5910356  20.357     0.2404462  0.2019657  0.2789266 
918.2000000000001 0.216      289        6          6          2.641      -9999      -9999      2.711      -9999      -9999      3.971      3.049      2.439      1.179      11.287     0.1919301  0.1919301  0.2768145  10.05008   14.52381   3.46       0.4741112  0.5818554  21.356     0.2572253  0.2175695  0.2968812 
918.4      0.218      263        6          6          2.629      -9999      -9999      2.861      -9999      -9999      6.351      1.771      2.653      1.238      10.774     0.1713923  0.1713923  0.257669   4.185621   14.69376   3.802      0.4447443  0.5641238  21.855     0.2614444  0.2165384  0.3063504 
918.6      0.218      236        6          6          2.541      -9999      -9999      2.786      -9999      -9999      5.782      1.025      0.556      1.285      10.088     0.1544873  0.1544873  0.2424175  2.035346   16.00231   4.237      0.4223104  0.5534268  22.73      0.2664551  0.2091251  0.3237851 
918.8      0.218      207        6          6          2.528      -9999      -9999      2.987      -9999      -9999      6.49       2.012      2.35       1.31       9.311999   0.1416741  0.1416741  0.234305   1.178435   16.20525   4.831      0.4142577  0.5580534  24.103     0.2806998  0.2080518  0.3533479 
919        0.22       184        6          6          2.629      -9999      -9999      3.313      -9999      -9999      7.718      1.278      1.794      1.32       8.684      0.1311726  0.1311726  0.23106    0.7529976  14.69376   5.435      0.4073084  0.5667464  25.602     0.3026889  0.2165384  0.3888394 
919.2000000000001 0.223      192        6          6          2.929      -9999      -9999      3.614      -9999      -9999      9.381      1.771      2.262      1.265      7.993001   0.1386366  0.1386366  0.2489075  1.03525    10.98568   5.208      0.4237773  0.5860396  26.976     0.3341541  0.2438428  0.4244654 
