~Version
 VERS              .         2.0                           : CWLS LOG ASCII STANDARD - VERSION 2.0
 WRAP              .         NO                            : ONE LINE PER DEPTH STEP
 DLM               .         SPACE                         : DELIMITING CHARACTER(SPACE TAB OR COMMA)
~Well Information
#_______________________________________________________________________________
#
#PARAMETER_NAME    .UNIT     VALUE                         : DESCRIPTION
#_______________________________________________________________________________
STRT               .M        836.2                         : First reference value
STOP               .M        1231.4                        : Last reference value
STEP               .M        0.2                           : Step increment
NULL               .         -9999                         : Missing value
COMP               .                                       : Company
WELL               .         3891                          : Well name
FLD                .         Узень                         : Field
LOC                .                                       : Location
CNTY               .                                       : County
STAT               .                                       : State
CTRY               .                                       : Country
SRVC               .                                       : Service Company
DATE               .                                       : Date
UWI                .                                       : Unique Well ID
_скв_14_гор_       .         7                             : 
Block              .         7                             : 
Category           .         Нефтяная                      : 
Condition          .         В работе                      : 
Date               .         30.09.1990                    : 
EREF               .m        86.8                          : 100.8
Gorizont           .         14                            : 14
Interpretator      .         Бекбулатова А.А.              : 
Kupol              .         Основной                      : osnovnoi
METD               .         GZ1 GZ2                       : 
Mud                .         0                             : 
Mud_density        .         0                             : 
Mud_resistivity    .         0                             : 
NGDU               .         НГДУ-2                        : 
ORIGINALWELLNAME   .         3891                          : 
Spud_date          .         1990                          : 1961
Viscosity          .         0                             : 
X                  .m        42675                         : 46154
Y                  .m        84511.63                      : 85761.93
YEAR               .         2019                          : 
Отбивки_горизонт_14 .         1                             : 
~Parameter Information Block
#_______________________________________________________________________________
#
#PARAMETER_NAME    .UNIT     VALUE                         : DESCRIPTION
#_______________________________________________________________________________
SET                .         LQC_KAZNIPI_Petrel            : 
TLFamily_CALI      .         Caliper                       : 
TLFamily_CILD      .         Conductivity                  : 
TLFamily_COLL      .         Net Reservoir Flag            : 
TLFamily_CSAT      .         Fluid Code                    : 
TLFamily_DEPT      .         Measured Depth                : 
TLFamily_GR        .         Russian Gamma Ray             : 
TLFamily_GZ1       .         Gradient 045                  : 
TLFamily_GZ2       .         Gradient 105                  : 
TLFamily_GZ3       .         Gradient 225                  : 
TLFamily_GZ4       .         Gradient 425                  : 
TLFamily_GZ5       .         Gradient 850                  : 
TLFamily_LLS       .         Lateral Log Resistivity       : 
TLFamily_MINV      .         Micro Gradient Resistivity    : 
TLFamily_MNOR      .         Micro Resistivity             : 
TLFamily_NGLD      .         Neutron Gamma                 : 
TLFamily_OGZ       .         Gradient Inverted 225         : 
TLFamily_PHIE      .         Effective Porosity            : 
TLFamily_PHIEN     .         Effective Porosity            : 
TLFamily_PHIT      .         Porosity                      : 
TLFamily_PRMB      .         Permeability                  : 
TLFamily_PRMB_DGR  .         Permeability                  : 
TLFamily_RT        .         Formation Resistivity         : 
TLFamily_SOIL_ARCHIE .         Oil Saturation                : 
TLFamily_SOIL_DW   .         Oil Saturation                : 
TLFamily_SP        .         Spontaneous Potential         : 
TLFamily_VSH_FIN   .         Shale Volume                  : 
TLFamily_VSH_GR    .         Shale Volume                  : 
TLFamily_VSH_SP    .         Shale Volume                  : 
~Curve Information
#_______________________________________________________________________________
#
#LOGNAME           .UNIT     LOG_ID                        : DESCRIPTION
#_______________________________________________________________________________
DEPT               .M                                      : Колонка глубины 
CALI               .м                                      : Каверномер 
CILD               .мСм/м                                  : Индукционный каротаж 
COLL               .unitless                               : Описание 
CSAT               .unitless                               : Описание 
GR                 .uR/h                                   : Гамма каротаж 
GZ1                .Ом·м                                   :  
GZ2                .Ом·м                                   :  
GZ3                .Ом·м                                   :  
GZ4                .Ом·м                                   :  
GZ5                .Ом·м                                   :  
LLS                .Ohmm                                   : Боковой каротаж 
MINV               .Ohmm                                   : Микро-градиент зонд 
MNOR               .Ohmm                                   : Микро-потенциал зонд 
NGLD               .у.е.                                   : Показания зонда НГК-60 аппаратуры ДРСТ-3-90 
OGZ                .Ом·м                                   :  
PHIE               .v/v                                    : Описание 
PHIEN              .v/v                                    :  
PHIT               .v/v                                    : Описание 
PRMB               .mD                                     :  
PRMB_DGR           .mD                                     :  
RT                 .ohmm                                   : УЭС пласта 
SOIL_ARCHIE        .v/v                                    :  
SOIL_DW            .v/v                                    :  
SP                 .мВ                                     : Потенциал самополяризации 
VSH_FIN            .v/v                                    : Описание 
VSH_GR             .v/v                                    : Shale volume 
VSH_SP             .v/v                                    : Shale Volume 
~Ascii
# ...
893.4      0.223      96         -9999      -9999      -9999      -9999      -9999      11.42      -9999      -9999      11.076     2.834      3.348      -9999      7.290999   -9999      -9999      -9999      -9999      -9999      10.417     -9999      -9999      15.236     0.206091   -9999      0.206091  
893.6      0.226      101        -9999      -9999      -9999      -9999      -9999      12.299     -9999      -9999      8.54       2.012      2.754      -9999      6.314      -9999      -9999      -9999      -9999      -9999      9.901      -9999      -9999      14.362     0.196553   -9999      0.1965527 
893.8      0.228      113        -9999      -9999      -9999      -9999      -9999      13.052     -9999      -9999      7.337      1.303      2.236      -9999      5.638      -9999      -9999      -9999      -9999      -9999      8.85       -9999      -9999      14.112     0.193964   -9999      0.1939642 
894        0.225      124        -9999      -9999      -9999      -9999      -9999      14.181     -9999      -9999      6.827      2.417      2.83       -9999      4.785999   -9999      -9999      -9999      -9999      -9999      8.065      -9999      -9999      13.987     0.192693   -9999      0.1926928 
894.2000000000001 0.224      135        -9999      -9999      -9999      -9999      -9999      15.938     -9999      -9999      7.285      2.771      2.838      -9999      3.984      -9999      -9999      -9999      -9999      -9999      7.407      -9999      -9999      13.987     0.192693   -9999      0.1926928 
894.4      0.225      150        -9999      -9999      -9999      -9999      -9999      17.695     -9999      -9999      7.83       3.037      2.998      -9999      3.383      -9999      -9999      -9999      -9999      -9999      6.667      -9999      -9999      13.987     0.192693   -9999      0.1926928 
894.6      0.223      165        -9999      -9999      -9999      -9999      -9999      17.193     -9999      -9999      6.305      2.467      2.767      -9999      2.881      -9999      -9999      -9999      -9999      -9999      6.061      -9999      -9999      14.112     0.193964   -9999      0.1939642 
894.8      0.219      180        -9999      -9999      -9999      -9999      -9999      14.683     -9999      -9999      4.522      1.442      2.236      -9999      2.631      -9999      -9999      -9999      -9999      -9999      5.556      -9999      -9999      14.112     0.193964   -9999      0.1939642 
895        0.216      190        -9999      -9999      -9999      -9999      -9999      12.675     -9999      -9999      3.942      1.733      2.161      -9999      2.681      -9999      -9999      -9999      -9999      -9999      5.263      -9999      -9999      13.738     0.190205   -9999      0.1902051 
895.2000000000001 0.218      199        -9999      -9999      -9999      -9999      -9999      11.797     -9999      -9999      4.237      1.619      2.047      -9999      2.806      -9999      -9999      -9999      -9999      -9999      5.025      -9999      -9999      13.738     0.190205   -9999      0.1902051 
895.4      0.215      209        -9999      -9999      -9999      -9999      -9999      11.295     -9999      -9999      4.896      0.81       1.706      -9999      2.907      -9999      -9999      -9999      -9999      -9999      4.785      -9999      -9999      13.863     0.191446   -9999      0.1914465 
895.6      0.222      222        -9999      -9999      -9999      -9999      -9999      10.667     -9999      -9999      5.418      2.455      2.35       -9999      2.881      -9999      -9999      -9999      -9999      -9999      4.505      -9999      -9999      13.613     0.188978   -9999      0.1889785 
895.8      0.22       238        -9999      -9999      -9999      -9999      -9999      10.235     -9999      -9999      5.15       1.986      2.085      -9999      2.781      -9999      -9999      -9999      -9999      -9999      4.202      -9999      -9999      13.363     0.18657    -9999      0.1865696 
896        0.22       259        -9999      -9999      -9999      -9999      -9999      9.804      -9999      -9999      4.237      1.746      2.148      -9999      2.706      -9999      -9999      -9999      -9999      -9999      3.861      -9999      -9999      12.988     0.183065   -9999      0.1830654 
896.2000000000001 0.22       282        -9999      -9999      -9999      -9999      -9999      9.010999   -9999      -9999      3.243      1.265      1.769      -9999      2.631      -9999      -9999      -9999      -9999      -9999      3.546      -9999      -9999      12.614     0.179698   -9999      0.1796984 
896.4      0.221      304        -9999      -9999      2.629      -9999      -9999      7.679999   -9999      -9999      2.787      0.734      1.226      -9999      2.556      -9999      -9999      -9999      -9999      -9999      3.289      -9999      -9999      12.239     0.1964932  0.2165384  0.176448  
896.6      0.221      328        -9999      -9999      2.591      -9999      -9999      5.999      -9999      -9999      2.5        1.462      1.693      1.37       2.506      0.1494338  0.1494338  0.214835   1.64072    15.24514   3.049      0.3060426  0.4268101  12.988     0.1981855  0.2133055  0.1830654 
896.8      0.221      353        -9999      -9999      2.579      -9999      -9999      4.543      -9999      -9999      2.378      1.177      1.377      1.395      2.405      0.14031    0.14031    0.2067225  1.111836   15.42353   2.833      0.2411836  0.3757813  13.738     0.2012499  0.2122947  0.1902051 
897        0.22       362        -9999      -9999      2.541      -9999      -9999      4.116      -9999      -9999      2.228      1.544      1.541      1.424      2.506      0.1308022  0.1308022  0.197312   0.7411958  16.00231   2.762      0.1836988  0.3312493  14.112     0.2015447  0.2091251  0.1939642 
897.2000000000001 0.218      346        -9999      -9999      2.391      -9999      -9999      3.966      -9999      -9999      2.412      0.886      1.238      1.449      2.706      0.1250944  0.1250944  0.1891995  0.5810454  18.50698   2.89       0.1692034  0.3174622  13.863     0.1942579  0.1970692  0.1914465 
897.4      0.219      322        6          6          2.541      -9999      -9999      4.041      -9999      -9999      2.63       0.949      1.352      1.474      3.032      0.1153999  0.1153999  0.181087   0.3842769  16.00231   3.106      0.1383781  0.3017641  13.613     0.1990518  0.2091251  0.1889785 
897.6      0.218      297        6          6          2.679      -9999      -9999      4.392      -9999      -9999      3.197      2.037      1.807      1.514      3.574      0.1008799  0.1008799  0.168107   0.2068709  13.99851   3.367      0.06731043 0.2599198  13.363     0.2037183  0.220867   0.1865696 
897.8      0.215      282        6          6          2.541      -9999      -9999      4.643      -9999      -9999      5.188      3.163      3.171      1.554      3.515      0.08943989 0.08943989 0.155127   0.1269994  16.00231   3.546      0          0.2059507  13.613     0.1990518  0.2091251  0.1889785 
898        0.22       274        6          6          2.629      -9999      -9999      4.593      -9999      -9999      7.233      2.417      2.767      1.561      3.132      0.08553799 0.08553799 0.1528555  0.1075299  14.69376   3.65       0          0.1962849  13.863     0.2039925  0.2165384  0.1914465 
898.2000000000001 0.222      274        6          6          2.792      -9999      -9999      4.493      -9999      -9999      6.397      1.746      2.476      1.519      2.38       0.09719282 0.09719282 0.1664845  0.1767685  12.54603   3.65       0.07237292 0.2743396  13.613     0.2099747  0.2309709  0.1889785 
898.4      0.221      286        6          6          2.854      -9999      -9999      4.217      -9999      -9999      5.15       2.024      2.3        1.464      2.08       0.1144909  0.1144909  0.184332   0.3696642  11.81417   3.497      0.179377   0.3468094  13.363     0.2116397  0.2367098  0.1865696 
