~Version
 VERS              .         2.0                           : CWLS LOG ASCII STANDARD - VERSION 2.0
 WRAP              .         YES                            : ONE LINE PER DEPTH STEP
 DLM               .         SPACE                         : DELIMITING CHARACTER(SPACE TAB OR COMMA)
~Well Information
#_______________________________________________________________________________
#
#PARAMETER_NAME    .UNIT     VALUE                         : DESCRIPTION
#_______________________________________________________________________________
STRT               .M        880                           : First reference value
STOP               .M        1168                          : Last reference value
STEP               .M        0.2                           : Step increment
NULL               .         -9999                         : Missing value
COMP               .                                       : Company
WELL               .         4721                          : Well name
FLD                .         UZEN                          : Field
LOC                .                                       : Location
CNTY               .                                       : County
STAT               .                                       : State
CTRY               .                                       : Country
SRVC               .                                       : Service Company
DATE               .         16.07.90                      : Date
UWI                .         4721                          : Unique Well ID
Block              .         7                             : 
Cartographic_reference_system .         GCS_WGS_1984                  : ESRI,PE_10_3_1- <?xml version="1.0" encoding="utf-16"?><ILateBoundCoordinateReferenceSystem name="GCS_WGS_1984"><AuthorityCode>EPSG,4326</AuthorityCode></ILateBoundCoordinateReferenceSystem>
Category           .         Нефтяная                      : 
Condition          .         В работе                      : 
EREF               .m        88.7                          : 100.8
Gorizont           .         14                            : 14
HZCS               .GCS_WGS_1984 WGS_1984_EASE-Grid_2.0_Global : ESRI,PE_10_3_1- <?xml version="1.0" encoding="utf-16"?><ILateBoundCoordinateReferenceSystem name="WGS_1984_EASE-Grid_2.0_Global"><AuthorityCode>EPSG,6933</AuthorityCode></ILateBoundCoordinateReferenceSystem>
Interpretator      .         Сагынбаева А.Н.               : 
Kupol              .         основной                      : osnovnoi
LATI               .dega     0.6597026748                  : GCS_WGS_1984
LONG               .dega     0.4354453285                  : GCS_WGS_1984
Mud                .         глинистый                     : 
Mud_density        .         1,18                          : 
Mud_resistivity    .         0                             : 
NGDU               .         НГДУ-2                        : 
ORIGINALWELLNAME   .         4721                          : 
Spud_date          .         1990                          : 1961
Viscosity          .         40                            : 
X                  .m        42014.5                       : 46154
Y                  .m        84158.63                      : 85761.93
YEAR               .         2019                          : 
~Parameter Information Block
#_______________________________________________________________________________
#
#PARAMETER_NAME    .UNIT     VALUE                         : DESCRIPTION
#_______________________________________________________________________________
SET                .         LQC_KAZNIPI_Petrel            : 
TLFamily_CALI      .         Caliper                       : 
TLFamily_CILD      .         Conductivity                  : 
TLFamily_COLL      .         Net Reservoir Flag            : 
TLFamily_CSAT      .         Fluid Code                    : 
TLFamily_DEPT      .         Measured Depth                : 
TLFamily_GR        .         Russian Gamma Ray             : 
TLFamily_LLS       .         Lateral Log Resistivity       : 
TLFamily_MINV      .         Micro Gradient Resistivity    : 
TLFamily_MNOR      .         Micro Resistivity             : 
TLFamily_NGLD      .         Neutron Gamma                 : 
TLFamily_PHIE      .         Effective Porosity            : 
TLFamily_PHIEN     .         Effective Porosity            : 
TLFamily_PHIT      .         Porosity                      : 
TLFamily_PRMB      .         Permeability                  : 
TLFamily_PRMB_DGR  .         Permeability                  : 
TLFamily_RT        .         Formation Resistivity         : 
TLFamily_SOIL_ARCHIE .         Oil Saturation                : 
TLFamily_SOIL_DW   .         Oil Saturation                : 
TLFamily_SP        .         Spontaneous Potential         : 
TLFamily_VSH_FIN   .         Shale Volume                  : 
TLFamily_VSH_GR    .         Shale Volume                  : 
TLFamily_VSH_SP    .         Shale Volume                  : 
~Curve Information
#_______________________________________________________________________________
#
#LOGNAME           .UNIT     LOG_ID                        : DESCRIPTION
#_______________________________________________________________________________
DEPT               .M                                      : Колонка глубины 
CALI               .м                                      : Каверномер 
CILD               .мСм/м                                  : Индукционный каротаж 
COLL               .unitless                               : Описание 
CSAT               .unitless                               :  
GR                 .uR/h                                   : Гамма каротаж 
LLS                .Ohmm                                   : Боковой каротаж 
MINV               .Ohmm                                   : Микро-градиент зонд 
MNOR               .Ohmm                                   : Микро-потенциал зонд 
NGLD               .у.е.                                   : Показания зонда НГК-60 аппаратуры ДРСТ-3-90 
PHIE               .v/v                                    : Описание 
PHIEN              .v/v                                    :  
PHIT               .v/v                                    : Описание 
PRMB               .mD                                     :  
PRMB_DGR           .mD                                     :  
RT                 .ohmm                                   : УЭС пласта 
SOIL_ARCHIE        .v/v                                    :  
SOIL_DW            .v/v                                    :  
SP                 .мВ                                     : Потенциал самополяризации 
VSH_FIN            .v/v                                    : Описание 
VSH_GR             .v/v                                    : Shale volume 
VSH_SP             .v/v                                    : Shale Volume 
~Ascii
# ...
982.4      
  0.267      0.366      -9999      -9999      7.445      2.002      
  0.541      1.076      1.303      0.130485   0.130485   0.33468    
  0.7312338  1.260606   2.735      0.1781907  0.5138872  56.856     
  0.6187729  0.5902612  0.6472845 
982.6      
  0.265      0.363      -9999      -9999      7.37       2.026      
  0.475      1.051      1.296      0.1333799  0.1333799  0.33776    
  0.8273281  1.329924   2.758      0.19691    0.5225437  57.171     
  0.6193336  0.5774994  0.6611678 
982.8      
  0.268      0.359      -9999      -9999      7.296      2.015      
  0.49       1.083      1.274      0.147261   0.147261   0.34744    
  1.495509   1.402052   2.786      0.2667416  0.5499751  56.873     
  0.606603   0.5651783  0.6480276 
983        
  0.269      0.357      -9999      -9999      7.335      1.999      
  0.511      1.074      1.243      0.1619671  0.1619671  0.36108    
  2.800153   1.363564   2.804      0.327116   0.5773663  56.575     
  0.6033724  0.5716388  0.635106  
983.2000000000001 
  0.268      0.354      -9999      -9999      7.299      1.986      
  0.557      1.14       1.227      0.1720878  0.1720878  0.36812    
  4.311637   1.399053   2.823      0.3637358  0.5932187  56.277     
  0.5940369  0.5656726  0.6224012 
983.4      
  0.266      0.353      -9999      -9999      7.295      1.96       
  0.591      1.16       1.227      0.1721966  0.1721966  0.36812    
  4.331679   1.403053   2.83       0.3648243  0.5938192  56.277     
  0.5937074  0.5650136  0.6224012 
983.6      
  0.267      0.355      -9999      -9999      7.4        1.901      
  0.673      1.159      1.241      0.1614046  0.1614046  0.36196    
  2.733778   1.301751   2.817      0.3265375  0.5784361  56.524     
  0.6077435  0.5825707  0.6329163 
983.8      
  0.271      0.358      -9999      -9999      7.613      1.841      
  0.701      1.137      1.262      0.1440049  0.1440049  0.35272    
  1.301603   1.118164   2.79       0.2528257  0.5508974  56.805     
  0.63247    0.6198801  0.6450599 
984        
  0.275      0.363      -9999      -9999      7.781      1.826      
  0.677      1.093      1.279      0.1291084  0.1291084  0.34524    
  0.6895377  0.9918171  2.759      0.1739578  0.5237448  57.12      
  0.6549443  0.6509853  0.6589033 
984.2000000000001 
  0.276      0.365      -9999      -9999      7.905      1.866      
  0.585      1.055      1.272      0.1292269  0.1292269  0.34832    
  0.6930317  0.9078123  2.739      0.1717949  0.5248901  56.984     
  0.6639187  0.6749408  0.6528965 
984.4      
  0.27       0.366      -9999      -9999      8.005      1.927      
  0.526      1.055      1.268      0.1280633  0.1280633  0.35008    
  0.6594785  0.8452787  2.733      0.1643852  0.5243877  56.933     
  0.672778   0.6949003  0.6506556 
984.6      
  0.267      0.365      -9999      -9999      8.113      1.919      
  0.502      1.055      1.271      0.1236909  0.1236909  0.34876    
  0.5472843  0.782571   2.738      0.1394549  0.5177866  56.848     
  0.6820276  0.7171201  0.6469352 
984.8      
  0.268      0.367      -9999      -9999      8.149      1.857      
  0.496      0.963      1.291      0.1127827  0.1127827  0.33996    
  0.3436899  0.7627198  2.724      0.06515536 0.4923913  56.967     
  0.6884161  0.7246835  0.6521487 
985        
  0.274      0.371      -9999      -9999      8.101      1.801      
  0.481      0.883      1.307      0.1093615  0.1093615  0.33292    
  0.2970292  0.7893025  2.697      0.03523636 0.4772988  56.695     
  0.6774498  0.7146165  0.6402832 
985.2000000000001 
  0.273      0.375      -9999      -9999      7.953      1.801      
  0.489      0.858      1.307      0.1165762  0.1165762  0.33292    
  0.4040474  0.8772388  2.667      0.08264858 0.4858702  56.379     
  0.6555872  0.6844488  0.6267256 
985.4      
  0.267      0.376      -9999      -9999      7.812      1.815      
  0.662      1.017      1.305      0.1239586  0.1239586  0.3338     
  0.5535689  0.9701145  2.661      0.1294989  0.4971809  56.098     
  0.6358832  0.6568932  0.6148731 
985.6      
  0.262      0.376      -9999      -9999      7.814      1.804      
  0.882      1.233      1.288      0.1314306  0.1314306  0.34128    
  0.7613271  0.9687303  2.658      0.1723251  0.5142841  56.09      
  0.6359074  0.6572763  0.6145384 
985.8      
  0.257      0.379      -9999      -9999      7.896      1.797      
  1.046      1.34       1.276      0.1338528  0.1338528  0.34656    
  0.8441829  0.9136629  2.64       0.1827837  0.5205584  56.124     
  0.6445673  0.6731728  0.6159618 
986        
  0.254      0.383      -9999      -9999      8.032      1.783      
  1.173      1.41       1.263      0.1330039  0.1330039  0.35228    
  0.8141662  0.829146   2.613      0.174269   0.5220311  56.422     
  0.664473   0.7003898  0.6285561 
986.2000000000001 
  0.251      0.387      -9999      -9999      8.088      1.801      
  1.134      1.293      1.266      0.126937   0.126937   0.35096    
  0.6285492  0.7966596  2.586      0.1357987  0.5103216  56.822     
  0.6788575  0.7119144  0.6458007 
986.4      
  0.253      0.39       -9999      -9999      8.101      1.799      
  1.014      1.195      1.281      0.1168484  0.1168484  0.34436    
  0.408765   0.7893025  2.562      0.06709071 0.4872842  57.24      
  0.6894291  0.7146165  0.6642417 
986.6      
  0.257      0.394      -9999      -9999      8.113      1.797      
  0.744      1.055      1.289      0.1119099  0.1119099  0.34084    
  0.3311318  0.782571   2.537      0.02686766 0.4735053  57.376     
  0.6937276  0.7171201  0.6703349 
986.8      
  0.261      0.399      -9999      -9999      8.082      1.769      
  0.586      0.989      1.298      0.1087616  0.1087616  0.33688    
  0.2895252  0.8000786  2.509      0          0.4612569  57.41      
  0.691268   0.7106705  0.6718655 
987        
  0.265      0.402      -9999      -9999      8.038      1.712      
  0.584      0.962      1.305      0.1076802  0.1076802  0.3338     
  0.2764758  0.8256028  2.49       0          0.4540651  57.342     
  0.6852115  0.7016157  0.6688073 
987.2000000000001 
  0.266      0.404      -9999      -9999      7.991      1.682      
  0.637      0.97       1.304      0.1108308  0.1108308  0.33424    
  0.3162381  0.8537667  2.473      0.006783681 0.4580453  57.188     
  0.6769974  0.6920709  0.6619239 
987.4      
  0.263      0.407      -9999      -9999      7.963      1.658      
  0.724      1.018      1.304      0.1133718  0.1133718  0.33424    
  0.3524347  0.8710002  2.457      0.02322911 0.460521   56.967     
  0.6692976  0.6864464  0.6521487 
987.6      
  0.257      0.41       -9999      -9999      7.924      1.664      
  0.796      1.095      1.304      0.1159437  0.1159437  0.33424    
  0.3932928  0.8955851  2.441      0.03918593 0.4629592  56.788     
  0.661504   0.6786884  0.6443196 
987.8      
  0.252      0.412      -9999      -9999      7.97       1.659      
  0.874      1.165      1.276      0.1278462  0.1278462  0.34656    
  0.6534005  0.86666    2.427      0.1151947  0.4916868  56.635     
  0.6627691  0.6878482  0.6376901 
988        
  0.251      0.413      -9999      -9999      8.045      1.665      
  0.937      1.213      1.24       0.1417817  0.1417817  0.3624     
  1.183858   0.8214883  2.419      0.1901837  0.5232426  56.55      
  0.6685402  0.7030485  0.6340318 
988.2000000000001 
  0.25       0.415      -9999      -9999      8.118      1.684      
  0.962      1.229      1.216      0.1500668  0.1500668  0.37296    
  1.685618   0.7797832  2.412      0.2282162  0.5407668  56.519     
  0.675434   0.7181659  0.6327021 
988.4      
  0.249      0.416      -9999      -9999      8.098      1.701      
  0.963      1.216      1.218      0.1497198  0.1497198  0.37208    
  1.660855   0.7909946  2.405      0.2256031  0.5390192  56.541     
  0.6738188  0.713992   0.6336455 
988.6      
  0.247      0.417      -9999      -9999      7.892      1.707      
  0.928      1.21       1.228      0.1519434  0.1519434  0.36768    
  1.826072   0.9162747  2.398      0.2344363  0.5373457  56.575     
  0.6537473  0.6723886  0.635106  
