~Version
 VERS              .         2.0                           : CWLS LOG ASCII STANDARD - VERSION 2.0
 WRAP              .         YES                            : ONE LINE PER DEPTH STEP
 DLM               .         SPACE                         : DELIMITING CHARACTER(SPACE TAB OR COMMA)
~Well Information
#_______________________________________________________________________________
#
#PARAMETER_NAME    .UNIT     VALUE                         : DESCRIPTION
#_______________________________________________________________________________
STRT               .M        880                           : First reference value
STOP               .M        1168                          : Last reference value
STEP               .M        0.2                           : Step increment
NULL               .         -9999                         : Missing value
COMP               .                                       : Company
WELL               .         4721                          : Well name
FLD                .         UZEN                          : Field
LOC                .                                       : Location
CNTY               .                                       : County
STAT               .                                       : State
CTRY               .                                       : Country
SRVC               .                                       : Service Company
DATE               .         16.07.90                      : Date
UWI                .         4721                          : Unique Well ID
Block              .         7                             : 
Cartographic_reference_system .         GCS_WGS_1984                  : ESRI,PE_10_3_1- <?xml version="1.0" encoding="utf-16"?><ILateBoundCoordinateReferenceSystem name="GCS_WGS_1984"><AuthorityCode>EPSG,4326</AuthorityCode></ILateBoundCoordinateReferenceSystem>
Category           .         Нефтяная                      : 
Condition          .         В работе                      : 
EREF               .m        88.7                          : 100.8
Gorizont           .         14                            : 14
HZCS               .GCS_WGS_1984 WGS_1984_EASE-Grid_2.0_Global : ESRI,PE_10_3_1- <?xml version="1.0" encoding="utf-16"?><ILateBoundCoordinateReferenceSystem name="WGS_1984_EASE-Grid_2.0_Global"><AuthorityCode>EPSG,6933</AuthorityCode></ILateBoundCoordinateReferenceSystem>
Interpretator      .         Сагынбаева А.Н.               : 
Kupol              .         основной                      : osnovnoi
LATI               .dega     0.6597026748                  : GCS_WGS_1984
LONG               .dega     0.4354453285                  : GCS_WGS_1984
Mud                .         глинистый                     : 
Mud_density        .         1,18                          : 
Mud_resistivity    .         0                             : 
NGDU               .         НГДУ-2                        : 
ORIGINALWELLNAME   .         4721                          : 
Spud_date          .         1990                          : 1961
Viscosity          .         40                            : 
X                  .m        42014.5                       : 46154
Y                  .m        84158.63                      : 85761.93
YEAR               .         2019                          : 
~Parameter Information Block
#_______________________________________________________________________________
#
#PARAMETER_NAME    .UNIT     VALUE                         : DESCRIPTION
#_______________________________________________________________________________
SET                .         LQC_KAZNIPI_Petrel            : 
TLFamily_CALI      .         Caliper                       : 
TLFamily_CILD      .         Conductivity                  : 
TLFamily_COLL      .         Net Reservoir Flag            : 
TLFamily_CSAT      .         Fluid Code                    : 
TLFamily_DEPT      .         Measured Depth                : 
TLFamily_GR        .         Russian Gamma Ray             : 
TLFamily_LLS       .         Lateral Log Resistivity       : 
TLFamily_MINV      .         Micro Gradient Resistivity    : 
TLFamily_MNOR      .         Micro Resistivity             : 
TLFamily_NGLD      .         Neutron Gamma                 : 
TLFamily_PHIE      .         Effective Porosity            : 
TLFamily_PHIEN     .         Effective Porosity            : 
TLFamily_PHIT      .         Porosity                      : 
TLFamily_PRMB      .         Permeability                  : 
TLFamily_PRMB_DGR  .         Permeability                  : 
TLFamily_RT        .         Formation Resistivity         : 
TLFamily_SOIL_ARCHIE .         Oil Saturation                : 
TLFamily_SOIL_DW   .         Oil Saturation                : 
TLFamily_SP        .         Spontaneous Potential         : 
TLFamily_VSH_FIN   .         Shale Volume                  : 
TLFamily_VSH_GR    .         Shale Volume                  : 
TLFamily_VSH_SP    .         Shale Volume                  : 
~Curve Information
#_______________________________________________________________________________
#
#LOGNAME           .UNIT     LOG_ID                        : DESCRIPTION
#_______________________________________________________________________________
DEPT               .M                                      : Колонка глубины 
CALI               .м                                      : Каверномер 
CILD               .мСм/м                                  : Индукционный каротаж 
COLL               .unitless                               : Описание 
CSAT               .unitless                               :  
GR                 .uR/h                                   : Гамма каротаж 
LLS                .Ohmm                                   : Боковой каротаж 
MINV               .Ohmm                                   : Микро-градиент зонд 
MNOR               .Ohmm                                   : Микро-потенциал зонд 
NGLD               .у.е.                                   : Показания зонда НГК-60 аппаратуры ДРСТ-3-90 
PHIE               .v/v                                    : Описание 
PHIEN              .v/v                                    :  
PHIT               .v/v                                    : Описание 
PRMB               .mD                                     :  
PRMB_DGR           .mD                                     :  
RT                 .ohmm                                   : УЭС пласта 
SOIL_ARCHIE        .v/v                                    :  
SOIL_DW            .v/v                                    :  
SP                 .мВ                                     : Потенциал самополяризации 
VSH_FIN            .v/v                                    : Описание 
VSH_GR             .v/v                                    : Shale volume 
VSH_SP             .v/v                                    : Shale Volume 
~Ascii
# ...
1020.8     
  0.256      0.266      -9999      -9999      7.404      2.163      
  2.176      1.867      1.287      0.1477325  0.1477325  0.34172    
  1.525885   24.41462   3.765      0.365143   0.6092733  51.387     
  0.5878411  0.175991   0.5878411 
1021       
  0.253      0.272      -9999      -9999      7.678      2.178      
  2.311      1.975      1.214      0.1798206  0.1798206  0.37384    
  5.996133   18.2814    3.674      0.4588537  0.6526667  51.39      
  0.5879377  0.1980586  0.5879377 
1021.2     
  0.253      0.284      -9999      -9999      7.76       2.224      
  2.372      1.892      1.178      0.1965732  0.1965732  0.38968    
  12.25096   16.76519   3.529      0.4896968  0.6661482  51.304     
  0.5851722  0.2051858  0.5851722 
1021.4     
  0.247      0.298      -9999      -9999      7.8        2.338      
  2.57       1.891      1.191      0.1918992  0.1918992  0.38396    
  10.03683   16.07189   3.364      0.4670465  0.6517238  51.205     
  0.5820025  0.208755   0.5820025 
1021.6     
  0.236      0.312      -9999      -9999      7.892      2.349      
  2.691      2.015      1.214      0.1849297  0.1849297  0.37384    
  7.455976   14.58414   3.211      0.4374398  0.6324248  50.904     
  0.5724555  0.2172015  0.5724555 
1021.8     
  0.235      0.323      -9999      -9999      8.008      2.216      
  2.463      1.91       1.247      0.1778055  0.1778055  0.35932    
  5.502341   12.90298   3.103      0.4084367  0.611022   50.18      
  0.5500439  0.2283402  0.5500439 
1022       
  0.247      0.34       -9999      -9999      8.191      1.975      
  1.958      1.561      1.272      0.1739381  0.1739381  0.34832    
  4.665668   10.63596   2.948      0.3823217  0.5897599  49.457     
  0.52843    0.2470853  0.52843   
1022.2     
  0.272      0.355      -9999      -9999      8.409      1.82       
  1.371      1.237      1.266      0.1809108  0.1809108  0.35096    
  6.28151    8.449176   2.826      0.3911518  0.5892114  49.005     
  0.5153007  0.2714345  0.5153007 
1022.4     
  0.282      0.365      -9999      -9999      8.708      1.842      
  1.635      1.289      1.248      0.1877757  0.1877757  0.35888    
  8.418201   6.161835   2.738      0.4017697  0.5942276  49.116     
  0.5184979  0.30878    0.5184979 
1022.6     
  0.284      0.372      -9999      -9999      8.997      1.897      
  1.739      1.582      1.227      0.1966054  0.1966054  0.36812    
  12.26783   4.541415   2.693      0.4207515  0.6042959  49.159     
  0.5197411  0.3497527  0.5197411 
1022.8     
  0.28       0.391      -9999      -9999      9.236      1.833      
  1.833      1.463      1.215      0.2029427  0.2029427  0.3734     
  16.07495   3.528575   2.568      0.4238293  0.6032303  49.048     
  0.5165371  0.3877136  0.5165371 
1023       
  0.286      0.412      -9999      -9999      9.459      1.717      
  1.343      1.242      1.216      0.2042803  0.2042803  0.37296    
  17.01867   2.788332   2.431      0.4121867  0.5929604  48.86      
  0.5111505  0.42684    0.5111505 
1023.2     
  0.294      0.431      -9999      -9999      9.705      1.604      
  1.317      0.901      1.204      0.2093155  0.2093155  0.37824    
  21.09542   2.150517   2.321      0.4118798  0.5908983  48.886     
  0.5118926  0.4745979  0.5118926 
1023.4     
  0.294      0.44       -9999      -9999      10.065     1.574      
  1.201      0.948      1.197      0.209729   0.209729   0.38132    
  21.47079   1.470509   2.274      0.4072264  0.5890411  49.167     
  0.5199727  0.554283   0.5199727 
1023.6     
  0.287      0.446      -9999      -9999      10.358     1.55       
  1.063      1.055      1.186      0.2121944  0.2121944  0.38616    
  23.85139   1.079231   2.243      0.4094377  0.5912486  49.414     
  0.5271684  0.6289157  0.5271684 
1023.8     
  0.281      0.448      -9999      -9999      10.368     1.563      
  1.059      1.056      1.196      0.2064746  0.2064746  0.38176    
  18.68829   1.067896   2.234      0.3940722  0.5831218  49.55      
  0.5311677  0.631633   0.5311677 
1024       
  0.281      0.446      -9999      -9999      10.179     1.619      
  1.213      1.365      1.212      0.1957498  0.1957498  0.37472    
  11.82821   1.303748   2.242      0.3663224  0.5702717  49.925     
  0.542334   0.5822061  0.542334  
1024.2     
  0.286      0.444      -9999      -9999      10.026     1.664      
  1.326      1.348      1.225      0.1859337  0.1859337  0.369      
  7.782193   1.532324   2.252      0.3386655  0.5584666  50.334     
  0.5547462  0.5450412  0.5547462 
1024.4     
  0.285      0.442      -9999      -9999      10.031     1.696      
  1.465      1.511      1.233      0.1785045  0.1785045  0.36548    
  5.668832   1.524255   2.265      0.3166048  0.550144   50.717     
  0.5665925  0.5462174  0.5665925 
1024.6     
  0.282      0.441      -9999      -9999      10.106     1.723      
  1.643      1.384      1.225      0.1815914  0.1815914  0.369      
  6.466537   1.408209   2.268      0.3271522  0.5560161  50.759     
  0.5679048  0.5641679  0.5679048 
1024.8     
  0.283      0.437      -9999      -9999      10.064     1.701      
  1.6        1.358      1.209      0.1885385  0.1885385  0.37604    
  8.696577   1.472061   2.287      0.3513417  0.5692349  50.768     
  0.5681864  0.5540442  0.5681864 
1025       
  0.288      0.433      -9999      -9999      9.97       1.552      
  1.652      1.405      1.188      0.1983045  0.1983045  0.38528    
  13.1898    1.625657   2.31       0.3821622  0.5858751  50.717     
  0.5665925  0.5320397  0.5665925 
1025.2     
  0.288      0.425      -9999      -9999      9.955      1.495      
  1.839      1.537      1.186      0.2000583  0.2000583  0.38616    
  14.21419   1.651608   2.351      0.391923   0.5914707  50.632     
  0.5639447  0.52861    0.5639447 
1025.4     
  0.284      0.421      -9999      -9999      9.833      1.675      
  1.907      1.576      1.197      0.1960885  0.1960885  0.38132    
  12.0003    1.878665   2.375      0.3841573  0.5871952  50.547     
  0.5613077  0.5015247  0.5613077 
1025.6     
  0.284      0.429      -9999      -9999      9.821      1.807      
  1.931      1.492      1.214      0.1899123  0.1899123  0.37384    
  9.221366   1.902619   2.333      0.3614259  0.5731567  50.419     
  0.5573566  0.4989367  0.5573566 
1025.8     
  0.289      0.443      -9999      -9999      9.768      1.78       
  1.37       1.291      1.212      0.1931151  0.1931151  0.37472    
  10.57107   2.012124   2.259      0.3610683  0.5696372  50.189     
  0.5503178  0.4876652  0.5503178 
1026       
  0.291      0.458      -9999      -9999      10.062     1.562      
  1.177      1.256      1.209      0.1975749  0.1975749  0.37604    
  12.78568   1.475173   2.184      0.3636447  0.5671017  49.874     
  0.5408034  0.5535667  0.5408034 
1026.2     
  0.286      0.463      -9999      -9999      10.417     1.504      
  0.838      1.196      1.208      0.201029   0.201029   0.37648    
  14.81507   1.014052   2.159      0.3697828  0.5678399  49.567     
  0.5316696  0.6451185  0.5316696 
1026.4     
  0.281      0.467      -9999      -9999      10.619     1.479      
  0.799      1.155      1.218      0.1995119  0.1995119  0.37208    
  13.8868    0.8192838  2.143      0.3633926  0.5618155  49.269     
  0.5229336  0.7038202  0.5229336 
1026.6     
  0.277      0.472      -9999      -9999      10.483     1.481      
  0.794      1.12       1.222      0.2001854  0.2001854  0.37032    
  14.29151   0.9457942  2.12       0.3620363  0.5587522  49.014     
  0.5155593  0.6637388  0.5155593 
1026.8     
  0.274      0.482      -9999      -9999      10.314     1.486      
  0.842      1.037      1.234      0.1954736  0.1954736  0.36504    
  11.68972   1.130551   2.077      0.3423702  0.5460856  48.954     
  0.5138375  0.6170978  0.5138375 
1027       
  0.27       0.491      -9999      -9999      10.291     1.474      
  0.95       0.937      1.231      0.1962255  0.1962255  0.36636    
  12.07062   1.158341   2.036      0.3384043  0.5432308  49.014     
  0.5155593  0.6110089  0.5155593 
