~Version
 VERS              .         2.0                           : CWLS LOG ASCII STANDARD - VERSION 2.0
 WRAP              .         YES                            : ONE LINE PER DEPTH STEP
 DLM               .         SPACE                         : DELIMITING CHARACTER(SPACE TAB OR COMMA)
~Well Information
#_______________________________________________________________________________
#
#PARAMETER_NAME    .UNIT     VALUE                         : DESCRIPTION
#_______________________________________________________________________________
STRT               .M        880                           : First reference value
STOP               .M        1168                          : Last reference value
STEP               .M        0.2                           : Step increment
NULL               .         -9999                         : Missing value
COMP               .                                       : Company
WELL               .         4721                          : Well name
FLD                .         UZEN                          : Field
LOC                .                                       : Location
CNTY               .                                       : County
STAT               .                                       : State
CTRY               .                                       : Country
SRVC               .                                       : Service Company
DATE               .         16.07.90                      : Date
UWI                .         4721                          : Unique Well ID
Block              .         7                             : 
Cartographic_reference_system .         GCS_WGS_1984                  : ESRI,PE_10_3_1- <?xml version="1.0" encoding="utf-16"?><ILateBoundCoordinateReferenceSystem name="GCS_WGS_1984"><AuthorityCode>EPSG,4326</AuthorityCode></ILateBoundCoordinateReferenceSystem>
Category           .         Нефтяная                      : 
Condition          .         В работе                      : 
EREF               .m        88.7                          : 100.8
Gorizont           .         14                            : 14
HZCS               .GCS_WGS_1984 WGS_1984_EASE-Grid_2.0_Global : ESRI,PE_10_3_1- <?xml version="1.0" encoding="utf-16"?><ILateBoundCoordinateReferenceSystem name="WGS_1984_EASE-Grid_2.0_Global"><AuthorityCode>EPSG,6933</AuthorityCode></ILateBoundCoordinateReferenceSystem>
Interpretator      .         Сагынбаева А.Н.               : 
Kupol              .         основной                      : osnovnoi
LATI               .dega     0.6597026748                  : GCS_WGS_1984
LONG               .dega     0.4354453285                  : GCS_WGS_1984
Mud                .         глинистый                     : 
Mud_density        .         1,18                          : 
Mud_resistivity    .         0                             : 
NGDU               .         НГДУ-2                        : 
ORIGINALWELLNAME   .         4721                          : 
Spud_date          .         1990                          : 1961
Viscosity          .         40                            : 
X                  .m        42014.5                       : 46154
Y                  .m        84158.63                      : 85761.93
YEAR               .         2019                          : 
~Parameter Information Block
#_______________________________________________________________________________
#
#PARAMETER_NAME    .UNIT     VALUE                         : DESCRIPTION
#_______________________________________________________________________________
SET                .         LQC_KAZNIPI_Petrel            : 
TLFamily_CALI      .         Caliper                       : 
TLFamily_CILD      .         Conductivity                  : 
TLFamily_COLL      .         Net Reservoir Flag            : 
TLFamily_CSAT      .         Fluid Code                    : 
TLFamily_DEPT      .         Measured Depth                : 
TLFamily_GR        .         Russian Gamma Ray             : 
TLFamily_LLS       .         Lateral Log Resistivity       : 
TLFamily_MINV      .         Micro Gradient Resistivity    : 
TLFamily_MNOR      .         Micro Resistivity             : 
TLFamily_NGLD      .         Neutron Gamma                 : 
TLFamily_PHIE      .         Effective Porosity            : 
TLFamily_PHIEN     .         Effective Porosity            : 
TLFamily_PHIT      .         Porosity                      : 
TLFamily_PRMB      .         Permeability                  : 
TLFamily_PRMB_DGR  .         Permeability                  : 
TLFamily_RT        .         Formation Resistivity         : 
TLFamily_SOIL_ARCHIE .         Oil Saturation                : 
TLFamily_SOIL_DW   .         Oil Saturation                : 
TLFamily_SP        .         Spontaneous Potential         : 
TLFamily_VSH_FIN   .         Shale Volume                  : 
TLFamily_VSH_GR    .         Shale Volume                  : 
TLFamily_VSH_SP    .         Shale Volume                  : 
~Curve Information
#_______________________________________________________________________________
#
#LOGNAME           .UNIT     LOG_ID                        : DESCRIPTION
#_______________________________________________________________________________
DEPT               .M                                      : Колонка глубины 
CALI               .м                                      : Каверномер 
CILD               .мСм/м                                  : Индукционный каротаж 
COLL               .unitless                               : Описание 
CSAT               .unitless                               :  
GR                 .uR/h                                   : Гамма каротаж 
LLS                .Ohmm                                   : Боковой каротаж 
MINV               .Ohmm                                   : Микро-градиент зонд 
MNOR               .Ohmm                                   : Микро-потенциал зонд 
NGLD               .у.е.                                   : Показания зонда НГК-60 аппаратуры ДРСТ-3-90 
PHIE               .v/v                                    : Описание 
PHIEN              .v/v                                    :  
PHIT               .v/v                                    : Описание 
PRMB               .mD                                     :  
PRMB_DGR           .mD                                     :  
RT                 .ohmm                                   : УЭС пласта 
SOIL_ARCHIE        .v/v                                    :  
SOIL_DW            .v/v                                    :  
SP                 .мВ                                     : Потенциал самополяризации 
VSH_FIN            .v/v                                    : Описание 
VSH_GR             .v/v                                    : Shale volume 
VSH_SP             .v/v                                    : Shale Volume 
~Ascii
# ...
1091.2     
  0.243      0.277      -9999      -9999      8.964      2.707      
  2.397      2.432      1.498      0.04637001 0.04637001 0.24888    
  0.0202322  4.702439   3.623      0          0.2805687  52.174     
  0.6136666  0.3448118  0.6136666 
1091.4     
  0.243      0.259      -9999      -9999      8.952      3.84       
  2.668      3.293      1.602      0.01       0.001083746 0.20312    
  0.004289259 4.762398   3.88       0          0          52.131     
  0.6122311  0.3430325  0.6122311 
1091.6     
  0.237      0.242      -9999      -9999      8.533      5.163      
  3.244      3.943      1.741      0.01       0          0.14196    
  0.004289259 7.412335   4.143      0          0          52.165     
  0.6133659  0.2863403  0.6133659 
1091.8     
  0.228      0.222      -9999      -9999      8.078      7.682      
  4.114      4.505      1.881      0.01       0          0.08035998 
  0.004289259 11.98373   4.537      0          0          52.114     
  0.6116643  0.2353364  0.6116643 
1092       
  0.219      0.202      -9999      -9999      7.849      9.684      
  4.675      4.721      1.967      0.01       0          0.04252    
  0.004289259 15.26154   4.995      0          0          51.509     
  0.5917827  0.2132119  0.5917827 
1092.2     
  0.216      0.185      -9999      -9999      8.187      9.468      
  4.669      4.631      1.963      0.01       0          0.04427997 
  0.004289259 10.68097   5.418      0          0          50.622     
  0.563634   0.2466596  0.563634  
1092.4     
  0.216      0.207      -9999      -9999      9.022      6.797      
  3.8        3.611      1.867      0.01       0          0.08652001 
  0.004289259 4.423108   4.979      0          0          49.514     
  0.5301065  0.3535429  0.5301065 
1092.6     
  0.217      0.236      -9999      -9999      9.858      3.793      
  2.865      2.511      1.665      0.01110129 0.01110129 0.1754     
  0.00449553 1.829725   4.376      0          0          48.389     
  0.4978749  0.5069595  0.4978749 
1092.8     
  0.217      0.269      -9999      -9999      10.253     2.847      
  2.243      1.815      1.503      0.08140119 0.08140119 0.24668    
  0.09013752 1.205761   3.727      0          0.4008391  47.323     
  0.5008448  0.6010802  0.4006095 
1093       
  0.218      0.274      -9999      -9999      10.519     2.881      
  2.242      1.907      1.429      0.1056671  0.1056671  0.27924    
  0.2537285  0.9105188  3.654      0.1379554  0.4905015  46.292     
  0.5259784  0.674121   0.377836  
1093.2     
  0.219      0.271      -9999      -9999      10.22      3.038      
  2.343      2.213      1.42       0.1273061  0.1273061  0.2832     
  0.6385217  1.248513   3.692      0.2706213  0.5307728  45.055     
  0.4724059  0.592589   0.3522227 
1093.4     
  0.22       0.264      -9999      -9999      9.694      3.643      
  2.351      2.489      1.439      0.1437676  0.1437676  0.27484    
  1.288495   2.175639   3.793      0.3521773  0.5497855  43.47      
  0.3971891  0.4723525  0.3220257 
1093.6     
  0.218      0.254      1          2          8.92       4.907      
  2.391      2.918      1.487      0.152522   0.152522   0.25372    
  1.8717     4.926052   3.937      0.3953508  0.5468466  40.639     
  0.3066605  0.3383325  0.2749885 
1093.8     
  0.215      0.238      1          2          8.507      6.333      
  2.453      3.158      1.516      0.1536869  0.1536869  0.24096    
  1.967036   7.618634   4.223      0.4187888  0.5501336  38.568     
  0.2644639  0.2831485  0.2457793 
1094       
  0.212      0.223      1          2          8.321      7.225      
  2.628      3.401      1.506      0.1636661  0.1636661  0.24536    
  3.01059    9.271845   4.504      0.4661624  0.5799235  37.621     
  0.2475572  0.2613292  0.2337852 
1094.2     
  0.213      0.214      1          2          8.347      6.817      
  2.933      3.433      1.469      0.1765078  0.1765078  0.26164    
  5.206089   9.020781   4.673      0.5087186  0.6150306  39.011     
  0.2579763  0.264275   0.2516775 
1094.4     
  0.215      0.218      1          2          8.411      5.616      
  3.261      3.383      1.424      0.1890744  0.1890744  0.28144    
  8.897641   8.431353   4.596      0.5336606  0.6385125  41.483     
  0.2798957  0.2716686  0.2881228 
1094.6     
  0.218      0.241      -9999      -9999      8.55       4.12       
  3.502      3.154      1.401      0.1868519  0.1868519  0.29156    
  8.092999   7.280475   4.204      0.508704   0.6280892  44.748     
  0.3172971  0.2884467  0.3461475 
1094.8     
  0.221      0.273      -9999      -9999      8.74       3.179      
  3.756      2.729      1.39       0.1776455  0.1776455  0.2964     
  5.464923   5.957126   3.731      0.4570245  0.6010556  47.587     
  0.3598621  0.3130695  0.4066546 
1095       
  0.23       0.309      -9999      -9999      8.994      2.622      
  2.958      2.304      1.386      0.1635813  0.1635813  0.29816    
  2.999717   4.555821   3.252      0.3777262  0.5600693  50.009     
  0.4078142  0.3493007  0.4663278 
1095.2     
  0.239      0.331      -9999      -9999      9.274      2.434      
  2.128      1.879      1.364      0.1603039  0.1603039  0.30784    
  2.608402   3.389806   3.023      0.3445821  0.5489671  51.253     
  0.4470792  0.3941179  0.5000407 
1095.4     
  0.249      0.343      -9999      -9999      9.546      2.333      
  1.075      1.454      1.366      0.1469844  0.1469844  0.30696    
  1.477968   2.543615   2.917      0.2812068  0.5244464  52.174     
  0.4847746  0.4431542  0.5263951 
1095.6     
  0.256      0.354      -9999      -9999      9.76       2.313      
  1.14       1.368      1.382      0.1312163  0.1312163  0.29992    
  0.7544016  2.029191   2.83       0.1951811  0.4887843  52.515     
  0.5112233  0.4859862  0.5364605 
1095.8     
  0.256      0.352      -9999      -9999      9.716      2.406      
  1.655      1.622      1.423      0.1121423  0.1121423  0.28188    
  0.3344297  2.125686   2.84       0.0787141  0.4377266  53.026     
  0.5143568  0.4768539  0.5518597 
1096       
  0.25       0.345      -9999      -9999      9.554      2.632      
  2.404      2.215      1.459      0.09935104 0.09935104 0.26604    
  0.1938119  2.522219   2.901      0          0.3969789  53.47      
  0.5051181  0.4446853  0.5655509 
1096.2     
  0.236      0.337      -9999      -9999      9.325      3.018      
  3.046      2.625      1.484      0.09538262 0.09538262 0.25504    
  0.1636347  3.212101   2.97       0          0.3786444  53.444     
  0.4838103  0.4028795  0.5647411 
1096.4     
  0.229      0.342      -9999      -9999      9.223      3.336      
  3.278      2.666      1.479      0.1025227  0.1025227  0.25724    
  0.2218843  3.577345   2.93       0.01834401 0.3937986  53.035     
  0.4688404  0.3855466  0.5521343 
1096.6     
  0.235      0.34       -9999      -9999      9.199      3.102      
  2.655      2.34       1.455      0.1158856  0.1158856  0.2678     
  0.3923204  3.669148   2.945      0.1198117  0.4364668  52.604     
  0.4603465  0.381578   0.5391151 
1096.8     
  0.246      0.332      -9999      -9999      9.174      2.729      
  1.915      1.831      1.444      0.121819   0.121819   0.27264    
  0.5052907  3.767291   3.015      0.1665086  0.4594215  52.519     
  0.4570334  0.3774872  0.5365795 
1097       
  0.253      0.316      -9999      -9999      9.327      2.311      
  1.625      1.829      1.434      0.1216768  0.1216768  0.27704    
  0.502235   3.205325   3.164      0.184334   0.4773442  52.579     
  0.4707977  0.4032271  0.5383682 
1097.2     
  0.25       0.296      -9999      -9999      9.498      2.328      
  2.384      2.434      1.457      0.1058983  0.1058983  0.26692    
  0.2562426  2.675847   3.391      0.1089002  0.4560485  52.694     
  0.4879445  0.4340777  0.5418114 
1097.4     
  0.244      0.277      -9999      -9999      9.7        2.351      
  3.671      3.646      1.522      0.0703144  0.0703144  0.23832    
  0.05617607 2.1619     3.63       0          0.3474079  52.788     
  0.5091079  0.4735759  0.54464   
