~Version
 VERS              .         2.0                           : CWLS LOG ASCII STANDARD - VERSION 2.0
 WRAP              .         YES                            : ONE LINE PER DEPTH STEP
 DLM               .         SPACE                         : DELIMITING CHARACTER(SPACE TAB OR COMMA)
~Well Information
#_______________________________________________________________________________
#
#PARAMETER_NAME    .UNIT     VALUE                         : DESCRIPTION
#_______________________________________________________________________________
STRT               .M        880                           : First reference value
STOP               .M        1168                          : Last reference value
STEP               .M        0.2                           : Step increment
NULL               .         -9999                         : Missing value
COMP               .                                       : Company
WELL               .         4721                          : Well name
FLD                .         UZEN                          : Field
LOC                .                                       : Location
CNTY               .                                       : County
STAT               .                                       : State
CTRY               .                                       : Country
SRVC               .                                       : Service Company
DATE               .         16.07.90                      : Date
UWI                .         4721                          : Unique Well ID
Block              .         7                             : 
Cartographic_reference_system .         GCS_WGS_1984                  : ESRI,PE_10_3_1- <?xml version="1.0" encoding="utf-16"?><ILateBoundCoordinateReferenceSystem name="GCS_WGS_1984"><AuthorityCode>EPSG,4326</AuthorityCode></ILateBoundCoordinateReferenceSystem>
Category           .         Нефтяная                      : 
Condition          .         В работе                      : 
EREF               .m        88.7                          : 100.8
Gorizont           .         14                            : 14
HZCS               .GCS_WGS_1984 WGS_1984_EASE-Grid_2.0_Global : ESRI,PE_10_3_1- <?xml version="1.0" encoding="utf-16"?><ILateBoundCoordinateReferenceSystem name="WGS_1984_EASE-Grid_2.0_Global"><AuthorityCode>EPSG,6933</AuthorityCode></ILateBoundCoordinateReferenceSystem>
Interpretator      .         Сагынбаева А.Н.               : 
Kupol              .         основной                      : osnovnoi
LATI               .dega     0.6597026748                  : GCS_WGS_1984
LONG               .dega     0.4354453285                  : GCS_WGS_1984
Mud                .         глинистый                     : 
Mud_density        .         1,18                          : 
Mud_resistivity    .         0                             : 
NGDU               .         НГДУ-2                        : 
ORIGINALWELLNAME   .         4721                          : 
Spud_date          .         1990                          : 1961
Viscosity          .         40                            : 
X                  .m        42014.5                       : 46154
Y                  .m        84158.63                      : 85761.93
YEAR               .         2019                          : 
~Parameter Information Block
#_______________________________________________________________________________
#
#PARAMETER_NAME    .UNIT     VALUE                         : DESCRIPTION
#_______________________________________________________________________________
SET                .         LQC_KAZNIPI_Petrel            : 
TLFamily_CALI      .         Caliper                       : 
TLFamily_CILD      .         Conductivity                  : 
TLFamily_COLL      .         Net Reservoir Flag            : 
TLFamily_CSAT      .         Fluid Code                    : 
TLFamily_DEPT      .         Measured Depth                : 
TLFamily_GR        .         Russian Gamma Ray             : 
TLFamily_LLS       .         Lateral Log Resistivity       : 
TLFamily_MINV      .         Micro Gradient Resistivity    : 
TLFamily_MNOR      .         Micro Resistivity             : 
TLFamily_NGLD      .         Neutron Gamma                 : 
TLFamily_PHIE      .         Effective Porosity            : 
TLFamily_PHIEN     .         Effective Porosity            : 
TLFamily_PHIT      .         Porosity                      : 
TLFamily_PRMB      .         Permeability                  : 
TLFamily_PRMB_DGR  .         Permeability                  : 
TLFamily_RT        .         Formation Resistivity         : 
TLFamily_SOIL_ARCHIE .         Oil Saturation                : 
TLFamily_SOIL_DW   .         Oil Saturation                : 
TLFamily_SP        .         Spontaneous Potential         : 
TLFamily_VSH_FIN   .         Shale Volume                  : 
TLFamily_VSH_GR    .         Shale Volume                  : 
TLFamily_VSH_SP    .         Shale Volume                  : 
~Curve Information
#_______________________________________________________________________________
#
#LOGNAME           .UNIT     LOG_ID                        : DESCRIPTION
#_______________________________________________________________________________
DEPT               .M                                      : Колонка глубины 
CALI               .м                                      : Каверномер 
CILD               .мСм/м                                  : Индукционный каротаж 
COLL               .unitless                               : Описание 
CSAT               .unitless                               :  
GR                 .uR/h                                   : Гамма каротаж 
LLS                .Ohmm                                   : Боковой каротаж 
MINV               .Ohmm                                   : Микро-градиент зонд 
MNOR               .Ohmm                                   : Микро-потенциал зонд 
NGLD               .у.е.                                   : Показания зонда НГК-60 аппаратуры ДРСТ-3-90 
PHIE               .v/v                                    : Описание 
PHIEN              .v/v                                    :  
PHIT               .v/v                                    : Описание 
PRMB               .mD                                     :  
PRMB_DGR           .mD                                     :  
RT                 .ohmm                                   : УЭС пласта 
SOIL_ARCHIE        .v/v                                    :  
SOIL_DW            .v/v                                    :  
SP                 .мВ                                     : Потенциал самополяризации 
VSH_FIN            .v/v                                    : Описание 
VSH_GR             .v/v                                    : Shale volume 
VSH_SP             .v/v                                    : Shale Volume 
~Ascii
# ...
1033.6     
  0.272      0.396      -9999      -9999      9.546      1.665      
  2.138      1.428      1.196      0.1965285  0.1965285  0.38176    
  12.22763   2.543615   2.524      0.4026604  0.6001951  50.547     
  0.5613077  0.4431542  0.5613077 
1033.8     
  0.276      0.39       -9999      -9999      9.463      1.744      
  2.382      1.667      1.214      0.1859872  0.1859872  0.37384    
  7.799944   2.776579   2.568      0.3783413  0.5898725  50.802     
  0.5692511  0.4275769  0.5692511 
1034       
  0.268      0.385      -9999      -9999      9.22       1.915      
  2.442      1.827      1.225      0.1813229  0.1813229  0.369      
  6.392899   3.588691   2.594      0.3674339  0.584616   50.785     
  0.5687185  0.3850484  0.5687185 
1034.2     
  0.266      0.39       -9999      -9999      8.893      1.931      
  2.152      1.676      1.236      0.1786729  0.1786729  0.36416    
  5.709711   5.068503   2.566      0.3559991  0.5765589  50.572     
  0.5620821  0.3344169  0.5620821 
1034.4     
  0.265      0.4        -9999      -9999      8.899      1.851      
  1.651      1.475      1.231      0.1830408  0.1830408  0.36636    
  6.878871   5.036492   2.502      0.3618857  0.5767055  50.359     
  0.5555129  0.3352832  0.5555129 
1034.6     
  0.268      0.408      -9999      -9999      9.106      1.687      
  1.306      1.363      1.226      0.1854129  0.1854129  0.36856    
  7.611214   4.047715   2.453      0.3631181  0.5761749  50.342     
  0.5549914  0.3665811  0.5549914 
1034.8     
  0.268      0.409      -9999      -9999      9.473      1.638      
  1.371      1.479      1.226      0.1832467  0.1832467  0.36856    
  6.939567   2.747419   2.446      0.3557027  0.5736473  50.555     
  0.5615554  0.4294241  0.5615554 
1035       
  0.266      0.403      -9999      -9999      9.597      1.663      
  1.605      1.571      1.231      0.1785072  0.1785072  0.36636    
  5.669491   2.410268   2.48       0.345085   0.5707266  50.802     
  0.5692511  0.4530061  0.5692511 
1035.2     
  0.268      0.397      -9999      -9999      9.521      1.749      
  1.903      1.668      1.261      0.163448   0.163448   0.35316    
  2.982713   2.611648   2.517      0.297731   0.5492486  50.981     
  0.5748848  0.4384034  0.5748848 
1035.4     
  0.267      0.395      -9999      -9999      9.341      1.824      
  2.067      1.676      1.297      0.1477018  0.1477018  0.33732    
  1.523892   3.158293   2.533      0.235234   0.5197042  50.972     
  0.5746005  0.4056682  0.5746005 
1035.6     
  0.267      0.395      -9999      -9999      9.4        1.869      
  2.187      1.637      1.327      0.1353863  0.1353863  0.32412    
  0.9012391  2.967553   2.532      0.1748349  0.4912505  50.887     
  0.5719204  0.4161195  0.5719204 
1035.8     
  0.265      0.394      -9999      -9999      9.575      1.92       
  2.24       1.61       1.325      0.1376739  0.1376739  0.325      
  0.9936044  2.466911   2.541      0.1881427  0.4961403  50.751     
  0.5676547  0.4487297  0.5676547 
1036       
  0.264      0.391      -9999      -9999      9.751      1.949      
  2.342      1.652      1.301      0.1501547  0.1501547  0.33556    
  1.691951   2.048564   2.557      0.2494552  0.5233323  50.564     
  0.5618342  0.4841042  0.5618342 
1036.2     
  0.272      0.39       -9999      -9999      9.809      1.951      
  2.218      1.65       1.272      0.1648286  0.1648286  0.34832    
  3.163609   1.926878   2.562      0.3086298  0.5508074  50.376     
  0.5560347  0.4963621  0.5560347 
1036.4     
  0.28       0.393      -9999      -9999      9.914      1.833      
  2.015      1.55       1.26       0.1719148  0.1719148  0.3536     
  4.279933   1.724676   2.548      0.3318013  0.5608454  50.197     
  0.5505612  0.5193481  0.5505612 
1036.6     
  0.286      0.395      -9999      -9999      10.07      1.751      
  1.874      1.429      1.261      0.1710423  0.1710423  0.35316    
  4.123592   1.462766   2.533      0.3269713  0.5583509  50.24      
  0.5518719  0.5554791  0.5518719 
1036.8     
  0.278      0.395      -9999      -9999      10.278     1.718      
  1.932      1.373      1.265      0.1680807  0.1680807  0.3514     
  3.634304   1.174351   2.533      0.3166548  0.5540254  50.359     
  0.5555129  0.6075938  0.5555129 
1037       
  0.272      0.394      -9999      -9999      10.366     1.808      
  2.051      1.406      1.278      0.1620973  0.1620973  0.34568    
  2.815749   1.070153   2.541      0.2957804  0.5439402  50.385     
  0.5563111  0.6310887  0.5563111 
1037.2     
  0.268      0.393      -9999      -9999      10.378     1.842      
  1.953      1.398      1.28       0.1626823  0.1626823  0.3448     
  2.886879   1.056679   2.542      0.2981158  0.5439302  50.24      
  0.5518719  0.6343622  0.5518719 
1037.4     
  0.271      0.395      -9999      -9999      10.447     1.815      
  1.511      1.329      1.272      0.1673169  0.1673169  0.34832    
  3.51781    0.9824356  2.533      0.3139384  0.5508087  50.129     
  0.5484944  0.6535165  0.5484944 
1037.6     
  0.274      0.396      -9999      -9999      10.598     1.738      
  1.22       1.267      1.236      0.1823442  0.1823442  0.36416    
  6.677504   0.8376534  2.524      0.3623878  0.5763683  50.21      
  0.5509572  0.6974765  0.5509572 
1037.8     
  0.275      0.396      -9999      -9999      10.698     1.694      
  1.235      1.227      1.216      0.1893368  0.1893368  0.37296    
  8.997757   0.7537196  2.523      0.3828322  0.5884673  50.389     
  0.5564341  0.7282047  0.5564341 
1038       
  0.275      0.395      -9999      -9999      10.631     1.684      
  1.402      1.231      1.201      0.1950323  0.1950323  0.37956    
  11.47176   0.80897    2.529      0.3992295  0.5979859  50.478     
  0.5591748  0.7074707  0.5591748 
1038.2     
  0.277      0.394      -9999      -9999      10.438     1.697      
  1.536      1.24       1.209      0.1913799  0.1913799  0.37604    
  9.81698    0.991816   2.536      0.3900474  0.5932794  50.491     
  0.5595761  0.6509857  0.5595761 
1038.4     
  0.275      0.395      -9999      -9999      10.349     1.745      
  1.636      1.331      1.218      0.1882843  0.1882843  0.37208    
  8.602798   1.089535   2.535      0.3812079  0.5879615  50.406     
  0.5569566  0.6264801  0.5569566 
1038.6     
  0.271      0.398      -9999      -9999      10.264     1.806      
  1.882      1.393      1.252      0.1725923  0.1725923  0.35712    
  4.405416   1.191839   2.513      0.3297503  0.5611575  50.478     
  0.5591748  0.6039376  0.5591748 
1038.8     
  0.271      0.399      -9999      -9999      10.271     1.753      
  1.621      1.39       1.273      0.1609972  0.1609972  0.34788    
  2.68668    1.183062   2.504      0.2866979  0.5412132  50.708     
  0.5663117  0.605763   0.5663117 
1039       
  0.275      0.399      -9999      -9999      10.334     1.684      
  1.362      1.35       1.267      0.1604531  0.1604531  0.35052    
  2.625058   1.106928   2.506      0.2848599  0.5429693  51.015     
  0.5759603  0.6224416  0.5759603 
1039.2     
  0.274      0.389      -9999      -9999      10.378     1.683      
  1.254      1.372      1.228      0.1751126  0.1751126  0.36768    
  4.905337   1.056679   2.572      0.3453281  0.5763234  51.253     
  0.5835374  0.6343622  0.5835374 
1039.4     
  0.262      0.38       -9999      -9999      10.303     1.863      
  1.656      1.554      1.192      0.1876857  0.1876857  0.38352    
  8.385944   1.143757   2.637      0.3908704  0.602991   51.56      
  0.5934373  0.6141782  0.5934373 
1039.6     
  0.244      0.372      -9999      -9999      10.048     2.106      
  2.058      1.688      1.185      0.1903151  0.1903151  0.3866     
  9.381147   1.49714    2.691      0.4039042  0.611007   51.602     
  0.5948027  0.5502355  0.5948027 
1039.8     
  0.241      0.377      -9999      -9999      10.031     2.16       
  2.091      1.714      1.166      0.1992222  0.1992222  0.39496    
  13.71626   1.524255   2.657      0.4237559  0.6203784  51.551     
  0.593145   0.5462174  0.593145  
