~Version
 VERS              .         2.0                           : CWLS LOG ASCII STANDARD - VERSION 2.0
 WRAP              .         YES                            : ONE LINE PER DEPTH STEP
 DLM               .         SPACE                         : DELIMITING CHARACTER(SPACE TAB OR COMMA)
~Well Information
#_______________________________________________________________________________
#
#PARAMETER_NAME    .UNIT     VALUE                         : DESCRIPTION
#_______________________________________________________________________________
STRT               .M        880                           : First reference value
STOP               .M        1168                          : Last reference value
STEP               .M        0.2                           : Step increment
NULL               .         -9999                         : Missing value
COMP               .                                       : Company
WELL               .         4721                          : Well name
FLD                .         UZEN                          : Field
LOC                .                                       : Location
CNTY               .                                       : County
STAT               .                                       : State
CTRY               .                                       : Country
SRVC               .                                       : Service Company
DATE               .         16.07.90                      : Date
UWI                .         4721                          : Unique Well ID
Block              .         7                             : 
Cartographic_reference_system .         GCS_WGS_1984                  : ESRI,PE_10_3_1- <?xml version="1.0" encoding="utf-16"?><ILateBoundCoordinateReferenceSystem name="GCS_WGS_1984"><AuthorityCode>EPSG,4326</AuthorityCode></ILateBoundCoordinateReferenceSystem>
Category           .         Нефтяная                      : 
Condition          .         В работе                      : 
EREF               .m        88.7                          : 100.8
Gorizont           .         14                            : 14
HZCS               .GCS_WGS_1984 WGS_1984_EASE-Grid_2.0_Global : ESRI,PE_10_3_1- <?xml version="1.0" encoding="utf-16"?><ILateBoundCoordinateReferenceSystem name="WGS_1984_EASE-Grid_2.0_Global"><AuthorityCode>EPSG,6933</AuthorityCode></ILateBoundCoordinateReferenceSystem>
Interpretator      .         Сагынбаева А.Н.               : 
Kupol              .         основной                      : osnovnoi
LATI               .dega     0.6597026748                  : GCS_WGS_1984
LONG               .dega     0.4354453285                  : GCS_WGS_1984
Mud                .         глинистый                     : 
Mud_density        .         1,18                          : 
Mud_resistivity    .         0                             : 
NGDU               .         НГДУ-2                        : 
ORIGINALWELLNAME   .         4721                          : 
Spud_date          .         1990                          : 1961
Viscosity          .         40                            : 
X                  .m        42014.5                       : 46154
Y                  .m        84158.63                      : 85761.93
YEAR               .         2019                          : 
~Parameter Information Block
#_______________________________________________________________________________
#
#PARAMETER_NAME    .UNIT     VALUE                         : DESCRIPTION
#_______________________________________________________________________________
SET                .         LQC_KAZNIPI_Petrel            : 
TLFamily_CALI      .         Caliper                       : 
TLFamily_CILD      .         Conductivity                  : 
TLFamily_COLL      .         Net Reservoir Flag            : 
TLFamily_CSAT      .         Fluid Code                    : 
TLFamily_DEPT      .         Measured Depth                : 
TLFamily_GR        .         Russian Gamma Ray             : 
TLFamily_LLS       .         Lateral Log Resistivity       : 
TLFamily_MINV      .         Micro Gradient Resistivity    : 
TLFamily_MNOR      .         Micro Resistivity             : 
TLFamily_NGLD      .         Neutron Gamma                 : 
TLFamily_PHIE      .         Effective Porosity            : 
TLFamily_PHIEN     .         Effective Porosity            : 
TLFamily_PHIT      .         Porosity                      : 
TLFamily_PRMB      .         Permeability                  : 
TLFamily_PRMB_DGR  .         Permeability                  : 
TLFamily_RT        .         Formation Resistivity         : 
TLFamily_SOIL_ARCHIE .         Oil Saturation                : 
TLFamily_SOIL_DW   .         Oil Saturation                : 
TLFamily_SP        .         Spontaneous Potential         : 
TLFamily_VSH_FIN   .         Shale Volume                  : 
TLFamily_VSH_GR    .         Shale Volume                  : 
TLFamily_VSH_SP    .         Shale Volume                  : 
~Curve Information
#_______________________________________________________________________________
#
#LOGNAME           .UNIT     LOG_ID                        : DESCRIPTION
#_______________________________________________________________________________
DEPT               .M                                      : Колонка глубины 
CALI               .м                                      : Каверномер 
CILD               .мСм/м                                  : Индукционный каротаж 
COLL               .unitless                               : Описание 
CSAT               .unitless                               :  
GR                 .uR/h                                   : Гамма каротаж 
LLS                .Ohmm                                   : Боковой каротаж 
MINV               .Ohmm                                   : Микро-градиент зонд 
MNOR               .Ohmm                                   : Микро-потенциал зонд 
NGLD               .у.е.                                   : Показания зонда НГК-60 аппаратуры ДРСТ-3-90 
PHIE               .v/v                                    : Описание 
PHIEN              .v/v                                    :  
PHIT               .v/v                                    : Описание 
PRMB               .mD                                     :  
PRMB_DGR           .mD                                     :  
RT                 .ohmm                                   : УЭС пласта 
SOIL_ARCHIE        .v/v                                    :  
SOIL_DW            .v/v                                    :  
SP                 .мВ                                     : Потенциал самополяризации 
VSH_FIN            .v/v                                    : Описание 
VSH_GR             .v/v                                    : Shale volume 
VSH_SP             .v/v                                    : Shale Volume 
~Ascii
# ...
1161.6     
  -9999      0.39       -9999      -9999      10.033     1.906      
  2.129      1.813      1.241      0.2521883  0.2521883  0.36196    
  131.3098   5.135014   2.566      0.5296184  0.6346081  -9999      
  0.3326415  0.3326415  -9999     
1161.8     
  -9999      0.387      -9999      -9999      9.867      1.904      
  1.819      1.696      1.214      0.2706214  0.2706214  0.37384    
  288.2187   5.970459   2.585      0.5591779  0.6530737  -9999      
  0.3127838  0.3127838  -9999     
1162       
  -9999      0.382      -9999      -9999      9.828      1.956      
  1.464      1.469      1.198      0.2791433  0.2791433  0.38088    
  414.5422   6.185693   2.617      0.5733925  0.6633118  -9999      
  0.3082932  0.3082932  -9999     
1162.2     
  -9999      0.379      -9999      -9999      9.845      1.9        
  1.737      1.271      1.197      0.2789399  0.2789399  0.38132    
  410.9621   6.090932   2.64       0.5748708  0.6649053  -9999      
  0.3102427  0.3102427  -9999     
1162.4     
  -9999      0.374      -9999      -9999      10.302     1.964      
  2.356      1.489      1.208      0.2551945  0.2551945  0.37648    
  149.272    4.022116   2.678      0.5436885  0.6522027  -9999      
  0.367532   0.367532   -9999     
1162.6     
  -9999      0.368      -9999      -9999      10.541     2.033      
  2.332      1.59       1.221      0.2382353  0.2382353  0.37076    
  72.41924   3.237419   2.721      0.5191317  0.6418799  -9999      
  0.40159    0.40159    -9999     
1162.8     
  -9999      0.361      -9999      -9999      10.859     2.139      
  2.056      1.716      1.251      0.2084501  0.2084501  0.35756    
  20.33105   2.425425   2.77       0.4643174  0.6172011  -9999      
  0.4518481  0.4518481  -9999     
1163       
  -9999      0.359      -9999      -9999      10.703     2.151      
  1.358      1.506      1.309      0.1913106  0.1913106  0.33204    
  9.788025   2.79454    2.785      0.4242138  0.5869554  -9999      
  0.4264526  0.4264526  -9999     
1163.2     
  -9999      0.361      -9999      -9999      10.623     2.132      
  1.232      1.571      1.361      0.1725439  0.1725439  0.30916    
  4.396332   3.005109   2.774      0.3688671  0.5498386  -9999      
  0.4139881  0.4139881  -9999     
1163.4     
  -9999      0.364      -9999      -9999      10.412     2.169      
  1.648      1.801      1.403      0.1643452  0.1643452  0.29068    
  3.099058   3.639767   2.751      0.3389537  0.5216895  -9999      
  0.3828328  0.3828328  -9999     
1163.6     
  -9999      0.365      1          2          10.268     2.261      
  2.087      2.154      1.43       0.159034   0.159034   0.2788     
  2.470886   4.148237   2.739      0.3183698  0.5019799  -9999      
  0.3629275  0.3629275  -9999     
1163.8     
  -9999      0.358      1          2          10.174     2.381      
  2.467      2.298      1.46       0.1499365  0.1499365  0.2656     
  1.676275   4.51788    2.798      0.2896266  0.4806239  -9999      
  0.3504955  0.3504955  -9999     
1164       
  -9999      0.341      1          2          9.992      2.602      
  2.567      2.604      1.484      0.1469246  0.1469246  0.25504    
  1.474204   5.3298     2.943      0.2939013  0.4768557  -9999      
  0.3276226  0.3276226  -9999     
1164.2     
  -9999      0.316      1          2          9.795      3.058      
  2.572      2.902      1.487      0.1532206  0.1532206  0.25372    
  1.9283     6.373862   3.175      0.3430527  0.5031964  -9999      
  0.3045438  0.3045438  -9999     
1164.4     
  -9999      0.29       1          2          9.569      3.814      
  2.564      3.235      1.477      0.1656993  0.1656993  0.25812    
  3.283298   7.825844   3.462      0.4107785  0.543785   -9999      
  0.2800629  0.2800629  -9999     
1164.6     
  -9999      0.264      1          2          9.333      4.884      
  2.556      3.35       1.469      0.1769631  0.1769631  0.26164    
  5.308165   9.696251   3.807      0.4678397  0.5798841  -9999      
  0.2565966  0.2565966  -9999     
1164.8     
  -9999      0.238      1          2          9.146      6.253      
  2.598      3.476      1.486      0.1751557  0.1751557  0.25416    
  4.914349   11.49084   4.228      0.4888484  0.5927743  -9999      
  0.2394071  0.2394071  -9999     
1165       
  -9999      0.212      1          2          9.117      8.007      
  2.667      3.571      1.509      0.1658807  0.1658807  0.24404    
  3.308801   11.79747   4.755      0.4927884  0.5978013  -9999      
  0.2368465  0.2368465  -9999     
1165.2     
  -9999      0.186      1          2          9.226      8.946      
  2.702      3.604      1.52       0.157817   0.157817   0.2392     
  2.345908   10.68568   5.434      0.5024512  0.6114268  -9999      
  0.2466153  0.2466153  -9999     
1165.4     
  -9999      0.167      1          2          9.534      9.156      
  2.688      3.537      1.529      0.1440109  0.1440109  0.23524    
  1.301936   8.078568   6.031      0.4868789  0.6133519  -9999      
  0.2764517  0.2764517  -9999     
1165.6     
  -9999      0.156      1          2          9.794      8.403      
  2.661      3.445      1.529      0.1347778  0.1347778  0.23524    
  0.8781529  6.379656   6.421      0.4721469  0.6151764  -9999      
  0.3044308  0.3044308  -9999     
1165.8     
  -9999      0.162      1          2          9.794      7.171      
  2.672      3.135      1.513      0.1418178  0.1418178  0.24228    
  1.185682   6.379656   6.213      0.4871796  0.6233945  -9999      
  0.3044308  0.3044308  -9999     
1166       
  -9999      0.19       -9999      -9999      -9999      5.523      
  2.77       2.625      1.471      -9999      -9999      0.26076    
  -9999      -9999      5.449      -9999      -9999      -9999      
  -9999      -9999      -9999     
1166.2     
  -9999      0.238      -9999      -9999      -9999      3.72       
  2.627      2.022      1.428      -9999      -9999      0.27968    
  -9999      -9999      4.394      -9999      -9999      -9999      
  -9999      -9999      -9999     
1166.4     
  -9999      0.282      -9999      -9999      -9999      2.745      
  2.493      1.72       1.403      -9999      -9999      0.29068    
  -9999      -9999      3.595      -9999      -9999      -9999      
  -9999      -9999      -9999     
1166.6     
  -9999      0.311      -9999      -9999      -9999      2.34       
  2.383      1.761      1.402      -9999      -9999      0.29112    
  -9999      -9999      3.22       -9999      -9999      -9999      
  -9999      -9999      -9999     
1166.8     
  -9999      0.324      -9999      -9999      -9999      2.34       
  2.613      2.019      1.404      -9999      -9999      0.29024    
  -9999      -9999      3.088      -9999      -9999      -9999      
  -9999      -9999      -9999     
1167       
  -9999      0.334      -9999      -9999      -9999      -9999      
  2.374      2.224      1.41       -9999      -9999      0.2876     
  -9999      -9999      2.999      -9999      -9999      -9999      
  -9999      -9999      -9999     
1167.2     
  -9999      0.342      -9999      -9999      -9999      -9999      
  2.374      2.224      1.396      -9999      -9999      0.29376    
  -9999      -9999      2.924      -9999      -9999      -9999      
  -9999      -9999      -9999     
1167.4     
  -9999      0.346      -9999      -9999      -9999      -9999      
  -9999      -9999      1.362      -9999      -9999      0.30872    
  -9999      -9999      2.888      -9999      -9999      -9999      
  -9999      -9999      -9999     
1167.6     
  -9999      0.347      -9999      -9999      -9999      -9999      
  -9999      -9999      1.326      -9999      -9999      -9999      
  -9999      -9999      2.879      -9999      -9999      -9999      
  -9999      -9999      -9999     
1167.8     
  -9999      0.344      -9999      -9999      -9999      -9999      
  -9999      -9999      1.294      -9999      -9999      -9999      
  -9999      -9999      2.905      -9999      -9999      -9999      
  -9999      -9999      -9999     
