~Version
 VERS              .         2.0                           : CWLS LOG ASCII STANDARD - VERSION 2.0
 WRAP              .         YES                            : ONE LINE PER DEPTH STEP
 DLM               .         SPACE                         : DELIMITING CHARACTER(SPACE TAB OR COMMA)
~Well Information
#_______________________________________________________________________________
#
#PARAMETER_NAME    .UNIT     VALUE                         : DESCRIPTION
#_______________________________________________________________________________
STRT               .M        880                           : First reference value
STOP               .M        1168                          : Last reference value
STEP               .M        0.2                           : Step increment
NULL               .         -9999                         : Missing value
COMP               .                                       : Company
WELL               .         4721                          : Well name
FLD                .         UZEN                          : Field
LOC                .                                       : Location
CNTY               .                                       : County
STAT               .                                       : State
CTRY               .                                       : Country
SRVC               .                                       : Service Company
DATE               .         16.07.90                      : Date
UWI                .         4721                          : Unique Well ID
Block              .         7                             : 
Cartographic_reference_system .         GCS_WGS_1984                  : ESRI,PE_10_3_1- <?xml version="1.0" encoding="utf-16"?><ILateBoundCoordinateReferenceSystem name="GCS_WGS_1984"><AuthorityCode>EPSG,4326</AuthorityCode></ILateBoundCoordinateReferenceSystem>
Category           .         Нефтяная                      : 
Condition          .         В работе                      : 
EREF               .m        88.7                          : 100.8
Gorizont           .         14                            : 14
HZCS               .GCS_WGS_1984 WGS_1984_EASE-Grid_2.0_Global : ESRI,PE_10_3_1- <?xml version="1.0" encoding="utf-16"?><ILateBoundCoordinateReferenceSystem name="WGS_1984_EASE-Grid_2.0_Global"><AuthorityCode>EPSG,6933</AuthorityCode></ILateBoundCoordinateReferenceSystem>
Interpretator      .         Сагынбаева А.Н.               : 
Kupol              .         основной                      : osnovnoi
LATI               .dega     0.6597026748                  : GCS_WGS_1984
LONG               .dega     0.4354453285                  : GCS_WGS_1984
Mud                .         глинистый                     : 
Mud_density        .         1,18                          : 
Mud_resistivity    .         0                             : 
NGDU               .         НГДУ-2                        : 
ORIGINALWELLNAME   .         4721                          : 
Spud_date          .         1990                          : 1961
Viscosity          .         40                            : 
X                  .m        42014.5                       : 46154
Y                  .m        84158.63                      : 85761.93
YEAR               .         2019                          : 
~Parameter Information Block
#_______________________________________________________________________________
#
#PARAMETER_NAME    .UNIT     VALUE                         : DESCRIPTION
#_______________________________________________________________________________
SET                .         LQC_KAZNIPI_Petrel            : 
TLFamily_CALI      .         Caliper                       : 
TLFamily_CILD      .         Conductivity                  : 
TLFamily_COLL      .         Net Reservoir Flag            : 
TLFamily_CSAT      .         Fluid Code                    : 
TLFamily_DEPT      .         Measured Depth                : 
TLFamily_GR        .         Russian Gamma Ray             : 
TLFamily_LLS       .         Lateral Log Resistivity       : 
TLFamily_MINV      .         Micro Gradient Resistivity    : 
TLFamily_MNOR      .         Micro Resistivity             : 
TLFamily_NGLD      .         Neutron Gamma                 : 
TLFamily_PHIE      .         Effective Porosity            : 
TLFamily_PHIEN     .         Effective Porosity            : 
TLFamily_PHIT      .         Porosity                      : 
TLFamily_PRMB      .         Permeability                  : 
TLFamily_PRMB_DGR  .         Permeability                  : 
TLFamily_RT        .         Formation Resistivity         : 
TLFamily_SOIL_ARCHIE .         Oil Saturation                : 
TLFamily_SOIL_DW   .         Oil Saturation                : 
TLFamily_SP        .         Spontaneous Potential         : 
TLFamily_VSH_FIN   .         Shale Volume                  : 
TLFamily_VSH_GR    .         Shale Volume                  : 
TLFamily_VSH_SP    .         Shale Volume                  : 
~Curve Information
#_______________________________________________________________________________
#
#LOGNAME           .UNIT     LOG_ID                        : DESCRIPTION
#_______________________________________________________________________________
DEPT               .M                                      : Колонка глубины 
CALI               .м                                      : Каверномер 
CILD               .мСм/м                                  : Индукционный каротаж 
COLL               .unitless                               : Описание 
CSAT               .unitless                               :  
GR                 .uR/h                                   : Гамма каротаж 
LLS                .Ohmm                                   : Боковой каротаж 
MINV               .Ohmm                                   : Микро-градиент зонд 
MNOR               .Ohmm                                   : Микро-потенциал зонд 
NGLD               .у.е.                                   : Показания зонда НГК-60 аппаратуры ДРСТ-3-90 
PHIE               .v/v                                    : Описание 
PHIEN              .v/v                                    :  
PHIT               .v/v                                    : Описание 
PRMB               .mD                                     :  
PRMB_DGR           .mD                                     :  
RT                 .ohmm                                   : УЭС пласта 
SOIL_ARCHIE        .v/v                                    :  
SOIL_DW            .v/v                                    :  
SP                 .мВ                                     : Потенциал самополяризации 
VSH_FIN            .v/v                                    : Описание 
VSH_GR             .v/v                                    : Shale volume 
VSH_SP             .v/v                                    : Shale Volume 
~Ascii
# ...
944        
  0.22       0.246      -9999      -9999      6.609      3.304      
  2.455      2.333      1.318      0.1361937  0.1361937  0.32808    
  0.9328159  1.480275   4.063      0.342474   0.6023261  55.985     
  0.5814736  0.5527868  0.6101605 
944.2000000000001 
  0.22       0.249      -9999      -9999      6.787      2.979      
  2.458      1.913      1.269      0.1533936  0.1533936  0.34964    
  1.942579   1.294987   4.023      0.404414   0.6325834  55.874     
  0.5946862  0.5838113  0.6055611 
944.4      
  0.221      0.253      -9999      -9999      6.918      2.827      
  2.323      1.369      1.262      0.1519429  0.1519429  0.35272    
  1.826033   1.173609   3.951      0.3943536  0.6299852  55.959     
  0.6084156  0.6077507  0.6090804 
944.6      
  0.224      0.257      -9999      -9999      6.883      2.719      
  2.209      1.668      1.288      0.1394526  0.1394526  0.34128    
  1.071911   1.204877   3.897      0.3431443  0.6073848  56.266     
  0.6115982  0.6012602  0.6219363 
944.8      
  0.226      0.253      -9999      -9999      6.706      2.604      
  2.175      1.942      1.341      0.1190395  0.1190395  0.31796    
  0.4488064  1.376239   3.951      0.2509158  0.568046   56.598     
  0.6027893  0.5694831  0.6360955 
945        
  0.227      0.246      -9999      -9999      6.397      2.686      
  1.971      2.556      1.411      0.09466048 0.09466048 0.28716    
  0.1586718  1.735853   4.08       0.09912953 0.5078944  56.888     
  0.5833319  0.51798    0.6486838 
945.2000000000001 
  0.224      0.236      -9999      -9999      6.045      2.92       
  2.198      2.54       1.477      0.07275555 0.07275555 0.25812    
  0.06234007 2.26132    4.234      0          0.4336598  57.11      
  0.5617105  0.4649608  0.6584601 
945.4      
  0.222      0.233      -9999      -9999      5.841      3.228      
  1.804      2.808      1.511      0.06170162 0.06170162 0.24316    
  0.03890647 2.635859   4.299      0          0.3829754  57.212     
  0.5498738  0.4367547  0.6629929 
945.6      
  0.222      0.236      -9999      -9999      5.894      3.306      
  1.747      2.478      1.506      0.06234482 0.06234482 0.24536    
  0.03998851 2.532967   4.248      0          0.3851115  57.263     
  0.5545914  0.4439139  0.6652689 
945.8      
  0.223      0.245      -9999      -9999      6.106      3.16       
  1.26       2.391      1.443      0.08561407 0.08561407 0.27308    
  0.1078794  2.160026   4.087      0.01755774 0.4740534  57.199     
  0.5680786  0.4737436  0.6624137 
946        
  0.224      0.256      -9999      -9999      6.361      2.847      
  0.901      1.654      1.38       0.1079036  0.1079036  0.3008     
  0.2791224  1.783442   3.918      0.1807986  0.5344859  57.072     
  0.5845345  0.5122911  0.6567779 
946.2000000000001 
  0.225      0.264      -9999      -9999      6.523      2.565      
  0.93       1.665      1.326      0.1285983  0.1285983  0.32456    
  0.6747007  1.579073   3.79       0.2858427  0.5766532  56.901     
  0.5938233  0.5383936  0.649253  
946.4      
  0.228      0.267      -9999      -9999      6.557      2.427      
  0.641      1.3        1.328      0.1275506  0.1275506  0.32368    
  0.6452165  1.539249   3.742      0.2764215  0.571942   56.795     
  0.5943314  0.5440387  0.6446243 
946.6      
  0.233      0.269      -9999      -9999      6.419      2.377      
  0.591      1.288      1.328      0.13158    0.13158    0.32368    
  0.7661951  1.707398   3.712      0.2930937  0.575046   56.752     
  0.5821212  0.5214878  0.6427546 
946.8      
  0.235      0.269      -9999      -9999      6.208      2.371      
  0.631      1.32       1.337      0.132525   0.132525   0.31972    
  0.7977043  2.000686   3.714      0.2976632  0.5729509  56.82      
  0.5672576  0.4888017  0.6457135 
947        
  0.232      0.267      -9999      -9999      5.987      2.403      
  0.688      1.346      1.373      0.1209824  0.1209824  0.30388    
  0.487579   2.362032   3.747      0.2427991  0.5460451  56.957     
  0.5542352  0.4567611  0.6517093 
947.2000000000001 
  0.227      0.261      -9999      -9999      5.804      2.586      
  2.078      1.849      1.416      0.1050629  0.1050629  0.28496    
  0.2472737  2.710156   3.826      0.1521392  0.5075355  57.11      
  0.5451427  0.4318253  0.6584601 
947.4      
  0.224      0.254      -9999      -9999      5.811      2.951      
  2.99       2.376      1.431      0.09756183 0.09756183 0.27836    
  0.1795725  2.69594    3.939      0.1079058  0.4941947  57.212     
  0.5478733  0.4327536  0.6629929 
947.6      
  0.221      0.251      -9999      -9999      5.994      3.171      
  3.495      2.531      1.407      0.1043731  0.1043731  0.28892    
  0.2401051  2.349643   3.978      0.1627092  0.5202044  57.161     
  0.5592331  0.457743   0.6607232 
947.8      
  0.221      0.255      -9999      -9999      6.298      2.985      
  2.298      2.011      1.357      0.1201077  0.1201077  0.31092    
  0.4697249  1.869882   3.932      0.2550379  0.5621408  57.008     
  0.5782192  0.5024853  0.6539531 
948        
  0.223      0.261      -9999      -9999      6.47       2.62       
  1.33       1.524      1.335      0.1264102  0.1264102  0.3206     
  0.6145842  1.643217   3.828      0.2784738  0.5728014  56.854     
  0.5884539  0.5297107  0.6471972 
948.2000000000001 
  0.227      0.259      -9999      -9999      6.455      2.533      
  0.94       1.594      1.348      0.1214585  0.1214585  0.31488    
  0.4975808  1.661839   3.871      0.2568263  0.5640233  56.803     
  0.5861258  0.5272788  0.6449728 
948.4      
  0.23       0.251      -9999      -9999      6.276      2.773      
  1.018      2.082      1.385      0.1092365  0.1092365  0.2986     
  0.2954488  1.901044   3.984      0.1958397  0.5381685  56.885     
  0.5738289  0.4991055  0.6485524 
948.6      
  0.231      0.247      -9999      -9999      6.06       2.986      
  2.48       2.611      1.404      0.1053308  0.1053308  0.29024    
  0.2501147  2.235979   4.045      0.1758283  0.5271233  56.999     
  0.560331   0.4671053  0.6535567 
948.8      
  0.232      0.252      -9999      -9999      5.975      3.098      
  2.81       2.605      1.39       0.1124166  0.1124166  0.2964     
  0.338366   2.383424   3.975      0.2148568  0.5401633  57.144     
  0.5575254  0.4550827  0.6599681 
949        
  0.235      0.258      -9999      -9999      6.008      2.879      
  2.624      2.202      1.354      0.1266549  0.1266549  0.31224    
  0.6210312  2.325059   3.876      0.2838877  0.5685558  57.258     
  0.5623792  0.4597131  0.6650454 
949.2000000000001 
  0.242      0.26       -9999      -9999      6.074      2.749      
  1.622      1.658      1.314      0.1420975  0.1420975  0.32984    
  1.19991    2.212585   3.852      0.3502742  0.5992773  57.34      
  0.5689166  0.4691157  0.6687176 
949.4      
  0.244      0.257      -9999      -9999      6.093      2.582      
  1.527      1.363      1.302      0.1471766  0.1471766  0.33512    
  1.490134   2.181226   3.898      0.3733474  0.6107172  57.306     
  0.5695255  0.471858   0.6671929 
949.6      
  0.244      0.257      -9999      -9999      6.101      2.622      
  1.489      1.351      1.31       0.144342   0.144342   0.3316     
  1.320452   2.168156   3.891      0.3621051  0.6049271  57.187     
  0.5674484  0.4730175  0.6618795 
949.8      
  0.241      0.262      -9999      -9999      6.169      2.583      
  1.047      1.312      1.31       0.143699   0.143699   0.3316     
  1.284729   2.060173   3.827      0.3546162  0.6009762  57.05      
  0.5693972  0.4829885  0.6558058 
950        
  0.241      0.272      -9999      -9999      6.302      2.556      
  0.636      1.227      1.302      0.1443947  0.1443947  0.33512    
  1.323423   1.864271   3.674      0.3449023  0.5961729  56.982     
  0.5779553  0.5031022  0.6528084 
950.2000000000001 
  0.241      0.284      -9999      -9999      6.483      2.416      
  0.607      1.172      1.281      0.1488951  0.1488951  0.34436    
  1.603453   1.627246   3.528      0.3499285  0.5994784  56.982     
  0.5923179  0.5318274  0.6528084 
