~Version
 VERS              .         2.0                           : CWLS LOG ASCII STANDARD - VERSION 2.0
 WRAP              .         YES                            : ONE LINE PER DEPTH STEP
 DLM               .         SPACE                         : DELIMITING CHARACTER(SPACE TAB OR COMMA)
~Well Information
#_______________________________________________________________________________
#
#PARAMETER_NAME    .UNIT     VALUE                         : DESCRIPTION
#_______________________________________________________________________________
STRT               .M        880                           : First reference value
STOP               .M        1168                          : Last reference value
STEP               .M        0.2                           : Step increment
NULL               .         -9999                         : Missing value
COMP               .                                       : Company
WELL               .         4721                          : Well name
FLD                .         UZEN                          : Field
LOC                .                                       : Location
CNTY               .                                       : County
STAT               .                                       : State
CTRY               .                                       : Country
SRVC               .                                       : Service Company
DATE               .         16.07.90                      : Date
UWI                .         4721                          : Unique Well ID
Block              .         7                             : 
Cartographic_reference_system .         GCS_WGS_1984                  : ESRI,PE_10_3_1- <?xml version="1.0" encoding="utf-16"?><ILateBoundCoordinateReferenceSystem name="GCS_WGS_1984"><AuthorityCode>EPSG,4326</AuthorityCode></ILateBoundCoordinateReferenceSystem>
Category           .         Нефтяная                      : 
Condition          .         В работе                      : 
EREF               .m        88.7                          : 100.8
Gorizont           .         14                            : 14
HZCS               .GCS_WGS_1984 WGS_1984_EASE-Grid_2.0_Global : ESRI,PE_10_3_1- <?xml version="1.0" encoding="utf-16"?><ILateBoundCoordinateReferenceSystem name="WGS_1984_EASE-Grid_2.0_Global"><AuthorityCode>EPSG,6933</AuthorityCode></ILateBoundCoordinateReferenceSystem>
Interpretator      .         Сагынбаева А.Н.               : 
Kupol              .         основной                      : osnovnoi
LATI               .dega     0.6597026748                  : GCS_WGS_1984
LONG               .dega     0.4354453285                  : GCS_WGS_1984
Mud                .         глинистый                     : 
Mud_density        .         1,18                          : 
Mud_resistivity    .         0                             : 
NGDU               .         НГДУ-2                        : 
ORIGINALWELLNAME   .         4721                          : 
Spud_date          .         1990                          : 1961
Viscosity          .         40                            : 
X                  .m        42014.5                       : 46154
Y                  .m        84158.63                      : 85761.93
YEAR               .         2019                          : 
~Parameter Information Block
#_______________________________________________________________________________
#
#PARAMETER_NAME    .UNIT     VALUE                         : DESCRIPTION
#_______________________________________________________________________________
SET                .         LQC_KAZNIPI_Petrel            : 
TLFamily_CALI      .         Caliper                       : 
TLFamily_CILD      .         Conductivity                  : 
TLFamily_COLL      .         Net Reservoir Flag            : 
TLFamily_CSAT      .         Fluid Code                    : 
TLFamily_DEPT      .         Measured Depth                : 
TLFamily_GR        .         Russian Gamma Ray             : 
TLFamily_LLS       .         Lateral Log Resistivity       : 
TLFamily_MINV      .         Micro Gradient Resistivity    : 
TLFamily_MNOR      .         Micro Resistivity             : 
TLFamily_NGLD      .         Neutron Gamma                 : 
TLFamily_PHIE      .         Effective Porosity            : 
TLFamily_PHIEN     .         Effective Porosity            : 
TLFamily_PHIT      .         Porosity                      : 
TLFamily_PRMB      .         Permeability                  : 
TLFamily_PRMB_DGR  .         Permeability                  : 
TLFamily_RT        .         Formation Resistivity         : 
TLFamily_SOIL_ARCHIE .         Oil Saturation                : 
TLFamily_SOIL_DW   .         Oil Saturation                : 
TLFamily_SP        .         Spontaneous Potential         : 
TLFamily_VSH_FIN   .         Shale Volume                  : 
TLFamily_VSH_GR    .         Shale Volume                  : 
TLFamily_VSH_SP    .         Shale Volume                  : 
~Curve Information
#_______________________________________________________________________________
#
#LOGNAME           .UNIT     LOG_ID                        : DESCRIPTION
#_______________________________________________________________________________
DEPT               .M                                      : Колонка глубины 
CALI               .м                                      : Каверномер 
CILD               .мСм/м                                  : Индукционный каротаж 
COLL               .unitless                               : Описание 
CSAT               .unitless                               :  
GR                 .uR/h                                   : Гамма каротаж 
LLS                .Ohmm                                   : Боковой каротаж 
MINV               .Ohmm                                   : Микро-градиент зонд 
MNOR               .Ohmm                                   : Микро-потенциал зонд 
NGLD               .у.е.                                   : Показания зонда НГК-60 аппаратуры ДРСТ-3-90 
PHIE               .v/v                                    : Описание 
PHIEN              .v/v                                    :  
PHIT               .v/v                                    : Описание 
PRMB               .mD                                     :  
PRMB_DGR           .mD                                     :  
RT                 .ohmm                                   : УЭС пласта 
SOIL_ARCHIE        .v/v                                    :  
SOIL_DW            .v/v                                    :  
SP                 .мВ                                     : Потенциал самополяризации 
VSH_FIN            .v/v                                    : Описание 
VSH_GR             .v/v                                    : Shale volume 
VSH_SP             .v/v                                    : Shale Volume 
~Ascii
# ...
931.2000000000001 
  0.219      0.171      -9999      -9999      5.636      3.7        
  2.475      3.428      1.627      0.02757063 0.02757063 0.19212    
  0.009074716 3.074741   5.833      0          0.2138296  55.422     
  0.4986345  0.4101339  0.5871351 
931.4      
  0.218      0.171      -9999      -9999      5.48       3.838      
  3.115      3.877      1.64       0.02628024 0.02628024 0.1864     
  0.008588788 3.457067   5.855      0          0.1877406  55.23      
  0.4852114  0.3909686  0.5794542 
931.6      
  0.217      0.169      -9999      -9999      5.22       4.27       
  3.559      4.409      1.637      0.03421338 0.03421338 0.18772    
  0.01204683 4.202806   5.936      0          0.2502991  54.974     
  0.4651716  0.3609959  0.5693474 
931.8      
  0.217      0.166      -9999      -9999      4.879      4.526      
  3.473      4.394      1.654      0.03406886 0.03406886 0.18024    
  0.01197281 5.429991   6.018      0          0.2322865  54.753     
  0.4429428  0.3251405  0.5607451 
932        
  0.216      0.164      -9999      -9999      4.716      4.888      
  3.124      3.832      1.703      0.01672132 0.01672132 0.15868    
  0.005713173 6.137368   6.084      0          0.0009487584 54.501     
  0.4301779  0.3092821  0.5510737 
932.2000000000001 
  0.216      0.163      -9999      -9999      4.604      4.451      
  3.294      3.695      1.719      0.01286517 0.01286517 0.15164    
  0.004846768 6.676135   6.122      0          0          54.267     
  0.4205298  0.2988361  0.5422235 
932.4      
  0.216      0.162      -9999      -9999      4.577      4.531      
  3.712      3.644      1.668      0.0368702  0.0368702  0.17408    
  0.01349223 6.812941   6.173      0          0.2402425  54.079     
  0.4157873  0.2963711  0.5352035 
932.6      
  0.216      0.161      -9999      -9999      4.687      3.893      
  3.575      3.688      1.6        0.0652649  0.0652649  0.204      
  0.04529208 6.272553   6.209      0          0.4327012  54.054     
  0.4204094  0.3065428  0.534276  
932.8      
  0.217      0.161      -9999      -9999      4.893      3.928      
  3.485      3.725      1.581      0.06998838 0.06998838 0.21236    
  0.05540038 5.373181   6.212      0.03792829 0.4606691  54.109     
  0.4314292  0.3265399  0.5363184 
933        
  0.217      0.163      -9999      -9999      5.001      4.104      
  3.148      3.643      1.605      0.05880915 0.05880915 0.2018     
  0.0343911  4.95443    6.145      0          0.4052358  53.913     
  0.4333056  0.3375399  0.5290713 
933.2000000000001 
  0.217      0.167      -9999      -9999      5.01       4.101      
  3.099      3.437      1.613      0.05748395 0.05748395 0.19828    
  0.03250126 4.921042   6.008      0          0.3867658  53.521     
  0.4266547  0.3384731  0.5148362 
933.4      
  0.217      0.169      -9999      -9999      4.954      3.997      
  3.095      2.933      1.617      0.06018994 0.06018994 0.19652    
  0.03647722 5.132495   5.928      0          0.3883748  52.916     
  0.4131214  0.332708   0.4935348 
933.6      
  0.217      0.17       -9999      -9999      4.937      3.841      
  3.299      3.42       1.613      0.06468111 0.06468111 0.19828    
  0.0441783  5.198466   5.891      0          0.4047531  52.481     
  0.4048451  0.3309774  0.4787127 
933.8      
  0.217      0.168      -9999      -9999      4.767      3.987      
  3.61       3.635      1.612      0.06958175 0.06958175 0.19872    
  0.05444788 5.906661   5.938      0.01234579 0.4227444  52.174     
  0.391328   0.3141589  0.4684971 
934        
  0.218      0.17       -9999      -9999      4.512      3.972      
  3.597      3.887      1.632      0.06463869 0.06463869 0.18992    
  0.04409846 7.153892   5.875      0          0.3867329  52.182     
  0.3796404  0.29052    0.4687608 
934.2000000000001 
  0.218      0.173      -9999      -9999      4.358      3.775      
  3.936      3.45       1.627      0.06783447 0.06783447 0.19212    
  0.05053787 8.031356   5.773      0          0.3962079  52.404     
  0.3766229  0.2771141  0.4761316 
934.4      
  0.218      0.176      -9999      -9999      4.372      3.763      
  4.308      3.441      1.616      0.07076707 0.07076707 0.19696    
  0.05727114 7.947326   5.669      0.005364882 0.4093004  52.711     
  0.3824027  0.2783069  0.4864987 
934.6      
  0.218      0.175      -9999      -9999      4.478      4.085      
  4.503      3.54       1.581      0.08315143 0.08315143 0.21236    
  0.09712349 7.338982   5.711      0.1386905  0.47065    52.975     
  0.3915412  0.2875055  0.4955767 
934.8      
  0.218      0.177      -9999      -9999      4.507      4.357      
  4.402      3.593      1.577      0.08291213 0.08291213 0.21412    
  0.09613729 7.180818   5.664      0.1331709  0.4707058  53.248     
  0.3975996  0.2900747  0.5051244 
935        
  0.218      0.18       -9999      -9999      4.772      4.149      
  4.077      3.477      1.568      0.08030624 0.08030624 0.21808    
  0.08602495 5.884516   5.556      0.1006348  0.4657762  53.674     
  0.4174963  0.3146412  0.5203514 
935.2000000000001 
  0.218      0.184      -9999      -9999      5.035      3.671      
  3.634      3.055      1.552      0.08076591 0.08076591 0.22512    
  0.08772808 4.829478   5.448      0.09681296 0.4725388  54.041     
  0.4374366  0.3410789  0.5337943 
935.4      
  0.218      0.181      -9999      -9999      5.278      3.267      
  3.525      2.961      1.525      0.08639636 0.08639636 0.237      
  0.1115394  4.023604   5.52       0.1535302  0.5050548  54.348     
  0.4563747  0.3674765  0.5452729 
935.6      
  0.218      0.175      -9999      -9999      5.173      3.82       
  4.099      3.465      1.558      0.073374   0.073374   0.22248    
  0.06400628 4.353858   5.725      0.04065029 0.4638792  54.416     
  0.4518364  0.3558283  0.5478445 
935.8      
  0.218      0.169      -9999      -9999      4.989      4.772      
  4.597      4.224      1.597      0.05922342 0.05922342 0.20532    
  0.03500415 4.999299   5.926      0          0.4027124  54.45      
  0.4427169  0.3362995  0.5491343 
936        
  0.218      0.172      -9999      -9999      4.845      5.721      
  4.786      4.446      1.649      0.03825775 0.03825775 0.18244    
  0.01431477 5.570482   5.836      0          0.2522494  54.527     
  0.4369158  0.3217668  0.5520649 
936.2000000000001 
  0.217      0.181      -9999      -9999      4.891      5.678      
  4.494      4.049      1.619      0.04973578 0.04973578 0.19564    
  0.0233553  5.381262   5.547      0          0.3252573  54.68      
  0.4421341  0.3263396  0.5579285 
936.4      
  0.217      0.198      -9999      -9999      5.156      4.843      
  3.748      3.208      1.553      0.07290526 0.07290526 0.22468    
  0.06273941 4.409821   5.074      0          0.4329535  54.885     
  0.4599235  0.3539774  0.5658695 
936.6      
  0.217      0.21       -9999      -9999      5.558      3.657      
  3.062      2.506      1.447      0.1107222  0.1107222  0.27132    
  0.3147766  3.260303   4.783      0.2705729  0.5540186  55.064     
  0.4866599  0.4004366  0.5728831 
936.8      
  0.217      0.219      -9999      -9999      5.889      3.041      
  2.537      2.04       1.388      0.1287332  0.1287332  0.29728    
  0.6785942  2.5425     4.565      0.3461471  0.5923635  55.2       
  0.5107477  0.4432335  0.578262  
937        
  0.217      0.226      -9999      -9999      6.087      2.835      
  2.722      1.981      1.367      0.1326044  0.1326044  0.30652    
  0.8004106  2.191081   4.424      0.3533528  0.5982547  55.32      
  0.5270171  0.4709903  0.5830438 
937.2000000000001 
  0.217      0.232      -9999      -9999      6.095      2.899      
  3.176      2.266      1.388      0.1225713  0.1225713  0.29728    
  0.5217673  2.177952   4.321      0.2997908  0.5733659  55.411     
  0.5294201  0.4721476  0.5866926 
937.4      
  0.217      0.234      -9999      -9999      6.022      3.177      
  3.968      2.712      1.413      0.1127713  0.1127713  0.28628    
  0.3435233  2.300733   4.274      0.2432075  0.5470819  55.49      
  0.525784   0.4616917  0.5898762 
