~Version
 VERS              .         2.0                           : CWLS LOG ASCII STANDARD - VERSION 2.0
 WRAP              .         YES                            : ONE LINE PER DEPTH STEP
 DLM               .         SPACE                         : DELIMITING CHARACTER(SPACE TAB OR COMMA)
~Well Information
#_______________________________________________________________________________
#
#PARAMETER_NAME    .UNIT     VALUE                         : DESCRIPTION
#_______________________________________________________________________________
STRT               .M        880                           : First reference value
STOP               .M        1168                          : Last reference value
STEP               .M        0.2                           : Step increment
NULL               .         -9999                         : Missing value
COMP               .                                       : Company
WELL               .         4721                          : Well name
FLD                .         UZEN                          : Field
LOC                .                                       : Location
CNTY               .                                       : County
STAT               .                                       : State
CTRY               .                                       : Country
SRVC               .                                       : Service Company
DATE               .         16.07.90                      : Date
UWI                .         4721                          : Unique Well ID
Block              .         7                             : 
Cartographic_reference_system .         GCS_WGS_1984                  : ESRI,PE_10_3_1- <?xml version="1.0" encoding="utf-16"?><ILateBoundCoordinateReferenceSystem name="GCS_WGS_1984"><AuthorityCode>EPSG,4326</AuthorityCode></ILateBoundCoordinateReferenceSystem>
Category           .         Нефтяная                      : 
Condition          .         В работе                      : 
EREF               .m        88.7                          : 100.8
Gorizont           .         14                            : 14
HZCS               .GCS_WGS_1984 WGS_1984_EASE-Grid_2.0_Global : ESRI,PE_10_3_1- <?xml version="1.0" encoding="utf-16"?><ILateBoundCoordinateReferenceSystem name="WGS_1984_EASE-Grid_2.0_Global"><AuthorityCode>EPSG,6933</AuthorityCode></ILateBoundCoordinateReferenceSystem>
Interpretator      .         Сагынбаева А.Н.               : 
Kupol              .         основной                      : osnovnoi
LATI               .dega     0.6597026748                  : GCS_WGS_1984
LONG               .dega     0.4354453285                  : GCS_WGS_1984
Mud                .         глинистый                     : 
Mud_density        .         1,18                          : 
Mud_resistivity    .         0                             : 
NGDU               .         НГДУ-2                        : 
ORIGINALWELLNAME   .         4721                          : 
Spud_date          .         1990                          : 1961
Viscosity          .         40                            : 
X                  .m        42014.5                       : 46154
Y                  .m        84158.63                      : 85761.93
YEAR               .         2019                          : 
~Parameter Information Block
#_______________________________________________________________________________
#
#PARAMETER_NAME    .UNIT     VALUE                         : DESCRIPTION
#_______________________________________________________________________________
SET                .         LQC_KAZNIPI_Petrel            : 
TLFamily_CALI      .         Caliper                       : 
TLFamily_CILD      .         Conductivity                  : 
TLFamily_COLL      .         Net Reservoir Flag            : 
TLFamily_CSAT      .         Fluid Code                    : 
TLFamily_DEPT      .         Measured Depth                : 
TLFamily_GR        .         Russian Gamma Ray             : 
TLFamily_LLS       .         Lateral Log Resistivity       : 
TLFamily_MINV      .         Micro Gradient Resistivity    : 
TLFamily_MNOR      .         Micro Resistivity             : 
TLFamily_NGLD      .         Neutron Gamma                 : 
TLFamily_PHIE      .         Effective Porosity            : 
TLFamily_PHIEN     .         Effective Porosity            : 
TLFamily_PHIT      .         Porosity                      : 
TLFamily_PRMB      .         Permeability                  : 
TLFamily_PRMB_DGR  .         Permeability                  : 
TLFamily_RT        .         Formation Resistivity         : 
TLFamily_SOIL_ARCHIE .         Oil Saturation                : 
TLFamily_SOIL_DW   .         Oil Saturation                : 
TLFamily_SP        .         Spontaneous Potential         : 
TLFamily_VSH_FIN   .         Shale Volume                  : 
TLFamily_VSH_GR    .         Shale Volume                  : 
TLFamily_VSH_SP    .         Shale Volume                  : 
~Curve Information
#_______________________________________________________________________________
#
#LOGNAME           .UNIT     LOG_ID                        : DESCRIPTION
#_______________________________________________________________________________
DEPT               .M                                      : Колонка глубины 
CALI               .м                                      : Каверномер 
CILD               .мСм/м                                  : Индукционный каротаж 
COLL               .unitless                               : Описание 
CSAT               .unitless                               :  
GR                 .uR/h                                   : Гамма каротаж 
LLS                .Ohmm                                   : Боковой каротаж 
MINV               .Ohmm                                   : Микро-градиент зонд 
MNOR               .Ohmm                                   : Микро-потенциал зонд 
NGLD               .у.е.                                   : Показания зонда НГК-60 аппаратуры ДРСТ-3-90 
PHIE               .v/v                                    : Описание 
PHIEN              .v/v                                    :  
PHIT               .v/v                                    : Описание 
PRMB               .mD                                     :  
PRMB_DGR           .mD                                     :  
RT                 .ohmm                                   : УЭС пласта 
SOIL_ARCHIE        .v/v                                    :  
SOIL_DW            .v/v                                    :  
SP                 .мВ                                     : Потенциал самополяризации 
VSH_FIN            .v/v                                    : Описание 
VSH_GR             .v/v                                    : Shale volume 
VSH_SP             .v/v                                    : Shale Volume 
~Ascii
# ...
912        
  0.216      0.415      1          3          2.485      1.84       
  1.432      1.862      1.529      0.1995996  0.1995996  0.23524    
  13.93887   208.8026   2.412      0.3979865  0.4583693  32.813     
  0.108001   0.07326367 0.1427384 
912.2000000000001 
  0.216      0.429      1          3          2.505      1.793      
  1.414      1.814      1.503      0.2109323  0.2109323  0.24668    
  22.60143   204.3306   2.333      0.41722    0.4765398  32.813     
  0.1083263  0.07391421 0.1427384 
912.4      
  0.217      0.44       1          3          2.561      1.773      
  1.468      1.857      1.493      0.2149976  0.2149976  0.25108    
  26.88041   192.3123   2.271      0.4195388  0.4790525  32.847     
  0.1093405  0.07576661 0.1429143 
912.6      
  0.216      0.449      1          3          2.604      1.759      
  1.5        1.921      1.498      0.2124984  0.2124984  0.24888    
  24.16261   183.566    2.229      0.408438   0.4688667  32.916     
  0.1102472  0.07722043 0.143274  
912.8      
  0.216      0.456      1          3          2.62       1.749      
  1.536      1.889      1.512      0.2061592  0.2061592  0.24272    
  18.43854   180.4142   2.193      0.3879679  0.449715   33.018     
  0.1107904  0.07776847 0.1438123 
913        
  0.216      0.462      1          3          2.687      1.732      
  1.507      1.879      1.518      0.2030434  0.2030434  0.24008    
  16.14409   167.7927   2.162      0.3756386  0.4386673  33.12      
  0.1122323  0.08010601 0.1443585 
913.2000000000001 
  0.216      0.469      1          3          2.683      1.704      
  1.508      1.821      1.523      0.2007753  0.2007753  0.23788    
  14.65558   168.5208   2.132      0.3653522  0.4290128  33.222     
  0.1124386  0.07996451 0.1449126 
913.4      
  0.216      0.474      1          3          2.588      1.669      
  1.501      1.849      1.542      0.1928641  0.1928641  0.22952    
  10.45851   186.7731   2.108      0.339237   0.403738   33.325     
  0.1110783  0.07667624 0.1454804 
913.6      
  0.216      0.475      1          3          2.427      1.666      
  1.463      1.798      1.575      0.1791348  0.1791348  0.215      
  5.823311   222.3321   2.105      0.294871   0.3607187  33.41      
  0.1086822  0.07140931 0.1459551 
913.8      
  0.216      0.47       1          3          2.315      1.696      
  1.434      1.823      1.592      0.1721606  0.1721606  0.20752    
  4.325041   250.9891   2.13       0.2740894  0.3403744  33.478     
  0.1071497  0.06796027 0.1463391 
914        
  0.217      0.46       1          3          2.254      1.777      
  1.398      1.853      1.59       0.1733464  0.1733464  0.2084     
  4.549395   268.1215   2.174      0.2853065  0.3505647  33.47      
  0.106223   0.06615236 0.1462937 
914.2000000000001 
  0.217      0.451      1          3          2.273      1.909      
  1.431      1.931      1.589      0.1737576  0.1737576  0.20884    
  4.629892   262.6634   2.219      0.2936042  0.3586087  33.402     
  0.1063102  0.06671026 0.1459102 
914.4      
  0.217      0.443      1          3          2.329      2.021      
  1.51       2.016      1.59       0.1731592  0.1731592  0.2084     
  4.513226   247.2141   2.259      0.2973937  0.3626087  33.274     
  0.1067902  0.06838212 0.1451982 
914.6      
  0.218      0.437      1          3          2.408      2.052      
  1.565      2.015      1.601      0.1680337  0.1680337  0.20356    
  3.627017   226.9522   2.288      0.2830684  0.3498031  33.146     
  0.1076556  0.07081212 0.144499  
914.8      
  0.217      0.434      1          3          2.415      2          
  1.604      2.008      1.603      0.1671326  0.1671326  0.20268    
  3.490272   225.2391   2.306      0.282347   0.3492462  33.129     
  0.1077193  0.07103156 0.1444071 
915        
  0.217      0.43       1          3          2.405      1.956      
  1.642      1.949      1.617      0.161002   0.161002   0.19652    
  2.687237   227.6904   2.324      0.2613046  0.3296113  33.154     
  0.1076303  0.07071828 0.1445423 
915.2000000000001 
  0.216      0.427      1          3          2.405      1.927      
  1.674      1.949      1.615      0.1618209  0.1618209  0.1974     
  2.782746   227.6904   2.342      0.2672193  0.3353395  33.222     
  0.1078155  0.07071828 0.1449126 
915.4      
  0.216      0.423      1          3          2.397      1.89       
  1.563      1.91       1.612      0.1631821  0.1631821  0.19872    
  2.949079   229.6707   2.363      0.2755869  0.3431702  33.222     
  0.1076907  0.07046866 0.1449126 
915.6      
  0.216      0.417      1          3          2.359      1.912      
  1.529      1.96       1.602      0.1677441  0.1677441  0.20312    
  3.582492   239.315    2.399      0.2977763  0.3637659  33.257     
  0.1071998  0.06929492 0.1451046 
915.8      
  0.216      0.411      1          3          2.373      1.95       
  1.541      2.03       1.608      0.1650022  0.1650022  0.20048    
  3.187119   235.7156   2.431      0.2920397  0.3587235  33.291     
  0.1075086  0.06972506 0.1452921 
916        
  0.216      0.407      1          3          2.419      2.023      
  1.696      2.132      1.613      0.162554   0.162554   0.19828    
  2.871125   224.2659   2.459      0.2866064  0.3542431  33.304     
  0.1082606  0.07115725 0.145364  
916.2000000000001 
  0.216      0.405      1          3          2.541      2.037      
  1.735      2.134      1.619      0.1593027  0.1593027  0.19564    
  2.499365   196.5213   2.467      0.2750475  0.3447123  33.261     
  0.1101132  0.07509977 0.1451267 
916.4      
  0.216      0.402      1          3          2.59       2.068      
  1.709      2.127      1.623      0.157348   0.157348   0.19388    
  2.299458   186.3691   2.487      0.2699816  0.3405078  33.176     
  0.1107029  0.07674405 0.1446617 
916.6      
  0.216      0.4        1          3          2.588      2.132      
  1.824      2.127      1.627      0.1556564  0.1556564  0.19212    
  2.139401   186.7731   2.499      0.2647393  0.3355927  33.112     
  0.1104958  0.07667624 0.1443154 
916.8      
  0.216      0.396      1          3          2.563      2.159      
  1.719      2.061      1.637      0.1513651  0.1513651  0.18772    
  1.781589   191.8965   2.526      0.2504068  0.3222972  33.146     
  0.1101663  0.07583361 0.144499  
917        
  0.216      0.39       1          3          2.612      2.177      
  1.718      1.988      1.65       0.145233   0.145233   0.182      
  1.371595   181.9833   2.565      0.2284824  0.3032852  33.299     
  0.1114151  0.07749397 0.1453363 
917.2000000000001 
  0.216      0.375      6          6          2.753      2.177      
  1.585      2.034      1.675      0.1330593  0.1330593  0.171      
  0.8160933  156.2233   2.67       0.1828852  0.2654634  33.674     
  0.1149717  0.08247734 0.1474662 
917.4      
  0.216      0.352      6          6          2.863      2.248      
  1.719      2.305      1.712      0.1155207  0.1155207  0.15472    
  0.386262   138.6863   2.85       0.1037049  0.2005598  34.254     
  0.1187857  0.08658656 0.1509849 
917.6      
  0.216      0.325      6          6          2.973      2.606      
  1.927      2.721      1.76       0.09298002 0.09298002 0.1336     
  0.1476977  123.1179   3.092      0          0.08492292 34.906     
  0.1230909  0.09090052 0.1552812 
917.8      
  0.215      0.297      6          6          3.165      3.387      
  2.116      3.018      1.792      0.07688835 0.07688835 0.11952    
  0.07435612 100.0137   3.388      0          0          35.486     
  0.1291868  0.09895167 0.1594218 
918        
  0.216      0.274      6          6          3.398      4.292      
  2.249      3.112      1.785      0.07749625 0.07749625 0.1226     
  0.07630914 77.71832   3.662      0          0.0470579  36.04      
  0.1366781  0.1096858  0.1636704 
918.2000000000001 
  0.216      0.258      6          6          3.589      4.53       
  2.207      3.039      1.739      0.09534954 0.09534954 0.14284    
  0.1634041  63.20219   3.885      0.08399101 0.2232916  36.624     
  0.1439105  0.119348   0.168473  
