~Version
 VERS              .         2.0                           : CWLS LOG ASCII STANDARD - VERSION 2.0
 WRAP              .         YES                            : ONE LINE PER DEPTH STEP
 DLM               .         SPACE                         : DELIMITING CHARACTER(SPACE TAB OR COMMA)
~Well Information
#_______________________________________________________________________________
#
#PARAMETER_NAME    .UNIT     VALUE                         : DESCRIPTION
#_______________________________________________________________________________
STRT               .M        880                           : First reference value
STOP               .M        1168                          : Last reference value
STEP               .M        0.2                           : Step increment
NULL               .         -9999                         : Missing value
COMP               .                                       : Company
WELL               .         4721                          : Well name
FLD                .         UZEN                          : Field
LOC                .                                       : Location
CNTY               .                                       : County
STAT               .                                       : State
CTRY               .                                       : Country
SRVC               .                                       : Service Company
DATE               .         16.07.90                      : Date
UWI                .         4721                          : Unique Well ID
Block              .         7                             : 
Cartographic_reference_system .         GCS_WGS_1984                  : ESRI,PE_10_3_1- <?xml version="1.0" encoding="utf-16"?><ILateBoundCoordinateReferenceSystem name="GCS_WGS_1984"><AuthorityCode>EPSG,4326</AuthorityCode></ILateBoundCoordinateReferenceSystem>
Category           .         Нефтяная                      : 
Condition          .         В работе                      : 
EREF               .m        88.7                          : 100.8
Gorizont           .         14                            : 14
HZCS               .GCS_WGS_1984 WGS_1984_EASE-Grid_2.0_Global : ESRI,PE_10_3_1- <?xml version="1.0" encoding="utf-16"?><ILateBoundCoordinateReferenceSystem name="WGS_1984_EASE-Grid_2.0_Global"><AuthorityCode>EPSG,6933</AuthorityCode></ILateBoundCoordinateReferenceSystem>
Interpretator      .         Сагынбаева А.Н.               : 
Kupol              .         основной                      : osnovnoi
LATI               .dega     0.6597026748                  : GCS_WGS_1984
LONG               .dega     0.4354453285                  : GCS_WGS_1984
Mud                .         глинистый                     : 
Mud_density        .         1,18                          : 
Mud_resistivity    .         0                             : 
NGDU               .         НГДУ-2                        : 
ORIGINALWELLNAME   .         4721                          : 
Spud_date          .         1990                          : 1961
Viscosity          .         40                            : 
X                  .m        42014.5                       : 46154
Y                  .m        84158.63                      : 85761.93
YEAR               .         2019                          : 
~Parameter Information Block
#_______________________________________________________________________________
#
#PARAMETER_NAME    .UNIT     VALUE                         : DESCRIPTION
#_______________________________________________________________________________
SET                .         LQC_KAZNIPI_Petrel            : 
TLFamily_CALI      .         Caliper                       : 
TLFamily_CILD      .         Conductivity                  : 
TLFamily_COLL      .         Net Reservoir Flag            : 
TLFamily_CSAT      .         Fluid Code                    : 
TLFamily_DEPT      .         Measured Depth                : 
TLFamily_GR        .         Russian Gamma Ray             : 
TLFamily_LLS       .         Lateral Log Resistivity       : 
TLFamily_MINV      .         Micro Gradient Resistivity    : 
TLFamily_MNOR      .         Micro Resistivity             : 
TLFamily_NGLD      .         Neutron Gamma                 : 
TLFamily_PHIE      .         Effective Porosity            : 
TLFamily_PHIEN     .         Effective Porosity            : 
TLFamily_PHIT      .         Porosity                      : 
TLFamily_PRMB      .         Permeability                  : 
TLFamily_PRMB_DGR  .         Permeability                  : 
TLFamily_RT        .         Formation Resistivity         : 
TLFamily_SOIL_ARCHIE .         Oil Saturation                : 
TLFamily_SOIL_DW   .         Oil Saturation                : 
TLFamily_SP        .         Spontaneous Potential         : 
TLFamily_VSH_FIN   .         Shale Volume                  : 
TLFamily_VSH_GR    .         Shale Volume                  : 
TLFamily_VSH_SP    .         Shale Volume                  : 
~Curve Information
#_______________________________________________________________________________
#
#LOGNAME           .UNIT     LOG_ID                        : DESCRIPTION
#_______________________________________________________________________________
DEPT               .M                                      : Колонка глубины 
CALI               .м                                      : Каверномер 
CILD               .мСм/м                                  : Индукционный каротаж 
COLL               .unitless                               : Описание 
CSAT               .unitless                               :  
GR                 .uR/h                                   : Гамма каротаж 
LLS                .Ohmm                                   : Боковой каротаж 
MINV               .Ohmm                                   : Микро-градиент зонд 
MNOR               .Ohmm                                   : Микро-потенциал зонд 
NGLD               .у.е.                                   : Показания зонда НГК-60 аппаратуры ДРСТ-3-90 
PHIE               .v/v                                    : Описание 
PHIEN              .v/v                                    :  
PHIT               .v/v                                    : Описание 
PRMB               .mD                                     :  
PRMB_DGR           .mD                                     :  
RT                 .ohmm                                   : УЭС пласта 
SOIL_ARCHIE        .v/v                                    :  
SOIL_DW            .v/v                                    :  
SP                 .мВ                                     : Потенциал самополяризации 
VSH_FIN            .v/v                                    : Описание 
VSH_GR             .v/v                                    : Shale volume 
VSH_SP             .v/v                                    : Shale Volume 
~Ascii
# ...
1001.6     
  0.261      0.353      -9999      -9999      7.432      2.023      
  2.002      1.695      1.274      0.1483382  0.1483382  0.34744    
  1.565817   1.272357   2.831      0.2768393  0.5547663  56.188     
  0.6033388  0.5880291  0.6186485 
1001.8     
  0.262      0.357      -9999      -9999      7.518      1.886      
  1.747      1.539      1.268      0.1502792  0.1502792  0.35008    
  1.700956   1.196609   2.804      0.2817584  0.5568926  55.932     
  0.605457   0.6029533  0.6079606 
1002       
  0.259      0.363      -9999      -9999      7.608      1.854      
  1.573      1.434      1.251      0.1586708  0.1586708  0.35756    
  2.432915   1.122162   2.757      0.3095019  0.5678471  55.404     
  0.6026943  0.6189774  0.5864112 
1002.2     
  0.259      0.369      -9999      -9999      7.639      1.9        
  1.554      1.408      1.232      0.1705046  0.1705046  0.36592    
  4.030118   1.097607   2.713      0.3465183  0.5820463  54.727     
  0.5921677  0.6245949  0.5597406 
1002.4     
  0.256      0.364      -9999      -9999      7.697      1.952      
  1.497      1.342      1.229      0.1736929  0.1736929  0.36724    
  4.617122   1.053098   2.746      0.3606157  0.5883913  54.148     
  0.5865065  0.6352423  0.5377707 
1002.6     
  0.258      0.355      -9999      -9999      7.622      1.983      
  1.345      1.369      1.236      0.173761   0.173761   0.36416    
  4.63056    1.111004   2.824      0.36918    0.5920504  54.004     
  0.5769667  0.6215081  0.5324253 
1002.8     
  0.252      0.335      -9999      -9999      7.596      1.975      
  1.22       1.411      1.27       0.1591596  0.1591596  0.3492     
  2.484159   1.131814   2.988      0.3368659  0.579186   54.072     
  0.5758801  0.6168166  0.5349436 
1003       
  0.243      0.317      -9999      -9999      7.476      2.104      
  1.522      1.436      1.326      0.1389499  0.1389499  0.32456    
  1.049173   1.233021   3.166      0.2736053  0.5497568  53.919     
  0.5624549  0.5956179  0.5292919 
1003.2     
  0.231      0.294      -9999      -9999      7.198      2.597      
  2.307      1.721      1.399      0.1207762  0.1207762  0.29244    
  0.4833096  1.503629   3.418      0.2082548  0.5126663  52.846     
  0.5201934  0.5492648  0.491122  
1003.4     
  0.225      0.276      -9999      -9999      6.683      3.326      
  3.639      2.318      1.471      0.1086435  0.1086435  0.26076    
  0.2880714  2.171559   3.632      0.1561734  0.4715132  51.577     
  0.460959   0.4727146  0.4492034 
1003.6     
  0.222      0.261      -9999      -9999      5.978      3.981      
  4.302      3.174      1.544      0.09794207 0.09794207 0.22864    
  0.1825084  3.591667   3.841      0.1003494  0.4198646  50.189     
  0.3960543  0.384918   0.4071906 
1003.8     
  0.221      0.252      -9999      -9999      5.273      4.379      
  4.699      3.82       1.616      0.08153465 0.08153465 0.19696    
  0.09065206 5.940465   3.968      0          0.329017   49.44      
  0.3497737  0.3134277  0.3861197 
1004       
  0.222      0.245      -9999      -9999      4.899      4.678      
  4.29       4.321      1.631      0.08309976 0.08309976 0.19036    
  0.09690969 7.757944   4.075      0          0.3282311  48.801     
  0.325031   0.2810612  0.3690008 
1004.2     
  0.226      0.245      -9999      -9999      4.903      4.553      
  3.746      4.22       1.589      0.1026935  0.1026935  0.20884    
  0.2235072  7.73583    4.078      0.1606312  0.4147954  48.528     
  0.321656   0.281389   0.3619229 
1004.4     
  0.238      0.261      -9999      -9999      5.286      3.819      
  2.663      3.522      1.49       0.1381116  0.1381116  0.2524     
  1.012327   5.885601   3.859      0.3345402  0.5224369  49.142     
  0.3463283  0.3146175  0.3780392 
1004.6     
  0.255      0.288      -9999      -9999      5.718      2.782      
  1.58       2.161      1.39       0.1711041  0.1711041  0.2964     
  4.134482   4.324008   3.508      0.4225271  0.5823786  50.027     
  0.3796846  0.3568292  0.4025399 
1004.8     
  0.269      0.315      -9999      -9999      6.151      2.055      
  0.887      1.354      1.29       0.20155    0.20155    0.3404     
  15.14795   3.174478   3.184      0.4759932  0.6221357  51.177     
  0.4207575  0.4048224  0.4366926 
1005       
  0.278      0.326      -9999      -9999      6.583      1.825      
  0.899      1.06       1.231      0.2137666  0.2137666  0.36636    
  25.50555   2.332212   3.068      0.4934277  0.6402434  52.088     
  0.4624042  0.4591369  0.4656715 
1005.2     
  0.277      0.33       -9999      -9999      6.971      1.842      
  1.259      1.215      1.209      0.2089609  0.2089609  0.37604    
  20.7788    1.768081   3.029      0.4801844  0.6403784  53.059     
  0.5063004  0.5141037  0.4984971 
1005.4     
  0.275      0.337      -9999      -9999      7.297      1.937      
  1.753      1.389      1.232      0.1855658  0.1855658  0.36592    
  7.66101    1.401051   2.968      0.4180202  0.6131123  53.876     
  0.546528   0.565343   0.527713  
1005.6     
  0.273      0.349      -9999      -9999      7.472      2.058      
  1.957      1.577      1.265      0.1634728  0.1634728  0.3514     
  2.985868   1.236547   2.865      0.3392242  0.5762185  54.315     
  0.5694764  0.5949241  0.5440288 
1005.8     
  0.269      0.363      -9999      -9999      7.479      2.145      
  2.198      1.79       1.282      0.1544664  0.1544664  0.34392    
  2.033529   1.230384   2.76       0.2935216  0.5529693  54.527     
  0.5741019  0.596139   0.5520649 
1006       
  0.266      0.38       -9999      -9999      7.411      2.166      
  2.316      1.898      1.291      0.1547643  0.1547643  0.33996    
  2.059528   1.291571   2.636      0.2793268  0.5395866  54.153     
  0.5611992  0.5844412  0.5379571 
1006.2     
  0.266      0.398      -9999      -9999      7.333      2.084      
  1.764      1.564      1.291      0.1632468  0.1632468  0.33996    
  2.957228   1.365511   2.52       0.2973701  0.5385185  53.093     
  0.5354946  0.5713057  0.4996835 
1006.4     
  0.269      0.414      -9999      -9999      7.415      1.924      
  1.247      1.24       1.291      0.1672198  0.1672198  0.33996    
  3.503277   1.287889   2.416      0.2981885  0.532998   51.969     
  0.5234551  0.5851229  0.4617874 
1006.6     
  0.272      0.419      -9999      -9999      7.505      1.797      
  0.7        0.949      1.264      0.1802405  0.1802405  0.35184    
  6.104489   1.207762   2.385      0.3385606  0.5528876  51.262     
  0.5199984  0.6006733  0.4393236 
1006.8     
  0.272      0.419      -9999      -9999      7.503      1.775      
  0.862      1.029      1.227      0.196404   0.196404   0.36812    
  12.16286   1.209488   2.388      0.3865923  0.5796169  51.296     
  0.5203516  0.6003232  0.4403801 
1007       
  0.27       0.408      -9999      -9999      7.428      1.818      
  0.965      1.079      1.222      0.198665   0.198665   0.37032    
  13.39417   1.275994   2.451      0.4000532  0.5884023  51.696     
  0.5201667  0.587344   0.4529895 
1007.2     
  0.263      0.394      -9999      -9999      7.382      1.875      
  1.049      1.21       1.259      0.1807517  0.1807517  0.35404    
  6.239055   1.318582   2.542      0.3596372  0.5690403  52.241     
  0.525116   0.5795226  0.4707095 
1007.4     
  0.252      0.374      -9999      -9999      7.25       2.043      
  1.354      1.585      1.316      0.1557191  0.1557191  0.32896    
  2.145131   1.448846   2.682      0.2889729  0.5351925  52.88      
  0.5249724  0.5576521  0.4922926 
1007.6     
  0.241      0.357      -9999      -9999      6.937      2.34       
  1.969      2.206      1.373      0.1368517  0.1368517  0.30388    
  0.9593636  1.811511   2.802      0.2204948  0.4983806  53.195     
  0.5061464  0.5090347  0.503258  
1007.8     
  0.233      0.344      -9999      -9999      6.371      2.785      
  2.431      2.447      1.43       0.1235524  0.1235524  0.2788     
  0.5440626  2.713191   2.912      0.1631633  0.4604442  53.365     
  0.4704472  0.431628   0.5092665 
