~Version
 VERS              .         2.0                           : CWLS LOG ASCII STANDARD - VERSION 2.0
 WRAP              .         YES                            : ONE LINE PER DEPTH STEP
 DLM               .         SPACE                         : DELIMITING CHARACTER(SPACE TAB OR COMMA)
~Well Information
#_______________________________________________________________________________
#
#PARAMETER_NAME    .UNIT     VALUE                         : DESCRIPTION
#_______________________________________________________________________________
STRT               .M        880                           : First reference value
STOP               .M        1168                          : Last reference value
STEP               .M        0.2                           : Step increment
NULL               .         -9999                         : Missing value
COMP               .                                       : Company
WELL               .         4721                          : Well name
FLD                .         UZEN                          : Field
LOC                .                                       : Location
CNTY               .                                       : County
STAT               .                                       : State
CTRY               .                                       : Country
SRVC               .                                       : Service Company
DATE               .         16.07.90                      : Date
UWI                .         4721                          : Unique Well ID
Block              .         7                             : 
Cartographic_reference_system .         GCS_WGS_1984                  : ESRI,PE_10_3_1- <?xml version="1.0" encoding="utf-16"?><ILateBoundCoordinateReferenceSystem name="GCS_WGS_1984"><AuthorityCode>EPSG,4326</AuthorityCode></ILateBoundCoordinateReferenceSystem>
Category           .         Нефтяная                      : 
Condition          .         В работе                      : 
EREF               .m        88.7                          : 100.8
Gorizont           .         14                            : 14
HZCS               .GCS_WGS_1984 WGS_1984_EASE-Grid_2.0_Global : ESRI,PE_10_3_1- <?xml version="1.0" encoding="utf-16"?><ILateBoundCoordinateReferenceSystem name="WGS_1984_EASE-Grid_2.0_Global"><AuthorityCode>EPSG,6933</AuthorityCode></ILateBoundCoordinateReferenceSystem>
Interpretator      .         Сагынбаева А.Н.               : 
Kupol              .         основной                      : osnovnoi
LATI               .dega     0.6597026748                  : GCS_WGS_1984
LONG               .dega     0.4354453285                  : GCS_WGS_1984
Mud                .         глинистый                     : 
Mud_density        .         1,18                          : 
Mud_resistivity    .         0                             : 
NGDU               .         НГДУ-2                        : 
ORIGINALWELLNAME   .         4721                          : 
Spud_date          .         1990                          : 1961
Viscosity          .         40                            : 
X                  .m        42014.5                       : 46154
Y                  .m        84158.63                      : 85761.93
YEAR               .         2019                          : 
~Parameter Information Block
#_______________________________________________________________________________
#
#PARAMETER_NAME    .UNIT     VALUE                         : DESCRIPTION
#_______________________________________________________________________________
SET                .         LQC_KAZNIPI_Petrel            : 
TLFamily_CALI      .         Caliper                       : 
TLFamily_CILD      .         Conductivity                  : 
TLFamily_COLL      .         Net Reservoir Flag            : 
TLFamily_CSAT      .         Fluid Code                    : 
TLFamily_DEPT      .         Measured Depth                : 
TLFamily_GR        .         Russian Gamma Ray             : 
TLFamily_LLS       .         Lateral Log Resistivity       : 
TLFamily_MINV      .         Micro Gradient Resistivity    : 
TLFamily_MNOR      .         Micro Resistivity             : 
TLFamily_NGLD      .         Neutron Gamma                 : 
TLFamily_PHIE      .         Effective Porosity            : 
TLFamily_PHIEN     .         Effective Porosity            : 
TLFamily_PHIT      .         Porosity                      : 
TLFamily_PRMB      .         Permeability                  : 
TLFamily_PRMB_DGR  .         Permeability                  : 
TLFamily_RT        .         Formation Resistivity         : 
TLFamily_SOIL_ARCHIE .         Oil Saturation                : 
TLFamily_SOIL_DW   .         Oil Saturation                : 
TLFamily_SP        .         Spontaneous Potential         : 
TLFamily_VSH_FIN   .         Shale Volume                  : 
TLFamily_VSH_GR    .         Shale Volume                  : 
TLFamily_VSH_SP    .         Shale Volume                  : 
~Curve Information
#_______________________________________________________________________________
#
#LOGNAME           .UNIT     LOG_ID                        : DESCRIPTION
#_______________________________________________________________________________
DEPT               .M                                      : Колонка глубины 
CALI               .м                                      : Каверномер 
CILD               .мСм/м                                  : Индукционный каротаж 
COLL               .unitless                               : Описание 
CSAT               .unitless                               :  
GR                 .uR/h                                   : Гамма каротаж 
LLS                .Ohmm                                   : Боковой каротаж 
MINV               .Ohmm                                   : Микро-градиент зонд 
MNOR               .Ohmm                                   : Микро-потенциал зонд 
NGLD               .у.е.                                   : Показания зонда НГК-60 аппаратуры ДРСТ-3-90 
PHIE               .v/v                                    : Описание 
PHIEN              .v/v                                    :  
PHIT               .v/v                                    : Описание 
PRMB               .mD                                     :  
PRMB_DGR           .mD                                     :  
RT                 .ohmm                                   : УЭС пласта 
SOIL_ARCHIE        .v/v                                    :  
SOIL_DW            .v/v                                    :  
SP                 .мВ                                     : Потенциал самополяризации 
VSH_FIN            .v/v                                    : Описание 
VSH_GR             .v/v                                    : Shale volume 
VSH_SP             .v/v                                    : Shale Volume 
~Ascii
# ...
1072       
  0.242      0.349      -9999      -9999      8.85       2.198      
  2.361      1.851      1.26       0.1835698  0.1835698  0.3536     
  7.03583    5.303918   2.864      0.4025964  0.5961041  49.003     
  0.5152432  0.3282745  0.5152432 
1072.2     
  0.237      0.346      -9999      -9999      8.835      2.263      
  2.418      2.158      1.266      0.1821391  0.1821391  0.35096    
  6.619357   5.388589   2.894      0.4014455  0.5951288  48.875     
  0.5115785  0.3261583  0.5115785 
1072.4     
  0.236      0.347      -9999      -9999      8.893      2.174      
  2.277      2.11       1.29       0.1723873  0.1723873  0.3404     
  4.367065   5.068503   2.883      0.3709377  0.5777974  48.789     
  0.5091293  0.3344169  0.5091293 
1072.6     
  0.237      0.35       -9999      -9999      9.13       2.069      
  2.105      1.897      1.313      0.1626608  0.1626608  0.33028    
  2.884233   3.946435   2.86       0.335808   0.5584064  48.747     
  0.5079371  0.3703939  0.5079371 
1072.8     
  0.239      0.345      -9999      -9999      9.403      2.047      
  2.139      1.637      1.326      0.1577346  0.1577346  0.32456    
  2.33768    2.958167   2.907      0.3229759  0.5520016  48.662     
  0.5055316  0.4166581  0.5055316 
1073       
  0.235      0.33       -9999      -9999      9.561      2.189      
  2.458      1.79       1.337      0.1548781  0.1548781  0.31972    
  2.069552   2.503647   3.04       0.3264038  0.5547272  48.448     
  0.4995209  0.4460294  0.4995209 
1073.2     
  0.23       0.311      -9999      -9999      9.288      2.501      
  2.811      2.08       1.354      0.1497341  0.1497341  0.31224    
  1.661867   3.340068   3.226      0.3253581  0.555692   48.193     
  0.4924423  0.3965039  0.4924423 
1073.4     
  0.225      0.297      -9999      -9999      8.962      3.01       
  3.101      2.459      1.39       0.1358223  0.1358223  0.2964     
  0.9181578  4.712379   3.374      0.2808557  0.5343863  47.98      
  0.486599   0.3445147  0.486599  
1073.6     
  0.223      0.286      -9999      -9999      8.587      3.193      
  3.17       2.584      1.414      0.1255772  0.1255772  0.28584    
  0.5931334  7.001544   3.504      0.2435569  0.518689   47.945     
  0.4856448  0.2930848  0.4856448 
1073.8     
  0.223      0.276      -9999      -9999      8.45       3.318      
  3.316      2.68       1.432      0.1171171  0.1171171  0.27792    
  0.413476   8.091226   3.632      0.2096017  0.5062139  48.005     
  0.4872816  0.276275   0.4872816 
1074       
  0.224      0.266      -9999      -9999      8.343      3.238      
  3.385      2.558      1.422      0.1202777  0.1202777  0.28232    
  0.4731426  9.058953   3.76       0.2401726  0.5241765  48.142     
  0.4910373  0.2638197  0.4910373 
1074.2     
  0.231      0.259      -9999      -9999      8.327      3.08       
  3.019      2.468      1.41       0.125176   0.125176   0.2876     
  0.5830707  9.213299   3.862      0.2752952  0.5427597  48.184     
  0.492194   0.262006   0.492194  
1074.4     
  0.238      0.258      -9999      -9999      8.472      2.763      
  2.61       2.204      1.368      0.1437287  0.1437287  0.30608    
  1.286361   7.905442   3.881      0.3589614  0.5834551  48.176     
  0.4919735  0.278908   0.4919735 
1074.6     
  0.244      0.262      -9999      -9999      8.668      2.401      
  2.353      1.985      1.322      0.163121   0.163121   0.32632    
  2.941402   6.427642   3.821      0.4216557  0.6155187  48.269     
  0.4945424  0.3035007  0.4945424 
1074.8     
  0.243      0.271      -9999      -9999      8.986      2.307      
  2.563      1.971      1.284      0.1773665  0.1773665  0.34304    
  5.400281   4.594466   3.688      0.4533149  0.6325395  48.538     
  0.5020408  0.348098   0.5020408 
1075       
  0.239      0.279      -9999      -9999      9.157      2.297      
  2.759      2.075      1.272      0.1788954  0.1788954  0.34832    
  5.764148   3.835522   3.592      0.4506288  0.6323547  48.939     
  0.5134079  0.3747306  0.5134079 
1075.2     
  0.236      0.285      -9999      -9999      9.297      2.337      
  2.827      2.176      1.268      0.1768771  0.1768771  0.35008    
  5.288715   3.308478   3.514      0.4394273  0.6278188  49.335     
  0.5248574  0.3980454  0.5248574 
1075.4     
  0.237      0.288      -9999      -9999      9.306      2.361      
  2.95       2.125      1.271      0.1717045  0.1717045  0.34876    
  4.241714   3.277189   3.472      0.4214926  0.6203991  49.731     
  0.5365319  0.3995928  0.5365319 
1075.6     
  0.236      0.291      -9999      -9999      9.328      2.357      
  2.921      2.131      1.288      0.1610964  0.1610964  0.34128    
  2.698079   3.201941   3.434      0.3852856  0.6036319  50.047     
  0.5460109  0.403401   0.5460109 
1075.8     
  0.234      0.292      -9999      -9999      9.218      2.398      
  2.953      2.168      1.314      0.1473091  0.1473091  0.32984    
  1.49858    3.596277   3.42       0.3341936  0.5803859  50.281     
  0.553124   0.3847165  0.553124  
1076       
  0.233      0.292      -9999      -9999      9.037      2.448      
  2.921      2.256      1.345      0.1322825  0.1322825  0.3162     
  0.7894966  4.353611   3.427      0.269486   0.5520023  50.418     
  0.5573258  0.3558365  0.5573258 
1076.2     
  0.235      0.292      -9999      -9999      8.84       2.484      
  2.988      2.263      1.373      0.1193116  0.1193116  0.30388    
  0.4540443  5.360218   3.431      0.2012211  0.523205   50.482     
  0.5592982  0.3268622  0.5592982 
1076.4     
  0.238      0.293      -9999      -9999      8.735      2.511      
  3.042      2.29       1.386      0.1136832  0.1136832  0.29816    
  0.3571472  5.988659   3.414      0.1649416  0.5076803  50.473     
  0.5590205  0.3123953  0.5590205 
1076.6     
  0.239      0.296      -9999      -9999      8.786      2.499      
  2.969      2.261      1.371      0.1207104  0.1207104  0.30476    
  0.4819563  5.67471    3.382      0.2039336  0.5226667  50.431     
  0.557726   0.3193404  0.557726  
1076.8     
  0.241      0.299      -9999      -9999      8.95       2.411      
  2.878      2.189      1.348      0.1310538  0.1310538  0.31488    
  0.7491913  4.772465   3.341      0.2546887  0.5435081  50.409     
  0.557049   0.3427369  0.557049  
1077       
  0.243      0.303      -9999      -9999      9.149      2.325      
  2.712      2.115      1.335      0.1353787  0.1353787  0.3206     
  0.900947   3.868054   3.302      0.2714661  0.5514066  50.546     
  0.5612767  0.3734404  0.5612767 
1077.2     
  0.243      0.307      -9999      -9999      9.19       2.259      
  2.58       2.073      1.349      0.1267215  0.1267215  0.31444    
  0.6227999  3.704184   3.257      0.2233196  0.5315252  50.789     
  0.5688438  0.3801001  0.5688438 
1077.4     
  0.246      0.312      -9999      -9999      9.115      2.259      
  2.462      2.016      1.347      0.1239643  0.1239643  0.31532    
  0.5537044  4.009435   3.209      0.20276    0.5250985  51.138     
  0.5798657  0.3680062  0.5798657 
1077.6     
  0.248      0.315      -9999      -9999      8.979      2.212      
  2.368      1.898      1.335      0.126272   0.126272   0.3206     
  0.6109722  4.62855    3.175      0.2115334  0.5307375  51.419     
  0.5888727  0.347049   0.5888727 
1077.8     
  0.247      0.314      -9999      -9999      8.942      2.188      
  2.48       1.873      1.319      0.131441   0.131441   0.32764    
  0.7616644  4.812944   3.189      0.2401789  0.5448771  51.594     
  0.5945425  0.3415569  0.5945425 
1078       
  0.244      0.31       -9999      -9999      8.979      2.199      
  2.568      1.888      1.329      0.1268584  0.1268584  0.32324    
  0.6264468  4.62855    3.229      0.2208994  0.5378826  51.611     
  0.5950956  0.347049   0.5950956 
1078.2     
  0.237      0.305      -9999      -9999      9.006      2.255      
  2.674      2.016      1.344      0.120441   0.120441   0.31664    
  0.4764499  4.498466   3.284      0.1913005  0.5269215  51.594     
  0.5945425  0.3511124  0.5945425 
