~Version
 VERS              .         2.0                           : CWLS LOG ASCII STANDARD - VERSION 2.0
 WRAP              .         YES                            : ONE LINE PER DEPTH STEP
 DLM               .         SPACE                         : DELIMITING CHARACTER(SPACE TAB OR COMMA)
~Well Information
#_______________________________________________________________________________
#
#PARAMETER_NAME    .UNIT     VALUE                         : DESCRIPTION
#_______________________________________________________________________________
STRT               .M        880                           : First reference value
STOP               .M        1168                          : Last reference value
STEP               .M        0.2                           : Step increment
NULL               .         -9999                         : Missing value
COMP               .                                       : Company
WELL               .         4721                          : Well name
FLD                .         UZEN                          : Field
LOC                .                                       : Location
CNTY               .                                       : County
STAT               .                                       : State
CTRY               .                                       : Country
SRVC               .                                       : Service Company
DATE               .         16.07.90                      : Date
UWI                .         4721                          : Unique Well ID
Block              .         7                             : 
Cartographic_reference_system .         GCS_WGS_1984                  : ESRI,PE_10_3_1- <?xml version="1.0" encoding="utf-16"?><ILateBoundCoordinateReferenceSystem name="GCS_WGS_1984"><AuthorityCode>EPSG,4326</AuthorityCode></ILateBoundCoordinateReferenceSystem>
Category           .         Нефтяная                      : 
Condition          .         В работе                      : 
EREF               .m        88.7                          : 100.8
Gorizont           .         14                            : 14
HZCS               .GCS_WGS_1984 WGS_1984_EASE-Grid_2.0_Global : ESRI,PE_10_3_1- <?xml version="1.0" encoding="utf-16"?><ILateBoundCoordinateReferenceSystem name="WGS_1984_EASE-Grid_2.0_Global"><AuthorityCode>EPSG,6933</AuthorityCode></ILateBoundCoordinateReferenceSystem>
Interpretator      .         Сагынбаева А.Н.               : 
Kupol              .         основной                      : osnovnoi
LATI               .dega     0.6597026748                  : GCS_WGS_1984
LONG               .dega     0.4354453285                  : GCS_WGS_1984
Mud                .         глинистый                     : 
Mud_density        .         1,18                          : 
Mud_resistivity    .         0                             : 
NGDU               .         НГДУ-2                        : 
ORIGINALWELLNAME   .         4721                          : 
Spud_date          .         1990                          : 1961
Viscosity          .         40                            : 
X                  .m        42014.5                       : 46154
Y                  .m        84158.63                      : 85761.93
YEAR               .         2019                          : 
~Parameter Information Block
#_______________________________________________________________________________
#
#PARAMETER_NAME    .UNIT     VALUE                         : DESCRIPTION
#_______________________________________________________________________________
SET                .         LQC_KAZNIPI_Petrel            : 
TLFamily_CALI      .         Caliper                       : 
TLFamily_CILD      .         Conductivity                  : 
TLFamily_COLL      .         Net Reservoir Flag            : 
TLFamily_CSAT      .         Fluid Code                    : 
TLFamily_DEPT      .         Measured Depth                : 
TLFamily_GR        .         Russian Gamma Ray             : 
TLFamily_LLS       .         Lateral Log Resistivity       : 
TLFamily_MINV      .         Micro Gradient Resistivity    : 
TLFamily_MNOR      .         Micro Resistivity             : 
TLFamily_NGLD      .         Neutron Gamma                 : 
TLFamily_PHIE      .         Effective Porosity            : 
TLFamily_PHIEN     .         Effective Porosity            : 
TLFamily_PHIT      .         Porosity                      : 
TLFamily_PRMB      .         Permeability                  : 
TLFamily_PRMB_DGR  .         Permeability                  : 
TLFamily_RT        .         Formation Resistivity         : 
TLFamily_SOIL_ARCHIE .         Oil Saturation                : 
TLFamily_SOIL_DW   .         Oil Saturation                : 
TLFamily_SP        .         Spontaneous Potential         : 
TLFamily_VSH_FIN   .         Shale Volume                  : 
TLFamily_VSH_GR    .         Shale Volume                  : 
TLFamily_VSH_SP    .         Shale Volume                  : 
~Curve Information
#_______________________________________________________________________________
#
#LOGNAME           .UNIT     LOG_ID                        : DESCRIPTION
#_______________________________________________________________________________
DEPT               .M                                      : Колонка глубины 
CALI               .м                                      : Каверномер 
CILD               .мСм/м                                  : Индукционный каротаж 
COLL               .unitless                               : Описание 
CSAT               .unitless                               :  
GR                 .uR/h                                   : Гамма каротаж 
LLS                .Ohmm                                   : Боковой каротаж 
MINV               .Ohmm                                   : Микро-градиент зонд 
MNOR               .Ohmm                                   : Микро-потенциал зонд 
NGLD               .у.е.                                   : Показания зонда НГК-60 аппаратуры ДРСТ-3-90 
PHIE               .v/v                                    : Описание 
PHIEN              .v/v                                    :  
PHIT               .v/v                                    : Описание 
PRMB               .mD                                     :  
PRMB_DGR           .mD                                     :  
RT                 .ohmm                                   : УЭС пласта 
SOIL_ARCHIE        .v/v                                    :  
SOIL_DW            .v/v                                    :  
SP                 .мВ                                     : Потенциал самополяризации 
VSH_FIN            .v/v                                    : Описание 
VSH_GR             .v/v                                    : Shale volume 
VSH_SP             .v/v                                    : Shale Volume 
~Ascii
# ...
963.2000000000001 
  0.262      0.354      -9999      -9999      7.27       1.962      
  0.667      0.877      1.216      0.157612   0.157612   0.37296    
  2.325491   0.9008952  2.827      0.3135873  0.5833665  56.411     
  0.6525698  0.6770522  0.6280873 
963.4      
  0.267      0.357      -9999      -9999      7.127      1.878      
  0.566      0.972      1.204      0.1667271  0.1667271  0.37824    
  3.430435   1.003071   2.802      0.3436591  0.5937545  56.547     
  0.6409481  0.6479931  0.6339031 
963.6      
  0.264      0.362      -9999      -9999      6.964      1.894      
  0.59       1.045      1.205      0.1704064  0.1704064  0.3778     
  4.013269   1.133743   2.762      0.3516591  0.5938529  56.701     
  0.6284654  0.6163878  0.6405429 
963.8      
  0.263      0.37       -9999      -9999      7.039      1.946      
  0.595      1.073      1.214      0.1633484  0.1633484  0.37384    
  2.970069   1.071628   2.701      0.3202406  0.579989   56.803     
  0.6378534  0.630734   0.6449728 
964        
  0.263      0.385      -9999      -9999      7.059      1.903      
  0.548      0.977      1.227      0.1567433  0.1567433  0.36812    
  2.240912   1.055646   2.601      0.2827737  0.5611542  56.837     
  0.6405354  0.6346157  0.6464551 
964.2000000000001 
  0.264      0.398      -9999      -9999      7.085      1.829      
  0.534      0.913      1.242      0.1494847  0.1494847  0.36152    
  1.644287   1.035226   2.514      0.2405056  0.5405443  56.812     
  0.6425312  0.6396977  0.6453648 
964.4      
  0.264      0.405      -9999      -9999      7.08       1.754      
  0.528      0.865      1.256      0.1435511  0.1435511  0.35536    
  1.276655   1.039122   2.472      0.2069908  0.5245918  56.803     
  0.641845   0.6387172  0.6449728 
964.6      
  0.259      0.397      -9999      -9999      7.141      1.823      
  0.544      0.973      1.28       0.1306911  0.1306911  0.3448     
  0.7376896  0.9925764  2.519      0.1470168  0.503331   56.846     
  0.648815   0.650782   0.6468479 
964.8      
  0.254      0.383      -9999      -9999      7.238      1.974      
  0.605      1.145      1.312      0.1123843  0.1123843  0.33072    
  0.3378998  0.9228159  2.616      0.04429791 0.4719445  56.982     
  0.6616233  0.6704383  0.6528084 
965        
  0.25       0.368      -9999      -9999      7.245      2.102      
  0.656      1.313      1.334      0.1015998  0.1015998  0.32104    
  0.2133202  0.9179756  2.72       0          0.4533489  57.101     
  0.6649705  0.6718795  0.6580614 
965.2000000000001 
  0.25       0.36       -9999      -9999      7.182      2.152      
  0.673      1.419      1.35       0.09605173 0.09605173 0.314      
  0.1683717  0.9624685  2.779      0          0.4406883  57.187     
  0.6604493  0.6590191  0.6618795 
965.4      
  0.251      0.355      -9999      -9999      7.056      2.118      
  0.667      1.351      1.341      0.1038847  0.1038847  0.31796    
  0.2351555  1.058028   2.818      0.01165117 0.4635929  57.221     
  0.648713   0.634032   0.663394  
965.6      
  0.251      0.352      -9999      -9999      6.913      2.132      
  0.655      1.3        1.358      0.1007697  0.1007697  0.31048    
  0.2059003  1.178025   2.844      0          0.4519437  57.238     
  0.6354858  0.6068192  0.6641523 
965.8      
  0.252      0.343      -9999      -9999      6.861      2.209      
  0.669      1.283      1.372      0.09619424 0.09619424 0.30432    
  0.1693982  1.224957   2.914      0          0.4426179  57.238     
  0.6306841  0.597216   0.6641523 
966        
  0.255      0.338      -9999      -9999      6.835      2.188      
  0.65       1.244      1.381      0.09301706 0.09301706 0.30036    
  0.1479312  1.24912    2.958      0          0.4355941  57.238     
  0.6283119  0.5924715  0.6641523 
966.2000000000001 
  0.258      0.337      -9999      -9999      6.811      2.127      
  0.628      1.136      1.378      0.09537043 0.09537043 0.30168    
  0.1635497  1.271847   2.97       0          0.4430873  57.195     
  0.6251805  0.5881254  0.6622356 
966.4      
  0.259      0.336      -9999      -9999      6.704      2.046      
  0.579      1.093      1.365      0.1045322  0.1045322  0.3074     
  0.2417401  1.378308   2.978      0.04213281 0.467661   57.153     
  0.6147508  0.5691338  0.6603678 
966.6      
  0.254      0.33       -9999      -9999      6.49       2.093      
  0.64       1.274      1.373      0.1069205  0.1069205  0.30388    
  0.2676609  1.618711   3.031      0.06853727 0.4725296  57.161     
  0.5968469  0.5329707  0.6607232 
966.8      
  0.248      0.32       -9999      -9999      6.251      2.175      
  0.684      1.497      1.381      0.1088674  0.1088674  0.30036    
  0.2908346  1.937087   3.126      0.09624561 0.4799806  57.263     
  0.5802806  0.4952923  0.6652689 
967        
  0.244      0.313      -9999      -9999      5.999      2.256      
  0.772      1.709      1.401      0.105133   0.105133   0.29156    
  0.2480137  2.340834   3.195      0.07784574 0.4691336  57.4       
  0.5649304  0.4584456  0.6714152 
967.2000000000001 
  0.244      0.308      -9999      -9999      5.8        2.272      
  0.781      1.694      1.417      0.1016855  0.1016855  0.28452    
  0.2141018  2.718312   3.245      0.0575676  0.4585103  57.519     
  0.5540438  0.4312958  0.6767918 
967.4      
  0.244      0.303      -9999      -9999      5.617      2.25       
  0.756      1.665      1.431      0.09864548 0.09864548 0.27836    
  0.1880666  3.118945   3.297      0.03951388 0.4492736  57.621     
  0.5445895  0.4077503  0.6814286 
967.6      
  0.239      0.297      -9999      -9999      5.432      2.271      
  1.472      1.64       1.448      0.09435743 0.09435743 0.27088    
  0.1566342  3.584007   3.367      0.01140191 0.4365969  57.69      
  0.5349169  0.3852538  0.6845801 
967.8      
  0.231      0.288      -9999      -9999      5.272      2.366      
  2.198      1.838      1.482      0.08218519 0.08218519 0.25592    
  0.09320243 4.041783   3.477      0          0.3964848  57.724     
  0.5264691  0.3668007  0.6861376 
968        
  0.221      0.278      -9999      -9999      5.202      2.502      
  2.55       2.147      1.516      0.06915246 0.06915246 0.24096    
  0.05346005 4.260027   3.598      0          0.3457523  57.639     
  0.5206289  0.359008   0.6822497 
968.2000000000001 
  0.219      0.265      -9999      -9999      5.141      2.615      
  2.425      2.456      1.554      0.05417666 0.05417666 0.22424    
  0.02822547 4.459796   3.773      0          0.274816   57.553     
  0.5153434  0.3523523  0.6783346 
968.4      
  0.218      0.254      -9999      -9999      5.065      2.827      
  2.566      2.765      1.573      0.04779196 0.04779196 0.21588    
  0.02149716 4.721849   3.938      0          0.2429011  57.468     
  0.5093578  0.3442324  0.6744831 
968.6      
  0.219      0.244      -9999      -9999      4.908      3.091      
  3.436      3.074      1.592      0.04273518 0.04273518 0.20752    
  0.01732676 5.312968   4.094      0          0.2109868  57.383     
  0.4993479  0.328046   0.6706498 
968.8      
  0.219      0.24       -9999      -9999      4.856      3.127      
  3.617      3.053      1.582      0.04893862 0.04893862 0.21192    
  0.02257459 5.524635   4.175      0          0.2603994  57.255     
  0.493883   0.3228545  0.6649114 
969        
  0.218      0.239      -9999      -9999      4.876      2.991      
  3.449      2.887      1.543      0.06621231 0.06621231 0.22908    
  0.04715966 5.442247   4.193      0          0.3640051  57.195     
  0.4935385  0.3248414  0.6622356 
969.2000000000001 
  0.218      0.241      -9999      -9999      4.981      2.736      
  2.973      2.536      1.489      0.08752536 0.08752536 0.25284    
  0.1170416  5.029436   4.157      0.04391904 0.4555879  57.289     
  0.5009535  0.3354752  0.6664318 
969.4      
  0.218      0.243      -9999      -9999      5.226      2.644      
  2.892      2.392      1.45       0.09966871 0.09966871 0.27       
  0.1964556  4.183904   4.108      0.1414457  0.4986231  57.383     
  0.5161554  0.3616609  0.6706498 
