~Version
 VERS              .         2.0                           : CWLS LOG ASCII STANDARD - VERSION 2.0
 WRAP              .         YES                            : ONE LINE PER DEPTH STEP
 DLM               .         SPACE                         : DELIMITING CHARACTER(SPACE TAB OR COMMA)
~Well Information
#_______________________________________________________________________________
#
#PARAMETER_NAME    .UNIT     VALUE                         : DESCRIPTION
#_______________________________________________________________________________
STRT               .M        880                           : First reference value
STOP               .M        1168                          : Last reference value
STEP               .M        0.2                           : Step increment
NULL               .         -9999                         : Missing value
COMP               .                                       : Company
WELL               .         4721                          : Well name
FLD                .         UZEN                          : Field
LOC                .                                       : Location
CNTY               .                                       : County
STAT               .                                       : State
CTRY               .                                       : Country
SRVC               .                                       : Service Company
DATE               .         16.07.90                      : Date
UWI                .         4721                          : Unique Well ID
Block              .         7                             : 
Cartographic_reference_system .         GCS_WGS_1984                  : ESRI,PE_10_3_1- <?xml version="1.0" encoding="utf-16"?><ILateBoundCoordinateReferenceSystem name="GCS_WGS_1984"><AuthorityCode>EPSG,4326</AuthorityCode></ILateBoundCoordinateReferenceSystem>
Category           .         Нефтяная                      : 
Condition          .         В работе                      : 
EREF               .m        88.7                          : 100.8
Gorizont           .         14                            : 14
HZCS               .GCS_WGS_1984 WGS_1984_EASE-Grid_2.0_Global : ESRI,PE_10_3_1- <?xml version="1.0" encoding="utf-16"?><ILateBoundCoordinateReferenceSystem name="WGS_1984_EASE-Grid_2.0_Global"><AuthorityCode>EPSG,6933</AuthorityCode></ILateBoundCoordinateReferenceSystem>
Interpretator      .         Сагынбаева А.Н.               : 
Kupol              .         основной                      : osnovnoi
LATI               .dega     0.6597026748                  : GCS_WGS_1984
LONG               .dega     0.4354453285                  : GCS_WGS_1984
Mud                .         глинистый                     : 
Mud_density        .         1,18                          : 
Mud_resistivity    .         0                             : 
NGDU               .         НГДУ-2                        : 
ORIGINALWELLNAME   .         4721                          : 
Spud_date          .         1990                          : 1961
Viscosity          .         40                            : 
X                  .m        42014.5                       : 46154
Y                  .m        84158.63                      : 85761.93
YEAR               .         2019                          : 
~Parameter Information Block
#_______________________________________________________________________________
#
#PARAMETER_NAME    .UNIT     VALUE                         : DESCRIPTION
#_______________________________________________________________________________
SET                .         LQC_KAZNIPI_Petrel            : 
TLFamily_CALI      .         Caliper                       : 
TLFamily_CILD      .         Conductivity                  : 
TLFamily_COLL      .         Net Reservoir Flag            : 
TLFamily_CSAT      .         Fluid Code                    : 
TLFamily_DEPT      .         Measured Depth                : 
TLFamily_GR        .         Russian Gamma Ray             : 
TLFamily_LLS       .         Lateral Log Resistivity       : 
TLFamily_MINV      .         Micro Gradient Resistivity    : 
TLFamily_MNOR      .         Micro Resistivity             : 
TLFamily_NGLD      .         Neutron Gamma                 : 
TLFamily_PHIE      .         Effective Porosity            : 
TLFamily_PHIEN     .         Effective Porosity            : 
TLFamily_PHIT      .         Porosity                      : 
TLFamily_PRMB      .         Permeability                  : 
TLFamily_PRMB_DGR  .         Permeability                  : 
TLFamily_RT        .         Formation Resistivity         : 
TLFamily_SOIL_ARCHIE .         Oil Saturation                : 
TLFamily_SOIL_DW   .         Oil Saturation                : 
TLFamily_SP        .         Spontaneous Potential         : 
TLFamily_VSH_FIN   .         Shale Volume                  : 
TLFamily_VSH_GR    .         Shale Volume                  : 
TLFamily_VSH_SP    .         Shale Volume                  : 
~Curve Information
#_______________________________________________________________________________
#
#LOGNAME           .UNIT     LOG_ID                        : DESCRIPTION
#_______________________________________________________________________________
DEPT               .M                                      : Колонка глубины 
CALI               .м                                      : Каверномер 
CILD               .мСм/м                                  : Индукционный каротаж 
COLL               .unitless                               : Описание 
CSAT               .unitless                               :  
GR                 .uR/h                                   : Гамма каротаж 
LLS                .Ohmm                                   : Боковой каротаж 
MINV               .Ohmm                                   : Микро-градиент зонд 
MNOR               .Ohmm                                   : Микро-потенциал зонд 
NGLD               .у.е.                                   : Показания зонда НГК-60 аппаратуры ДРСТ-3-90 
PHIE               .v/v                                    : Описание 
PHIEN              .v/v                                    :  
PHIT               .v/v                                    : Описание 
PRMB               .mD                                     :  
PRMB_DGR           .mD                                     :  
RT                 .ohmm                                   : УЭС пласта 
SOIL_ARCHIE        .v/v                                    :  
SOIL_DW            .v/v                                    :  
SP                 .мВ                                     : Потенциал самополяризации 
VSH_FIN            .v/v                                    : Описание 
VSH_GR             .v/v                                    : Shale volume 
VSH_SP             .v/v                                    : Shale Volume 
~Ascii
# ...
1052.8     
  0.256      0.376      -9999      -9999      10.208     1.925      
  2.245      1.547      1.269      0.1300343  0.1300343  0.34964    
  0.7173121  1.264433   2.662      0.1651791  0.5203048  53.672     
  0.6654719  0.5895311  0.6654719 
1053       
  0.253      0.379      -9999      -9999      10.045     1.804      
  1.937      1.313      1.263      0.1348837  0.1348837  0.35228    
  0.8821282  1.50189    2.638      0.1879376  0.526687   53.484     
  0.6587766  0.5495242  0.6587766 
1053.2     
  0.248      0.383      -9999      -9999      10.026     1.758      
  1.788      1.214      1.269      0.1349216  0.1349216  0.34964    
  0.8835539  1.532324   2.612      0.1843538  0.5220876  53.254     
  0.6506618  0.5450412  0.6506618 
1053.4     
  0.247      0.386      -9999      -9999      10.125     1.733      
  1.833      1.329      1.297      0.1247585  0.1247585  0.33732    
  0.5727803  1.380241   2.588      0.1229885  0.4947305  53.067     
  0.6441257  0.5688083  0.6441257 
1053.6     
  0.252      0.383      -9999      -9999      10.206     1.75       
  1.887      1.376      1.328      0.1130637  0.1130637  0.32368    
  0.3478337  1.267105   2.614      0.04896019 0.4654023  52.897     
  0.6382313  0.5890231  0.6382313 
1053.8     
  0.254      0.371      -9999      -9999      10.176     1.769      
  2.101      1.383      1.357      0.09924139 0.09924139 0.31092    
  0.1929076  1.307884   2.702      0          0.4353189  52.99      
  0.6414503  0.5814535  0.6414503 
1054       
  0.251      0.353      -9999      -9999      10.135     2.106      
  2.533      1.743      1.389      0.08241101 0.08241101 0.29684    
  0.09410437 1.365744   2.837      0          0.395408   53.229     
  0.6497847  0.5712659  0.6497847 
1054.2     
  0.24       0.338      -9999      -9999      9.741      2.379      
  2.799      2.51       1.424      0.06384472 0.06384472 0.28144    
  0.04263017 2.070309   2.964      0          0.3354804  53.501     
  0.6593796  0.4820215  0.6593796 
1054.4     
  0.233      0.329      -9999      -9999      9.397      2.553      
  2.963      2.86       1.445      0.05249985 0.05249985 0.2722     
  0.02627742 2.976967   3.039      0          0.2886683  53.68      
  0.665758   0.4155817  0.665758  
1054.6     
  0.236      0.328      -9999      -9999      8.998      2.317      
  2.768      2.605      1.449      0.05083429 0.05083429 0.27044    
  0.02447554 4.536622   3.05       0          0.2801722  53.672     
  0.6654719  0.3499035  0.6654719 
1054.8     
  0.246      0.331      -9999      -9999      9.101      2.105      
  2.634      1.932      1.433      0.05938065 0.05938065 0.27748    
  0.03523967 4.069141   3.024      0          0.3210544  53.544     
  0.6609071  0.3657917  0.6609071 
1055       
  0.256      0.334      -9999      -9999      9.393      1.971      
  2.397      1.673      1.406      0.0732479  0.0732479  0.28936    
  0.06366297 2.989568   2.996      0          0.3784191  53.374     
  0.6548851  0.4148656  0.6548851 
1055.2     
  0.256      0.331      -9999      -9999      9.76       1.933      
  2.31       1.678      1.383      0.08436751 0.08436751 0.29948    
  0.1022937  2.029191   3.018      0          0.4217385  53.288     
  0.651856   0.4859862  0.651856  
1055.4     
  0.253      0.327      -9999      -9999      9.867      1.929      
  2.274      1.722      1.379      0.08612754 0.08612754 0.30124    
  0.1102679  1.812421   3.056      0          0.4314563  53.288     
  0.651856   0.5089303  0.651856  
1055.6     
  0.245      0.321      -9999      -9999      9.683      1.961      
  2.338      1.829      1.388      0.08216751 0.08216751 0.29728    
  0.09313218 2.201055   3.112      0          0.4227635  53.288     
  0.651856   0.4701176  0.651856  
1055.8     
  0.237      0.316      -9999      -9999      9.263      2.048      
  2.489      2.027      1.4        0.07920871 0.07920871 0.292      
  0.082091   3.429406   3.162      0          0.4134519  53.087     
  0.6448221  0.3922531  0.6448221 
1056       
  0.23       0.311      -9999      -9999      8.894      2.219      
  2.773      2.317      1.434      0.0685799  0.0685799  0.27704    
  0.05217041 5.063153   3.22       0          0.3693815  52.707     
  0.6316972  0.3345612  0.6316972 
1056.2     
  0.228      0.305      -9999      -9999      8.579      2.479      
  3.15       2.601      1.472      0.05865764 0.05865764 0.26032    
  0.0341696  7.06093    3.28       0          0.31567    52.097     
  0.6110981  0.2920758  0.6110981 
1056.4     
  0.228      0.3        -9999      -9999      8.215      2.797      
  3.069      2.708      1.515      0.04510436 0.04510436 0.2414     
  0.01916903 10.36983   3.332      0          0.2271733  51.603     
  0.5948353  0.2496553  0.5948353 
1056.6     
  0.233      0.299      -9999      -9999      7.906      2.847      
  2.864      2.47       1.534      0.03939241 0.03939241 0.23304    
  0.01502453 14.37015   3.35       0          0.1796532  51.355     
  0.5868108  0.2185164  0.5868108 
1056.8     
  0.243      0.301      -9999      -9999      7.772      2.641      
  2.594      2.326      1.541      0.03739265 0.03739265 0.22996    
  0.01379624 16.55413   3.326      0          0.157144   51.253     
  0.5835374  0.2062501  0.5835374 
1057       
  0.25       0.305      -9999      -9999      8.11       2.408      
  2.389      2.032      1.508      0.05173295 0.05173295 0.24448    
  0.02543184 11.58561   3.277      0          0.257309   51.27      
  0.5840819  0.2386056  0.5840819 
1057.2     
  0.254      0.314      -9999      -9999      8.628      2.301      
  2.179      1.907      1.463      0.07314485 0.07314485 0.26428    
  0.06338379 6.704916   3.184      0          0.3583488  51.117     
  0.5791973  0.2983116  0.5791973 
1057.4     
  0.256      0.328      -9999      -9999      9.246      2.184      
  1.877      1.663      1.417      0.09499563 0.09499563 0.28452    
  0.1609561  3.491516   3.057      0          0.4287266  50.963     
  0.5743162  0.3893888  0.5743162 
1057.6     
  0.259      0.344      -9999      -9999      9.826      1.978      
  1.902      1.567      1.391      0.1088196  0.1088196  0.29596    
  0.2902421  1.8926     2.914      0.06560857 0.4561533  50.733     
  0.5670922  0.5000135  0.5670922 
1057.8     
  0.264      0.358      -9999      -9999      10.281     1.822      
  1.969      1.568      1.369      0.119107   0.119107   0.30564    
  0.4500988  1.170637   2.796      0.1193859  0.4734493  50.674     
  0.5652517  0.6083803  0.5652517 
1058       
  0.267      0.37       -9999      -9999      10.619     1.832      
  1.985      1.559      1.35       0.1257952  0.1257952  0.314      
  0.5986747  0.8192838  2.702      0.1467232  0.4838232  50.836     
  0.5703174  0.7038202  0.5703174 
1058.2     
  0.27       0.382      -9999      -9999      10.865     1.829      
  2.005      1.602      1.349      0.1217775  0.1217775  0.31444    
  0.5043979  0.6318778  2.616      0.1088315  0.4696842  51.262     
  0.5838257  0.7825683  0.5838257 
1058.4     
  0.268      0.388      -9999      -9999      10.984     1.822      
  2.09       1.698      1.336      0.1211094  0.1211094  0.32016    
  0.4902287  0.557271   2.578      0.0983817  0.4708847  51.858     
  0.6031836  0.8        0.6031836 
1058.6     
  0.264      0.387      -9999      -9999      11.091     1.83       
  2.068      1.752      1.306      0.1273511  0.1273511  0.33336    
  0.6397488  0.4977399  2.584      0.1379337  0.4942143  52.489     
  0.6242694  0.8        0.6242694 
1058.8     
  0.261      0.382      -9999      -9999      10.746     1.878      
  1.901      1.736      1.278      0.1326012  0.1326012  0.34568    
  0.8003012  0.7164726  2.615      0.1723824  0.5158545  53.112     
  0.6456934  0.7434315  0.6456934 
1059       
  0.262      0.377      -9999      -9999      10.286     1.895      
  1.639      1.631      1.271      0.1291307  0.1291307  0.34876    
  0.6901949  1.164473   2.652      0.158609   0.5174247  53.674     
  0.6655433  0.6096932  0.6655433 
