~Version
 VERS              .         2.0                           : CWLS LOG ASCII STANDARD - VERSION 2.0
 WRAP              .         YES                            : ONE LINE PER DEPTH STEP
 DLM               .         SPACE                         : DELIMITING CHARACTER(SPACE TAB OR COMMA)
~Well Information
#_______________________________________________________________________________
#
#PARAMETER_NAME    .UNIT     VALUE                         : DESCRIPTION
#_______________________________________________________________________________
STRT               .M        880                           : First reference value
STOP               .M        1168                          : Last reference value
STEP               .M        0.2                           : Step increment
NULL               .         -9999                         : Missing value
COMP               .                                       : Company
WELL               .         4721                          : Well name
FLD                .         UZEN                          : Field
LOC                .                                       : Location
CNTY               .                                       : County
STAT               .                                       : State
CTRY               .                                       : Country
SRVC               .                                       : Service Company
DATE               .         16.07.90                      : Date
UWI                .         4721                          : Unique Well ID
Block              .         7                             : 
Cartographic_reference_system .         GCS_WGS_1984                  : ESRI,PE_10_3_1- <?xml version="1.0" encoding="utf-16"?><ILateBoundCoordinateReferenceSystem name="GCS_WGS_1984"><AuthorityCode>EPSG,4326</AuthorityCode></ILateBoundCoordinateReferenceSystem>
Category           .         Нефтяная                      : 
Condition          .         В работе                      : 
EREF               .m        88.7                          : 100.8
Gorizont           .         14                            : 14
HZCS               .GCS_WGS_1984 WGS_1984_EASE-Grid_2.0_Global : ESRI,PE_10_3_1- <?xml version="1.0" encoding="utf-16"?><ILateBoundCoordinateReferenceSystem name="WGS_1984_EASE-Grid_2.0_Global"><AuthorityCode>EPSG,6933</AuthorityCode></ILateBoundCoordinateReferenceSystem>
Interpretator      .         Сагынбаева А.Н.               : 
Kupol              .         основной                      : osnovnoi
LATI               .dega     0.6597026748                  : GCS_WGS_1984
LONG               .dega     0.4354453285                  : GCS_WGS_1984
Mud                .         глинистый                     : 
Mud_density        .         1,18                          : 
Mud_resistivity    .         0                             : 
NGDU               .         НГДУ-2                        : 
ORIGINALWELLNAME   .         4721                          : 
Spud_date          .         1990                          : 1961
Viscosity          .         40                            : 
X                  .m        42014.5                       : 46154
Y                  .m        84158.63                      : 85761.93
YEAR               .         2019                          : 
~Parameter Information Block
#_______________________________________________________________________________
#
#PARAMETER_NAME    .UNIT     VALUE                         : DESCRIPTION
#_______________________________________________________________________________
SET                .         LQC_KAZNIPI_Petrel            : 
TLFamily_CALI      .         Caliper                       : 
TLFamily_CILD      .         Conductivity                  : 
TLFamily_COLL      .         Net Reservoir Flag            : 
TLFamily_CSAT      .         Fluid Code                    : 
TLFamily_DEPT      .         Measured Depth                : 
TLFamily_GR        .         Russian Gamma Ray             : 
TLFamily_LLS       .         Lateral Log Resistivity       : 
TLFamily_MINV      .         Micro Gradient Resistivity    : 
TLFamily_MNOR      .         Micro Resistivity             : 
TLFamily_NGLD      .         Neutron Gamma                 : 
TLFamily_PHIE      .         Effective Porosity            : 
TLFamily_PHIEN     .         Effective Porosity            : 
TLFamily_PHIT      .         Porosity                      : 
TLFamily_PRMB      .         Permeability                  : 
TLFamily_PRMB_DGR  .         Permeability                  : 
TLFamily_RT        .         Formation Resistivity         : 
TLFamily_SOIL_ARCHIE .         Oil Saturation                : 
TLFamily_SOIL_DW   .         Oil Saturation                : 
TLFamily_SP        .         Spontaneous Potential         : 
TLFamily_VSH_FIN   .         Shale Volume                  : 
TLFamily_VSH_GR    .         Shale Volume                  : 
TLFamily_VSH_SP    .         Shale Volume                  : 
~Curve Information
#_______________________________________________________________________________
#
#LOGNAME           .UNIT     LOG_ID                        : DESCRIPTION
#_______________________________________________________________________________
DEPT               .M                                      : Колонка глубины 
CALI               .м                                      : Каверномер 
CILD               .мСм/м                                  : Индукционный каротаж 
COLL               .unitless                               : Описание 
CSAT               .unitless                               :  
GR                 .uR/h                                   : Гамма каротаж 
LLS                .Ohmm                                   : Боковой каротаж 
MINV               .Ohmm                                   : Микро-градиент зонд 
MNOR               .Ohmm                                   : Микро-потенциал зонд 
NGLD               .у.е.                                   : Показания зонда НГК-60 аппаратуры ДРСТ-3-90 
PHIE               .v/v                                    : Описание 
PHIEN              .v/v                                    :  
PHIT               .v/v                                    : Описание 
PRMB               .mD                                     :  
PRMB_DGR           .mD                                     :  
RT                 .ohmm                                   : УЭС пласта 
SOIL_ARCHIE        .v/v                                    :  
SOIL_DW            .v/v                                    :  
SP                 .мВ                                     : Потенциал самополяризации 
VSH_FIN            .v/v                                    : Описание 
VSH_GR             .v/v                                    : Shale volume 
VSH_SP             .v/v                                    : Shale Volume 
~Ascii
# ...
1142.4     
  0.26       0.527      -9999      -9999      12.177     1.464      
  1.636      1.222      1.332      0.1139586  0.1139586  0.32192    
  0.3613668  0.7328274  1.899      0          0.3722928  51.795     
  0.630186   0.7366114  0.5237606 
1142.6     
  0.255      0.505      -9999      -9999      11.852     1.502      
  1.957      1.633      1.382      0.1134623  0.1134623  0.29992    
  0.3537981  0.9844046  1.984      0          0.3561718  50.125     
  0.5650233  0.6529826  0.477064  
1142.8     
  0.249      0.482      -9999      -9999      11.574     1.645      
  2.028      1.851      1.434      0.1074472  0.1074472  0.27704    
  0.2737416  1.267097   2.079      0          0.3251658  48.642     
  0.5139176  0.5890247  0.4388104 
1143       
  0.24       0.459      -9999      -9999      11.056     1.809      
  1.945      2.136      1.475      0.1117093  0.1117093  0.259      
  0.3283116  2.028131   2.182      0          0.3222406  47.295     
  0.4463353  0.4860899  0.4065807 
1143.2     
  0.237      0.436      -9999      -9999      10.767     2.32       
  1.82       2.133      1.502      0.1116415  0.1116415  0.24712    
  0.3273631  2.636757   2.297      0          0.3195308  46.306     
  0.4105409  0.4366939  0.3843879 
1143.4     
  0.231      0.413      -9999      -9999      10.597     2.974      
  1.975      2.442      1.531      0.1078083  0.1078083  0.23436    
  0.2779897  3.076904   2.423      0          0.3061185  45.002     
  0.3834901  0.4100161  0.3569641 
1143.6     
  0.224      0.409      6          6          10.511     3.308      
  2.24       2.525      1.548      0.105199   0.105199   0.22688    
  0.2487135  3.326829   2.445      0          0.2886066  44.159     
  0.3687302  0.3971474  0.3403131 
1143.8     
  0.218      0.424      6          6          10.585     2.899      
  2.219      2.283      1.521      0.1163038  0.1163038  0.23876    
  0.3993804  3.110617   2.369      0.02822001 0.3259877  43.826     
  0.3710793  0.4081957  0.3339629 
1144       
  0.215      0.449      6          6          10.667     2.091      
  2.128      1.833      1.458      0.1376055  0.1376055  0.26648    
  0.9907096  2.887407   2.231      0.1366569  0.3915125  45.164     
  0.3905288  0.4207978  0.3602598 
1144.2     
  0.216      0.463      -9999      -9999      10.745     1.602      
  2.095      1.602      1.373      0.1661647  0.1661647  0.30388    
  3.349121   2.689965   2.161      0.2563872  0.4697907  47.073     
  0.4173192  0.4331459  0.4014924 
1144.4     
  0.217      0.467      -9999      -9999      10.822     1.5        
  2.305      1.547      1.288      0.1937872  0.1937872  0.34128    
  10.87844   2.508302   2.143      0.3470442  0.5329031  49.017     
  0.446948   0.4456911  0.4482048 
1144.6     
  0.219      0.474      -9999      -9999      10.5       1.557      
  2.247      1.632      1.237      0.2190627  0.2190627  0.36372    
  31.96906   3.360226   2.111      0.4090136  0.5686378  50.278     
  0.4383556  0.3955308  0.4811804 
1144.8     
  0.219      0.493      -9999      -9999      10.308     1.543      
  1.766      1.422      1.227      0.2230663  0.2230663  0.36812    
  37.92162   4.000263   2.034      0.4080302  0.566858   51.344     
  0.4395567  0.3683505  0.5107629 
1145       
  0.218      0.515      -9999      -9999      10.446     1.502      
  1.27       1.29       1.239      0.2108803  0.2108803  0.36284    
  22.55137   3.529106   1.943      0.3648489  0.5428352  52.119     
  0.460484   0.3876898  0.5332781 
1145.2     
  0.217      0.531      -9999      -9999      11.075     1.417      
  1.144      1.06       1.248      0.1875444  0.1875444  0.35888    
  8.335584   1.99344    1.884      0.2862919  0.510597   52.639     
  0.5191987  0.4895266  0.5488707 
1145.4     
  0.217      0.533      -9999      -9999      11.494     1.392      
  1.375      1.15       1.249      0.1738281  0.1738281  0.35844    
  4.643834   1.362573   1.876      0.2359611  0.494623   52.579     
  0.55943    0.5718085  0.5470514 
1145.6     
  0.218      0.531      -9999      -9999      11.522     1.427      
  1.616      1.187      1.271      0.1647252  0.1647252  0.34876    
  3.149688   1.328365   1.885      0.2011124  0.4766051  52.264     
  0.5576813  0.5777761  0.5375866 
1145.8     
  0.219      0.53       -9999      -9999      11.35      1.463      
  1.657      1.161      1.299      0.1587569  0.1587569  0.33644    
  2.441856   1.552922   1.885      0.1750174  0.4572455  52.17      
  0.5384337  0.5420775  0.53479   
1146       
  0.219      0.531      -9999      -9999      11.334     1.464      
  1.67       1.174      1.326      0.1455525  0.1455525  0.32456    
  1.390415   1.575651   1.885      0.1102034  0.4264877  52.545     
  0.5424469  0.5388708  0.5460228 
1146.2     
  0.22       0.529      -9999      -9999      11.564     1.442      
  1.661      1.242      1.351      0.1245768  0.1245768  0.31356    
  0.5683579  1.278656   1.889      0          0.3799198  52.954     
  0.5726765  0.5868446  0.5585085 
1146.4     
  0.22       0.524      -9999      -9999      11.741     1.446      
  1.662      1.318      1.363      0.1118551  0.1118551  0.30828    
  0.3303587  1.088803   1.91       0          0.3520621  53.125     
  0.5952269  0.6266522  0.5638018 
1146.6     
  0.221      0.518      -9999      -9999      11.873     1.467      
  1.587      1.376      1.338      0.1182361  0.1182361  0.31928    
  0.4336874  0.96581    1.931      0          0.382284   53.014     
  0.609224   0.6580871  0.5603609 
1146.8     
  0.222      0.512      -9999      -9999      11.895     1.469      
  1.517      1.408      1.321      0.1255638  0.1255638  0.32676    
  0.5927947  0.9467066  1.952      0.004482217 0.4075615  52.869     
  0.6096855  0.6634775  0.5558935 
1147       
  0.222      0.508      -9999      -9999      11.856     1.485      
  1.555      1.442      1.327      0.1246676  0.1246676  0.32412    
  0.5705647  0.9808357  1.967      0.001844338 0.4052206  52.835     
  0.6044011  0.6539518  0.5548504 
1147.2     
  0.224      0.504      -9999      -9999      11.787     1.505      
  1.48       1.423      1.334      0.1239688  0.1239688  0.32104    
  0.5538114  1.044259   1.982      0.0005153363 0.4026352  52.903     
  0.5971853  0.6374324  0.5569382 
1147.4     
  0.223      0.501      -9999      -9999      11.724     1.522      
  1.34       1.389      1.344      0.1222558  0.1222558  0.31664    
  0.5147922  1.105741   1.996      0          0.3964373  52.852     
  0.5890431  0.6227144  0.5553718 
1147.6     
  0.223      0.5        -9999      -9999      11.773     1.527      
  1.138      1.355      1.338      0.1237835  0.1237835  0.31928    
  0.5494499  1.057619   2.001      0.003682306 0.4030612  52.699     
  0.5924137  0.634132   0.5506953 
1147.8     
  -9999      0.5        -9999      -9999      11.661     1.532      
  1.075      1.33       1.347      0.1251446  0.1251446  0.31532    
  0.5822901  1.170844   1.999      0.01266371 0.4003582  52.486     
  0.5762891  0.6083362  0.544242  
1148       
  -9999      0.503      -9999      -9999      11.393     1.52       
  1.052      1.304      1.339      0.1390067  0.1390067  0.31884    
  1.051718   1.493454   1.989      0.09686828 0.4256485  52.315     
  0.5449494  0.5507897  0.5391091 
1148.2     
  -9999      0.506      -9999      -9999      11.034     1.502      
  1.047      1.305      1.337      0.1518431  0.1518431  0.31972    
  1.818281   2.069055   1.976      0.1611616  0.4435311  52.187     
  0.5087178  0.4821408  0.5352948 
1148.4     
  -9999      0.51       -9999      -9999      10.874     1.477      
  1.042      1.317      1.328      0.1607184  0.1607184  0.32368    
  2.654926   2.392613   1.96       0.1986017  0.4573954  52.119     
  0.4938231  0.4543682  0.5332781 
1148.6     
  -9999      0.514      -9999      -9999      10.98      1.469      
  1.037      1.291      1.322      0.160392   0.160392   0.32632    
  2.618231   2.173045   1.947      0.1946708  0.4578853  52.111     
  0.502812   0.4725826  0.5330413 
