~Version
 VERS              .         2.0                           : CWLS LOG ASCII STANDARD - VERSION 2.0
 WRAP              .         YES                            : ONE LINE PER DEPTH STEP
 DLM               .         SPACE                         : DELIMITING CHARACTER(SPACE TAB OR COMMA)
~Well Information
#_______________________________________________________________________________
#
#PARAMETER_NAME    .UNIT     VALUE                         : DESCRIPTION
#_______________________________________________________________________________
STRT               .M        880                           : First reference value
STOP               .M        1168                          : Last reference value
STEP               .M        0.2                           : Step increment
NULL               .         -9999                         : Missing value
COMP               .                                       : Company
WELL               .         4721                          : Well name
FLD                .         UZEN                          : Field
LOC                .                                       : Location
CNTY               .                                       : County
STAT               .                                       : State
CTRY               .                                       : Country
SRVC               .                                       : Service Company
DATE               .         16.07.90                      : Date
UWI                .         4721                          : Unique Well ID
Block              .         7                             : 
Cartographic_reference_system .         GCS_WGS_1984                  : ESRI,PE_10_3_1- <?xml version="1.0" encoding="utf-16"?><ILateBoundCoordinateReferenceSystem name="GCS_WGS_1984"><AuthorityCode>EPSG,4326</AuthorityCode></ILateBoundCoordinateReferenceSystem>
Category           .         Нефтяная                      : 
Condition          .         В работе                      : 
EREF               .m        88.7                          : 100.8
Gorizont           .         14                            : 14
HZCS               .GCS_WGS_1984 WGS_1984_EASE-Grid_2.0_Global : ESRI,PE_10_3_1- <?xml version="1.0" encoding="utf-16"?><ILateBoundCoordinateReferenceSystem name="WGS_1984_EASE-Grid_2.0_Global"><AuthorityCode>EPSG,6933</AuthorityCode></ILateBoundCoordinateReferenceSystem>
Interpretator      .         Сагынбаева А.Н.               : 
Kupol              .         основной                      : osnovnoi
LATI               .dega     0.6597026748                  : GCS_WGS_1984
LONG               .dega     0.4354453285                  : GCS_WGS_1984
Mud                .         глинистый                     : 
Mud_density        .         1,18                          : 
Mud_resistivity    .         0                             : 
NGDU               .         НГДУ-2                        : 
ORIGINALWELLNAME   .         4721                          : 
Spud_date          .         1990                          : 1961
Viscosity          .         40                            : 
X                  .m        42014.5                       : 46154
Y                  .m        84158.63                      : 85761.93
YEAR               .         2019                          : 
~Parameter Information Block
#_______________________________________________________________________________
#
#PARAMETER_NAME    .UNIT     VALUE                         : DESCRIPTION
#_______________________________________________________________________________
SET                .         LQC_KAZNIPI_Petrel            : 
TLFamily_CALI      .         Caliper                       : 
TLFamily_CILD      .         Conductivity                  : 
TLFamily_COLL      .         Net Reservoir Flag            : 
TLFamily_CSAT      .         Fluid Code                    : 
TLFamily_DEPT      .         Measured Depth                : 
TLFamily_GR        .         Russian Gamma Ray             : 
TLFamily_LLS       .         Lateral Log Resistivity       : 
TLFamily_MINV      .         Micro Gradient Resistivity    : 
TLFamily_MNOR      .         Micro Resistivity             : 
TLFamily_NGLD      .         Neutron Gamma                 : 
TLFamily_PHIE      .         Effective Porosity            : 
TLFamily_PHIEN     .         Effective Porosity            : 
TLFamily_PHIT      .         Porosity                      : 
TLFamily_PRMB      .         Permeability                  : 
TLFamily_PRMB_DGR  .         Permeability                  : 
TLFamily_RT        .         Formation Resistivity         : 
TLFamily_SOIL_ARCHIE .         Oil Saturation                : 
TLFamily_SOIL_DW   .         Oil Saturation                : 
TLFamily_SP        .         Spontaneous Potential         : 
TLFamily_VSH_FIN   .         Shale Volume                  : 
TLFamily_VSH_GR    .         Shale Volume                  : 
TLFamily_VSH_SP    .         Shale Volume                  : 
~Curve Information
#_______________________________________________________________________________
#
#LOGNAME           .UNIT     LOG_ID                        : DESCRIPTION
#_______________________________________________________________________________
DEPT               .M                                      : Колонка глубины 
CALI               .м                                      : Каверномер 
CILD               .мСм/м                                  : Индукционный каротаж 
COLL               .unitless                               : Описание 
CSAT               .unitless                               :  
GR                 .uR/h                                   : Гамма каротаж 
LLS                .Ohmm                                   : Боковой каротаж 
MINV               .Ohmm                                   : Микро-градиент зонд 
MNOR               .Ohmm                                   : Микро-потенциал зонд 
NGLD               .у.е.                                   : Показания зонда НГК-60 аппаратуры ДРСТ-3-90 
PHIE               .v/v                                    : Описание 
PHIEN              .v/v                                    :  
PHIT               .v/v                                    : Описание 
PRMB               .mD                                     :  
PRMB_DGR           .mD                                     :  
RT                 .ohmm                                   : УЭС пласта 
SOIL_ARCHIE        .v/v                                    :  
SOIL_DW            .v/v                                    :  
SP                 .мВ                                     : Потенциал самополяризации 
VSH_FIN            .v/v                                    : Описание 
VSH_GR             .v/v                                    : Shale volume 
VSH_SP             .v/v                                    : Shale Volume 
~Ascii
# ...
1123.2     
  0.216      0.166      1          2          8.414      3.409      
  1.862      2.805      1.475      0.2046206  0.2046206  0.259      
  17.26743   22.33749   6.038      0.6169987  0.6795576  29.668     
  0.1647861  0.1824981  0.1470741 
1123.4     
  0.216      0.176      1          2          8.332      3.314      
  1.934      2.798      1.445      0.2185048  0.2185048  0.2722     
  31.21743   24.06429   5.686      0.6279432  0.6879004  29.949     
  0.1627126  0.1770327  0.1483926 
1123.6     
  0.216      0.185      1          2          8.325      3.437      
  2.006      2.693      1.425      0.227401   0.227401   0.281      
  45.62218   24.21774   5.413      0.632259   0.6911987  29.923     
  0.1624213  0.1765738  0.1482689 
1123.8     
  0.215      0.19       1          2          8.4        3.767      
  2.162      2.754      1.429      0.2248592  0.2248592  0.27924    
  40.93515   22.62329   5.261      0.6236444  0.684136   29.872     
  0.1647902  0.1815532  0.1480272 
1124       
  0.214      0.191      1          2          8.524      4.247      
  2.239      2.744      1.45       0.2142625  0.2142625  0.27       
  26.0507    20.21403   5.224      0.6061817  0.6701481  29.804     
  0.1689015  0.1900958  0.1477071 
1124.2     
  0.215      0.205      1          2          8.553      4.145      
  2.188      2.784      1.456      0.2113035  0.2113035  0.26736    
  22.96211   19.68865   4.93       0.5903991  0.656514   29.778     
  0.1698682  0.192151   0.1475854 
1124.4     
  0.215      0.221      1          2          8.698      3.641      
  2.065      2.562      1.452      0.2114163  0.2114163  0.26912    
  23.07288   17.25964   4.579      0.5761511  0.645026   29.642     
  0.1748595  0.2027649  0.1469541 
1124.6     
  0.216      0.239      1          2          8.774      3.005      
  1.916      2.304      1.451      0.2109259  0.2109259  0.26956    
  22.5953    16.10865   4.191      0.5572749  0.6289484  29.608     
  0.177679   0.2085603  0.1467978 
1124.8     
  0.216      0.243      1          2          8.951      2.758      
  1.821      2.132      1.456      0.2062082  0.2062082  0.26736    
  18.47714   13.71687   4.109      0.5442598  0.6198908  29.847     
  0.1853084  0.2227076  0.1479093 
1125       
  0.216      0.244      1          2          9.178      2.802      
  1.769      2.188      1.468      0.1973898  0.1973898  0.26208    
  12.68518   11.16174   4.093      0.5257097  0.6076018  30.239     
  0.1960307  0.2422648  0.1497967 
1125.2     
  0.215      0.252      1          2          9.423      2.972      
  1.815      2.303      1.457      0.1981607  0.1981607  0.26692    
  13.10919   8.935317   3.968      0.5203871  0.6063429  30.563     
  0.2083614  0.2653043  0.1514184 
1125.4     
  0.215      0.263      1          2          9.545      3.248      
  1.834      2.373      1.457      0.195448   0.195448   0.26692    
  11.67694   7.998276   3.818      0.5057369  0.5963807  31.347     
  0.2165818  0.2775816  0.155582  
1125.6     
  0.216      0.274      1          2          9.452      3.375      
  1.834      2.483      1.458      0.1954805  0.1954805  0.26648    
  11.69314   8.703087   3.657      0.4957155  0.5872218  32.464     
  0.2151501  0.2681724  0.1621277 
1125.8     
  0.217      0.277      1          2          9.374      3.282      
  1.825      2.502      1.478      0.1847222  0.1847222  0.25768    
  7.390274   9.341886   3.61       0.4670043  0.5662388  35.217     
  0.2210843  0.2605273  0.1816413 
1126       
  0.217      0.281      1          2          9.37       3.378      
  1.777      2.451      1.478      0.1810789  0.1810789  0.25768    
  6.326707   9.375877   3.555      0.4537551  0.5592893  37.724     
  0.2321246  0.2601413  0.204108  
1126.2     
  0.217      0.298      1          2          9.462      3.447      
  1.646      2.517      1.487      0.1706254  0.1706254  0.25372    
  4.050935   8.624414   3.371      0.4101931  0.5319908  40.46      
  0.2518017  0.2691687  0.2344347 
1126.4     
  0.218      0.32       1          2          9.649      3.337      
  1.585      2.343      1.5        0.1588871  0.1588871  0.248      
  2.455464   7.277484   3.138      0.3509666  0.4938566  41.79      
  0.270039   0.2884951  0.2515828 
1126.6     
  0.218      0.35       -9999      -9999      10.069     3.054      
  1.811      2.403      1.499      0.14855    0.14855    0.24844    
  1.580025   4.969858   2.865      0.2817723  0.4563381  42.975     
  0.3026971  0.3371116  0.2682826 
1126.8     
  0.218      0.376      -9999      -9999      10.596     2.925      
  2.341      2.48       1.48       0.1437943  0.1437943  0.2568     
  1.289966   3.079701   2.668      0.2360098  0.4405828  43.427     
  0.3424414  0.409864   0.2750187 
1127       
  0.218      0.404      -9999      -9999      11.25      2.763      
  2.087      2.793      1.446      0.1382303  0.1382303  0.27176    
  1.017463   1.700542   2.481      0.1818665  0.4308846  44.194     
  0.4046355  0.5223452  0.2869258 
1127.2     
  0.22       0.429      -9999      -9999      11.748     2.355      
  1.723      2.511      1.431      0.1240417  0.1240417  0.27836    
  0.555535   1.081904   2.338      0.07553911 0.398136   45.405     
  0.4676312  0.6282808  0.3069815 
1127.4     
  0.223      0.451      -9999      -9999      11.967     1.846      
  1.248      1.871      1.427      0.1134353  0.1134353  0.28012    
  0.3533907  0.8867893  2.219      0          0.3640131  46.624     
  0.5051051  0.6814292  0.3287809 
1127.6     
  0.224      0.476      -9999      -9999      11.932     1.649      
  1.477      1.356      1.446      0.1057348  0.1057348  0.27176    
  0.2544622  0.915427   2.105      0          0.3170988  46.88      
  0.5031067  0.6726428  0.3335705 
1127.8     
  0.225      0.495      -9999      -9999      11.789     1.592      
  1.612      1.258      1.464      0.1049336  0.1049336  0.26384    
  0.2459134  1.042364   2.023      0          0.2881639  46.428     
  0.4815347  0.6379053  0.3251641 
1128       
  0.225      0.507      -9999      -9999      11.818     1.598      
  1.716      1.387      1.479      0.09765652 0.09765652 0.25724    
  0.1802991  1.015272   1.973      0          0.2482015  46.275     
  0.4835863  0.6448019  0.3223708 
1128.2     
  0.226      0.511      -9999      -9999      11.821     1.592      
  1.922      1.503      1.451      0.1092669  0.1092669  0.26956    
  0.2958326  1.01251    1.959      0          0.29686    46.471     
  0.4857367  0.6455196  0.3259538 
1128.4     
  0.225      0.513      -9999      -9999      11.836     1.569      
  1.835      1.567      1.401      0.1293911  0.1293911  0.29156    
  0.6979046  0.9988111  1.95       0.02971211 0.3698429  46.888     
  0.4914207  0.6491201  0.3337214 
1128.6     
  0.226      0.513      -9999      -9999      11.907     1.578      
  1.829      1.548      1.35       0.1465569  0.1465569  0.314      
  1.451265   0.9364472  1.948      0.1290568  0.4255656  47.647     
  0.5074034  0.6664361  0.3483708 
1128.8     
  0.229      0.512      -9999      -9999      11.95      1.628      
  1.672      1.374      1.322      0.1520634  0.1520634  0.32632    
  1.835446   0.9005857  1.951      0.1571996  0.4473437  49.13      
  0.5280502  0.6771472  0.3789532 
1129       
  0.233      0.51       -9999      -9999      11.625     1.605      
  1.485      1.152      1.309      0.1636823  0.1636823  0.33204    
  3.012662   1.209753   1.96       0.2112552  0.4695893  50.946     
  0.510175   0.6002696  0.4200805 
1129.2     
  0.232      0.514      -9999      -9999      11.073     1.532      
  1.18       0.897      1.294      0.1819312  0.1819312  0.33864    
  6.560932   1.997063   1.945      0.2780277  0.4950137  52.575     
  0.4748751  0.4891637  0.4605864 
1129.4     
  0.229      0.512      -9999      -9999      10.533     1.513      
  0.994      0.815      1.296      0.1909691  0.1909691  0.33776    
  9.646502   3.261025   1.952      0.3090452  0.5046464  53.649     
  0.4448208  0.4004005  0.4892412 
