~Version
 VERS              .         2.0                           : CWLS LOG ASCII STANDARD - VERSION 2.0
 WRAP              .         YES                            : ONE LINE PER DEPTH STEP
 DLM               .         SPACE                         : DELIMITING CHARACTER(SPACE TAB OR COMMA)
~Well Information
#_______________________________________________________________________________
#
#PARAMETER_NAME    .UNIT     VALUE                         : DESCRIPTION
#_______________________________________________________________________________
STRT               .M        880                           : First reference value
STOP               .M        1168                          : Last reference value
STEP               .M        0.2                           : Step increment
NULL               .         -9999                         : Missing value
COMP               .                                       : Company
WELL               .         4721                          : Well name
FLD                .         UZEN                          : Field
LOC                .                                       : Location
CNTY               .                                       : County
STAT               .                                       : State
CTRY               .                                       : Country
SRVC               .                                       : Service Company
DATE               .         16.07.90                      : Date
UWI                .         4721                          : Unique Well ID
Block              .         7                             : 
Cartographic_reference_system .         GCS_WGS_1984                  : ESRI,PE_10_3_1- <?xml version="1.0" encoding="utf-16"?><ILateBoundCoordinateReferenceSystem name="GCS_WGS_1984"><AuthorityCode>EPSG,4326</AuthorityCode></ILateBoundCoordinateReferenceSystem>
Category           .         Нефтяная                      : 
Condition          .         В работе                      : 
EREF               .m        88.7                          : 100.8
Gorizont           .         14                            : 14
HZCS               .GCS_WGS_1984 WGS_1984_EASE-Grid_2.0_Global : ESRI,PE_10_3_1- <?xml version="1.0" encoding="utf-16"?><ILateBoundCoordinateReferenceSystem name="WGS_1984_EASE-Grid_2.0_Global"><AuthorityCode>EPSG,6933</AuthorityCode></ILateBoundCoordinateReferenceSystem>
Interpretator      .         Сагынбаева А.Н.               : 
Kupol              .         основной                      : osnovnoi
LATI               .dega     0.6597026748                  : GCS_WGS_1984
LONG               .dega     0.4354453285                  : GCS_WGS_1984
Mud                .         глинистый                     : 
Mud_density        .         1,18                          : 
Mud_resistivity    .         0                             : 
NGDU               .         НГДУ-2                        : 
ORIGINALWELLNAME   .         4721                          : 
Spud_date          .         1990                          : 1961
Viscosity          .         40                            : 
X                  .m        42014.5                       : 46154
Y                  .m        84158.63                      : 85761.93
YEAR               .         2019                          : 
~Parameter Information Block
#_______________________________________________________________________________
#
#PARAMETER_NAME    .UNIT     VALUE                         : DESCRIPTION
#_______________________________________________________________________________
SET                .         LQC_KAZNIPI_Petrel            : 
TLFamily_CALI      .         Caliper                       : 
TLFamily_CILD      .         Conductivity                  : 
TLFamily_COLL      .         Net Reservoir Flag            : 
TLFamily_CSAT      .         Fluid Code                    : 
TLFamily_DEPT      .         Measured Depth                : 
TLFamily_GR        .         Russian Gamma Ray             : 
TLFamily_LLS       .         Lateral Log Resistivity       : 
TLFamily_MINV      .         Micro Gradient Resistivity    : 
TLFamily_MNOR      .         Micro Resistivity             : 
TLFamily_NGLD      .         Neutron Gamma                 : 
TLFamily_PHIE      .         Effective Porosity            : 
TLFamily_PHIEN     .         Effective Porosity            : 
TLFamily_PHIT      .         Porosity                      : 
TLFamily_PRMB      .         Permeability                  : 
TLFamily_PRMB_DGR  .         Permeability                  : 
TLFamily_RT        .         Formation Resistivity         : 
TLFamily_SOIL_ARCHIE .         Oil Saturation                : 
TLFamily_SOIL_DW   .         Oil Saturation                : 
TLFamily_SP        .         Spontaneous Potential         : 
TLFamily_VSH_FIN   .         Shale Volume                  : 
TLFamily_VSH_GR    .         Shale Volume                  : 
TLFamily_VSH_SP    .         Shale Volume                  : 
~Curve Information
#_______________________________________________________________________________
#
#LOGNAME           .UNIT     LOG_ID                        : DESCRIPTION
#_______________________________________________________________________________
DEPT               .M                                      : Колонка глубины 
CALI               .м                                      : Каверномер 
CILD               .мСм/м                                  : Индукционный каротаж 
COLL               .unitless                               : Описание 
CSAT               .unitless                               :  
GR                 .uR/h                                   : Гамма каротаж 
LLS                .Ohmm                                   : Боковой каротаж 
MINV               .Ohmm                                   : Микро-градиент зонд 
MNOR               .Ohmm                                   : Микро-потенциал зонд 
NGLD               .у.е.                                   : Показания зонда НГК-60 аппаратуры ДРСТ-3-90 
PHIE               .v/v                                    : Описание 
PHIEN              .v/v                                    :  
PHIT               .v/v                                    : Описание 
PRMB               .mD                                     :  
PRMB_DGR           .mD                                     :  
RT                 .ohmm                                   : УЭС пласта 
SOIL_ARCHIE        .v/v                                    :  
SOIL_DW            .v/v                                    :  
SP                 .мВ                                     : Потенциал самополяризации 
VSH_FIN            .v/v                                    : Описание 
VSH_GR             .v/v                                    : Shale volume 
VSH_SP             .v/v                                    : Shale Volume 
~Ascii
# ...
892.8      
  0.275      0.258      -9999      -9999      10.214     -9999      
  0.565      0.818      1.314      -9999      -9999      -9999      
  -9999      -9999      3.881      -9999      -9999      49.301     
  -9999      0.8        0.7943102 
893        
  0.269      0.246      -9999      -9999      10.141     -9999      
  0.805      1.096      1.333      -9999      -9999      -9999      
  -9999      -9999      4.064      -9999      -9999      49.395     
  -9999      0.8        0.7982    
893.2000000000001 
  0.252      0.236      -9999      -9999      9.971      -9999      
  2.293      2.114      1.361      -9999      -9999      -9999      
  -9999      -9999      4.252      -9999      -9999      49.565     
  -9999      0.8        0.8       
893.4      
  0.236      0.225      -9999      -9999      9.352      -9999      
  3.133      3.09       1.391      -9999      -9999      -9999      
  -9999      -9999      4.444      -9999      -9999      49.693     
  -9999      0.5617956  0.8       
893.6      
  0.23       0.223      -9999      -9999      8.612      -9999      
  3.238      3.252      1.427      -9999      -9999      -9999      
  -9999      -9999      4.493      -9999      -9999      49.514     
  -9999      0.3425763  0.8       
893.8      
  0.237      0.22       -9999      -9999      7.925      -9999      
  1.789      2.335      1.454      -9999      -9999      -9999      
  -9999      -9999      4.542      -9999      -9999      49.13      
  -9999      0.2164323  0.787273  
894        
  0.238      0.213      -9999      -9999      7.675      -9999      
  0.858      1.334      1.473      -9999      -9999      -9999      
  -9999      -9999      4.708      -9999      -9999      48.525     
  -9999      0.1831249  0.7627753 
894.2000000000001 
  0.232      0.195      -9999      -9999      7.421      -9999      
  1.507      1.876      1.514      -9999      -9999      -9999      
  -9999      -9999      5.169      -9999      -9999      47.826     
  -9999      0.1545295  0.7352397 
894.4      
  0.221      0.173      -9999      -9999      6.688      -9999      
  2.766      3.039      1.636      0.05873172 0.05873172 0.18816    
  0.03427773 2.207266   5.857      0          0.3614223  46.556     
  0.3922068  0.469577   0.3148367 
894.6      
  0.219      0.162      6          6          5.804      -9999      
  3.662      3.921      1.793      0.02104606 0.02104606 0.11908    
  0.006870402 5.746904   6.191      0          0          44.689     
  0.2970726  0.3176962  0.276449  
894.8      
  0.217      0.163      6          6          4.921      -9999      
  3.561      3.807      1.85       0.01877674 0.01877674 0.09399999 
  0.006236612 14.94661   6.176      0          0          42.651     
  0.2279492  0.215035   0.2408635 
895        
  0.216      0.171      6          6          4.037      -9999      
  2.989      3.259      1.859      0.03168296 0.03168296 0.09004001 
  0.01081442 38.91542   5.844      0          0          40.375     
  0.1768395  0.1454837  0.2081954 
895.2000000000001 
  0.215      0.176      6          6          3.431      -9999      
  2.68       3.025      1.823      0.05721307 0.05721307 0.10588    
  0.03212794 74.99112   5.678      0          0.05684295 38.244     
  0.1474756  0.1112974  0.1836538 
895.4      
  0.215      0.18       6          6          3.165      -9999      
  2.444      3.038      1.799      0.07292113 0.07292113 0.11644    
  0.06278189 100.0137   5.562      0.02230039 0.1828001  36.181     
  0.1318753  0.09895167 0.1647989 
895.6      
  0.216      0.187      6          6          3.343      -9999      
  2.393      3.227      1.778      0.08224869 0.08224869 0.12568    
  0.09345516 82.48589   5.35       0.1034062  0.2416574  35.034     
  0.1316101  0.1070514  0.1561687 
895.8      
  0.216      0.199      6          6          3.611      -9999      
  2.505      3.308      1.769      0.08453918 0.08453918 0.12964    
  0.1030454  61.71482   5.045      0.1001526  0.2418304  34.54      
  0.1366691  0.1205143  0.152824  
896        
  0.217      0.212      6          6          3.874      -9999      
  2.515      3.267      1.746      0.09241286 0.09241286 0.13976    
  0.1441678  46.4248    4.731      0.1418136  0.2778566  34.348     
  0.1434761  0.1353707  0.1515816 
896.2000000000001 
  0.217      0.224      6          6          3.966      -9999      
  2.535      3.179      1.732      0.09784567 0.09784567 0.14592    
  0.1817595  42.02423   4.473      0.1616943  0.2927225  34.156     
  0.1456798  0.1409889  0.1503707 
896.4      
  0.215      0.235      6          6          3.935      -9999      
  2.351      2.97       1.708      0.1089807  0.1089807  0.15648    
  0.292244   43.45837   4.263      0.219389   0.3348175  33.9       
  0.1439372  0.1390702  0.1488042 
896.6      
  0.214      0.245      6          6          3.813      -9999      
  2.224      2.74       1.689      0.1187872  0.1187872  0.16484    
  0.4440031  49.59375   4.092      0.2617781  0.3644986  33.652     
  0.1395538  0.1317695  0.1473381 
896.8      
  0.212      0.253      6          6          3.779      -9999      
  2.064      2.518      1.669      0.1281397  0.1281397  0.17364    
  0.6616321  51.45299   3.956      0.297884   0.3924407  33.41      
  0.1378796  0.129804   0.1459551 
897        
  0.212      0.262      6          6          3.807      -9999      
  2.088      2.517      1.657      0.1333088  0.1333088  0.17892    
  0.8248218  49.9169    3.825      0.3108509  0.4027444  33.24      
  0.1382159  0.1314205  0.1450113 
897.2000000000001 
  0.212      0.27       6          6          3.847      -9999      
  2.058      2.45       1.653      0.1348225  0.1348225  0.18068    
  0.8798288  47.80169   3.705      0.3073108  0.399436   33.083     
  0.1389621  0.1337647  0.1441595 
897.4      
  0.212      0.277      6          6          3.825      -9999      
  2.024      2.365      1.669      0.1280831  0.1280831  0.17364    
  0.6600366  48.95371   3.616      0.2673604  0.3644024  32.984     
  0.1380511  0.1324703  0.143632  
897.6      
  0.213      0.279      6          6          3.813      -9999      
  2.003      2.37       1.69       0.1189962  0.1189962  0.1644     
  0.4479767  49.59375   3.586      0.215807   0.3205714  32.941     
  0.1375874  0.1317695  0.1434053 
897.8      
  0.213      0.276      6          6          3.839      -9999      
  1.932      2.439      1.716      0.1073049  0.1073049  0.15296    
  0.2720852  48.21743   3.629      0.1466814  0.2646575  32.941     
  0.1383489  0.1332925  0.1434053 
898        
  0.214      0.268      6          6          3.885      -9999      
  1.926      2.517      1.727      0.1020131  0.1020131  0.14812    
  0.2171143  45.87529   3.743      0.1211054  0.2466003  32.941     
  0.1397178  0.1360304  0.1434053 
898.2000000000001 
  0.214      0.255      6          6          3.9        -9999      
  1.954      2.558      1.742      0.09526381 0.09526381 0.14152    
  0.1628077  45.13643   3.932      0.08843157 0.2234099  32.941     
  0.1401703  0.1369353  0.1434053 
898.4      
  0.214      0.239      6          6          3.881      -9999      
  2.008      2.632      1.761      0.08709274 0.08709274 0.13316    
  0.1149018  46.07436   4.206      0.0450498  0.1925723  32.941     
  0.1395977  0.1357901  0.1434053 
898.6      
  0.215      0.221      6          6          3.793      -9999      
  2.08       2.772      1.819      0.06239796 0.06239796 0.10764    
  0.04007926 50.67913   4.543      0          0          32.975     
  0.1370971  0.1306097  0.1435844 
898.8      
  0.215      0.203      6          6          3.654      -9999      
  2.167      2.959      1.9        0.02796674 0.02796674 0.07200001 
  0.009229325 58.90807   4.951      0          0          33.061     
  0.1334341  0.1228267  0.1440416 
899        
  0.216      0.18       6          6          3.54       -9999      
  2.326      3.205      2.007      0.01       0          0.02492001 
  0.004289259 66.64498   5.632      0          0          33.197     
  0.1307835  0.1167909  0.1447761 
