~Version
 VERS              .         2.0                           : CWLS LOG ASCII STANDARD - VERSION 2.0
 WRAP              .         YES                            : ONE LINE PER DEPTH STEP
 DLM               .         SPACE                         : DELIMITING CHARACTER(SPACE TAB OR COMMA)
~Well Information
#_______________________________________________________________________________
#
#PARAMETER_NAME    .UNIT     VALUE                         : DESCRIPTION
#_______________________________________________________________________________
STRT               .M        880                           : First reference value
STOP               .M        1168                          : Last reference value
STEP               .M        0.2                           : Step increment
NULL               .         -9999                         : Missing value
COMP               .                                       : Company
WELL               .         4721                          : Well name
FLD                .         UZEN                          : Field
LOC                .                                       : Location
CNTY               .                                       : County
STAT               .                                       : State
CTRY               .                                       : Country
SRVC               .                                       : Service Company
DATE               .         16.07.90                      : Date
UWI                .         4721                          : Unique Well ID
Block              .         7                             : 
Cartographic_reference_system .         GCS_WGS_1984                  : ESRI,PE_10_3_1- <?xml version="1.0" encoding="utf-16"?><ILateBoundCoordinateReferenceSystem name="GCS_WGS_1984"><AuthorityCode>EPSG,4326</AuthorityCode></ILateBoundCoordinateReferenceSystem>
Category           .         Нефтяная                      : 
Condition          .         В работе                      : 
EREF               .m        88.7                          : 100.8
Gorizont           .         14                            : 14
HZCS               .GCS_WGS_1984 WGS_1984_EASE-Grid_2.0_Global : ESRI,PE_10_3_1- <?xml version="1.0" encoding="utf-16"?><ILateBoundCoordinateReferenceSystem name="WGS_1984_EASE-Grid_2.0_Global"><AuthorityCode>EPSG,6933</AuthorityCode></ILateBoundCoordinateReferenceSystem>
Interpretator      .         Сагынбаева А.Н.               : 
Kupol              .         основной                      : osnovnoi
LATI               .dega     0.6597026748                  : GCS_WGS_1984
LONG               .dega     0.4354453285                  : GCS_WGS_1984
Mud                .         глинистый                     : 
Mud_density        .         1,18                          : 
Mud_resistivity    .         0                             : 
NGDU               .         НГДУ-2                        : 
ORIGINALWELLNAME   .         4721                          : 
Spud_date          .         1990                          : 1961
Viscosity          .         40                            : 
X                  .m        42014.5                       : 46154
Y                  .m        84158.63                      : 85761.93
YEAR               .         2019                          : 
~Parameter Information Block
#_______________________________________________________________________________
#
#PARAMETER_NAME    .UNIT     VALUE                         : DESCRIPTION
#_______________________________________________________________________________
SET                .         LQC_KAZNIPI_Petrel            : 
TLFamily_CALI      .         Caliper                       : 
TLFamily_CILD      .         Conductivity                  : 
TLFamily_COLL      .         Net Reservoir Flag            : 
TLFamily_CSAT      .         Fluid Code                    : 
TLFamily_DEPT      .         Measured Depth                : 
TLFamily_GR        .         Russian Gamma Ray             : 
TLFamily_LLS       .         Lateral Log Resistivity       : 
TLFamily_MINV      .         Micro Gradient Resistivity    : 
TLFamily_MNOR      .         Micro Resistivity             : 
TLFamily_NGLD      .         Neutron Gamma                 : 
TLFamily_PHIE      .         Effective Porosity            : 
TLFamily_PHIEN     .         Effective Porosity            : 
TLFamily_PHIT      .         Porosity                      : 
TLFamily_PRMB      .         Permeability                  : 
TLFamily_PRMB_DGR  .         Permeability                  : 
TLFamily_RT        .         Formation Resistivity         : 
TLFamily_SOIL_ARCHIE .         Oil Saturation                : 
TLFamily_SOIL_DW   .         Oil Saturation                : 
TLFamily_SP        .         Spontaneous Potential         : 
TLFamily_VSH_FIN   .         Shale Volume                  : 
TLFamily_VSH_GR    .         Shale Volume                  : 
TLFamily_VSH_SP    .         Shale Volume                  : 
~Curve Information
#_______________________________________________________________________________
#
#LOGNAME           .UNIT     LOG_ID                        : DESCRIPTION
#_______________________________________________________________________________
DEPT               .M                                      : Колонка глубины 
CALI               .м                                      : Каверномер 
CILD               .мСм/м                                  : Индукционный каротаж 
COLL               .unitless                               : Описание 
CSAT               .unitless                               :  
GR                 .uR/h                                   : Гамма каротаж 
LLS                .Ohmm                                   : Боковой каротаж 
MINV               .Ohmm                                   : Микро-градиент зонд 
MNOR               .Ohmm                                   : Микро-потенциал зонд 
NGLD               .у.е.                                   : Показания зонда НГК-60 аппаратуры ДРСТ-3-90 
PHIE               .v/v                                    : Описание 
PHIEN              .v/v                                    :  
PHIT               .v/v                                    : Описание 
PRMB               .mD                                     :  
PRMB_DGR           .mD                                     :  
RT                 .ohmm                                   : УЭС пласта 
SOIL_ARCHIE        .v/v                                    :  
SOIL_DW            .v/v                                    :  
SP                 .мВ                                     : Потенциал самополяризации 
VSH_FIN            .v/v                                    : Описание 
VSH_GR             .v/v                                    : Shale volume 
VSH_SP             .v/v                                    : Shale Volume 
~Ascii
# ...
1110.4     
  0.211      0.051      1          2          8.405      9.231      
  2.619      3.441      1.454      0.2162158  0.2162158  0.26824    
  28.31391   22.5208    19.739     0.7906142  0.8303147  26.044     
  0.157649   0.1818901  0.1334079 
1110.6     
  0.212      0.056      1          2          8.409      8.748      
  2.47       3.316      1.458      0.2144532  0.2144532  0.26648    
  26.26341   22.43914   18.08      0.780247   0.8214089  25.959     
  0.1576571  0.1821601  0.1331541 
1110.8     
  0.212      0.063      1          2          8.402      8.223      
  2.322      3.147      1.435      0.2246132  0.2246132  0.2766     
  40.50783   22.58222   15.956     0.7761819  0.8175437  26.036     
  0.1575359  0.1816879  0.1333839 
1111       
  0.212      0.073      1          2          8.371      7.654      
  2.222      2.998      1.404      0.2384342  0.2384342  0.29024    
  73.036     23.22696   13.941     0.7736285  0.8148832  26.356     
  0.1569874  0.1796114  0.1343633 
1111.2     
  0.212      0.084      1          2          8.343      7.068      
  2.129      2.868      1.395      0.2424003  0.2424003  0.2942     
  86.49691   23.8251    12.083     0.7613664  0.8040798  26.918     
  0.1569687  0.1777563  0.1361811 
1111.4     
  0.212      0.095      1          2          8.348      6.248      
  2.061      2.848      1.413      0.2338874  0.2338874  0.28628    
  60.16183   23.7172    10.638     0.7386566  0.7846519  27.839     
  0.1587653  0.1780861  0.1394445 
1111.6     
  0.213      0.104      1          2          8.392      5.473      
  2.08       2.9        1.437      0.2221699  0.2221699  0.27572    
  36.49916   22.78823   9.647      0.7138582  0.7638283  28.866     
  0.1622731  0.1810155  0.1435307 
1111.8     
  0.213      0.111      1          2          8.509      4.988      
  2.217      3.019      1.436      0.22047    0.22047    0.27616    
  33.94672   20.49127   9.032      0.7028941  0.7553555  29.966     
  0.1687575  0.1890414  0.1484737 
1112       
  0.213      0.116      1          2          8.577      4.88       
  2.306      3.123      1.425      0.2238578  0.2238578  0.281      
  39.2236    19.26422   8.662      0.7010023  0.7542684  30.763     
  0.1731583  0.1938685  0.152448  
1112.2     
  0.213      0.119      1          2          8.546      5.147      
  2.262      3.223      1.419      0.2262323  0.2262323  0.28364    
  43.404     19.81422   8.442      0.7001392  0.7535284  31.471     
  0.1739626  0.1916528  0.1562724 
1112.4     
  0.213      0.121      1          2          8.404      5.533      
  2.216      3.257      1.418      0.2279245  0.2279245  0.28408    
  46.65226   22.54124   8.277      0.6993067  0.7520859  31.863     
  0.1701682  0.1818227  0.1585137 
1112.6     
  0.212      0.123      1          2          8.259      5.656      
  2.244      3.185      1.43       0.2240665  0.2240665  0.2788     
  39.57437   25.71358   8.162      0.6927921  0.7457983  32.016     
  0.165859   0.172305   0.1594131 
1112.8     
  0.212      0.124      1          2          8.188      5.524      
  2.31       3.044      1.447      0.2174079  0.2174079  0.27132    
  29.79069   27.42604   8.059      0.6827282  0.7367972  31.931     
  0.1633698  0.1678279  0.1589117 
1113       
  0.213      0.126      1          2          7.98       5.221      
  2.364      2.967      1.439      0.2229708  0.2229708  0.27484    
  37.76752   33.12783   7.938      0.6874224  0.739557   31.944     
  0.1571793  0.1553705  0.1589881 
1113.2     
  0.213      0.128      1          2          7.875      5.016      
  2.352      3.012      1.425      0.230023   0.230023   0.281      
  51.02025   36.44201   7.8        0.6932717  0.7439942  32.033     
  0.1544757  0.1494376  0.1595139 
1113.4     
  0.213      0.13       1          2          7.816      4.851      
  2.402      3.139      1.404      0.2395084  0.2395084  0.29024    
  76.46014   38.44771   7.707      0.7022076  0.7515009  32.323     
  0.153732   0.1462038  0.1612602 
1113.6     
  0.214      0.131      1          2          7.921      4.759      
  2.514      3.261      1.407      0.2368403  0.2368403  0.28892    
  68.23634   34.95113   7.657      0.698368   0.7488475  32.703     
  0.1578172  0.1520084  0.1636261 
1113.8     
  0.214      0.13       1          2          7.953      4.816      
  2.566      3.294      1.409      0.2351224  0.2351224  0.28804    
  63.4154    33.9501    7.719      0.697596   0.7486454  33.205     
  0.1603564  0.1538228  0.16689   
1114       
  0.214      0.127      1          2          7.919      5.089      
  2.518      3.303      1.42       0.2301602  0.2301602  0.2832     
  51.3196    35.01466   7.853      0.6944035  0.7460707  33.598     
  0.1607268  0.1518957  0.1695578 
1114.2     
  0.213      0.124      1          2          7.958      5.516      
  2.464      3.361      1.441      0.2201902  0.2201902  0.27396    
  33.54403   33.79631   8.064      0.686314   0.739747   33.913     
  0.1629387  0.1541082  0.1717692 
1114.4     
  0.213      0.12       1          2          7.958      6.018      
  2.638      3.525      1.444      0.2186269  0.2186269  0.27264    
  31.3804    33.79631   8.336      0.6892369  0.7425401  34.118     
  0.1636761  0.1541082  0.1732439 
1114.6     
  0.212      0.115      1          2          7.948      6.376      
  2.848      3.744      1.428      0.2255764  0.2255764  0.27968    
  42.20654   34.1046    8.68       0.7032765  0.7546444  34.271     
  0.1639504  0.1535379  0.174363  
1114.8     
  0.213      0.11       1          2          7.921      6.63       
  2.937      3.846      1.399      0.2384641  0.2384641  0.29244    
  73.1295    34.95113   9.069      0.7230498  0.771495   34.373     
  0.1635631  0.1520084  0.1751179 
1115       
  0.214      0.106      1          2          7.941      6.836      
  2.875      3.866      1.394      0.2405399  0.2405399  0.29464    
  79.89874   34.32208   9.462      0.7305501  0.778071   34.322     
  0.1639397  0.1531399  0.1747396 
1115.2     
  0.215      0.101      1          2          8.008      7.103      
  2.849      3.882      1.398      0.2383503  0.2383503  0.29288    
  72.77515   32.29612   9.882      0.733875   0.7812424  34.152     
  0.1652417  0.1569921  0.1734912 
1115.4     
  0.215      0.097      1          2          8.156      7.273      
  2.941      3.928      1.406      0.2337129  0.2337129  0.28936    
  59.71566   28.23468   10.371     0.7353485  0.7831744  33.862     
  0.1686275  0.1658483  0.1714067 
1115.6     
  0.215      0.092      1          2          8.327      6.984      
  2.8        3.762      1.419      0.2266811  0.2266811  0.28364    
  44.24279   24.17381   10.839     0.7337838  0.7826633  33.444     
  0.1726026  0.1767047  0.1685005 
1115.8     
  0.214      0.089      1          2          8.483      6.496      
  2.984      3.741      1.433      0.219382   0.219382   0.27748    
  32.40748   20.98082   11.251     0.7308394  0.7809543  32.899     
  0.1760546  0.1872276  0.1648815 
1116       
  0.213      0.086      1          2          8.573      6.299      
  2.931      3.754      1.437      0.217158   0.217158   0.27572    
  29.47486   19.33431   11.595     0.732251   0.7825015  32.336     
  0.1774604  0.1935812  0.1613396 
1116.2     
  0.211      0.083      1          2          8.58       6.749      
  3.273      3.924      1.431      0.2201775  0.2201775  0.27836    
  33.52579   19.2118    11.996     0.7396392  0.788576   31.867     
  0.1763107  0.1940843  0.1585371 
1116.4     
  0.211      0.08       1          2          8.511      7.208      
  3.182      3.903      1.416      0.227949   0.227949   0.28496    
  46.70103   20.45409   12.463     0.7518743  0.7983357  31.483     
  0.1727606  0.1891816  0.1563397 
1116.6     
  0.211      0.078      1          2          8.385      7.349      
  3.296      4.004      1.414      0.2306617  0.2306617  0.28584    
  52.42904   22.93354   12.883     0.7582079  0.8029879  31.032     
  0.167207   0.1805462  0.1538677 
