~Version
 VERS              .         2.0                           : CWLS LOG ASCII STANDARD - VERSION 2.0
 WRAP              .         YES                            : ONE LINE PER DEPTH STEP
 DLM               .         SPACE                         : DELIMITING CHARACTER(SPACE TAB OR COMMA)
~Well Information
#_______________________________________________________________________________
#
#PARAMETER_NAME    .UNIT     VALUE                         : DESCRIPTION
#_______________________________________________________________________________
STRT               .M        890                           : First reference value
STOP               .M        1240                          : Last reference value
STEP               .M        0.2                           : Step increment
NULL               .         -9999                         : Missing value
COMP               .                                       : Company
WELL               .         4724                          : Well name
FLD                .         Узень                         : Field
LOC                .                                       : Location
CNTY               .                                       : County
STAT               .                                       : State
CTRY               .                                       : Country
SRVC               .                                       : Service Company
DATE               .         27.03.1990                    : Date
UWI                .         4724                          : Unique Well ID
Block              .         7                             : 
Cartographic_reference_system .         GCS_WGS_1984                  : ESRI,PE_10_3_1- <?xml version="1.0" encoding="utf-16"?><ILateBoundCoordinateReferenceSystem name="GCS_WGS_1984"><AuthorityCode>EPSG,4326</AuthorityCode></ILateBoundCoordinateReferenceSystem>
Category           .         Нефтяная                      : 
Condition          .         В работе                      : 
EREF               .m        94.7                          : 100.8
Gorizont           .         15                            : 14
HZCS               .GCS_WGS_1984 WGS_1984_EASE-Grid_2.0_Global : ESRI,PE_10_3_1- <?xml version="1.0" encoding="utf-16"?><ILateBoundCoordinateReferenceSystem name="WGS_1984_EASE-Grid_2.0_Global"><AuthorityCode>EPSG,6933</AuthorityCode></ILateBoundCoordinateReferenceSystem>
Interpretator      .         Сагынбаева А.Н.               : 
Kupol              .         основной                      : osnovnoi
LATI               .dega     0.6662122985                  : GCS_WGS_1984
LONG               .dega     0.4357261975                  : GCS_WGS_1984
Mud                .         глинистый                     : 
Mud_density        .         1,18                          : 
Mud_resistivity    .         0                             : 
NGDU               .         НГДУ-2                        : 
ORIGINALWELLNAME   .         4724                          : 
Spud_date          .         1990                          : 1961
Viscosity          .         40                            : 
X                  .m        42041.6                       : 46154
Y                  .m        84989.03                      : 85761.93
YEAR               .         2018                          : 
~Parameter Information Block
#_______________________________________________________________________________
#
#PARAMETER_NAME    .UNIT     VALUE                         : DESCRIPTION
#_______________________________________________________________________________
SET                .         LQC_KAZNIPI_Petrel            : 
TLFamily_CALI      .         Caliper                       : 
TLFamily_CILD      .         Conductivity                  : 
TLFamily_COLL      .         Net Reservoir Flag            : 
TLFamily_CSAT      .         Fluid Code                    : 
TLFamily_DEPT      .         Measured Depth                : 
TLFamily_GR        .         Russian Gamma Ray             : 
TLFamily_LLS       .         Lateral Log Resistivity       : 
TLFamily_MINV      .         Micro Gradient Resistivity    : 
TLFamily_MNOR      .         Micro Resistivity             : 
TLFamily_NGLD      .         Neutron Gamma                 : 
TLFamily_PHIE      .         Effective Porosity            : 
TLFamily_PHIEN     .         Effective Porosity            : 
TLFamily_PHIT      .         Porosity                      : 
TLFamily_PRMB      .         Permeability                  : 
TLFamily_PRMB_DGR  .         Permeability                  : 
TLFamily_RT        .         Formation Resistivity         : 
TLFamily_SOIL_ARCHIE .         Oil Saturation                : 
TLFamily_SOIL_DW   .         Oil Saturation                : 
TLFamily_SP        .         Spontaneous Potential         : 
TLFamily_VSH_FIN   .         Shale Volume                  : 
TLFamily_VSH_GR    .         Shale Volume                  : 
TLFamily_VSH_SP    .         Shale Volume                  : 
~Curve Information
#_______________________________________________________________________________
#
#LOGNAME           .UNIT     LOG_ID                        : DESCRIPTION
#_______________________________________________________________________________
DEPT               .M                                      : Колонка глубины 
CALI               .м                                      : Каверномер 
CILD               .мСм/м                                  : Индукционный каротаж 
COLL               .unitless                               : Описание 
CSAT               .unitless                               :  
GR                 .uR/h                                   : Гамма каротаж 
LLS                .Ohmm                                   : Боковой каротаж 
MINV               .Ohmm                                   : Микро-градиент зонд 
MNOR               .Ohmm                                   : Микро-потенциал зонд 
NGLD               .у.е.                                   : Показания зонда НГК-60 аппаратуры ДРСТ-3-90 
PHIE               .v/v                                    : Описание 
PHIEN              .v/v                                    :  
PHIT               .v/v                                    : Описание 
PRMB               .mD                                     :  
PRMB_DGR           .mD                                     :  
RT                 .ohmm                                   : УЭС пласта 
SOIL_ARCHIE        .v/v                                    :  
SOIL_DW            .v/v                                    :  
SP                 .мВ                                     : Потенциал самополяризации 
VSH_FIN            .v/v                                    : Описание 
VSH_GR             .v/v                                    : Shale volume 
VSH_SP             .v/v                                    : Shale Volume 
~Ascii
# ...
1210       
  0.22       0.353      1          2          7.413      3.382      
  2.202      2.092      1.349      0.2133448  0.2133448  0.2970783  
  25.05075   19.82952   2.83       0.4802898  0.5813694  61.432     
  0.253738   0.1915924  0.3158836 
1210.2     
  0.217      0.358      1          2          7.371      3.715      
  2.265      2.314      1.372      0.2143318  0.2143318  0.2894124  
  26.12785   20.79544   2.795      0.4793434  0.573108   58.414     
  0.2275169  0.1879074  0.2671264 
1210.4     
  0.216      0.367      1          2          7.58       3.485      
  2.222      2.399      1.381      0.2112268  0.2112268  0.2864127  
  22.8871    16.41275   2.728      0.4666454  0.5626099  57.093     
  0.2278361  0.2069737  0.2486985 
1210.6     
  0.216      0.377      1          2          8.045      3.018      
  2.08       2.427      1.373      0.2015549  0.2015549  0.2890791  
  15.15106   9.693782   2.652      0.4370068  0.5501009  58.866     
  0.2652249  0.2566233  0.2738266 
1210.8     
  0.217      0.386      1          2          8.736      2.358      
  2.297      2.166      1.342      0.1870929  0.1870929  0.2994114  
  8.176605   4.432593   2.595      0.393132   0.5407177  62.072     
  0.340359   0.3532338  0.3274842 
1211       
  0.219      0.392      -9999      -9999      9.332      2.113      
  2.719      1.961      1.321      0.1594865  0.1594865  0.3064107  
  2.519044   2.257064   2.553      0.2972421  0.5133626  66.675     
  0.4452247  0.4653187  0.4251308 
1211.2     
  0.22       0.399      -9999      -9999      9.649      2.018      
  3.062      1.716      1.297      0.1398038  0.1398038  0.3144099  
  1.088088   1.576311   2.509      0.2053578  0.491785   70.239     
  0.5291093  0.5387785  0.5194401 
1211.4     
  0.221      0.401      -9999      -9999      9.883      2.009      
  3.068      1.698      1.262      0.1300532  0.1300532  0.3260754  
  0.7178904  1.209373   2.492      0.1510083  0.4880211  72.472     
  0.5940068  0.6003466  0.5876671 
1211.6     
  0.22       0.403      -9999      -9999      10.055     2.008      
  3.017      1.695      1.263      0.1205644  0.1205644  0.3257421  
  0.4789649  0.9953374  2.482      0.09138738 0.4723536  72.651     
  0.6217505  0.6500443  0.5934568 
1211.8     
  0.219      0.403      -9999      -9999      9.996      2.003      
  2.896      1.733      1.281      0.1206484  0.1206484  0.3197427  
  0.4806837  1.06411    2.481      0.09176655 0.4660646  72.046     
  0.603316   0.6325496  0.5740824 
1212       
  0.219      0.391      -9999      -9999      9.902      2.008      
  2.834      1.678      1.308      0.1240006  0.1240006  0.3107436  
  0.5545612  1.18363    2.561      0.1262975  0.470145   70.469     
  0.565888   0.6056442  0.5261317 
1212.2     
  0.219      0.375      -9999      -9999      9.467      2.152      
  2.767      1.635      1.327      0.1432386  0.1432386  0.3044109  
  1.25975    1.937091   2.676      0.245154   0.5025311  68.883     
  0.4884009  0.4952918  0.4815101 
1212.4     
  0.219      0.353      -9999      -9999      8.793      2.589      
  2.658      1.684      1.334      0.1733745  0.1733745  0.3020778  
  4.554857   4.155516   2.839      0.3782954  0.5496296  66.349     
  0.3900099  0.3626678  0.4173521 
1212.6     
  0.219      0.336      1          2          8.119      3.383      
  2.468      2.012      1.347      0.1958608  0.1958608  0.2977449  
  11.88432   8.914554   2.979      0.453429   0.5778737  63.344     
  0.3087398  0.2655564  0.3519233 
1212.8     
  0.217      0.321      1          2          7.59       4.322      
  2.308      2.448      1.369      0.2089781  0.2089781  0.2904123  
  20.79404   16.22794   3.118      0.4943706  0.5923586  59.629     
  0.2467704  0.2079329  0.2856079 
1213       
  0.216      0.31       1          2          7.243      4.955      
  2.407      2.812      1.401      0.2119714  0.2119714  0.2797467  
  23.62564   24.03913   3.232      0.5089401  0.5932178  55.914     
  0.2053795  0.1771083  0.2336507 
1213.2     
  0.215      0.304      1          2          7.235      4.955      
  2.633      3.034      1.424      0.2104542  0.2104542  0.2720808  
  22.14524   24.25789   3.293      0.5101749  0.5892201  52.509     
  0.1867473  0.1764544  0.1970401 
1213.4     
  0.216      0.307      1          2          7.345      4.494      
  2.925      3.187      1.431      0.2103047  0.2103047  0.2697477  
  22.00446   21.41683   3.255      0.5071948  0.5846402  49.821     
  0.1801304  0.1856618  0.1745991 
1213.6     
  0.216      0.323      1          2          7.5        3.85       
  2.956      3.154      1.417      0.2146145  0.2146145  0.2744139  
  26.44473   17.96907   3.105      0.5049865  0.5825093  48.116     
  0.1812103  0.1994571  0.1629634 
1213.8     
  0.218      0.343      1          2          7.723      3.383      
  2.703      2.888      1.395      0.2188895  0.2188895  0.2817465  
  31.73387   13.95898   2.925      0.4995885  0.5798749  47.604     
  0.1904757  0.2211222  0.1598293 
1214       
  0.22       0.359      1          2          8.019      2.944      
  2.364      2.594      1.389      0.2152043  0.2152043  0.2837463  
  27.11836   9.983436   2.788      0.4805714  0.5683669  47.937     
  0.207703   0.2535565  0.1618495 
1214.2     
  0.224      0.372      1          2          8.402      2.619      
  2.241      2.445      1.385      0.2068371  0.2068371  0.2850795  
  18.97939   6.470229   2.69       0.4532126  0.5544459  49.395     
  0.2370983  0.3026834  0.1715132 
1214.4     
  0.227      0.384      1          2          8.841      2.334      
  2.305      2.341      1.367      0.1978172  0.1978172  0.2910789  
  12.91852   3.935672   2.608      0.4232429  0.5446494  52.225     
  0.2826112  0.3708072  0.1944152 
1214.6     
  0.232      0.394      -9999      -9999      9.203      2.219      
  2.274      2.19       1.312      0.1982629  0.1982629  0.3094104  
  13.16643   2.612078   2.541      0.417299   0.5554296  56.044     
  0.3368106  0.438374   0.2352471 
1214.8     
  0.231      0.398      -9999      -9999      9.518      2.223      
  2.263      2.099      1.263      0.1471996  0.1471996  0.3257421  
  1.491596   1.828209   2.514      0.2409551  0.5129306  59.25      
  0.541038   0.5071311  0.5749449 
1215       
  0.227      0.397      -9999      -9999      9.546      2.263      
  2.454      2.199      1.239      0.1442239  0.1442239  0.3337413  
  1.313814   1.77115    2.521      0.2283407  0.5172171  61.066     
  0.5742953  0.5137398  0.6348507 
1215.2     
  0.224      0.391      -9999      -9999      9.576      2.273      
  2.886      2.253      1.241      0.1389457  0.1389457  0.3330747  
  1.048985   1.711988   2.558      0.2083035  0.5134091  61.662     
  0.5882697  0.5209163  0.655623  
1215.4     
  0.222      0.382      -9999      -9999      9.657      2.252      
  2.983      2.152      1.27       0.1263431  0.1263431  0.323409   
  0.6128279  1.561941   2.619      0.1494093  0.4926422  61.603     
  0.5971695  0.5407972  0.6535417 
1215.6     
  0.22       0.371      -9999      -9999      9.276      2.371      
  2.799      1.991      1.305      0.1345244  0.1345244  0.3117435  
  0.8687131  2.404602   2.696      0.2055215  0.4999377  60.648     
  0.5370276  0.4534417  0.6206135 
1215.8     
  0.217      0.362      -9999      -9999      8.611      2.684      
  2.538      2.221      1.34       0.160302   0.160302   0.300078   
  2.608191   5.106175   2.767      0.3262914  0.5275311  57.217     
  0.4235637  0.3334073  0.5137201 
1216       
  0.214      0.352      1          2          7.788      3.206      
  2.621      2.521      1.364      0.192029   0.192029   0.2920788  
  10.09254   12.96742   2.844      0.4317083  0.5594919  51.803     
  0.3031814  0.2278762  0.3784865 
1216.2     
  0.213      0.345      1          2          7.325      3.565      
  2.695      2.784      1.412      0.1989084  0.1989084  0.2760804  
  13.53392   21.90588   2.898      0.4537086  0.5554452  46.688     
  0.2338547  0.1839579  0.2837514 
