~Version
 VERS              .         2.0                           : CWLS LOG ASCII STANDARD - VERSION 2.0
 WRAP              .         YES                            : ONE LINE PER DEPTH STEP
 DLM               .         SPACE                         : DELIMITING CHARACTER(SPACE TAB OR COMMA)
~Well Information
#_______________________________________________________________________________
#
#PARAMETER_NAME    .UNIT     VALUE                         : DESCRIPTION
#_______________________________________________________________________________
STRT               .M        890                           : First reference value
STOP               .M        1240                          : Last reference value
STEP               .M        0.2                           : Step increment
NULL               .         -9999                         : Missing value
COMP               .                                       : Company
WELL               .         4724                          : Well name
FLD                .         Узень                         : Field
LOC                .                                       : Location
CNTY               .                                       : County
STAT               .                                       : State
CTRY               .                                       : Country
SRVC               .                                       : Service Company
DATE               .         27.03.1990                    : Date
UWI                .         4724                          : Unique Well ID
Block              .         7                             : 
Cartographic_reference_system .         GCS_WGS_1984                  : ESRI,PE_10_3_1- <?xml version="1.0" encoding="utf-16"?><ILateBoundCoordinateReferenceSystem name="GCS_WGS_1984"><AuthorityCode>EPSG,4326</AuthorityCode></ILateBoundCoordinateReferenceSystem>
Category           .         Нефтяная                      : 
Condition          .         В работе                      : 
EREF               .m        94.7                          : 100.8
Gorizont           .         15                            : 14
HZCS               .GCS_WGS_1984 WGS_1984_EASE-Grid_2.0_Global : ESRI,PE_10_3_1- <?xml version="1.0" encoding="utf-16"?><ILateBoundCoordinateReferenceSystem name="WGS_1984_EASE-Grid_2.0_Global"><AuthorityCode>EPSG,6933</AuthorityCode></ILateBoundCoordinateReferenceSystem>
Interpretator      .         Сагынбаева А.Н.               : 
Kupol              .         основной                      : osnovnoi
LATI               .dega     0.6662122985                  : GCS_WGS_1984
LONG               .dega     0.4357261975                  : GCS_WGS_1984
Mud                .         глинистый                     : 
Mud_density        .         1,18                          : 
Mud_resistivity    .         0                             : 
NGDU               .         НГДУ-2                        : 
ORIGINALWELLNAME   .         4724                          : 
Spud_date          .         1990                          : 1961
Viscosity          .         40                            : 
X                  .m        42041.6                       : 46154
Y                  .m        84989.03                      : 85761.93
YEAR               .         2018                          : 
~Parameter Information Block
#_______________________________________________________________________________
#
#PARAMETER_NAME    .UNIT     VALUE                         : DESCRIPTION
#_______________________________________________________________________________
SET                .         LQC_KAZNIPI_Petrel            : 
TLFamily_CALI      .         Caliper                       : 
TLFamily_CILD      .         Conductivity                  : 
TLFamily_COLL      .         Net Reservoir Flag            : 
TLFamily_CSAT      .         Fluid Code                    : 
TLFamily_DEPT      .         Measured Depth                : 
TLFamily_GR        .         Russian Gamma Ray             : 
TLFamily_LLS       .         Lateral Log Resistivity       : 
TLFamily_MINV      .         Micro Gradient Resistivity    : 
TLFamily_MNOR      .         Micro Resistivity             : 
TLFamily_NGLD      .         Neutron Gamma                 : 
TLFamily_PHIE      .         Effective Porosity            : 
TLFamily_PHIEN     .         Effective Porosity            : 
TLFamily_PHIT      .         Porosity                      : 
TLFamily_PRMB      .         Permeability                  : 
TLFamily_PRMB_DGR  .         Permeability                  : 
TLFamily_RT        .         Formation Resistivity         : 
TLFamily_SOIL_ARCHIE .         Oil Saturation                : 
TLFamily_SOIL_DW   .         Oil Saturation                : 
TLFamily_SP        .         Spontaneous Potential         : 
TLFamily_VSH_FIN   .         Shale Volume                  : 
TLFamily_VSH_GR    .         Shale Volume                  : 
TLFamily_VSH_SP    .         Shale Volume                  : 
~Curve Information
#_______________________________________________________________________________
#
#LOGNAME           .UNIT     LOG_ID                        : DESCRIPTION
#_______________________________________________________________________________
DEPT               .M                                      : Колонка глубины 
CALI               .м                                      : Каверномер 
CILD               .мСм/м                                  : Индукционный каротаж 
COLL               .unitless                               : Описание 
CSAT               .unitless                               :  
GR                 .uR/h                                   : Гамма каротаж 
LLS                .Ohmm                                   : Боковой каротаж 
MINV               .Ohmm                                   : Микро-градиент зонд 
MNOR               .Ohmm                                   : Микро-потенциал зонд 
NGLD               .у.е.                                   : Показания зонда НГК-60 аппаратуры ДРСТ-3-90 
PHIE               .v/v                                    : Описание 
PHIEN              .v/v                                    :  
PHIT               .v/v                                    : Описание 
PRMB               .mD                                     :  
PRMB_DGR           .mD                                     :  
RT                 .ohmm                                   : УЭС пласта 
SOIL_ARCHIE        .v/v                                    :  
SOIL_DW            .v/v                                    :  
SP                 .мВ                                     : Потенциал самополяризации 
VSH_FIN            .v/v                                    : Описание 
VSH_GR             .v/v                                    : Shale volume 
VSH_SP             .v/v                                    : Shale Volume 
~Ascii
# ...
896.4      
  0.215      0.256      -9999      -9999      7.256      3.953      
  2.775      2.912      1.342      -9999      -9999      -9999      
  -9999      -9999      3.906      -9999      -9999      67.992     
  -9999      0.1383924  0.8       
896.6      
  0.215      0.278      -9999      -9999      7.256      3.173      
  2.501      2.54       1.342      -9999      -9999      -9999      
  -9999      -9999      3.617      -9999      -9999      67.986     
  -9999      0.1383924  0.8       
896.8      
  0.217      0.296      -9999      -9999      7.118      2.606      
  2.108      2.361      1.341      -9999      -9999      -9999      
  -9999      -9999      3.403      -9999      -9999      68.077     
  -9999      0.1261976  0.8       
897        
  0.22       0.313      -9999      -9999      7.014      2.632      
  2.058      2.174      1.339      -9999      -9999      -9999      
  -9999      -9999      3.199      -9999      -9999      68.264     
  -9999      0.1177226  0.8       
897.2000000000001 
  0.222      0.321      -9999      -9999      6.94       3.071      
  2.068      1.937      1.338      -9999      -9999      -9999      
  -9999      -9999      3.121      -9999      -9999      68.937     
  -9999      0.1120412  0.8       
897.4      
  0.222      0.327      -9999      -9999      6.995      3.252      
  1.83       1.786      1.333      -9999      -9999      -9999      
  -9999      -9999      3.062      -9999      -9999      69.662     
  -9999      0.1162369  0.8       
897.6      
  0.222      0.331      -9999      -9999      6.973      3.025      
  1.707      1.882      1.341      -9999      -9999      -9999      
  -9999      -9999      3.02       -9999      -9999      70.39      
  -9999      0.1145401  0.8       
897.8      
  0.222      0.323      -9999      -9999      6.869      2.715      
  1.549      2.23       1.374      -9999      -9999      -9999      
  -9999      -9999      3.094      -9999      -9999      70.731     
  -9999      0.106848   0.8       
898        
  0.228      0.307      -9999      -9999      6.867      3.027      
  2.059      2.819      1.423      -9999      -9999      -9999      
  -9999      -9999      3.27       -9999      -9999      71.023     
  -9999      0.1067053  0.8       
898.2000000000001 
  0.229      0.286      -9999      -9999      6.915      3.417      
  2.825      3.408      1.476      -9999      -9999      -9999      
  -9999      -9999      3.516      -9999      -9999      71.314     
  -9999      0.1101845  0.8       
898.4      
  0.229      0.262      -9999      -9999      6.826      4.265      
  2.959      3.223      1.52       -9999      -9999      -9999      
  -9999      -9999      3.832      -9999      -9999      71.604     
  -9999      0.1038207  0.8       
898.6      
  0.223      0.238      -9999      -9999      6.758      5.705      
  2.248      2.264      1.563      -9999      -9999      -9999      
  -9999      -9999      4.233      -9999      -9999      72.197     
  -9999      0.09920725 0.8       
898.8      
  0.224      0.211      -9999      -9999      6.74       7.707      
  1.829      2.081      1.591      -9999      -9999      -9999      
  -9999      -9999      4.799      -9999      -9999      73.035     
  -9999      0.09802075 0.8       
899        
  0.225      0.183      -9999      -9999      6.638      8.901      
  2.741      2.963      1.56       -9999      -9999      -9999      
  -9999      -9999      5.561      -9999      -9999      74.253     
  -9999      0.09156039 0.8       
899.2000000000001 
  0.226      0.162      -9999      -9999      6.442      9.164      
  4.237      4.426      1.491      -9999      -9999      -9999      
  -9999      -9999      6.222      -9999      -9999      75.293     
  -9999      0.08031729 0.8       
899.4      
  0.226      0.151      -9999      -9999      6.281      8.277      
  4.987      4.225      1.42       -9999      -9999      -9999      
  -9999      -9999      6.632      -9999      -9999      76.108     
  -9999      0.07212254 0.8       
899.6      
  0.224      0.148      -9999      -9999      6.459      7.03       
  4.947      3.683      1.392      -9999      -9999      -9999      
  -9999      -9999      6.734      -9999      -9999      76.562     
  -9999      0.08123519 0.8       
899.8      
  0.224      0.152      -9999      -9999      6.822      6.184      
  4.575      3.286      1.383      -9999      -9999      -9999      
  -9999      -9999      6.583      -9999      -9999      76.911     
  -9999      0.1035434  0.8       
900        
  0.237      0.163      -9999      -9999      7.251      6.576      
  4.351      3.727      1.379      -9999      -9999      -9999      
  -9999      -9999      6.179      -9999      -9999      77.217     
  -9999      0.1379306  0.8       
900.2000000000001 
  0.262      0.185      -9999      -9999      7.546      6.736      
  4.382      3.598      1.338      -9999      -9999      -9999      
  -9999      -9999      5.493      -9999      -9999      77.478     
  -9999      0.167996   0.8       
900.4      
  0.288      0.208      -9999      -9999      7.826      5.926      
  3.349      2.899      1.259      -9999      -9999      -9999      
  -9999      -9999      4.848      -9999      -9999      77.691     
  -9999      0.2025734  0.8       
900.6      
  0.296      0.228      -9999      -9999      8.153      4.205      
  2.109      1.798      1.192      -9999      -9999      -9999      
  -9999      -9999      4.392      -9999      -9999      77.831     
  -9999      0.2520636  0.8       
900.8      
  0.296      0.238      -9999      -9999      8.532      3.152      
  0.796      1.15       1.175      -9999      -9999      -9999      
  -9999      -9999      4.202      -9999      -9999      77.9       
  -9999      0.3247381  0.8       
901        
  0.283      0.242      -9999      -9999      8.83       2.69       
  0.875      1.087      1.208      -9999      -9999      -9999      
  -9999      -9999      4.129      -9999      -9999      77.968     
  -9999      0.3963166  0.8       
901.2000000000001 
  0.262      0.235      -9999      -9999      8.888      2.637      
  0.849      1.07       1.24       -9999      -9999      -9999      
  -9999      -9999      4.271      -9999      -9999      78.083     
  -9999      0.4119832  0.8       
901.4      
  0.235      0.225      -9999      -9999      8.718      3.013      
  0.936      1.268      1.267      -9999      -9999      -9999      
  -9999      -9999      4.45       -9999      -9999      78.245     
  -9999      0.36773    0.8       
901.6      
  0.229      0.215      -9999      -9999      8.475      4.309      
  1.518      1.76       1.284      -9999      -9999      -9999      
  -9999      -9999      4.645      -9999      -9999      78.361     
  -9999      0.3125982  0.8       
901.8      
  0.243      0.221      -9999      -9999      8.395      4.936      
  2.756      2.919      1.289      -9999      -9999      -9999      
  -9999      -9999      4.536      -9999      -9999      78.453     
  -9999      0.2963211  0.8       
902        
  0.266      0.234      -9999      -9999      8.491      4.939      
  2.527      2.698      1.27       -9999      -9999      -9999      
  -9999      -9999      4.299      -9999      -9999      78.522     
  -9999      0.3159593  0.8       
902.2000000000001 
  0.288      0.244      -9999      -9999      8.941      3.852      
  1.79       2.093      1.252      -9999      -9999      -9999      
  -9999      -9999      4.102      -9999      -9999      78.584     
  -9999      0.4268404  0.8       
902.4      
  0.297      0.246      -9999      -9999      9.778      3.446      
  0.583      1.049      1.25       -9999      -9999      -9999      
  -9999      -9999      4.064      -9999      -9999      78.641     
  -9999      0.7468708  0.8       
902.6      
  0.295      0.246      -9999      -9999      10.195     3.236      
  0.592      1.083      1.269      -9999      -9999      -9999      
  -9999      -9999      4.062      -9999      -9999      78.675     
  -9999      0.8        0.8       
