~Version
 VERS              .         2.0                           : CWLS LOG ASCII STANDARD - VERSION 2.0
 WRAP              .         YES                            : ONE LINE PER DEPTH STEP
 DLM               .         SPACE                         : DELIMITING CHARACTER(SPACE TAB OR COMMA)
~Well Information
#_______________________________________________________________________________
#
#PARAMETER_NAME    .UNIT     VALUE                         : DESCRIPTION
#_______________________________________________________________________________
STRT               .M        890                           : First reference value
STOP               .M        1240                          : Last reference value
STEP               .M        0.2                           : Step increment
NULL               .         -9999                         : Missing value
COMP               .                                       : Company
WELL               .         4724                          : Well name
FLD                .         Узень                         : Field
LOC                .                                       : Location
CNTY               .                                       : County
STAT               .                                       : State
CTRY               .                                       : Country
SRVC               .                                       : Service Company
DATE               .         27.03.1990                    : Date
UWI                .         4724                          : Unique Well ID
Block              .         7                             : 
Cartographic_reference_system .         GCS_WGS_1984                  : ESRI,PE_10_3_1- <?xml version="1.0" encoding="utf-16"?><ILateBoundCoordinateReferenceSystem name="GCS_WGS_1984"><AuthorityCode>EPSG,4326</AuthorityCode></ILateBoundCoordinateReferenceSystem>
Category           .         Нефтяная                      : 
Condition          .         В работе                      : 
EREF               .m        94.7                          : 100.8
Gorizont           .         15                            : 14
HZCS               .GCS_WGS_1984 WGS_1984_EASE-Grid_2.0_Global : ESRI,PE_10_3_1- <?xml version="1.0" encoding="utf-16"?><ILateBoundCoordinateReferenceSystem name="WGS_1984_EASE-Grid_2.0_Global"><AuthorityCode>EPSG,6933</AuthorityCode></ILateBoundCoordinateReferenceSystem>
Interpretator      .         Сагынбаева А.Н.               : 
Kupol              .         основной                      : osnovnoi
LATI               .dega     0.6662122985                  : GCS_WGS_1984
LONG               .dega     0.4357261975                  : GCS_WGS_1984
Mud                .         глинистый                     : 
Mud_density        .         1,18                          : 
Mud_resistivity    .         0                             : 
NGDU               .         НГДУ-2                        : 
ORIGINALWELLNAME   .         4724                          : 
Spud_date          .         1990                          : 1961
Viscosity          .         40                            : 
X                  .m        42041.6                       : 46154
Y                  .m        84989.03                      : 85761.93
YEAR               .         2018                          : 
~Parameter Information Block
#_______________________________________________________________________________
#
#PARAMETER_NAME    .UNIT     VALUE                         : DESCRIPTION
#_______________________________________________________________________________
SET                .         LQC_KAZNIPI_Petrel            : 
TLFamily_CALI      .         Caliper                       : 
TLFamily_CILD      .         Conductivity                  : 
TLFamily_COLL      .         Net Reservoir Flag            : 
TLFamily_CSAT      .         Fluid Code                    : 
TLFamily_DEPT      .         Measured Depth                : 
TLFamily_GR        .         Russian Gamma Ray             : 
TLFamily_LLS       .         Lateral Log Resistivity       : 
TLFamily_MINV      .         Micro Gradient Resistivity    : 
TLFamily_MNOR      .         Micro Resistivity             : 
TLFamily_NGLD      .         Neutron Gamma                 : 
TLFamily_PHIE      .         Effective Porosity            : 
TLFamily_PHIEN     .         Effective Porosity            : 
TLFamily_PHIT      .         Porosity                      : 
TLFamily_PRMB      .         Permeability                  : 
TLFamily_PRMB_DGR  .         Permeability                  : 
TLFamily_RT        .         Formation Resistivity         : 
TLFamily_SOIL_ARCHIE .         Oil Saturation                : 
TLFamily_SOIL_DW   .         Oil Saturation                : 
TLFamily_SP        .         Spontaneous Potential         : 
TLFamily_VSH_FIN   .         Shale Volume                  : 
TLFamily_VSH_GR    .         Shale Volume                  : 
TLFamily_VSH_SP    .         Shale Volume                  : 
~Curve Information
#_______________________________________________________________________________
#
#LOGNAME           .UNIT     LOG_ID                        : DESCRIPTION
#_______________________________________________________________________________
DEPT               .M                                      : Колонка глубины 
CALI               .м                                      : Каверномер 
CILD               .мСм/м                                  : Индукционный каротаж 
COLL               .unitless                               : Описание 
CSAT               .unitless                               :  
GR                 .uR/h                                   : Гамма каротаж 
LLS                .Ohmm                                   : Боковой каротаж 
MINV               .Ohmm                                   : Микро-градиент зонд 
MNOR               .Ohmm                                   : Микро-потенциал зонд 
NGLD               .у.е.                                   : Показания зонда НГК-60 аппаратуры ДРСТ-3-90 
PHIE               .v/v                                    : Описание 
PHIEN              .v/v                                    :  
PHIT               .v/v                                    : Описание 
PRMB               .mD                                     :  
PRMB_DGR           .mD                                     :  
RT                 .ohmm                                   : УЭС пласта 
SOIL_ARCHIE        .v/v                                    :  
SOIL_DW            .v/v                                    :  
SP                 .мВ                                     : Потенциал самополяризации 
VSH_FIN            .v/v                                    : Описание 
VSH_GR             .v/v                                    : Shale volume 
VSH_SP             .v/v                                    : Shale Volume 
~Ascii
# ...
1101.2     
  0.221      0.202      -9999      -9999      7.054      6.08       
  1.953      2.734      1.552      0.03856217 0.03856217 0.2023192  
  0.01450183 3.127196   4.968      0          0.2490009  80.088     
  0.4962334  0.4073107  0.5851561 
1101.4     
  0.224      0.196      -9999      -9999      6.937      6.213      
  2.583      3.709      1.568      0.03393483 0.03393483 0.1960328  
  0.01190456 3.431262   5.107      0          0.2151453  80.246     
  0.491206   0.3921665  0.5902455 
1101.6     
  0.223      0.192      -9999      -9999      6.872      5.294      
  3.231      3.524      1.541      0.04474906 0.04474906 0.2066411  
  0.01888075 3.612781   5.198      0          0.3070437  80.459     
  0.4905819  0.3839978  0.5971661 
1101.8     
  0.223      0.189      -9999      -9999      6.895      4.429      
  4.099      3.424      1.47       0.07022086 0.07022086 0.234537   
  0.0559524  3.54748    5.293      0          0.4535148  80.818     
  0.4979277  0.3868686  0.6089867 
1102       
  0.227      0.187      -9999      -9999      7.063      5.128      
  4.384      3.121      1.429      0.0810002  0.0810002  0.2506459  
  0.08860909 3.104953   5.336      0.09026399 0.5036435  81.137     
  0.5140778  0.4084996  0.6196561 
1102.2     
  0.237      0.198      -9999      -9999      7.257      4.965      
  4.372      3.643      1.42       0.07858807 0.07858807 0.254182   
  0.07994656 2.662167   5.091      0.04516247 0.4913433  81.419     
  0.5321029  0.4349871  0.6292187 
1102.4     
  0.25       0.213      -9999      -9999      7.376      4.587      
  4.053      3.312      1.393      0.08570445 0.08570445 0.2647903  
  0.108296   2.422412   4.712      0.08186371 0.5002798  81.538     
  0.5426844  0.4520775  0.6332912 
1102.6     
  0.257      0.232      -9999      -9999      7.495      3.174      
  3.398      2.661      1.336      0.1046812  0.1046812  0.2871856  
  0.2432808  2.204249   4.329      0.1973453  0.5387535  81.624     
  0.5530437  0.4698394  0.636248  
1102.8     
  0.257      0.243      -9999      -9999      7.694      3.146      
  2.917      2.036      1.262      0.1284019  0.1284019  0.3162602  
  0.6690729  1.882429   4.126      0.3128353  0.5872831  81.658     
  0.5692675  0.501115   0.6374201 
1103       
  0.253      0.252      -9999      -9999      7.984      3.336      
  2.875      2.225      1.232      0.1319505  0.1319505  0.3280472  
  0.7783979  1.495661   3.977      0.3172762  0.5933472  81.675     
  0.5942324  0.5504577  0.638007  
1103.2     
  0.252      0.256      -9999      -9999      8.112      3.564      
  3.051      2.349      1.226      0.130367   0.130367   0.3304046  
  0.7275652  1.351281   3.909      0.3044531  0.5898992  81.692     
  0.6061745  0.5737547  0.6385942 
1103.4     
  0.256      0.267      -9999      -9999      8.131      3.586      
  3.283      2.551      1.226      0.1295888  0.1295888  0.3304046  
  0.7038125  1.331073   3.755      0.2875039  0.5806671  81.726     
  0.6085328  0.5772958  0.6397699 
1103.6     
  0.263      0.285      -9999      -9999      8.057      3.37       
  3.479      2.483      1.213      0.1365631  0.1365631  0.3355123  
  0.9476273  1.411529   3.532      0.2994617  0.5799103  81.794     
  0.6028764  0.5636258  0.6421269 
1103.8     
  0.272      0.306      -9999      -9999      8.233      2.998      
  3.006      2.175      1.188      0.1404375  0.1404375  0.3453348  
  1.117898   1.227636   3.272      0.2913482  0.5758171  81.88      
  0.6209008  0.5966835  0.6451181 
1104       
  0.277      0.315      -9999      -9999      8.443      2.669      
  2.463      1.864      1.161      0.1435064  0.1435064  0.3559431  
  1.274222   1.039295   3.182      0.2954034  0.5813632  81.986     
  0.6437475  0.6386738  0.6488212 
1104.2     
  0.276      0.324      -9999      -9999      8.68       2.43       
  1.84       1.436      1.142      0.141922   0.141922   0.3634082  
  1.190962   0.8612083  3.089      0.2785851  0.5790016  82.097     
  0.6711703  0.6896228  0.6527178 
1104.4     
  0.277      0.339      -9999      -9999      8.818      2.361      
  1.944      1.439      1.142      0.1362736  0.1362736  0.3634082  
  0.9359989  0.7719281  2.955      0.2368933  0.5632419  82.174     
  0.6882868  0.7211411  0.6554324 
1104.6     
  0.282      0.352      -9999      -9999      8.942      2.346      
  2.13       1.514      1.155      0.1260689  0.1260689  0.3583005  
  0.6057031  0.6996279  2.845      0.1686997  0.5382531  82.212     
  0.7037322  0.7506891  0.6567753 
1104.8     
  0.286      0.363      -9999      -9999      9.02       2.351      
  2.251      1.675      1.175      0.115293   0.115293   0.3504425  
  0.3825291  0.6576597  2.757      0.08807631 0.509124   82.169     
  0.7125742  0.7698928  0.6552557 
1105       
  0.287      0.37       -9999      -9999      9.008      2.35       
  2.319      1.741      1.19       0.1103864  0.1103864  0.344549   
  0.3103001  0.6639488  2.706      0.04453712 0.4914558  82.084     
  0.7095836  0.7669067  0.6522604 
1105.2     
  0.285      0.375      -9999      -9999      8.982      2.356      
  2.263      1.761      1.196      0.1095823  0.1095823  0.3421916  
  0.2998396  0.6777816  2.669      0.03220164 0.4843373  81.999     
  0.7048765  0.7604765  0.6492766 
1105.4     
  0.286      0.379      -9999      -9999      9.01       2.371      
  2.349      1.789      1.193      0.1098664  0.1098664  0.3433703  
  0.3034948  0.6628966  2.642      0.02976337 0.483339   81.956     
  0.7075875  0.7674035  0.6477714 
1105.6     
  0.284      0.382      -9999      -9999      9.088      2.376      
  2.246      1.666      1.184      0.109967   0.109967   0.3469064  
  0.3047997  0.6231319  2.618      0.02637605 0.4846364  81.99      
  0.717998   0.7870349  0.6489612 
1105.8     
  0.279      0.384      -9999      -9999      9.2        2.396      
  2.037      1.436      1.17       0.1129291  0.1129291  0.352407   
  0.3458424  0.5701693  2.604      0.04625899 0.4931894  82.059     
  0.7256908  0.8        0.6513816 
1106       
  0.273      0.385      -9999      -9999      9.169      2.43       
  1.753      1.188      1.16       0.1162654  0.1162654  0.356336   
  0.3987266  0.5843611  2.598      0.06913307 0.5012767  82.161     
  0.7274867  0.8        0.6549734 
1106.2     
  0.272      0.385      -9999      -9999      9.059      2.442      
  1.529      1.098      1.159      0.1190118  0.1190118  0.3567289  
  0.4482755  0.6376299  2.599      0.08803502 0.5057122  82.332     
  0.7203549  0.779678   0.6610317 
1106.4     
  0.273      0.385      -9999      -9999      8.94       2.426      
  1.374      1.11       1.167      0.1195294  0.1195294  0.3535857  
  0.4582815  0.7007387  2.599      0.09147549 0.5035843  82.536     
  0.7092615  0.7502028  0.6683201 
1106.6     
  0.275      0.386      -9999      -9999      8.993      2.389      
  1.117      1.165      1.174      0.1136197  0.1136197  0.3508354  
  0.3561812  0.6718947  2.594      0.04959588 0.4917724  82.707     
  0.7188354  0.7631903  0.6744804 
1106.8     
  0.277      0.387      -9999      -9999      9.011      2.373      
  0.954      1.215      1.169      0.1144417  0.1144417  0.3527999  
  0.3688889  0.6623714  2.584      0.05383044 0.4939062  82.775     
  0.7222976  0.767652   0.6769433 
1107       
  0.28       0.389      -9999      -9999      9.005      2.357      
  0.892      1.24       1.163      0.1171706  0.1171706  0.3551573  
  0.414421   0.6655303  2.57       0.07068603 0.4988084  82.754     
  0.7211719  0.7661619  0.6761818 
1107.2     
  0.279      0.39       -9999      -9999      8.977      2.342      
  0.89       1.213      1.157      0.120926   0.120926   0.3575147  
  0.486408   0.6804749  2.562      0.09454908 0.5056042  82.711     
  0.7169356  0.7592461  0.674625  
1107.4     
  0.28       0.391      -9999      -9999      9.02       2.334      
  0.916      1.159      1.165      0.1164074  0.1164074  0.3543715  
  0.4011495  0.6576597  2.557      0.06315522 0.4956748  82.647     
  0.7211033  0.7698928  0.6723136 
