~Version
 VERS              .         2.0                           : CWLS LOG ASCII STANDARD - VERSION 2.0
 WRAP              .         YES                            : ONE LINE PER DEPTH STEP
 DLM               .         SPACE                         : DELIMITING CHARACTER(SPACE TAB OR COMMA)
~Well Information
#_______________________________________________________________________________
#
#PARAMETER_NAME    .UNIT     VALUE                         : DESCRIPTION
#_______________________________________________________________________________
STRT               .M        890                           : First reference value
STOP               .M        1240                          : Last reference value
STEP               .M        0.2                           : Step increment
NULL               .         -9999                         : Missing value
COMP               .                                       : Company
WELL               .         4724                          : Well name
FLD                .         Узень                         : Field
LOC                .                                       : Location
CNTY               .                                       : County
STAT               .                                       : State
CTRY               .                                       : Country
SRVC               .                                       : Service Company
DATE               .         27.03.1990                    : Date
UWI                .         4724                          : Unique Well ID
Block              .         7                             : 
Cartographic_reference_system .         GCS_WGS_1984                  : ESRI,PE_10_3_1- <?xml version="1.0" encoding="utf-16"?><ILateBoundCoordinateReferenceSystem name="GCS_WGS_1984"><AuthorityCode>EPSG,4326</AuthorityCode></ILateBoundCoordinateReferenceSystem>
Category           .         Нефтяная                      : 
Condition          .         В работе                      : 
EREF               .m        94.7                          : 100.8
Gorizont           .         15                            : 14
HZCS               .GCS_WGS_1984 WGS_1984_EASE-Grid_2.0_Global : ESRI,PE_10_3_1- <?xml version="1.0" encoding="utf-16"?><ILateBoundCoordinateReferenceSystem name="WGS_1984_EASE-Grid_2.0_Global"><AuthorityCode>EPSG,6933</AuthorityCode></ILateBoundCoordinateReferenceSystem>
Interpretator      .         Сагынбаева А.Н.               : 
Kupol              .         основной                      : osnovnoi
LATI               .dega     0.6662122985                  : GCS_WGS_1984
LONG               .dega     0.4357261975                  : GCS_WGS_1984
Mud                .         глинистый                     : 
Mud_density        .         1,18                          : 
Mud_resistivity    .         0                             : 
NGDU               .         НГДУ-2                        : 
ORIGINALWELLNAME   .         4724                          : 
Spud_date          .         1990                          : 1961
Viscosity          .         40                            : 
X                  .m        42041.6                       : 46154
Y                  .m        84989.03                      : 85761.93
YEAR               .         2018                          : 
~Parameter Information Block
#_______________________________________________________________________________
#
#PARAMETER_NAME    .UNIT     VALUE                         : DESCRIPTION
#_______________________________________________________________________________
SET                .         LQC_KAZNIPI_Petrel            : 
TLFamily_CALI      .         Caliper                       : 
TLFamily_CILD      .         Conductivity                  : 
TLFamily_COLL      .         Net Reservoir Flag            : 
TLFamily_CSAT      .         Fluid Code                    : 
TLFamily_DEPT      .         Measured Depth                : 
TLFamily_GR        .         Russian Gamma Ray             : 
TLFamily_LLS       .         Lateral Log Resistivity       : 
TLFamily_MINV      .         Micro Gradient Resistivity    : 
TLFamily_MNOR      .         Micro Resistivity             : 
TLFamily_NGLD      .         Neutron Gamma                 : 
TLFamily_PHIE      .         Effective Porosity            : 
TLFamily_PHIEN     .         Effective Porosity            : 
TLFamily_PHIT      .         Porosity                      : 
TLFamily_PRMB      .         Permeability                  : 
TLFamily_PRMB_DGR  .         Permeability                  : 
TLFamily_RT        .         Formation Resistivity         : 
TLFamily_SOIL_ARCHIE .         Oil Saturation                : 
TLFamily_SOIL_DW   .         Oil Saturation                : 
TLFamily_SP        .         Spontaneous Potential         : 
TLFamily_VSH_FIN   .         Shale Volume                  : 
TLFamily_VSH_GR    .         Shale Volume                  : 
TLFamily_VSH_SP    .         Shale Volume                  : 
~Curve Information
#_______________________________________________________________________________
#
#LOGNAME           .UNIT     LOG_ID                        : DESCRIPTION
#_______________________________________________________________________________
DEPT               .M                                      : Колонка глубины 
CALI               .м                                      : Каверномер 
CILD               .мСм/м                                  : Индукционный каротаж 
COLL               .unitless                               : Описание 
CSAT               .unitless                               :  
GR                 .uR/h                                   : Гамма каротаж 
LLS                .Ohmm                                   : Боковой каротаж 
MINV               .Ohmm                                   : Микро-градиент зонд 
MNOR               .Ohmm                                   : Микро-потенциал зонд 
NGLD               .у.е.                                   : Показания зонда НГК-60 аппаратуры ДРСТ-3-90 
PHIE               .v/v                                    : Описание 
PHIEN              .v/v                                    :  
PHIT               .v/v                                    : Описание 
PRMB               .mD                                     :  
PRMB_DGR           .mD                                     :  
RT                 .ohmm                                   : УЭС пласта 
SOIL_ARCHIE        .v/v                                    :  
SOIL_DW            .v/v                                    :  
SP                 .мВ                                     : Потенциал самополяризации 
VSH_FIN            .v/v                                    : Описание 
VSH_GR             .v/v                                    : Shale volume 
VSH_SP             .v/v                                    : Shale Volume 
~Ascii
# ...
1030.8     
  0.216      0.212      -9999      -9999      3.24       5.074      
  4.423      3.568      1.869      0.01       0          0.07776991 
  0.004289259 17.0289    4.735      0          0          74.101     
  0.311303   0.2038824  0.4187236 
1031       
  0.217      0.2        -9999      -9999      3.575      4.758      
  4.749      3.672      1.821      0.01       0          0.09662911 
  0.004289259 13.1924    5.027      0          0          73.905     
  0.3201897  0.2262812  0.4140983 
1031.2     
  0.216      0.187      -9999      -9999      3.806      5.972      
  4.494      3.764      1.728      0.02356018 0.02356018 0.1331688  
  0.007648034 11.06314   5.343      0          0          74.203     
  0.3321473  0.2431442  0.4211504 
1031.4     
  0.217      0.18       -9999      -9999      4.078      6.307      
  4.108      3.88       1.623      0.05893207 0.05893207 0.1744233  
  0.03457188 8.99217    5.557      0          0.3116661  74.788     
  0.3499734  0.2646181  0.4353287 
1031.6     
  0.22       0.18       -9999      -9999      4.459      6.314      
  4.109      4.406      1.472      0.1102672  0.1102672  0.2337512  
  0.308727   6.726343   5.566      0.3182237  0.5453351  75.393     
  0.3741938  0.2979233  0.4504644 
1031.8     
  0.223      0.192      -9999      -9999      5.039      4.468      
  4.561      4.31       1.34       0.1494567  0.1494567  0.285614   
  1.642321   4.323523   5.25       0.462315   0.6318103  76.084     
  0.412598   0.3568457  0.4683502 
1032       
  0.224      0.209      -9999      -9999      5.626      3.637      
  5.012      3.363      1.251      0.1696082  0.1696082  0.3205821  
  3.878939   2.764266   4.82       0.4986966  0.6591113  76.766     
  0.4574967  0.4283535  0.4866399 
1032.2     
  0.222      0.226      -9999      -9999      6.06       3.518      
  4.299      2.645      1.212      0.1716256  0.1716256  0.3359052  
  4.22747    1.985888   4.429      0.4837389  0.6559847  77.44      
  0.497817   0.4902857  0.5053481 
1032.4     
  0.229      0.238      -9999      -9999      6.203      3.312      
  3.939      2.582      1.205      0.168074   0.168074   0.3386555  
  3.63326    1.780867   4.21       0.4615891  0.6460778  77.995     
  0.5169135  0.5125934  0.5212337 
1032.6     
  0.244      0.256      -9999      -9999      6.345      2.864      
  3.931      2.756      1.199      0.1639415  0.1639415  0.3410129  
  3.046162   1.598228   3.914      0.4306391  0.6310138  78.545     
  0.5365799  0.5357493  0.5374106 
1032.8     
  0.269      0.281      -9999      -9999      6.573      2.255      
  3.857      2.281      1.19       0.1586453  0.1586453  0.344549   
  2.430268   1.343341   3.586      0.3895559  0.612175   79.014     
  0.5633444  0.5751373  0.5515516 
1033       
  0.282      0.308      -9999      -9999      6.793      2.182      
  2.857      1.569      1.185      0.1526361  0.1526361  0.3465135  
  1.880828   1.136006   3.264      0.3401793  0.5890326  79.261     
  0.5875073  0.615886   0.5591285 
1033.2     
  0.286      0.331      -9999      -9999      6.857      2.091      
  1.789      1.263      1.187      0.1492858  0.1492858  0.3457277  
  1.630395   1.081935   3.026      0.302971   0.5690264  79.363     
  0.5952785  0.6282734  0.5622836 
1033.4     
  0.265      0.344      -9999      -9999      6.82       2.029      
  1.184      1.173      1.2        0.1451906  0.1451906  0.34062    
  1.369113   1.112873   2.907      0.2723066  0.5515586  79.397     
  0.5922104  0.6210819  0.5633389 
1033.6     
  0.245      0.353      -9999      -9999      6.723      2.164      
  1.206      1.12       1.234      0.1348788  0.1348788  0.3272614  
  0.8819416  1.198246   2.835      0.2148989  0.5214735  79.397     
  0.5829778  0.6026167  0.5633389 
1033.8     
  0.224      0.347      -9999      -9999      6.415      2.696      
  1.149      1.343      1.292      0.1209976  0.1209976  0.3044732  
  0.4878968  1.515213   2.887      0.14434    0.4834985  79.432     
  0.5559865  0.5475462  0.5644267 
1034       
  0.22       0.331      -9999      -9999      6.056      3.663      
  1.732      2.033      1.367      0.1007291  0.1007291  0.2750057  
  0.2055447  1.99195    3.033      0.01916991 0.4255328  79.5       
  0.5281108  0.4896759  0.5665457 
1034.2     
  0.218      0.312      -9999      -9999      5.718      4.262      
  2.586      2.61       1.415      0.08958491 0.08958491 0.2561465  
  0.1277874  2.577116   3.214      0          0.39103    79.568     
  0.5047321  0.4407927  0.5686716 
1034.4     
  0.22       0.298      -9999      -9999      5.665      4.624      
  3.56       3.212      1.433      0.08352648 0.08352648 0.2490743  
  0.09868952 2.683326   3.36       0          0.3784887  79.602     
  0.5016601  0.4335832  0.569737  
1034.6     
  0.226      0.289      -9999      -9999      5.743      3.857      
  4.369      3.068      1.395      0.09669914 0.09669914 0.2640045  
  0.1730855  2.528487   3.462      0.04483891 0.4398955  79.602     
  0.506986   0.4442349  0.569737  
1034.8     
  0.234      0.287      -9999      -9999      5.93       3.155      
  4.409      2.832      1.351      0.1095953  0.1095953  0.2812921  
  0.3000056  2.192685   3.487      0.1463948  0.4876475  79.602     
  0.5202933  0.4708496  0.569737  
1035       
  0.242      0.293      -9999      -9999      6.078      2.371      
  3.961      2.177      1.334      0.112079   0.112079   0.2879714  
  0.3335281  1.958835   3.412      0.1543083  0.4938674  79.705     
  0.5330074  0.4930394  0.5729754 
1035.2     
  0.239      0.299      -9999      -9999      6.061      2.392      
  3.259      1.912      1.374      0.0955475  0.0955475  0.2722554  
  0.1647895  1.984376   3.349      0.01967202 0.4394043  79.943     
  0.5354785  0.4904383  0.5805188 
1035.4     
  0.231      0.292      -9999      -9999      5.898      2.933      
  2.995      1.75       1.447      0.06901174 0.06901174 0.2435737  
  0.05314017 2.246808   3.431      0          0.3344201  80.293     
  0.5289756  0.4661847  0.5917666 
1035.6     
  0.22       0.275      -9999      -9999      5.374      4.161      
  2.931      2.017      1.52       0.05036311 0.05036311 0.214892   
  0.02398861 3.349461   3.65       0          0.2234247  80.579     
  0.4985724  0.3960494  0.6010954 
1035.8     
  0.219      0.255      -9999      -9999      4.889      6.322      
  3.192      2.674      1.577      0.0361038  0.0361038  0.1924967  
  0.01305834 4.847051   3.933      0          0.1088934  80.766     
  0.4739178  0.3405734  0.6072623 
1036       
  0.219      0.241      -9999      -9999      4.564      6.419      
  3.901      3.498      1.61       0.0283514  0.0283514  0.179531   
  0.009381984 6.209131   4.16       0          0.02735223 80.801     
  0.45812    0.3078174  0.6084226 
1036.2     
  0.219      0.24       -9999      -9999      4.697      5.498      
  4.572      3.678      1.569      0.04304017 0.04304017 0.1956399  
  0.01755361 5.610697   4.172      0          0.1868255  80.668     
  0.4624234  0.3208231  0.6040238 
1036.4     
  0.217      0.244      -9999      -9999      4.992      3.798      
  4.322      3.215      1.528      0.0552132  0.0552132  0.2117488  
  0.02950126 4.481171   4.104      0          0.2810057  80.455     
  0.4743503  0.3516651  0.5970355 
1036.6     
  0.216      0.247      -9999      -9999      5.109      4.031      
  4.092      2.606      1.492      0.06782416 0.06782416 0.2258932  
  0.05051567 4.098946   4.05       0          0.3519602  80.34      
  0.4789971  0.3647033  0.593291  
1036.8     
  0.216      0.237      -9999      -9999      5.112      4.363      
  4.091      2.574      1.507      0.06150955 0.06150955 0.2199997  
  0.03858905 4.089589   4.223      0          0.332903   80.408     
  0.4802732  0.3650438  0.5955026 
1037       
  0.216      0.225      -9999      -9999      4.964      4.32       
  4.781      2.84       1.484      0.07224212 0.07224212 0.2290364  
  0.06098982 4.577809   4.452      0          0.4003994  80.596     
  0.4751342  0.3486147  0.6016538 
