~Version
 VERS              .         2.0                           : CWLS LOG ASCII STANDARD - VERSION 2.0
 WRAP              .         YES                            : ONE LINE PER DEPTH STEP
 DLM               .         SPACE                         : DELIMITING CHARACTER(SPACE TAB OR COMMA)
~Well Information
#_______________________________________________________________________________
#
#PARAMETER_NAME    .UNIT     VALUE                         : DESCRIPTION
#_______________________________________________________________________________
STRT               .M        890                           : First reference value
STOP               .M        1240                          : Last reference value
STEP               .M        0.2                           : Step increment
NULL               .         -9999                         : Missing value
COMP               .                                       : Company
WELL               .         4724                          : Well name
FLD                .         Узень                         : Field
LOC                .                                       : Location
CNTY               .                                       : County
STAT               .                                       : State
CTRY               .                                       : Country
SRVC               .                                       : Service Company
DATE               .         27.03.1990                    : Date
UWI                .         4724                          : Unique Well ID
Block              .         7                             : 
Cartographic_reference_system .         GCS_WGS_1984                  : ESRI,PE_10_3_1- <?xml version="1.0" encoding="utf-16"?><ILateBoundCoordinateReferenceSystem name="GCS_WGS_1984"><AuthorityCode>EPSG,4326</AuthorityCode></ILateBoundCoordinateReferenceSystem>
Category           .         Нефтяная                      : 
Condition          .         В работе                      : 
EREF               .m        94.7                          : 100.8
Gorizont           .         15                            : 14
HZCS               .GCS_WGS_1984 WGS_1984_EASE-Grid_2.0_Global : ESRI,PE_10_3_1- <?xml version="1.0" encoding="utf-16"?><ILateBoundCoordinateReferenceSystem name="WGS_1984_EASE-Grid_2.0_Global"><AuthorityCode>EPSG,6933</AuthorityCode></ILateBoundCoordinateReferenceSystem>
Interpretator      .         Сагынбаева А.Н.               : 
Kupol              .         основной                      : osnovnoi
LATI               .dega     0.6662122985                  : GCS_WGS_1984
LONG               .dega     0.4357261975                  : GCS_WGS_1984
Mud                .         глинистый                     : 
Mud_density        .         1,18                          : 
Mud_resistivity    .         0                             : 
NGDU               .         НГДУ-2                        : 
ORIGINALWELLNAME   .         4724                          : 
Spud_date          .         1990                          : 1961
Viscosity          .         40                            : 
X                  .m        42041.6                       : 46154
Y                  .m        84989.03                      : 85761.93
YEAR               .         2018                          : 
~Parameter Information Block
#_______________________________________________________________________________
#
#PARAMETER_NAME    .UNIT     VALUE                         : DESCRIPTION
#_______________________________________________________________________________
SET                .         LQC_KAZNIPI_Petrel            : 
TLFamily_CALI      .         Caliper                       : 
TLFamily_CILD      .         Conductivity                  : 
TLFamily_COLL      .         Net Reservoir Flag            : 
TLFamily_CSAT      .         Fluid Code                    : 
TLFamily_DEPT      .         Measured Depth                : 
TLFamily_GR        .         Russian Gamma Ray             : 
TLFamily_LLS       .         Lateral Log Resistivity       : 
TLFamily_MINV      .         Micro Gradient Resistivity    : 
TLFamily_MNOR      .         Micro Resistivity             : 
TLFamily_NGLD      .         Neutron Gamma                 : 
TLFamily_PHIE      .         Effective Porosity            : 
TLFamily_PHIEN     .         Effective Porosity            : 
TLFamily_PHIT      .         Porosity                      : 
TLFamily_PRMB      .         Permeability                  : 
TLFamily_PRMB_DGR  .         Permeability                  : 
TLFamily_RT        .         Formation Resistivity         : 
TLFamily_SOIL_ARCHIE .         Oil Saturation                : 
TLFamily_SOIL_DW   .         Oil Saturation                : 
TLFamily_SP        .         Spontaneous Potential         : 
TLFamily_VSH_FIN   .         Shale Volume                  : 
TLFamily_VSH_GR    .         Shale Volume                  : 
TLFamily_VSH_SP    .         Shale Volume                  : 
~Curve Information
#_______________________________________________________________________________
#
#LOGNAME           .UNIT     LOG_ID                        : DESCRIPTION
#_______________________________________________________________________________
DEPT               .M                                      : Колонка глубины 
CALI               .м                                      : Каверномер 
CILD               .мСм/м                                  : Индукционный каротаж 
COLL               .unitless                               : Описание 
CSAT               .unitless                               :  
GR                 .uR/h                                   : Гамма каротаж 
LLS                .Ohmm                                   : Боковой каротаж 
MINV               .Ohmm                                   : Микро-градиент зонд 
MNOR               .Ohmm                                   : Микро-потенциал зонд 
NGLD               .у.е.                                   : Показания зонда НГК-60 аппаратуры ДРСТ-3-90 
PHIE               .v/v                                    : Описание 
PHIEN              .v/v                                    :  
PHIT               .v/v                                    : Описание 
PRMB               .mD                                     :  
PRMB_DGR           .mD                                     :  
RT                 .ohmm                                   : УЭС пласта 
SOIL_ARCHIE        .v/v                                    :  
SOIL_DW            .v/v                                    :  
SP                 .мВ                                     : Потенциал самополяризации 
VSH_FIN            .v/v                                    : Описание 
VSH_GR             .v/v                                    : Shale volume 
VSH_SP             .v/v                                    : Shale Volume 
~Ascii
# ...
1011.6     
  0.265      0.389      -9999      -9999      7.128      2.305      
  2.928      1.558      1.186      0.1301676  0.1301676  0.3461206  
  0.7214034  1.124934   2.571      0.1521983  0.5088811  85.709     
  0.654403   0.6183541  0.6904519 
1011.8     
  0.27       0.388      -9999      -9999      7.207      2.335      
  3.032      1.595      1.193      0.1254627  0.1254627  0.3433703  
  0.5902429  1.060908   2.577      0.1255309  0.5004265  85.624     
  0.6603262  0.6333284  0.687324  
1012       
  0.272      0.387      -9999      -9999      7.33       2.35       
  2.939      1.588      1.191      0.1226934  0.1226934  0.3441561  
  0.5244902  0.9683986  2.586      0.1098231  0.498096   85.556     
  0.6710991  0.6573681  0.6848301 
1012.2     
  0.267      0.386      -9999      -9999      7.41       2.325      
  2.84       1.506      1.188      0.1215256  0.1215256  0.3453348  
  0.4990084  0.9126049  2.59       0.1030285  0.4979132  85.504     
  0.6782096  0.6734913  0.682928  
1012.4     
  0.265      0.388      -9999      -9999      7.393      2.274      
  2.552      1.401      1.178      0.1265848  0.1265848  0.3492638  
  0.6191785  0.9241854  2.58       0.1327601  0.5077311  85.411     
  0.6747848  0.6700324  0.6795372 
1012.6     
  0.268      0.39       -9999      -9999      7.389      2.242      
  2.561      1.374      1.179      0.1269906  0.1269906  0.3488709  
  0.6299865  0.926932   2.564      0.1326456  0.5063969  85.3       
  0.6723647  0.6692211  0.6755082 
1012.8     
  0.279      0.392      -9999      -9999      7.327      2.228      
  2.512      1.37       1.189      0.1257536  0.1257536  0.3449419  
  0.5976118  0.9705558  2.551      0.1231304  0.4997764  85.193     
  0.664207   0.6567711  0.671643  
1013       
  0.285      0.393      -9999      -9999      7.313      2.216      
  2.559      1.356      1.201      0.1220018  0.1220018  0.3402271  
  0.5092455  0.9806876  2.544      0.09852925 0.4891751  85.108     
  0.6612889  0.6539921  0.6685857 
1013.2     
  0.289      0.394      -9999      -9999      7.194      2.2        
  2.514      1.327      1.21       0.1226644  0.1226644  0.336691   
  0.5238425  1.071188   2.54       0.1021093  0.4862892  85.044     
  0.6485654  0.6308396  0.6662911 
1013.4     
  0.289      0.393      -9999      -9999      7.155      2.191      
  2.55       1.379      1.203      0.1270145  0.1270145  0.3394413  
  0.6306307  1.102628   2.542      0.1292742  0.4954629  84.98      
  0.6437176  0.6234317  0.6640034 
1013.6     
  0.284      0.392      -9999      -9999      7.071      2.209      
  2.617      1.466      1.196      0.1327489  0.1327489  0.3421916  
  0.8053589  1.173517   2.55       0.1633606  0.5067261  84.912     
  0.6346749  0.6077701  0.6615797 
1013.8     
  0.278      0.39       -9999      -9999      7.209      2.249      
  2.675      1.548      1.179      0.1355699  0.1355699  0.3488709  
  0.9083244  1.059335   2.564      0.1806514  0.5177878  84.84      
  0.6463667  0.6337123  0.6590211 
1014       
  0.273      0.387      -9999      -9999      7.439      2.302      
  2.736      1.536      1.168      0.1324473  0.1324473  0.3531928  
  0.7950664  0.8931834  2.582      0.1665931  0.5192499  84.823     
  0.6689258  0.6794332  0.6584184 
1014.2     
  0.275      0.385      -9999      -9999      7.566      2.346      
  2.832      1.534      1.166      0.1285909  0.1285909  0.3539786  
  0.6744859  0.8128837  2.599      0.1474957  0.5164622  84.865     
  0.6829931  0.7060777  0.6599085 
1014.4     
  0.278      0.382      -9999      -9999      7.604      2.38       
  2.878      1.506      1.178      0.1221283  0.1221283  0.3492638  
  0.5120013  0.790291   2.615      0.1109019  0.5048383  84.933     
  0.6882893  0.7142514  0.6623272 
1014.6     
  0.278      0.381      -9999      -9999      7.553      2.387      
  2.843      1.538      1.189      0.119407   0.119407   0.3449419  
  0.4558955  0.8207605  2.625      0.0949022  0.4978257  84.968     
  0.6834391  0.703303   0.6635751 
1014.8     
  0.277      0.379      -9999      -9999      7.367      2.376      
  2.902      1.564      1.183      0.1281213  0.1281213  0.3472993  
  0.6611117  0.9421821  2.636      0.1504292  0.5132956  84.968     
  0.6641759  0.6647766  0.6635751 
1015       
  0.276      0.378      -9999      -9999      7.211      2.336      
  3.014      1.556      1.166      0.1399158  0.1399158  0.3539786  
  1.093297   1.057765   2.643      0.2141329  0.534772   84.959     
  0.6486751  0.6340963  0.663254  
1015.2     
  0.277      0.379      -9999      -9999      7.1        2.307      
  2.97       1.54       1.156      0.1474803  0.1474803  0.3579076  
  1.509562   1.148542   2.641      0.2490914  0.5466291  84.929     
  0.6376585  0.6131321  0.6621848 
1015.4     
  0.277      0.38       -9999      -9999      7.097      2.291      
  2.886      1.514      1.149      0.1506218  0.1506218  0.3606579  
  1.725997   1.151101   2.632      0.2615688  0.5515321  84.878     
  0.6364728  0.6125753  0.6603704 
1015.6     
  0.277      0.382      -9999      -9999      7.082      2.306      
  2.776      1.451      1.163      0.1465782  0.1465782  0.3551573  
  1.452589   1.16398    2.618      0.2419631  0.5413811  84.707     
  0.6320578  0.6097984  0.6543172 
1015.8     
  0.279      0.384      -9999      -9999      7.081      2.294      
  2.692      1.345      1.176      0.1426076  0.1426076  0.3500496  
  1.226301   1.164844   2.606      0.2219379  0.5314001  84.516     
  0.6286121  0.6096138  0.6476105 
1016       
  0.278      0.387      -9999      -9999      7.059      2.258      
  2.485      1.282      1.195      0.1370334  0.1370334  0.3425845  
  0.966826   1.184009   2.582      0.1909383  0.5157489  84.303     
  0.6228822  0.6055651  0.6401992 
1016.2     
  0.277      0.392      -9999      -9999      7.042      2.216      
  2.309      1.276      1.186      0.1415731  0.1415731  0.3461206  
  1.173369   1.199034   2.554      0.209547   0.5219808  84.217     
  0.619841   0.602455   0.6372271 
1016.4     
  0.272      0.395      -9999      -9999      6.997      2.219      
  2.221      1.324      1.173      0.148288   0.148288   0.3512283  
  1.562469   1.239732   2.53       0.2374437  0.5321776  84.171     
  0.6149706  0.5942994  0.6356419 
1016.6     
  0.269      0.396      -9999      -9999      6.983      2.248      
  2.193      1.399      1.152      0.1570049  0.1570049  0.3594792  
  2.266053   1.252673   2.525      0.2737785  0.5481703  84.162     
  0.6135585  0.5917846  0.6353323 
1016.8     
  0.27       0.395      -9999      -9999      6.988      2.279      
  2.395      1.44       1.154      0.1561222  0.1561222  0.3586934  
  2.182327   1.248036   2.532      0.271151   0.5472265  84.153     
  0.6138521  0.5926815  0.6350226 
1017       
  0.275      0.394      -9999      -9999      7.026      2.292      
  2.476      1.406      1.164      0.1510838  0.1510838  0.3547644  
  1.760341   1.213348   2.539      0.2509978  0.5391377  84.149     
  0.6172138  0.5995425  0.6348851 
1017.2     
  0.283      0.394      -9999      -9999      7.053      2.297      
  2.698      1.365      1.172      0.1473664  0.1473664  0.3516212  
  1.502245   1.18929    2.541      0.2348511  0.5324485  84.107     
  0.6189539  0.6044656  0.6334422 
1017.4     
  0.285      0.394      -9999      -9999      7.107      2.311      
  2.605      1.372      1.177      0.1442432  0.1442432  0.3496567  
  1.3149     1.142594   2.54       0.2202981  0.52699    84.021     
  0.622465   0.6144335  0.6304964 
1017.6     
  0.281      0.394      -9999      -9999      7.247      2.337      
  2.756      1.457      1.161      0.1468526  0.1468526  0.3559431  
  1.469685   1.029893   2.54       0.2323783  0.5353625  83.894     
  0.6336076  0.6410483  0.6261669 
1017.8     
  0.276      0.393      -9999      -9999      7.379      2.347      
  2.653      1.422      1.146      0.1496258  0.1496258  0.3618366  
  1.654212   0.9338331  2.542      0.2450636  0.543493   83.68      
  0.6430629  0.6671972  0.6189287 
