~Version
 VERS              .         2.0                           : CWLS LOG ASCII STANDARD - VERSION 2.0
 WRAP              .         YES                            : ONE LINE PER DEPTH STEP
 DLM               .         SPACE                         : DELIMITING CHARACTER(SPACE TAB OR COMMA)
~Well Information
#_______________________________________________________________________________
#
#PARAMETER_NAME    .UNIT     VALUE                         : DESCRIPTION
#_______________________________________________________________________________
STRT               .M        890                           : First reference value
STOP               .M        1240                          : Last reference value
STEP               .M        0.2                           : Step increment
NULL               .         -9999                         : Missing value
COMP               .                                       : Company
WELL               .         4724                          : Well name
FLD                .         Узень                         : Field
LOC                .                                       : Location
CNTY               .                                       : County
STAT               .                                       : State
CTRY               .                                       : Country
SRVC               .                                       : Service Company
DATE               .         27.03.1990                    : Date
UWI                .         4724                          : Unique Well ID
Block              .         7                             : 
Cartographic_reference_system .         GCS_WGS_1984                  : ESRI,PE_10_3_1- <?xml version="1.0" encoding="utf-16"?><ILateBoundCoordinateReferenceSystem name="GCS_WGS_1984"><AuthorityCode>EPSG,4326</AuthorityCode></ILateBoundCoordinateReferenceSystem>
Category           .         Нефтяная                      : 
Condition          .         В работе                      : 
EREF               .m        94.7                          : 100.8
Gorizont           .         15                            : 14
HZCS               .GCS_WGS_1984 WGS_1984_EASE-Grid_2.0_Global : ESRI,PE_10_3_1- <?xml version="1.0" encoding="utf-16"?><ILateBoundCoordinateReferenceSystem name="WGS_1984_EASE-Grid_2.0_Global"><AuthorityCode>EPSG,6933</AuthorityCode></ILateBoundCoordinateReferenceSystem>
Interpretator      .         Сагынбаева А.Н.               : 
Kupol              .         основной                      : osnovnoi
LATI               .dega     0.6662122985                  : GCS_WGS_1984
LONG               .dega     0.4357261975                  : GCS_WGS_1984
Mud                .         глинистый                     : 
Mud_density        .         1,18                          : 
Mud_resistivity    .         0                             : 
NGDU               .         НГДУ-2                        : 
ORIGINALWELLNAME   .         4724                          : 
Spud_date          .         1990                          : 1961
Viscosity          .         40                            : 
X                  .m        42041.6                       : 46154
Y                  .m        84989.03                      : 85761.93
YEAR               .         2018                          : 
~Parameter Information Block
#_______________________________________________________________________________
#
#PARAMETER_NAME    .UNIT     VALUE                         : DESCRIPTION
#_______________________________________________________________________________
SET                .         LQC_KAZNIPI_Petrel            : 
TLFamily_CALI      .         Caliper                       : 
TLFamily_CILD      .         Conductivity                  : 
TLFamily_COLL      .         Net Reservoir Flag            : 
TLFamily_CSAT      .         Fluid Code                    : 
TLFamily_DEPT      .         Measured Depth                : 
TLFamily_GR        .         Russian Gamma Ray             : 
TLFamily_LLS       .         Lateral Log Resistivity       : 
TLFamily_MINV      .         Micro Gradient Resistivity    : 
TLFamily_MNOR      .         Micro Resistivity             : 
TLFamily_NGLD      .         Neutron Gamma                 : 
TLFamily_PHIE      .         Effective Porosity            : 
TLFamily_PHIEN     .         Effective Porosity            : 
TLFamily_PHIT      .         Porosity                      : 
TLFamily_PRMB      .         Permeability                  : 
TLFamily_PRMB_DGR  .         Permeability                  : 
TLFamily_RT        .         Formation Resistivity         : 
TLFamily_SOIL_ARCHIE .         Oil Saturation                : 
TLFamily_SOIL_DW   .         Oil Saturation                : 
TLFamily_SP        .         Spontaneous Potential         : 
TLFamily_VSH_FIN   .         Shale Volume                  : 
TLFamily_VSH_GR    .         Shale Volume                  : 
TLFamily_VSH_SP    .         Shale Volume                  : 
~Curve Information
#_______________________________________________________________________________
#
#LOGNAME           .UNIT     LOG_ID                        : DESCRIPTION
#_______________________________________________________________________________
DEPT               .M                                      : Колонка глубины 
CALI               .м                                      : Каверномер 
CILD               .мСм/м                                  : Индукционный каротаж 
COLL               .unitless                               : Описание 
CSAT               .unitless                               :  
GR                 .uR/h                                   : Гамма каротаж 
LLS                .Ohmm                                   : Боковой каротаж 
MINV               .Ohmm                                   : Микро-градиент зонд 
MNOR               .Ohmm                                   : Микро-потенциал зонд 
NGLD               .у.е.                                   : Показания зонда НГК-60 аппаратуры ДРСТ-3-90 
PHIE               .v/v                                    : Описание 
PHIEN              .v/v                                    :  
PHIT               .v/v                                    : Описание 
PRMB               .mD                                     :  
PRMB_DGR           .mD                                     :  
RT                 .ohmm                                   : УЭС пласта 
SOIL_ARCHIE        .v/v                                    :  
SOIL_DW            .v/v                                    :  
SP                 .мВ                                     : Потенциал самополяризации 
VSH_FIN            .v/v                                    : Описание 
VSH_GR             .v/v                                    : Shale volume 
VSH_SP             .v/v                                    : Shale Volume 
~Ascii
# ...
922        
  0.22       0.497      1          3          2.713      1.99       
  1.628      1.713      1.453      0.203241   0.203241   0.2412163  
  16.28077   95.68668   2.013      0.3549093  0.4200821  61.969     
  0.1150767  0.100755   0.1293984 
922.2000000000001 
  0.22       0.499      1          3          2.73       2.024      
  1.569      1.725      1.447      0.2054434  0.2054434  0.2435737  
  17.88413   93.71276   2.002      0.3592912  0.4243762  61.991     
  0.1155464  0.1016162  0.1294766 
922.4      
  0.219      0.498      1          3          2.67       2.09       
  1.586      1.726      1.438      0.2094686  0.2094686  0.2471098  
  21.23368   100.8671   2.009      0.3710589  0.4348012  62.003     
  0.1140642  0.09860896 0.1295194 
922.6      
  0.219      0.492      1          3          2.583      2.218      
  1.727      1.798      1.431      0.2129124  0.2129124  0.2498601  
  24.59308   112.2221   2.032      0.3832318  0.4454305  62.003     
  0.1119626  0.09440582 0.1295194 
922.8      
  0.218      0.486      1          3          2.48       2.345      
  1.962      1.944      1.428      0.2148741  0.2148741  0.2510388  
  26.73914   127.329    2.059      0.391917   0.4527051  62.003     
  0.1095901  0.0896607  0.1295194 
923        
  0.217      0.479      1          3          2.445      2.393      
  2.325      2.087      1.408      0.2229891  0.2229891  0.2588968  
  37.79696   132.9124   2.086      0.4148249  0.4741619  62.003     
  0.1088113  0.08810319 0.1295194 
923.2000000000001 
  0.216      0.479      1          3          2.398      2.317      
  2.316      2.048      1.394      0.2288277  0.2288277  0.2643974  
  48.48452   140.797    2.089      0.4282365  0.486527   62.003     
  0.1077868  0.08605415 0.1295194 
923.4      
  0.215      0.483      1          3          2.405      2.202      
  2.163      1.942      1.387      0.2315205  0.2315205  0.2671477  
  54.38515   139.5937   2.07       0.431601   0.48978    62.016     
  0.1079611  0.08635627 0.1295659 
923.6      
  0.215      0.493      1          3          2.436      2.082      
  1.824      1.821      1.386      0.2316757  0.2316757  0.2675406  
  54.74632   134.3872   2.028      0.4264419  0.4851054  62.041     
  0.1086814  0.08770709 0.1296556 
923.8      
  0.215      0.501      1          3          2.468      1.995      
  1.665      1.795      1.381      0.2333707  0.2333707  0.2695051  
  58.85041   129.2164   1.997      0.4259371  0.4849007  62.101     
  0.1094982  0.08912362 0.1298727 
924        
  0.215      0.507      1          3          2.474      1.965      
  1.645      1.794      1.377      0.2348491  0.2348491  0.2710767  
  62.68055   128.2692   1.974      0.4259738  0.4850221  62.182     
  0.1097807  0.08939176 0.1301696 
924.2000000000001 
  0.215      0.51       1          3          2.499      1.95       
  1.741      1.818      1.388      0.230268   0.230268   0.2667548  
  51.55621   124.3969   1.961      0.4142269  0.4741351  62.301     
  0.1105659  0.09051771 0.1306141 
924.4      
  0.214      0.513      1          3          2.559      1.951      
  1.908      1.826      1.398      0.2257977  0.2257977  0.2628258  
  42.60691   115.5736   1.95       0.4025643  0.4636837  62.437     
  0.1122062  0.0932782  0.1311342 
924.6      
  0.214      0.515      1          3          2.626      1.947      
  1.836      1.824      1.395      0.2263404  0.2263404  0.2640045  
  43.60448   106.4585   1.942      0.4026607  0.4645073  62.608     
  0.1141337  0.09646035 0.1318071 
924.8      
  0.213      0.517      1          3          2.649      1.937      
  1.698      1.731      1.377      0.2331489  0.2331489  0.2710767  
  58.29635   103.4981   1.934      0.4167536  0.4781118  62.727     
  0.1149328  0.09757758 0.1322879 
925        
  0.213      0.52       1          3          2.631      1.919      
  1.546      1.699      1.349      0.2442484  0.2442484  0.2820779  
  93.59042   105.8078   1.924      0.4385428  0.4986022  62.795     
  0.1146348  0.09670214 0.1325675 
925.2000000000001 
  0.214      0.522      1          3          2.605      1.908      
  1.512      1.701      1.344      0.2464485  0.2464485  0.2840424  
  102.7975   109.2353   1.916      0.4418204  0.5014623  62.752     
  0.1139209  0.09545146 0.1323903 
925.4      
  0.214      0.523      1          3          2.643      1.912      
  1.602      1.831      1.348      0.2446594  0.2446594  0.2824708  
  95.24525   104.2624   1.912      0.4377158  0.4977927  62.625     
  0.11458    0.09728488 0.1318751 
925.6      
  0.214      0.522      1          3          2.707      1.912      
  1.725      1.879      1.348      0.2442262  0.2442262  0.2824708  
  93.50172   96.39325   1.915      0.4372614  0.4978073  62.488     
  0.1158927  0.1004527  0.1313327 
925.8      
  0.215      0.52       1          3          2.78       1.902      
  1.857      1.848      1.339      0.2471832  0.2471832  0.2860069  
  106.0693   88.14002   1.922      0.4440818  0.5048347  62.429     
  0.1176477  0.1041922  0.1311033 
926        
  0.215      0.515      1          3          2.799      1.933      
  1.889      1.791      1.339      0.246981   0.246981   0.2860069  
  105.1587   86.11033   1.944      0.4466487  0.5074729  62.488     
  0.1182604  0.1051881  0.1313327 
926.2000000000001 
  0.216      0.508      1          3          2.815      2.029      
  1.898      1.756      1.348      0.2432158  0.2432158  0.2824708  
  89.5579    84.43744   1.97       0.4426807  0.5039925  62.625     
  0.1189546  0.1060341  0.1318751 
926.4      
  0.216      0.501      1          3          2.813      2.147      
  1.832      1.794      1.365      0.2364165  0.2364165  0.2757915  
  67.01388   84.64477   1.997      0.4323838  0.4944751  62.829     
  0.1193183  0.105928   0.1327085 
926.6      
  0.216      0.498      1          3          2.812      2.178      
  1.813      1.851      1.38       0.2304004  0.2304004  0.269898   
  51.84805   84.74862   2.01       0.4212616  0.4841947  63.017     
  0.1196897  0.105875   0.1335045 
926.8      
  0.215      0.495      1          3          2.81       2.149      
  1.823      1.935      1.395      0.2244266  0.2244266  0.2640045  
  40.1867    84.95671   2.02       0.4092448  0.4730491  63.153     
  0.1199332  0.105769   0.1340974 
927        
  0.215      0.494      1          3          2.836      2.121      
  1.829      1.946      1.4        0.2222085  0.2222085  0.26204    
  36.55943   82.29101   2.026      0.4049411  0.4693304  63.187     
  0.1207014  0.1071549  0.1342479 
927.2000000000001 
  0.215      0.488      1          3          2.861      2.109      
  1.867      1.932      1.404      0.2204017  0.2204017  0.2604684  
  33.84801   79.80672   2.047      0.4035877  0.4683892  63.204     
  0.121414   0.1085046  0.1343235 
927.4      
  0.215      0.482      1          3          2.88       2.102      
  1.834      1.875      1.412      0.2171189  0.2171189  0.2573252  
  29.42576   77.96895   2.077      0.3998529  0.4651458  63.161     
  0.1218372  0.1095417  0.1341327 
927.6      
  0.217      0.473      1          3          2.936      2.085      
  1.854      1.864      1.42       0.2135082  0.2135082  0.254182   
  25.22598   72.79487   2.115      0.3961819  0.4623974  63.097     
  0.123254   0.1126565  0.1338515 
927.8      
  0.218      0.464      1          3          3.006      2.112      
  1.844      1.862      1.415      0.2148705  0.2148705  0.2561465  
  26.73501   66.80745   2.155      0.4047738  0.4711947  63.012     
  0.1250789  0.1166749  0.133483  
928        
  0.219      0.456      1          3          3.076      2.159      
  1.932      1.909      1.405      0.2181213  0.2181213  0.2600755  
  30.71099   61.31249   2.194      0.4174315  0.483788   63         
  0.127134   0.1208365  0.1334314 
928.2000000000001 
  0.217      0.448      1          3          3.09       2.189      
  1.843      1.877      1.393      0.2226688  0.2226688  0.2647903  
  37.28421   60.26898   2.23       0.432161   0.4976574  63.038     
  0.1276408  0.1216865  0.1335951 
