~Version
 VERS              .         2.0                           : CWLS LOG ASCII STANDARD - VERSION 2.0
 WRAP              .         YES                            : ONE LINE PER DEPTH STEP
 DLM               .         SPACE                         : DELIMITING CHARACTER(SPACE TAB OR COMMA)
~Well Information
#_______________________________________________________________________________
#
#PARAMETER_NAME    .UNIT     VALUE                         : DESCRIPTION
#_______________________________________________________________________________
STRT               .M        890                           : First reference value
STOP               .M        1240                          : Last reference value
STEP               .M        0.2                           : Step increment
NULL               .         -9999                         : Missing value
COMP               .                                       : Company
WELL               .         4724                          : Well name
FLD                .         Узень                         : Field
LOC                .                                       : Location
CNTY               .                                       : County
STAT               .                                       : State
CTRY               .                                       : Country
SRVC               .                                       : Service Company
DATE               .         27.03.1990                    : Date
UWI                .         4724                          : Unique Well ID
Block              .         7                             : 
Cartographic_reference_system .         GCS_WGS_1984                  : ESRI,PE_10_3_1- <?xml version="1.0" encoding="utf-16"?><ILateBoundCoordinateReferenceSystem name="GCS_WGS_1984"><AuthorityCode>EPSG,4326</AuthorityCode></ILateBoundCoordinateReferenceSystem>
Category           .         Нефтяная                      : 
Condition          .         В работе                      : 
EREF               .m        94.7                          : 100.8
Gorizont           .         15                            : 14
HZCS               .GCS_WGS_1984 WGS_1984_EASE-Grid_2.0_Global : ESRI,PE_10_3_1- <?xml version="1.0" encoding="utf-16"?><ILateBoundCoordinateReferenceSystem name="WGS_1984_EASE-Grid_2.0_Global"><AuthorityCode>EPSG,6933</AuthorityCode></ILateBoundCoordinateReferenceSystem>
Interpretator      .         Сагынбаева А.Н.               : 
Kupol              .         основной                      : osnovnoi
LATI               .dega     0.6662122985                  : GCS_WGS_1984
LONG               .dega     0.4357261975                  : GCS_WGS_1984
Mud                .         глинистый                     : 
Mud_density        .         1,18                          : 
Mud_resistivity    .         0                             : 
NGDU               .         НГДУ-2                        : 
ORIGINALWELLNAME   .         4724                          : 
Spud_date          .         1990                          : 1961
Viscosity          .         40                            : 
X                  .m        42041.6                       : 46154
Y                  .m        84989.03                      : 85761.93
YEAR               .         2018                          : 
~Parameter Information Block
#_______________________________________________________________________________
#
#PARAMETER_NAME    .UNIT     VALUE                         : DESCRIPTION
#_______________________________________________________________________________
SET                .         LQC_KAZNIPI_Petrel            : 
TLFamily_CALI      .         Caliper                       : 
TLFamily_CILD      .         Conductivity                  : 
TLFamily_COLL      .         Net Reservoir Flag            : 
TLFamily_CSAT      .         Fluid Code                    : 
TLFamily_DEPT      .         Measured Depth                : 
TLFamily_GR        .         Russian Gamma Ray             : 
TLFamily_LLS       .         Lateral Log Resistivity       : 
TLFamily_MINV      .         Micro Gradient Resistivity    : 
TLFamily_MNOR      .         Micro Resistivity             : 
TLFamily_NGLD      .         Neutron Gamma                 : 
TLFamily_PHIE      .         Effective Porosity            : 
TLFamily_PHIEN     .         Effective Porosity            : 
TLFamily_PHIT      .         Porosity                      : 
TLFamily_PRMB      .         Permeability                  : 
TLFamily_PRMB_DGR  .         Permeability                  : 
TLFamily_RT        .         Formation Resistivity         : 
TLFamily_SOIL_ARCHIE .         Oil Saturation                : 
TLFamily_SOIL_DW   .         Oil Saturation                : 
TLFamily_SP        .         Spontaneous Potential         : 
TLFamily_VSH_FIN   .         Shale Volume                  : 
TLFamily_VSH_GR    .         Shale Volume                  : 
TLFamily_VSH_SP    .         Shale Volume                  : 
~Curve Information
#_______________________________________________________________________________
#
#LOGNAME           .UNIT     LOG_ID                        : DESCRIPTION
#_______________________________________________________________________________
DEPT               .M                                      : Колонка глубины 
CALI               .м                                      : Каверномер 
CILD               .мСм/м                                  : Индукционный каротаж 
COLL               .unitless                               : Описание 
CSAT               .unitless                               :  
GR                 .uR/h                                   : Гамма каротаж 
LLS                .Ohmm                                   : Боковой каротаж 
MINV               .Ohmm                                   : Микро-градиент зонд 
MNOR               .Ohmm                                   : Микро-потенциал зонд 
NGLD               .у.е.                                   : Показания зонда НГК-60 аппаратуры ДРСТ-3-90 
PHIE               .v/v                                    : Описание 
PHIEN              .v/v                                    :  
PHIT               .v/v                                    : Описание 
PRMB               .mD                                     :  
PRMB_DGR           .mD                                     :  
RT                 .ohmm                                   : УЭС пласта 
SOIL_ARCHIE        .v/v                                    :  
SOIL_DW            .v/v                                    :  
SP                 .мВ                                     : Потенциал самополяризации 
VSH_FIN            .v/v                                    : Описание 
VSH_GR             .v/v                                    : Shale volume 
VSH_SP             .v/v                                    : Shale Volume 
~Ascii
# ...
1235.6     
  -9999      0.726      1          3          8.128      1.698      
  1.908      2.032      1.45       0.175413   0.175413   0.263415   
  4.96859    8.823457   1.378      0.1360832  0.3019659  36.829     
  0.2666726  0.2666726  0.1733624 
1235.8     
  -9999      0.708      1          3          8.15       1.738      
  1.898      2.041      1.416      0.1858455  0.1858455  0.2747472  
  7.752954   8.606358   1.413      0.1880899  0.3433351  36.931     
  0.2693992  0.2693992  0.1741078 
1236       
  -9999      0.691      1          3          8.118      1.761      
  1.934      2.051      1.385      0.1974836  0.1974836  0.2850795  
  12.73599   8.923947   1.449      0.2389628  0.3811562  36.944     
  0.2654423  0.2654423  0.1742033 
1236.2     
  -9999      0.673      1          3          8.169      1.767      
  2.042      2.091      1.362      0.2030592  0.2030592  0.2927454  
  16.15498   8.423158   1.486      0.2659325  0.4052326  36.956     
  0.2717765  0.2717765  0.1742916 
1236.4     
  -9999      0.657      1          3          8.292      1.768      
  2.164      2.156      1.377      0.1928108  0.1928108  0.2877459  
  10.43474   7.327949   1.524      0.2411101  0.3939185  36.863     
  0.2876822  0.2876822  0.1736101 
1236.6     
  -9999      0.64       1          3          8.445      1.776      
  2.225      2.192      1.395      0.1798516  0.1798516  0.2817465  
  6.004068   6.162203   1.562      0.2029654  0.3763352  36.714     
  0.3087725  0.3087725  0.1725304 
1236.8     
  -9999      0.626      1          3          8.426      1.798      
  2.234      2.191      1.412      0.1750768  0.1750768  0.2760804  
  4.897846   6.296225   1.597      0.1925071  0.3688576  36.586     
  0.3060716  0.3060716  0.1716148 
1237       
  -9999      0.611      1          3          8.331      1.83       
  2.301      2.198      1.418      0.1774179  0.1774179  0.2740806  
  5.412125   7.011352   1.637      0.2110079  0.3773054  36.5       
  0.2929173  0.2929173  0.1710058 
1237.2     
  -9999      0.596      1          3          8.281      1.83       
  2.52       2.246      1.42       0.1789605  0.1789605  0.273414   
  5.780183   7.419798   1.677      0.2257556  0.3860663  36.437     
  0.2862226  0.2862226  0.1705627 
1237.4     
  -9999      0.583      1          3          8.421      1.766      
  2.845      2.227      1.418      0.1733103  0.1733103  0.2740806  
  4.542389   6.331977   1.716      0.2123598  0.3859756  36.394     
  0.3053647  0.3053647  0.1702618 
1237.6     
  -9999      0.574      1          3          8.547      1.691      
  2.917      2.067      1.419      0.1669313  0.1669313  0.2737473  
  3.460429   5.489988   1.743      0.1921494  0.3809747  36.351     
  0.3236849  0.3236849  0.1699622 
1237.8     
  -9999      0.566      1          3          8.574      1.67       
  2.709      1.966      1.421      0.1649227  0.1649227  0.2730807  
  3.176335   5.324667   1.768      0.1890249  0.3814593  36.266     
  0.3277515  0.3277515  0.1693734 
1238       
  -9999      0.56       1          3          8.554      1.728      
  2.219      1.832      1.412      0.1689181  0.1689181  0.2760804  
  3.766438   5.446642   1.785      0.2093158  0.394289   36.181     
  0.3247344  0.3247344  0.1687894 
1238.2     
  -9999      0.556      1          3          8.617      1.804      
  2.061      1.927      1.394      -9999      -9999      -9999      
  -9999      -9999      1.8        -9999      -9999      36.095     
  0.3343335  0.3343335  0.1682032 
1238.4     
  -9999      0.553      1          3          8.651      1.86       
  2.105      1.949      1.358      -9999      -9999      -9999      
  -9999      -9999      1.808      -9999      -9999      36.095     
  0.3396315  0.3396315  0.1682032 
1238.6     
  -9999      0.551      -9999      -9999      8.765      1.889      
  2.103      2.033      1.338      -9999      -9999      -9999      
  -9999      -9999      1.816      -9999      -9999      -9999      
  0.3580154  0.3580154  -9999     
1238.8     
  -9999      0.549      -9999      -9999      8.911      1.867      
  2.175      2.059      1.325      -9999      -9999      -9999      
  -9999      -9999      1.823      -9999      -9999      -9999      
  0.3830202  0.3830202  -9999     
1239       
  -9999      0.547      -9999      -9999      9.159      1.839      
  2.051      2.076      1.326      -9999      -9999      -9999      
  -9999      -9999      1.827      -9999      -9999      -9999      
  0.4295616  0.4295616  -9999     
1239.2     
  -9999      0.549      -9999      -9999      9.313      1.831      
  2.203      2.08       1.323      -9999      -9999      -9999      
  -9999      -9999      1.822      -9999      -9999      -9999      
  0.4612664  0.4612664  -9999     
1239.4     
  -9999      0.555      -9999      -9999      9.333      1.856      
  2.008      2.008      1.319      -9999      -9999      -9999      
  -9999      -9999      1.804      -9999      -9999      -9999      
  0.4655522  0.4655522  -9999     
1239.6     
  -9999      0.563      -9999      -9999      9.314      1.86       
  2.006      1.956      1.318      -9999      -9999      -9999      
  -9999      -9999      1.775      -9999      -9999      -9999      
  0.4614798  0.4614798  -9999     
1239.8     
  -9999      0.571      -9999      -9999      9.297      1.86       
  1.915      1.91       1.33       -9999      -9999      -9999      
  -9999      -9999      1.75       -9999      -9999      -9999      
  -9999      0.5415167  -9999     
1240       
  -9999      0.571      -9999      -9999      9.299      -9999      
  1.915      1.91       1.363      -9999      -9999      -9999      
  -9999      -9999      1.75       -9999      -9999      -9999      
  -9999      0.542241   -9999     
