~Version
 VERS              .         2.0                           : CWLS LOG ASCII STANDARD - VERSION 2.0
 WRAP              .         YES                            : ONE LINE PER DEPTH STEP
 DLM               .         SPACE                         : DELIMITING CHARACTER(SPACE TAB OR COMMA)
~Well Information
#_______________________________________________________________________________
#
#PARAMETER_NAME    .UNIT     VALUE                         : DESCRIPTION
#_______________________________________________________________________________
STRT               .M        890                           : First reference value
STOP               .M        1240                          : Last reference value
STEP               .M        0.2                           : Step increment
NULL               .         -9999                         : Missing value
COMP               .                                       : Company
WELL               .         4724                          : Well name
FLD                .         Узень                         : Field
LOC                .                                       : Location
CNTY               .                                       : County
STAT               .                                       : State
CTRY               .                                       : Country
SRVC               .                                       : Service Company
DATE               .         27.03.1990                    : Date
UWI                .         4724                          : Unique Well ID
Block              .         7                             : 
Cartographic_reference_system .         GCS_WGS_1984                  : ESRI,PE_10_3_1- <?xml version="1.0" encoding="utf-16"?><ILateBoundCoordinateReferenceSystem name="GCS_WGS_1984"><AuthorityCode>EPSG,4326</AuthorityCode></ILateBoundCoordinateReferenceSystem>
Category           .         Нефтяная                      : 
Condition          .         В работе                      : 
EREF               .m        94.7                          : 100.8
Gorizont           .         15                            : 14
HZCS               .GCS_WGS_1984 WGS_1984_EASE-Grid_2.0_Global : ESRI,PE_10_3_1- <?xml version="1.0" encoding="utf-16"?><ILateBoundCoordinateReferenceSystem name="WGS_1984_EASE-Grid_2.0_Global"><AuthorityCode>EPSG,6933</AuthorityCode></ILateBoundCoordinateReferenceSystem>
Interpretator      .         Сагынбаева А.Н.               : 
Kupol              .         основной                      : osnovnoi
LATI               .dega     0.6662122985                  : GCS_WGS_1984
LONG               .dega     0.4357261975                  : GCS_WGS_1984
Mud                .         глинистый                     : 
Mud_density        .         1,18                          : 
Mud_resistivity    .         0                             : 
NGDU               .         НГДУ-2                        : 
ORIGINALWELLNAME   .         4724                          : 
Spud_date          .         1990                          : 1961
Viscosity          .         40                            : 
X                  .m        42041.6                       : 46154
Y                  .m        84989.03                      : 85761.93
YEAR               .         2018                          : 
~Parameter Information Block
#_______________________________________________________________________________
#
#PARAMETER_NAME    .UNIT     VALUE                         : DESCRIPTION
#_______________________________________________________________________________
SET                .         LQC_KAZNIPI_Petrel            : 
TLFamily_CALI      .         Caliper                       : 
TLFamily_CILD      .         Conductivity                  : 
TLFamily_COLL      .         Net Reservoir Flag            : 
TLFamily_CSAT      .         Fluid Code                    : 
TLFamily_DEPT      .         Measured Depth                : 
TLFamily_GR        .         Russian Gamma Ray             : 
TLFamily_LLS       .         Lateral Log Resistivity       : 
TLFamily_MINV      .         Micro Gradient Resistivity    : 
TLFamily_MNOR      .         Micro Resistivity             : 
TLFamily_NGLD      .         Neutron Gamma                 : 
TLFamily_PHIE      .         Effective Porosity            : 
TLFamily_PHIEN     .         Effective Porosity            : 
TLFamily_PHIT      .         Porosity                      : 
TLFamily_PRMB      .         Permeability                  : 
TLFamily_PRMB_DGR  .         Permeability                  : 
TLFamily_RT        .         Formation Resistivity         : 
TLFamily_SOIL_ARCHIE .         Oil Saturation                : 
TLFamily_SOIL_DW   .         Oil Saturation                : 
TLFamily_SP        .         Spontaneous Potential         : 
TLFamily_VSH_FIN   .         Shale Volume                  : 
TLFamily_VSH_GR    .         Shale Volume                  : 
TLFamily_VSH_SP    .         Shale Volume                  : 
~Curve Information
#_______________________________________________________________________________
#
#LOGNAME           .UNIT     LOG_ID                        : DESCRIPTION
#_______________________________________________________________________________
DEPT               .M                                      : Колонка глубины 
CALI               .м                                      : Каверномер 
CILD               .мСм/м                                  : Индукционный каротаж 
COLL               .unitless                               : Описание 
CSAT               .unitless                               :  
GR                 .uR/h                                   : Гамма каротаж 
LLS                .Ohmm                                   : Боковой каротаж 
MINV               .Ohmm                                   : Микро-градиент зонд 
MNOR               .Ohmm                                   : Микро-потенциал зонд 
NGLD               .у.е.                                   : Показания зонда НГК-60 аппаратуры ДРСТ-3-90 
PHIE               .v/v                                    : Описание 
PHIEN              .v/v                                    :  
PHIT               .v/v                                    : Описание 
PRMB               .mD                                     :  
PRMB_DGR           .mD                                     :  
RT                 .ohmm                                   : УЭС пласта 
SOIL_ARCHIE        .v/v                                    :  
SOIL_DW            .v/v                                    :  
SP                 .мВ                                     : Потенциал самополяризации 
VSH_FIN            .v/v                                    : Описание 
VSH_GR             .v/v                                    : Shale volume 
VSH_SP             .v/v                                    : Shale Volume 
~Ascii
# ...
1165.2     
  0.212      0.476      1          2          7.381      2.806      
  2.295      2.402      1.353      0.2299203  0.2299203  0.2805063  
  50.79723   24.60902   2.103      0.4323855  0.5063713  48.469     
  0.1532908  0.1754219  0.1311597 
1165.4     
  0.211      0.492      1          2          7.367      2.461      
  2.228      2.36       1.336      0.2367521  0.2367521  0.2871856  
  67.98014   24.99059   2.035      0.4380773  0.511052   48.533     
  0.1528287  0.1743233  0.1313341 
1165.6     
  0.211      0.515      1          2          7.429      2.184      
  2.307      2.369      1.333      0.2370181  0.2370181  0.2883643  
  68.75562   23.3445    1.945      0.4265831  0.5012854  48.754     
  0.1555946  0.1792416  0.1319477 
1165.8     
  0.211      0.536      1          2          7.521      2.068      
  2.541      2.455      1.335      0.2347906  0.2347906  0.2875785  
  62.52435   21.09958   1.867      0.4106362  0.4881337  49.163     
  0.1599633  0.1867966  0.1331301 
1166       
  0.211      0.551      1          2          7.631      2.053      
  2.738      2.527      1.338      0.2317513  0.2317513  0.2863998  
  54.92307   18.69699   1.814      0.3958     0.4766062  49.755     
  0.1656014  0.196249   0.1349538 
1166.2     
  0.211      0.564      1          2          7.725      2.021      
  2.77       2.575      1.339      0.2292917  0.2292917  0.2860069  
  49.45347   16.86189   1.773      0.3835814  0.4677814  50.938     
  0.1718642  0.2047045  0.139024  
1166.4     
  0.211      0.572      1          2          7.847      2.003      
  2.852      2.601      1.342      0.2252323  0.2252323  0.2848282  
  41.59179   14.74608   1.747      0.3695612  0.4584985  52.411     
  0.1805935  0.2162243  0.1449627 
1166.6     
  0.211      0.573      1          2          7.902      2.021      
  2.95       2.663      1.351      0.2196619  0.2196619  0.2812921  
  32.79669   13.88116   1.744      0.3551397  0.448322   53.867     
  0.1867581  0.2216275  0.1518888 
1166.8     
  0.211      0.569      1          2          7.97       2.106      
  3.054      2.76       1.358      0.2145273  0.2145273  0.2785418  
  26.34657   12.8816    1.757      0.3440076  0.4417163  55.238     
  0.1939833  0.2284948  0.1594718 
1167       
  0.211      0.564      1          2          8.008      2.163      
  3.215      2.854      1.365      0.2097865  0.2097865  0.2757915  
  21.52347   12.35472   1.772      0.333778   0.4356181  56.524     
  0.2000153  0.2324248  0.1676058 
1167.2     
  0.211      0.565      1          2          7.961      2.199      
  3.074      2.866      1.381      0.2028782  0.2028782  0.2695051  
  16.0308    13.00965   1.771      0.3138811  0.4197727  57.733     
  0.2018995  0.2275738  0.1762252 
1167.4     
  0.211      0.568      1          2          7.88       2.262      
  2.969      2.743      1.396      0.1975293  0.1975293  0.2636116  
  12.76087   14.22087   1.761      0.2958586  0.4039758  58.355     
  0.2002493  0.2194502  0.1810485 
1167.6     
  0.211      0.569      1          2          7.866      2.312      
  2.628      2.61       1.407      0.1931178  0.1931178  0.2592897  
  10.57225   14.44137   1.757      0.2811028  0.3918208  58.593     
  0.2005211  0.2180758  0.1829665 
1167.8     
  0.211      0.561      1          2          7.927      2.334      
  2.536      2.527      1.417      0.1887506  0.1887506  0.2553607  
  8.775587   13.50497   1.785      0.2720582  0.3853859  58.168     
  0.2018489  0.2241279  0.1795698 
1168       
  0.211      0.541      1          2          8.036      2.373      
  2.455      2.522      1.43       0.1825922  0.1825922  0.250253   
  6.748525   11.98032   1.851      0.2633789  0.3808013  57.529     
  0.2050328  0.2353637  0.1747018 
1168.2     
  0.212      0.512      1          2          8.135      2.544      
  2.371      2.502      1.446      0.1752296  0.1752296  0.2439666  
  4.929871   10.74526   1.957      0.2561877  0.3782548  56.95      
  0.2082939  0.246056   0.1705319 
1168.4     
  0.214      0.487      1          2          8.238      2.797      
  2.472      2.555      1.466      0.1645016  0.1645016  0.2361086  
  3.119805   9.595245   2.057      0.232279   0.3654592  57.741     
  0.2169908  0.2576962  0.1762855 
1168.6     
  0.216      0.46       1          2          8.289      3.07       
  2.772      2.768      1.485      0.1535058  0.1535058  0.2286435  
  1.951905   9.072237   2.179      0.2063498  0.3536074  59.62      
  0.2276898  0.263662   0.1917177 
1168.8     
  0.219      0.44       1          2          8.346      3.521      
  2.704      2.851      1.472      0.1529883  0.1529883  0.2337512  
  1.909295   8.521354   2.279      0.2205973  0.3753085  62.35      
  0.244736   0.2704933  0.2189786 
1169       
  0.223      0.427      1          2          8.432      3.552      
  2.676      2.768      1.445      0.1513436  0.1513436  0.2443595  
  1.77995    7.75285    2.342      0.2232287  0.3972142  65.08      
  0.2818665  0.2811366  0.2825963 
1169.2     
  0.229      0.429      -9999      -9999      8.647      3.107      
  2.689      2.78       1.386      0.1621301  0.1621301  0.2675406  
  2.819692   6.1213     2.329      0.2665235  0.4430593  67.809     
  0.3194256  0.3096133  0.3292379 
1169.4     
  0.235      0.432      -9999      -9999      8.909      2.238      
  2.307      3.164      1.34       0.1647379  0.1647379  0.285614   
  3.151398   4.589796   2.317      0.2748905  0.4665493  70.539     
  0.3662913  0.3482426  0.3843399 
1169.6     
  0.234      0.434      -9999      -9999      9.094      1.727      
  1.611      2.694      1.308      0.1617289  0.1617289  0.2981868  
  2.771847   3.745371   2.306      0.2615074  0.4752595  73.269     
  0.4135089  0.3783878  0.4486301 
1169.8     
  0.227      0.426      -9999      -9999      9.07       1.83       
  0.738      1.985      1.324      0.1566899  0.1566899  0.2919004  
  2.235815   3.845473   2.353      0.2480193  0.4671884  73.13      
  0.4097287  0.3743343  0.445123  
1170       
  0.219      0.405      -9999      -9999      8.902      2.376      
  0.814      1.17       1.366      0.1528324  0.1528324  0.2753986  
  1.896641   4.62524    2.472      0.2491025  0.4561607  71.051     
  0.3714126  0.3471504  0.3956749 
1170.2     
  0.214      0.385      8          2          8.674      3.346      
  1.322      1.587      1.407      0.1532627  0.1532627  0.2592897  
  1.931767   5.942333   2.605      0.269135   0.4511942  67.807     
  0.3212941  0.3133875  0.3292007 
1170.4     
  0.215      0.37       8          2          8.519      3.308      
  1.954      2.185      1.43       0.152019   0.152019   0.250253   
  1.83197    7.045908   2.704      0.2767015  0.4479451  66.334     
  0.2976789  0.2923298  0.303028  
1170.6     
  0.216      0.366      8          2          8.463      2.959      
  2.452      2.631      1.426      0.1554982  0.1554982  0.2518246  
  2.125014   7.493165   2.729      0.2938733  0.4574852  66.078     
  0.2918982  0.285075   0.2987215 
1170.8     
  0.218      0.367      8          2          8.517      2.173      
  2.469      2.533      1.414      0.1571891  0.1571891  0.2565394  
  2.283924   7.061414   2.723      0.2997707  0.4652103  66.743     
  0.3010615  0.2920676  0.3100553 
1171       
  0.218      0.361      8          2          8.631      2.421      
  2.489      2.285      1.385      0.1601062  0.1601062  0.2679335  
  2.586509   6.229893   2.777      0.3172165  0.4878401  68.692     
  0.3267493  0.3073981  0.3461004 
1171.2     
  0.219      0.346      -9999      -9999      8.805      2.635      
  2.359      2.058      1.347      0.1642973  0.1642973  0.2828637  
  3.092734   5.145549   2.899      0.3457454  0.5197921  70.625     
  0.3592921  0.3323632  0.3862211 
1171.4     
  0.22       0.34       -9999      -9999      9.035      2.559      
  2.591      2.265      1.305      0.1697794  0.1697794  0.2993655  
  3.907363   3.99627    2.941      0.3684606  0.5452324  71.971     
  0.3926854  0.3685008  0.41687   
