~Version
 VERS              .         2.0                           : CWLS LOG ASCII STANDARD - VERSION 2.0
 WRAP              .         YES                            : ONE LINE PER DEPTH STEP
 DLM               .         SPACE                         : DELIMITING CHARACTER(SPACE TAB OR COMMA)
~Well Information
#_______________________________________________________________________________
#
#PARAMETER_NAME    .UNIT     VALUE                         : DESCRIPTION
#_______________________________________________________________________________
STRT               .M        890                           : First reference value
STOP               .M        1240                          : Last reference value
STEP               .M        0.2                           : Step increment
NULL               .         -9999                         : Missing value
COMP               .                                       : Company
WELL               .         4724                          : Well name
FLD                .         Узень                         : Field
LOC                .                                       : Location
CNTY               .                                       : County
STAT               .                                       : State
CTRY               .                                       : Country
SRVC               .                                       : Service Company
DATE               .         27.03.1990                    : Date
UWI                .         4724                          : Unique Well ID
Block              .         7                             : 
Cartographic_reference_system .         GCS_WGS_1984                  : ESRI,PE_10_3_1- <?xml version="1.0" encoding="utf-16"?><ILateBoundCoordinateReferenceSystem name="GCS_WGS_1984"><AuthorityCode>EPSG,4326</AuthorityCode></ILateBoundCoordinateReferenceSystem>
Category           .         Нефтяная                      : 
Condition          .         В работе                      : 
EREF               .m        94.7                          : 100.8
Gorizont           .         15                            : 14
HZCS               .GCS_WGS_1984 WGS_1984_EASE-Grid_2.0_Global : ESRI,PE_10_3_1- <?xml version="1.0" encoding="utf-16"?><ILateBoundCoordinateReferenceSystem name="WGS_1984_EASE-Grid_2.0_Global"><AuthorityCode>EPSG,6933</AuthorityCode></ILateBoundCoordinateReferenceSystem>
Interpretator      .         Сагынбаева А.Н.               : 
Kupol              .         основной                      : osnovnoi
LATI               .dega     0.6662122985                  : GCS_WGS_1984
LONG               .dega     0.4357261975                  : GCS_WGS_1984
Mud                .         глинистый                     : 
Mud_density        .         1,18                          : 
Mud_resistivity    .         0                             : 
NGDU               .         НГДУ-2                        : 
ORIGINALWELLNAME   .         4724                          : 
Spud_date          .         1990                          : 1961
Viscosity          .         40                            : 
X                  .m        42041.6                       : 46154
Y                  .m        84989.03                      : 85761.93
YEAR               .         2018                          : 
~Parameter Information Block
#_______________________________________________________________________________
#
#PARAMETER_NAME    .UNIT     VALUE                         : DESCRIPTION
#_______________________________________________________________________________
SET                .         LQC_KAZNIPI_Petrel            : 
TLFamily_CALI      .         Caliper                       : 
TLFamily_CILD      .         Conductivity                  : 
TLFamily_COLL      .         Net Reservoir Flag            : 
TLFamily_CSAT      .         Fluid Code                    : 
TLFamily_DEPT      .         Measured Depth                : 
TLFamily_GR        .         Russian Gamma Ray             : 
TLFamily_LLS       .         Lateral Log Resistivity       : 
TLFamily_MINV      .         Micro Gradient Resistivity    : 
TLFamily_MNOR      .         Micro Resistivity             : 
TLFamily_NGLD      .         Neutron Gamma                 : 
TLFamily_PHIE      .         Effective Porosity            : 
TLFamily_PHIEN     .         Effective Porosity            : 
TLFamily_PHIT      .         Porosity                      : 
TLFamily_PRMB      .         Permeability                  : 
TLFamily_PRMB_DGR  .         Permeability                  : 
TLFamily_RT        .         Formation Resistivity         : 
TLFamily_SOIL_ARCHIE .         Oil Saturation                : 
TLFamily_SOIL_DW   .         Oil Saturation                : 
TLFamily_SP        .         Spontaneous Potential         : 
TLFamily_VSH_FIN   .         Shale Volume                  : 
TLFamily_VSH_GR    .         Shale Volume                  : 
TLFamily_VSH_SP    .         Shale Volume                  : 
~Curve Information
#_______________________________________________________________________________
#
#LOGNAME           .UNIT     LOG_ID                        : DESCRIPTION
#_______________________________________________________________________________
DEPT               .M                                      : Колонка глубины 
CALI               .м                                      : Каверномер 
CILD               .мСм/м                                  : Индукционный каротаж 
COLL               .unitless                               : Описание 
CSAT               .unitless                               :  
GR                 .uR/h                                   : Гамма каротаж 
LLS                .Ohmm                                   : Боковой каротаж 
MINV               .Ohmm                                   : Микро-градиент зонд 
MNOR               .Ohmm                                   : Микро-потенциал зонд 
NGLD               .у.е.                                   : Показания зонда НГК-60 аппаратуры ДРСТ-3-90 
PHIE               .v/v                                    : Описание 
PHIEN              .v/v                                    :  
PHIT               .v/v                                    : Описание 
PRMB               .mD                                     :  
PRMB_DGR           .mD                                     :  
RT                 .ohmm                                   : УЭС пласта 
SOIL_ARCHIE        .v/v                                    :  
SOIL_DW            .v/v                                    :  
SP                 .мВ                                     : Потенциал самополяризации 
VSH_FIN            .v/v                                    : Описание 
VSH_GR             .v/v                                    : Shale volume 
VSH_SP             .v/v                                    : Shale Volume 
~Ascii
# ...
966.8      
  0.236      0.264      -9999      -9999      5.813      2.791      
  2.243      1.924      1.245      0.1261289  0.1261289  0.3229395  
  0.607254   1.311321   3.799      0.2744879  0.5728165  83.472     
  0.5963959  0.5808308  0.611961  
967        
  0.247      0.274      -9999      -9999      6.03       2.776      
  1.653      1.738      1.224      0.1271333  0.1271333  0.3311904  
  0.6338326  1.098092   3.65       0.2658267  0.5723869  83.48      
  0.618355   0.624482   0.6122279 
967.2000000000001 
  0.251      0.281      -9999      -9999      6.119      2.798      
  0.696      1.379      1.224      0.1238598  0.1238598  0.3311904  
  0.5512419  1.021009   3.553      0.2394028  0.5625238  83.51      
  0.6282746  0.6433201  0.613229  
967.4      
  0.245      0.281      -9999      -9999      6.023      3.025      
  0.703      1.391      1.24       0.120547   0.120547   0.324904   
  0.4786081  1.104396   3.553      0.2212296  0.5527953  83.578     
  0.6192638  0.6230239  0.6155035 
967.6      
  0.237      0.276      -9999      -9999      5.849      3.52       
  0.978      1.421      1.262      0.1172352  0.1172352  0.3162602  
  0.4155645  1.273278   3.626      0.2096825  0.5450764  83.663     
  0.6031061  0.5878554  0.6183567 
967.8      
  0.226      0.268      -9999      -9999      5.666      4.061      
  1.684      1.818      1.28       0.11534    0.11534    0.309188   
  0.3832965  1.478829   3.729      0.2088518  0.5421731  83.766     
  0.5874182  0.5530075  0.621829  
968        
  0.22       0.262      -9999      -9999      5.544      3.915      
  2.881      2.606      1.291      0.114281   0.114281   0.3048661  
  0.3663691  1.633983   3.816      0.2110548  0.5417997  83.834     
  0.5775307  0.5309309  0.6241304 
968.2000000000001 
  0.216      0.267      -9999      -9999      5.587      3.423      
  4.047      3.05       1.277      0.1186097  0.1186097  0.3103667  
  0.4406531  1.577523   3.756      0.2304903  0.5494609  83.817     
  0.581082   0.5386096  0.6235544 
968.4      
  0.218      0.273      -9999      -9999      5.772      2.887      
  4.431      2.852      1.249      0.1243548  0.1243548  0.3213679  
  0.5630037  1.356034   3.667      0.2531907  0.5616043  83.744     
  0.5970094  0.5729327  0.6210861 
968.6      
  0.219      0.277      -9999      -9999      6.145      2.96       
  3.715      2.011      1.217      0.124905   0.124905   0.3339407  
  0.5763704  0.9995283  3.61       0.2505672  0.5695862  83.651     
  0.6334415  0.6489298  0.6179532 
968.8      
  0.219      0.271      -9999      -9999      6.391      3.226      
  2.696      1.627      1.232      0.1100826  0.1100826  0.3280472  
  0.3063058  0.8173828  3.7        0.173019   0.5504156  83.608     
  0.6604987  0.7044883  0.6165093 
969        
  0.218      0.261      -9999      -9999      6.44       3.483      
  2.494      1.7        1.286      0.08697052 0.08697052 0.3068306  
  0.1143044  0.785276   3.835      0.001538749 0.5003102  83.604     
  0.6662427  0.7161104  0.6163749 
969.2000000000001 
  0.219      0.256      -9999      -9999      6.232      3.621      
  3.129      1.94       1.325      0.07938755 0.07938755 0.2915075  
  0.08271952 0.930885   3.902      0          0.4717702  83.638     
  0.6427877  0.6680591  0.6175163 
969.4      
  0.218      0.256      -9999      -9999      5.868      3.64       
  3.23       2.11       1.326      0.0913112  0.0913112  0.2911146  
  0.1375508  1.253646   3.907      0.05132363 0.4954793  83.692     
  0.6054649  0.591597   0.6193327 
969.6      
  0.218      0.258      -9999      -9999      5.533      3.656      
  3.441      2.712      1.303      0.1103619  0.1103619  0.3001513  
  0.3099755  1.648749   3.883      0.1933245  0.5354541  83.749     
  0.5751196  0.5289842  0.6212548 
969.8      
  0.219      0.257      -9999      -9999      5.376      3.529      
  2.72       2.656      1.293      0.1184198  0.1184198  0.3040803  
  0.4370997  1.874627   3.893      0.2422624  0.5513647  83.808     
  0.5626075  0.5019655  0.6232496 
970        
  0.225      0.26       -9999      -9999      5.383      3.262      
  3.287      2.698      1.267      0.1278366  0.1278366  0.3142957  
  0.6531328  1.863927   3.848      0.2872357  0.5702486  83.916     
  0.5650277  0.5031403  0.6269152 
970.2000000000001 
  0.233      0.27       -9999      -9999      5.559      3.01       
  3.183      1.964      1.225      0.1383323  0.1383323  0.3307975  
  1.021898   1.614062   3.709      0.3229859  0.5883103  84.09      
  0.5832279  0.5335971  0.6328588 
970.4      
  0.235      0.281      -9999      -9999      5.783      2.986      
  2.992      1.834      1.185      0.1458559  0.1458559  0.3465135  
  1.408523   1.343891   3.56       0.3409454  0.5998072  84.328     
  0.6080533  0.5750411  0.6410655 
970.6      
  0.231      0.292      -9999      -9999      6.064      3.004      
  2.545      1.619      1.188      0.134361   0.134361   0.3453348  
  0.8626806  1.06798    3.426      0.2792398  0.5787545  84.499     
  0.6393145  0.6316126  0.6470164 
970.8      
  0.224      0.299      -9999      -9999      6.225      2.902      
  2.591      1.727      1.217      0.1167197  0.1167197  0.3339407  
  0.4065276  0.9362296  3.343      0.175806   0.5418953  84.584     
  0.6582454  0.6664993  0.6499916 
971        
  0.22       0.311      -9999      -9999      6.238      2.483      
  2.867      1.762      1.256      0.1009181  0.1009181  0.3186176  
  0.2072082  0.9263288  3.222      0.04815746 0.494062   84.584     
  0.6596953  0.669399   0.6499916 
971.2000000000001 
  0.221      0.321      -9999      -9999      6.199      2.329      
  2.825      1.731      1.263      0.09974734 0.09974734 0.3158673  
  0.1971155  0.9563491  3.118      0.02351456 0.4806878  84.558     
  0.654909   0.6607377  0.6490803 
971.4      
  0.22       0.326      -9999      -9999      6.233      2.382      
  2.548      1.676      1.245      0.1058691  0.1058691  0.3229395  
  0.2559237  0.9301245  3.068      0.06581981 0.494425   84.507     
  0.6577891  0.6682822  0.6472961 
971.6      
  0.218      0.325      -9999      -9999      6.314      2.641      
  3.05       1.995      1.211      0.1163025  0.1163025  0.3362981  
  0.3993577  0.8705078  3.075      0.140167   0.5239373  84.49      
  0.6666535  0.6866049  0.646702  
971.8      
  0.215      0.318      -9999      -9999      6.309      2.705      
  3.11       2.112      1.211      0.1162435  0.1162435  0.3362981  
  0.3983539  0.8740748  3.144      0.1486981  0.529107   84.533     
  0.6668323  0.6854595  0.648205  
972        
  0.214      0.313      -9999      -9999      6.225      2.845      
  2.978      2.063      1.228      0.111905   0.111905   0.3296188  
  0.3310624  0.9362296  3.194      0.1265151  0.5203541  84.669     
  0.6597388  0.6664993  0.6529782 
972.2000000000001 
  0.214      0.312      -9999      -9999      6.175      2.804      
  2.863      2.041      1.266      0.09779863 0.09779863 0.3146886  
  0.1813953  0.9753045  3.208      0.01976706 0.4833232  84.84      
  0.6572423  0.6554635  0.6590211 
972.4      
  0.214      0.309      -9999      -9999      6.126      2.893      
  3.502      2.333      1.29       0.08904872 0.08904872 0.305259   
  0.1248983  1.015181   3.234      0          0.4581928  85.023     
  0.6551827  0.6448256  0.6655399 
972.6      
  0.213      0.307      -9999      -9999      6.047      2.865      
  3.431      2.258      1.301      0.08653744 0.08653744 0.3009371  
  0.1122126  1.082932   3.26       0          0.4500171  85.185     
  0.6496959  0.6280372  0.6713547 
972.8      
  0.213      0.3        -9999      -9999      5.846      3.119      
  3.655      2.401      1.308      0.08985286 0.08985286 0.2981868  
  0.1292561  1.276405   3.34       0          0.4600544  85.296     
  0.631315   0.5872668  0.6753632 
973        
  0.213      0.294      -9999      -9999      5.632      3.343      
  3.071      2.347      1.322      0.09055042 0.09055042 0.2926862  
  0.1331593  1.520525   3.4        0          0.4595737  85.377     
  0.6125326  0.5467643  0.6783009 
