~Version
 VERS              .         2.0                           : CWLS LOG ASCII STANDARD - VERSION 2.0
 WRAP              .         YES                            : ONE LINE PER DEPTH STEP
 DLM               .         SPACE                         : DELIMITING CHARACTER(SPACE TAB OR COMMA)
~Well Information
#_______________________________________________________________________________
#
#PARAMETER_NAME    .UNIT     VALUE                         : DESCRIPTION
#_______________________________________________________________________________
STRT               .M        890                           : First reference value
STOP               .M        1240                          : Last reference value
STEP               .M        0.2                           : Step increment
NULL               .         -9999                         : Missing value
COMP               .                                       : Company
WELL               .         4724                          : Well name
FLD                .         Узень                         : Field
LOC                .                                       : Location
CNTY               .                                       : County
STAT               .                                       : State
CTRY               .                                       : Country
SRVC               .                                       : Service Company
DATE               .         27.03.1990                    : Date
UWI                .         4724                          : Unique Well ID
Block              .         7                             : 
Cartographic_reference_system .         GCS_WGS_1984                  : ESRI,PE_10_3_1- <?xml version="1.0" encoding="utf-16"?><ILateBoundCoordinateReferenceSystem name="GCS_WGS_1984"><AuthorityCode>EPSG,4326</AuthorityCode></ILateBoundCoordinateReferenceSystem>
Category           .         Нефтяная                      : 
Condition          .         В работе                      : 
EREF               .m        94.7                          : 100.8
Gorizont           .         15                            : 14
HZCS               .GCS_WGS_1984 WGS_1984_EASE-Grid_2.0_Global : ESRI,PE_10_3_1- <?xml version="1.0" encoding="utf-16"?><ILateBoundCoordinateReferenceSystem name="WGS_1984_EASE-Grid_2.0_Global"><AuthorityCode>EPSG,6933</AuthorityCode></ILateBoundCoordinateReferenceSystem>
Interpretator      .         Сагынбаева А.Н.               : 
Kupol              .         основной                      : osnovnoi
LATI               .dega     0.6662122985                  : GCS_WGS_1984
LONG               .dega     0.4357261975                  : GCS_WGS_1984
Mud                .         глинистый                     : 
Mud_density        .         1,18                          : 
Mud_resistivity    .         0                             : 
NGDU               .         НГДУ-2                        : 
ORIGINALWELLNAME   .         4724                          : 
Spud_date          .         1990                          : 1961
Viscosity          .         40                            : 
X                  .m        42041.6                       : 46154
Y                  .m        84989.03                      : 85761.93
YEAR               .         2018                          : 
~Parameter Information Block
#_______________________________________________________________________________
#
#PARAMETER_NAME    .UNIT     VALUE                         : DESCRIPTION
#_______________________________________________________________________________
SET                .         LQC_KAZNIPI_Petrel            : 
TLFamily_CALI      .         Caliper                       : 
TLFamily_CILD      .         Conductivity                  : 
TLFamily_COLL      .         Net Reservoir Flag            : 
TLFamily_CSAT      .         Fluid Code                    : 
TLFamily_DEPT      .         Measured Depth                : 
TLFamily_GR        .         Russian Gamma Ray             : 
TLFamily_LLS       .         Lateral Log Resistivity       : 
TLFamily_MINV      .         Micro Gradient Resistivity    : 
TLFamily_MNOR      .         Micro Resistivity             : 
TLFamily_NGLD      .         Neutron Gamma                 : 
TLFamily_PHIE      .         Effective Porosity            : 
TLFamily_PHIEN     .         Effective Porosity            : 
TLFamily_PHIT      .         Porosity                      : 
TLFamily_PRMB      .         Permeability                  : 
TLFamily_PRMB_DGR  .         Permeability                  : 
TLFamily_RT        .         Formation Resistivity         : 
TLFamily_SOIL_ARCHIE .         Oil Saturation                : 
TLFamily_SOIL_DW   .         Oil Saturation                : 
TLFamily_SP        .         Spontaneous Potential         : 
TLFamily_VSH_FIN   .         Shale Volume                  : 
TLFamily_VSH_GR    .         Shale Volume                  : 
TLFamily_VSH_SP    .         Shale Volume                  : 
~Curve Information
#_______________________________________________________________________________
#
#LOGNAME           .UNIT     LOG_ID                        : DESCRIPTION
#_______________________________________________________________________________
DEPT               .M                                      : Колонка глубины 
CALI               .м                                      : Каверномер 
CILD               .мСм/м                                  : Индукционный каротаж 
COLL               .unitless                               : Описание 
CSAT               .unitless                               :  
GR                 .uR/h                                   : Гамма каротаж 
LLS                .Ohmm                                   : Боковой каротаж 
MINV               .Ohmm                                   : Микро-градиент зонд 
MNOR               .Ohmm                                   : Микро-потенциал зонд 
NGLD               .у.е.                                   : Показания зонда НГК-60 аппаратуры ДРСТ-3-90 
PHIE               .v/v                                    : Описание 
PHIEN              .v/v                                    :  
PHIT               .v/v                                    : Описание 
PRMB               .mD                                     :  
PRMB_DGR           .mD                                     :  
RT                 .ohmm                                   : УЭС пласта 
SOIL_ARCHIE        .v/v                                    :  
SOIL_DW            .v/v                                    :  
SP                 .мВ                                     : Потенциал самополяризации 
VSH_FIN            .v/v                                    : Описание 
VSH_GR             .v/v                                    : Shale volume 
VSH_SP             .v/v                                    : Shale Volume 
~Ascii
# ...
1075.6     
  0.256      0.377      -9999      -9999      8.848      2.123      
  0.823      1.418      1.271      0.1122135  0.1122135  0.3127241  
  0.3354476  1.488903   2.657      0.04998947 0.4563224  82.408     
  0.6076078  0.5514765  0.6637391 
1075.8     
  0.244      0.363      -9999      -9999      8.491      2.358      
  1.219      1.484      1.302      0.1095335  0.1095335  0.3005442  
  0.2992162  1.93607    2.756      0.04629026 0.4475851  82.366     
  0.5788201  0.4953986  0.6622417 
1076       
  0.234      0.35       -9999      -9999      8.131      2.925      
  2.004      1.546      1.333      0.1057318  0.1057318  0.2883643  
  0.2544296  2.523099   2.861      0.03359818 0.4361249  82.366     
  0.5534319  0.444622   0.6622417 
1076.2     
  0.23       0.34       -9999      -9999      7.906      3.165      
  3.186      1.88       1.347      0.1050256  0.1050256  0.2828637  
  0.246881   2.977263   2.944      0.04089912 0.4358428  82.366     
  0.5389032  0.4155648  0.6622417 
1076.4     
  0.243      0.337      -9999      -9999      7.99       3.079      
  3.715      2.457      1.342      0.1053672  0.1053672  0.2848282  
  0.2505037  2.798859   2.972      0.04784641 0.4416502  82.344     
  0.5438212  0.4261838  0.6614586 
1076.6     
  0.251      0.34       -9999      -9999      8.239      2.578      
  2.938      2.611      1.323      0.1076174  0.1076174  0.2922933  
  0.2757354  2.330399   2.94       0.06044849 0.4520353  82.302     
  0.5596241  0.4592828  0.6599655 
1076.8     
  0.252      0.344      -9999      -9999      8.411      2.401      
  1.759      2.319      1.314      0.1081335  0.1081335  0.2958294  
  0.2818727  2.053427   2.906      0.05923453 0.4540273  82.131     
  0.5687754  0.4836358  0.6539151 
1077       
  0.244      0.34       -9999      -9999      8.598      2.337      
  0.99       1.795      1.314      0.1046345  0.1046345  0.2958294  
  0.2427967  1.78952    2.942      0.03747035 0.4510495  81.939     
  0.5793785  0.5115798  0.6471772 
1077.2     
  0.232      0.331      -9999      -9999      8.687      2.371      
  1.436      1.701      1.333      0.09610455 0.09610455 0.2883643  
  0.1687515  1.676111   3.027      0          0.4332019  81.726     
  0.5826054  0.5254409  0.6397699 
1077.4     
  0.221      0.318      -9999      -9999      8.505      2.438      
  2.194      1.798      1.352      0.09422463 0.09422463 0.2808992  
  0.1557496  1.916233   3.143      0          0.4302505  81.555     
  0.5656805  0.4974863  0.6338748 
1077.6     
  0.217      0.305      -9999      -9999      8.052      2.663      
  3.104      1.991      1.376      0.09605691 0.09605691 0.2714696  
  0.1684089  2.674073   3.283      0.01504456 0.4337892  81.41      
  0.5315536  0.4341953  0.6289118 
1077.8     
  0.216      0.291      -9999      -9999      7.547      3.11       
  3.78       2.385      1.393      0.1001292  0.1001292  0.2647903  
  0.2003522  3.877136   3.44       0.07062461 0.4460991  81.291     
  0.498973   0.373083   0.624863  
1078       
  0.219      0.282      -9999      -9999      7.131      3.786      
  3.989      3.011      1.377      0.1140771  0.1140771  0.2710767  
  0.3631974  5.265203   3.541      0.1816012  0.4870261  81.214     
  0.4757564  0.329258   0.6222548 
1078.2     
  0.224      0.286      -9999      -9999      6.91       4.002      
  4.312      3.383      1.338      0.1334573  0.1334573  0.2863998  
  0.830062   6.194702   3.506      0.2828014  0.5302647  81.112     
  0.4634621  0.30811    0.6188142 
1078.4     
  0.231      0.295      -9999      -9999      7.074      3.703      
  3.998      3.194      1.286      0.1519137  0.1519137  0.3068306  
  1.823759   5.490673   3.397      0.3497491  0.5647277  81.005     
  0.4694453  0.3236685  0.615222  
1078.6     
  0.236      0.304      -9999      -9999      7.481      3.068      
  3.787      2.617      1.247      0.1607605  0.1607605  0.3221537  
  2.659703   4.070023   3.294      0.3720203  0.5802695  80.92      
  0.4890702  0.3657594  0.6123811 
1078.8     
  0.238      0.311      -9999      -9999      8.025      2.694      
  3.123      2.178      1.233      0.1557843  0.1557843  0.3276543  
  2.151104   2.727716   3.214      0.3470954  0.5744191  80.877     
  0.5208181  0.430688   0.6109481 
1079       
  0.242      0.32       -9999      -9999      8.478      2.579      
  3.082      2.084      1.22       0.1506486  0.1506486  0.332762   
  1.727969   1.954674   3.128      0.3191412  0.5672999  80.856     
  0.5518587  0.4934677  0.6102495 
1079.2     
  0.247      0.336      -9999      -9999      8.838      2.459      
  2.94       2.018      1.212      0.1444933  0.1444933  0.3359052  
  1.328998   1.499896   2.98       0.2777048  0.5523823  80.856     
  0.580036   0.5498226  0.6102495 
1079.4     
  0.251      0.353      -9999      -9999      9.139      2.336      
  2.736      1.9        1.194      0.142607   0.142607   0.3429774  
  1.226267   1.20198    2.837      0.2523346  0.545034   80.924     
  0.6071832  0.6018515  0.6125147 
1079.6     
  0.254      0.37       -9999      -9999      9.404      2.251      
  2.525      1.747      1.192      0.1341753  0.1341753  0.3437632  
  0.8558746  0.9890878  2.702      0.1933299  0.5240412  81.103     
  0.6351148  0.6517183  0.6185113 
1079.8     
  0.249      0.383      -9999      -9999      9.615      2.236      
  2.535      1.651      1.199      0.1227178  0.1227178  0.3410129  
  0.5250365  0.846885   2.615      0.1146227  0.4979461  81.402     
  0.6615003  0.6943617  0.6286388 
1080       
  0.242      0.39       -9999      -9999      9.603      2.233      
  2.631      1.605      1.216      0.1144656  0.1144656  0.3343336  
  0.369265   0.8543942  2.567      0.0510677  0.4740573  81.752     
  0.6662668  0.6918634  0.6406702 
1080.2     
  0.237      0.394      -9999      -9999      9.562      2.216      
  2.517      1.543      1.22       0.1125239  0.1125239  0.332762   
  0.3399171  0.8805555  2.539      0.0318519  0.466379   82.059     
  0.6673883  0.683395   0.6513816 
1080.4     
  0.238      0.393      -9999      -9999      9.453      2.235      
  2.183      1.542      1.224      0.1130978  0.1130978  0.3311904  
  0.34834    0.9540703  2.544      0.03702161 0.466194   82.314     
  0.6608868  0.6613817  0.6603919 
1080.6     
  0.241      0.392      -9999      -9999      9.197      2.305      
  2.003      1.527      1.221      0.1209448  0.1209448  0.3323691  
  0.486799   1.151775   2.549      0.09250817 0.4803085  82.553     
  0.6406797  0.6124289  0.6689304 
1080.8     
  0.243      0.392      -9999      -9999      8.71       2.328      
  1.555      1.467      1.224      0.1322977  0.1322977  0.3311904  
  0.7900085  1.64799    2.55       0.1608758  0.4957094  82.758     
  0.6027053  0.5290836  0.6763269 
1081       
  0.245      0.393      -9999      -9999      8.199      2.249      
  1.495      1.398      1.232      0.1405502  0.1405502  0.3280472  
  1.123281   2.399989   2.546      0.2033672  0.503397   82.929     
  0.5681728  0.4537974  0.6825482 
1081.2     
  0.239      0.388      -9999      -9999      7.898      2.208      
  1.52       1.41       1.251      0.1189118  0.1189118  0.3205821  
  0.4463688  1.601233   2.58       0.08421972 0.4680744  83.048     
  0.611122   0.5353386  0.6869053 
1081.4     
  0.23       0.374      -9999      -9999      7.837      2.346      
  2.2        1.571      1.269      0.1127411  0.1127411  0.3135099  
  0.3430818  1.680601   2.678      0.05735179 0.4602307  83.184     
  0.6083901  0.5248671  0.6919131 
1081.6     
  0.222      0.36       -9999      -9999      7.692      2.602      
  2.879      1.818      1.278      0.1121317  0.1121317  0.3099738  
  0.3342796  1.885417   2.783      0.06983101 0.4655889  83.355     
  0.5995214  0.5007905  0.6982523 
1081.8     
  0.221      0.347      -9999      -9999      7.551      2.69       
  3.559      1.901      1.277      0.1154804  0.1154804  0.3103667  
  0.3855984  2.108493   2.881      0.1079725  0.4806337  83.474     
  0.5905646  0.4784378  0.7026915 
