~Version
 VERS              .         2.0                           : CWLS LOG ASCII STANDARD - VERSION 2.0
 WRAP              .         YES                            : ONE LINE PER DEPTH STEP
 DLM               .         SPACE                         : DELIMITING CHARACTER(SPACE TAB OR COMMA)
~Well Information
#_______________________________________________________________________________
#
#PARAMETER_NAME    .UNIT     VALUE                         : DESCRIPTION
#_______________________________________________________________________________
STRT               .M        890                           : First reference value
STOP               .M        1240                          : Last reference value
STEP               .M        0.2                           : Step increment
NULL               .         -9999                         : Missing value
COMP               .                                       : Company
WELL               .         4724                          : Well name
FLD                .         Узень                         : Field
LOC                .                                       : Location
CNTY               .                                       : County
STAT               .                                       : State
CTRY               .                                       : Country
SRVC               .                                       : Service Company
DATE               .         27.03.1990                    : Date
UWI                .         4724                          : Unique Well ID
Block              .         7                             : 
Cartographic_reference_system .         GCS_WGS_1984                  : ESRI,PE_10_3_1- <?xml version="1.0" encoding="utf-16"?><ILateBoundCoordinateReferenceSystem name="GCS_WGS_1984"><AuthorityCode>EPSG,4326</AuthorityCode></ILateBoundCoordinateReferenceSystem>
Category           .         Нефтяная                      : 
Condition          .         В работе                      : 
EREF               .m        94.7                          : 100.8
Gorizont           .         15                            : 14
HZCS               .GCS_WGS_1984 WGS_1984_EASE-Grid_2.0_Global : ESRI,PE_10_3_1- <?xml version="1.0" encoding="utf-16"?><ILateBoundCoordinateReferenceSystem name="WGS_1984_EASE-Grid_2.0_Global"><AuthorityCode>EPSG,6933</AuthorityCode></ILateBoundCoordinateReferenceSystem>
Interpretator      .         Сагынбаева А.Н.               : 
Kupol              .         основной                      : osnovnoi
LATI               .dega     0.6662122985                  : GCS_WGS_1984
LONG               .dega     0.4357261975                  : GCS_WGS_1984
Mud                .         глинистый                     : 
Mud_density        .         1,18                          : 
Mud_resistivity    .         0                             : 
NGDU               .         НГДУ-2                        : 
ORIGINALWELLNAME   .         4724                          : 
Spud_date          .         1990                          : 1961
Viscosity          .         40                            : 
X                  .m        42041.6                       : 46154
Y                  .m        84989.03                      : 85761.93
YEAR               .         2018                          : 
~Parameter Information Block
#_______________________________________________________________________________
#
#PARAMETER_NAME    .UNIT     VALUE                         : DESCRIPTION
#_______________________________________________________________________________
SET                .         LQC_KAZNIPI_Petrel            : 
TLFamily_CALI      .         Caliper                       : 
TLFamily_CILD      .         Conductivity                  : 
TLFamily_COLL      .         Net Reservoir Flag            : 
TLFamily_CSAT      .         Fluid Code                    : 
TLFamily_DEPT      .         Measured Depth                : 
TLFamily_GR        .         Russian Gamma Ray             : 
TLFamily_LLS       .         Lateral Log Resistivity       : 
TLFamily_MINV      .         Micro Gradient Resistivity    : 
TLFamily_MNOR      .         Micro Resistivity             : 
TLFamily_NGLD      .         Neutron Gamma                 : 
TLFamily_PHIE      .         Effective Porosity            : 
TLFamily_PHIEN     .         Effective Porosity            : 
TLFamily_PHIT      .         Porosity                      : 
TLFamily_PRMB      .         Permeability                  : 
TLFamily_PRMB_DGR  .         Permeability                  : 
TLFamily_RT        .         Formation Resistivity         : 
TLFamily_SOIL_ARCHIE .         Oil Saturation                : 
TLFamily_SOIL_DW   .         Oil Saturation                : 
TLFamily_SP        .         Spontaneous Potential         : 
TLFamily_VSH_FIN   .         Shale Volume                  : 
TLFamily_VSH_GR    .         Shale Volume                  : 
TLFamily_VSH_SP    .         Shale Volume                  : 
~Curve Information
#_______________________________________________________________________________
#
#LOGNAME           .UNIT     LOG_ID                        : DESCRIPTION
#_______________________________________________________________________________
DEPT               .M                                      : Колонка глубины 
CALI               .м                                      : Каверномер 
CILD               .мСм/м                                  : Индукционный каротаж 
COLL               .unitless                               : Описание 
CSAT               .unitless                               :  
GR                 .uR/h                                   : Гамма каротаж 
LLS                .Ohmm                                   : Боковой каротаж 
MINV               .Ohmm                                   : Микро-градиент зонд 
MNOR               .Ohmm                                   : Микро-потенциал зонд 
NGLD               .у.е.                                   : Показания зонда НГК-60 аппаратуры ДРСТ-3-90 
PHIE               .v/v                                    : Описание 
PHIEN              .v/v                                    :  
PHIT               .v/v                                    : Описание 
PRMB               .mD                                     :  
PRMB_DGR           .mD                                     :  
RT                 .ohmm                                   : УЭС пласта 
SOIL_ARCHIE        .v/v                                    :  
SOIL_DW            .v/v                                    :  
SP                 .мВ                                     : Потенциал самополяризации 
VSH_FIN            .v/v                                    : Описание 
VSH_GR             .v/v                                    : Shale volume 
VSH_SP             .v/v                                    : Shale Volume 
~Ascii
# ...
1146       
  0.209      0.113      1          2          7.277      5.304      
  3.375      3.485      1.392      0.2133528  0.2133528  0.2651832  
  25.05929   27.58879   8.873      0.6917216  0.743793   52.799     
  0.157062   0.1674229  0.1467011 
1146.2     
  0.209      0.12       1          2          7.359      5.11       
  3.578      3.633      1.361      0.2246966  0.2246966  0.2773631  
  40.65228   25.21128   8.378      0.6972759  0.7486431  52.531     
  0.1595954  0.1736986  0.1454923 
1146.4     
  0.209      0.126      1          2          7.399      5.134      
  3.674      3.615      1.344      0.2309961  0.2309961  0.2840424  
  53.1821    24.12699   7.933      0.6968124  0.7481732  52.339     
  0.1607465  0.1768447  0.1446484 
1146.6     
  0.21       0.133      1          2          7.427      5.261      
  3.3        3.458      1.331      0.2357955  0.2357955  0.2891501  
  65.26231   23.39586   7.509      0.6944182  0.7460274  52.254     
  0.1616807  0.1790808  0.1442806 
1146.8     
  0.21       0.14       1          2          7.422      5.419      
  3.027      3.317      1.339      0.2327249  0.2327249  0.2860069  
  57.2516    23.52477   7.131      0.6833264  0.7362766  52.245     
  0.1614606  0.1786794  0.1442418 
1147       
  0.21       0.145      1          2          7.4        5.565      
  3.081      3.416      1.35       0.2285548  0.2285548  0.281685   
  47.92347   24.1005    6.893      0.6731346  0.7273186  52.437     
  0.1610004  0.1769241  0.1450768 
1147.2     
  0.21       0.147      1          2          7.348      5.505      
  3.314      3.486      1.371      0.2205958  0.2205958  0.2734341  
  34.12927   25.51791   6.798      0.6606842  0.7164519  52.948     
  0.1601161  0.1728432  0.1473889 
1147.4     
  0.21       0.147      1          2          7.348      5.481      
  3.295      3.501      1.389      0.2130259  0.2130259  0.2663619  
  24.71236   25.51791   6.809      0.6504717  0.7080894  53.574     
  0.1616242  0.1728432  0.1504052 
1147.6     
  0.21       0.146      1          2          7.396      5.332      
  3.512      3.574      1.393      0.2103272  0.2103272  0.2647903  
  22.02561   24.20667   6.832      0.6471277  0.706008   54.17      
  0.1650397  0.1766067  0.1534726 
1147.8     
  0.21       0.146      1          2          7.435      5.276      
  3.719      3.769      1.4        0.2067354  0.2067354  0.26204    
  18.8973    23.19107   6.868      0.6426765  0.7028563  54.536     
  0.1675896  0.1797249  0.1554544 
1148       
  0.21       0.144      1          2          7.406      5.257      
  4.021      3.915      1.393      0.2096058  0.2096058  0.2647903  
  21.35824   23.94209   6.942      0.6487131  0.7079251  54.821     
  0.1672258  0.1774011  0.1570506 
1148.2     
  0.21       0.141      1          2          7.417      5.306      
  4.119      3.986      1.395      0.2084406  0.2084406  0.2640045  
  20.32277   23.65441   7.073      0.6500866  0.7094638  55.068     
  0.1683756  0.1782789  0.1584723 
1148.4     
  0.21       0.138      1          2          7.452      5.49       
  4.245      4.014      1.392      0.2092759  0.2092759  0.2651832  
  21.05985   22.76181   7.257      0.6554804  0.7143911  54.94      
  0.1694161  0.1811012  0.1577311 
1148.6     
  0.21       0.135      1          2          7.486      5.659      
  4.458      4.129      1.403      0.2049977  0.2049977  0.2608613  
  17.54737   21.92698   7.411      0.6526662  0.7121818  54.395     
  0.1692838  0.1838856  0.1546819 
1148.8     
  0.21       0.137      1          2          7.451      5.905      
  4.539      4.169      1.412      0.2026055  0.2026055  0.2573252  
  15.84538   22.78684   7.308      0.6467849  0.7064132  53.616     
  0.1658175  0.18102    0.150615  
1149       
  0.21       0.142      1          2          7.406      5.805      
  4.299      4.058      1.402      0.2076083  0.2076083  0.2612542  
  19.61409   23.94209   7.037      0.6480234  0.7064546  53.02      
  0.1625632  0.1774011  0.1477254 
1149.2     
  0.21       0.149      1          2          7.347      5.53       
  3.839      3.792      1.387      0.214519   0.214519   0.2671477  
  26.33729   25.54597   6.699      0.6499262  0.7070667  52.688     
  0.1594809  0.1727657  0.146196  
1149.4     
  0.21       0.154      1          2          7.267      5.239      
  3.387      3.535      1.376      0.2199248  0.2199248  0.2714696  
  33.16639   27.89367   6.498      0.6525002  0.7083939  52.582     
  0.1561964  0.1666733  0.1457195 
1149.6     
  0.21       0.157      1          2          7.17       5.252      
  3.017      3.289      1.377      0.2206128  0.2206128  0.2710767  
  34.15401   31.03151   6.353      0.6497547  0.7052265  52.704     
  0.1529211  0.1595737  0.1462684 
1149.8     
  0.209      0.161      1          2          7.133      5.321      
  2.867      3.175      1.378      0.2204161  0.2204161  0.2706838  
  33.86876   32.31935   6.21       0.6457178  0.7014895  53.016     
  0.1523263  0.156946   0.1477066 
1150       
  0.209      0.164      1          2          7.158      5.256      
  2.856      3.11       1.377      0.2202688  0.2202688  0.2710767  
  33.6567    31.44346   6.09       0.6422507  0.6987306  53.331     
  0.1539632  0.1587167  0.1492098 
1150.2     
  0.209      0.167      1          2          7.229      5.1        
  2.82       3.068      1.378      0.2185954  0.2185954  0.2706838  
  31.33825   29.08323   5.995      0.6371996  0.6951192  53.856     
  0.1578437  0.1638551  0.1518323 
1150.4     
  0.209      0.169      1          2          7.32       5.026      
  2.778      3.035      1.381      0.21585    0.21585    0.2695051  
  27.87556   26.31534   5.93       0.6313027  0.6910371  54.361     
  0.1625912  0.170685   0.1544974 
1150.6     
  0.209      0.17       1          2          7.362      5.048      
  2.728      3.036      1.385      0.2132969  0.2132969  0.2679335  
  24.99962   25.12829   5.877      0.6258891  0.687031   54.847     
  0.1655656  0.1739326  0.1571986 
1150.8     
  0.209      0.171      1          2          7.383      5.12       
  2.734      3.065      1.389      0.2112702  0.2112702  0.2663619  
  22.92953   24.555     5.833      0.6214327  0.6835122  55.04      
  0.1669444  0.1755794  0.1583094 
1151       
  0.209      0.173      1          2          7.359      5.073      
  2.696      3.049      1.381      0.2145983  0.2145983  0.2695051  
  26.42645   25.21128   5.784      0.6250699  0.6863955  55.17      
  0.1663842  0.1736986  0.1590699 
1151.2     
  0.209      0.175      1          2          7.337      4.947      
  2.671      3.037      1.372      0.2183497  0.2183497  0.2730412  
  31.01156   25.82828   5.727      0.6289661  0.6894819  55.238     
  0.165732   0.1719921  0.1594718 
1151.4     
  0.209      0.177      1          2          7.355      4.854      
  2.574      2.958      1.36       0.2227557  0.2227557  0.277756   
  37.42258   25.32235   5.648      0.6329816  0.692995   55.318     
  0.1666676  0.1733871  0.1599481 
1151.6     
  0.209      0.18       1          2          7.42       4.832      
  2.579      2.953      1.354      0.2241762  0.2241762  0.2801134  
  39.75981   23.57654   5.556      0.6321841  0.6927978  55.409     
  0.1695069  0.1785191  0.1604946 
1151.8     
  0.209      0.185      1          2          7.468      4.825      
  2.581      2.948      1.355      0.2230398  0.2230398  0.2797205  
  37.87881   22.36506   5.405      0.6257445  0.6876156  55.511     
  0.1717597  0.1824062  0.1611131 
1152       
  0.209      0.191      1          2          7.362      4.795      
  2.663      2.996      1.362      0.2215846  0.2215846  0.2769702  
  35.59934   25.12829   5.237      0.6179861  0.6799427  55.613     
  0.1678353  0.1739326  0.1617379 
1152.2     
  0.209      0.2        1          2          7.201      4.7        
  2.672      3.008      1.375      0.2182502  0.2182502  0.2718625  
  30.88034   29.99209   5.011      0.6048114  0.6671416  55.834     
  0.1624614  0.1618091  0.1631137 
