~Version
 VERS              .         2.0                           : CWLS LOG ASCII STANDARD - VERSION 2.0
 WRAP              .         YES                            : ONE LINE PER DEPTH STEP
 DLM               .         SPACE                         : DELIMITING CHARACTER(SPACE TAB OR COMMA)
~Well Information
#_______________________________________________________________________________
#
#PARAMETER_NAME    .UNIT     VALUE                         : DESCRIPTION
#_______________________________________________________________________________
STRT               .M        890                           : First reference value
STOP               .M        1240                          : Last reference value
STEP               .M        0.2                           : Step increment
NULL               .         -9999                         : Missing value
COMP               .                                       : Company
WELL               .         4724                          : Well name
FLD                .         Узень                         : Field
LOC                .                                       : Location
CNTY               .                                       : County
STAT               .                                       : State
CTRY               .                                       : Country
SRVC               .                                       : Service Company
DATE               .         27.03.1990                    : Date
UWI                .         4724                          : Unique Well ID
Block              .         7                             : 
Cartographic_reference_system .         GCS_WGS_1984                  : ESRI,PE_10_3_1- <?xml version="1.0" encoding="utf-16"?><ILateBoundCoordinateReferenceSystem name="GCS_WGS_1984"><AuthorityCode>EPSG,4326</AuthorityCode></ILateBoundCoordinateReferenceSystem>
Category           .         Нефтяная                      : 
Condition          .         В работе                      : 
EREF               .m        94.7                          : 100.8
Gorizont           .         15                            : 14
HZCS               .GCS_WGS_1984 WGS_1984_EASE-Grid_2.0_Global : ESRI,PE_10_3_1- <?xml version="1.0" encoding="utf-16"?><ILateBoundCoordinateReferenceSystem name="WGS_1984_EASE-Grid_2.0_Global"><AuthorityCode>EPSG,6933</AuthorityCode></ILateBoundCoordinateReferenceSystem>
Interpretator      .         Сагынбаева А.Н.               : 
Kupol              .         основной                      : osnovnoi
LATI               .dega     0.6662122985                  : GCS_WGS_1984
LONG               .dega     0.4357261975                  : GCS_WGS_1984
Mud                .         глинистый                     : 
Mud_density        .         1,18                          : 
Mud_resistivity    .         0                             : 
NGDU               .         НГДУ-2                        : 
ORIGINALWELLNAME   .         4724                          : 
Spud_date          .         1990                          : 1961
Viscosity          .         40                            : 
X                  .m        42041.6                       : 46154
Y                  .m        84989.03                      : 85761.93
YEAR               .         2018                          : 
~Parameter Information Block
#_______________________________________________________________________________
#
#PARAMETER_NAME    .UNIT     VALUE                         : DESCRIPTION
#_______________________________________________________________________________
SET                .         LQC_KAZNIPI_Petrel            : 
TLFamily_CALI      .         Caliper                       : 
TLFamily_CILD      .         Conductivity                  : 
TLFamily_COLL      .         Net Reservoir Flag            : 
TLFamily_CSAT      .         Fluid Code                    : 
TLFamily_DEPT      .         Measured Depth                : 
TLFamily_GR        .         Russian Gamma Ray             : 
TLFamily_LLS       .         Lateral Log Resistivity       : 
TLFamily_MINV      .         Micro Gradient Resistivity    : 
TLFamily_MNOR      .         Micro Resistivity             : 
TLFamily_NGLD      .         Neutron Gamma                 : 
TLFamily_PHIE      .         Effective Porosity            : 
TLFamily_PHIEN     .         Effective Porosity            : 
TLFamily_PHIT      .         Porosity                      : 
TLFamily_PRMB      .         Permeability                  : 
TLFamily_PRMB_DGR  .         Permeability                  : 
TLFamily_RT        .         Formation Resistivity         : 
TLFamily_SOIL_ARCHIE .         Oil Saturation                : 
TLFamily_SOIL_DW   .         Oil Saturation                : 
TLFamily_SP        .         Spontaneous Potential         : 
TLFamily_VSH_FIN   .         Shale Volume                  : 
TLFamily_VSH_GR    .         Shale Volume                  : 
TLFamily_VSH_SP    .         Shale Volume                  : 
~Curve Information
#_______________________________________________________________________________
#
#LOGNAME           .UNIT     LOG_ID                        : DESCRIPTION
#_______________________________________________________________________________
DEPT               .M                                      : Колонка глубины 
CALI               .м                                      : Каверномер 
CILD               .мСм/м                                  : Индукционный каротаж 
COLL               .unitless                               : Описание 
CSAT               .unitless                               :  
GR                 .uR/h                                   : Гамма каротаж 
LLS                .Ohmm                                   : Боковой каротаж 
MINV               .Ohmm                                   : Микро-градиент зонд 
MNOR               .Ohmm                                   : Микро-потенциал зонд 
NGLD               .у.е.                                   : Показания зонда НГК-60 аппаратуры ДРСТ-3-90 
PHIE               .v/v                                    : Описание 
PHIEN              .v/v                                    :  
PHIT               .v/v                                    : Описание 
PRMB               .mD                                     :  
PRMB_DGR           .mD                                     :  
RT                 .ohmm                                   : УЭС пласта 
SOIL_ARCHIE        .v/v                                    :  
SOIL_DW            .v/v                                    :  
SP                 .мВ                                     : Потенциал самополяризации 
VSH_FIN            .v/v                                    : Описание 
VSH_GR             .v/v                                    : Shale volume 
VSH_SP             .v/v                                    : Shale Volume 
~Ascii
# ...
1056.4     
  0.266      0.417      -9999      -9999      8.808      2.009      
  0.657      1.273      1.121      0.1849736  0.1849736  0.3716591  
  7.469938   1.533366   2.4        0.3552256  0.5733347  80.131     
  0.5657137  0.54489    0.5865374 
1056.6     
  0.267      0.411      -9999      -9999      8.85       2.041      
  0.632      1.204      1.121      0.1831082  0.1831082  0.3716591  
  6.898681   1.486713   2.432      0.3535391  0.5745003  80.267     
  0.5713663  0.5518081  0.5909246 
1056.8     
  0.268      0.407      -9999      -9999      8.765      2.133      
  0.657      1.265      1.125      0.1831678  0.1831678  0.3700875  
  6.91625    1.582644   2.458      0.3569395  0.575702   80.391     
  0.5664232  0.5378973  0.5949491 
1057       
  0.266      0.404      -9999      -9999      8.616      2.182      
  0.626      1.282      1.138      0.1814389  0.1814389  0.3649798  
  6.424615   1.76598    2.478      0.3540669  0.5722289  80.485     
  0.5561845  0.5143534  0.5980155 
1057.2     
  0.264      0.402      -9999      -9999      8.605      2.223      
  0.644      1.333      1.154      0.1750164  0.1750164  0.3586934  
  4.885249   1.780329   2.486      0.3344778  0.562315   80.562     
  0.5565969  0.5126566  0.6005372 
1057.4     
  0.264      0.401      -9999      -9999      8.738      2.27       
  0.673      1.382      1.167      0.1659781  0.1659781  0.3535857  
  3.322574   1.614392   2.497      0.3044648  0.5504041  80.651     
  0.5685079  0.5335523  0.6034635 
1057.6     
  0.266      0.399      -9999      -9999      8.939      2.261      
  0.689      1.408      1.177      0.1560743  0.1560743  0.3496567  
  2.177871   1.392495   2.504      0.2671418  0.5373037  80.742     
  0.5866134  0.566759   0.6064677 
1057.8     
  0.268      0.399      -9999      -9999      9.044      2.194      
  0.671      1.374      1.17       0.1553906  0.1553906  0.352407   
  2.115284   1.288986   2.506      0.2646099  0.5389985  80.822     
  0.5970195  0.5849196  0.6091195 
1058       
  0.27       0.401      -9999      -9999      9.119      2.063      
  0.606      1.288      1.168      0.1536042  0.1536042  0.3531928  
  1.960111   1.219795   2.495      0.2556317  0.5366394  80.89      
  0.6048139  0.5982468  0.6113811 
1058.2     
  0.268      0.402      -9999      -9999      9.214      2.046      
  0.566      1.183      1.178      0.1470375  0.1470375  0.3492638  
  1.48132    1.137461   2.49       0.2260318  0.5252826  80.85      
  0.6128071  0.6155643  0.6100498 
1058.4     
  0.264      0.401      -9999      -9999      9.291      2.096      
  0.563      1.216      1.208      0.1332135  0.1332135  0.3374768  
  0.8214769  1.074821   2.495      0.1573242  0.4975137  80.788     
  0.6189798  0.6299681  0.6079914 
1058.6     
  0.258      0.399      -9999      -9999      9.313      2.186      
  0.648      1.266      1.234      0.1224511  0.1224511  0.3272614  
  0.5190977  1.057567   2.508      0.09538087 0.473141   80.762     
  0.6206374  0.6341448  0.6071299 
1058.8     
  0.254      0.399      -9999      -9999      9.286      2.218      
  0.776      1.465      1.251      0.1157064  0.1157064  0.3205821  
  0.3893333  1.078782   2.508      0.04962341 0.4552441  80.928     
  0.6208354  0.6290226  0.6126481 
1059       
  0.253      0.401      -9999      -9999      9.327      2.191      
  0.872      1.484      1.244      0.115658   0.115658   0.3233324  
  0.3885307  1.046731   2.495      0.04695578 0.4567597  81.201     
  0.6293163  0.6368173  0.6218154 
1059.2     
  0.253      0.403      -9999      -9999      9.464      2.158      
  0.947      1.515      1.225      0.1173182  0.1173182  0.3307975  
  0.4170384  0.9463813  2.482      0.05640247 0.4660234  81.449     
  0.6469069  0.6635706  0.6302432 
1059.4     
  0.253      0.404      -9999      -9999      9.621      2.137      
  0.837      1.376      1.2        0.1208627  0.1208627  0.34062    
  0.4850964  0.8431549  2.477      0.07967936 0.4809904  81.624     
  0.6659312  0.6956145  0.636248  
1059.6     
  0.253      0.403      -9999      -9999      9.726      2.135      
  0.783      1.32       1.187      0.1219055  0.1219055  0.3457277  
  0.5071588  0.7804806  2.48       0.08705873 0.4878382  81.692     
  0.678249   0.7179039  0.6385942 
1059.8     
  0.254      0.403      -9999      -9999      9.74       2.136      
  0.692      1.286      1.177      0.1251413  0.1251413  0.3496567  
  0.5822094  0.7724837  2.484      0.1083279  0.4966419  81.726     
  0.6803495  0.7209292  0.6397699 
1060       
  0.258      0.402      -9999      -9999      9.728      2.145      
  0.751      1.329      1.182      0.1236048  0.1236048  0.3476922  
  0.5452802  0.7793332  2.487      0.09919226 0.4929064  81.726     
  0.6790525  0.7183352  0.6397699 
1060.2     
  0.262      0.402      -9999      -9999      9.563      2.156      
  0.756      1.398      1.19       0.1259986  0.1259986  0.344549   
  0.60389    0.8799083  2.485      0.1137814  0.4931534  81.76      
  0.6622739  0.6836001  0.6409476 
1060.4     
  0.265      0.403      -9999      -9999      9.357      2.132      
  0.702      1.326      1.196      0.1300197  0.1300197  0.3421916  
  0.7168673  1.023883   2.484      0.1375379  0.4964724  81.828     
  0.6429451  0.642582   0.6433082 
1060.6     
  0.263      0.401      -9999      -9999      9.185      2.126      
  0.63       1.218      1.195      0.1351592  0.1351592  0.3425845  
  0.8925523  1.161986   2.494      0.1677427  0.5048127  81.931     
  0.6285616  0.6102255  0.6468976 
1060.8     
  0.26       0.395      -9999      -9999      9.214      2.158      
  0.609      1.107      1.194      0.1338849  0.1338849  0.3429774  
  0.8453404  1.137461   2.53       0.1664726  0.5070232  82.067     
  0.6336136  0.6155643  0.6516628 
1061       
  0.253      0.389      -9999      -9999      9.179      2.291      
  0.678      1.171      1.201      0.131604   0.131604   0.3402271  
  0.7669804  1.167127   2.572      0.1604166  0.5054874  82.169     
  0.6321911  0.6091266  0.6552557 
1061.2     
  0.246      0.384      -9999      -9999      9.082      2.45       
  0.784      1.372      1.203      0.1333019  0.1333019  0.3394413  
  0.8245786  1.253452   2.606      0.1748387  0.5102671  82.238     
  0.624665   0.5916345  0.6576956 
1061.4     
  0.245      0.386      -9999      -9999      8.925      2.578      
  0.852      1.561      1.199      0.1398719  0.1398719  0.3410129  
  1.091251   1.406909   2.591      0.2065539  0.5187867  82.152     
  0.6095182  0.5643806  0.6546558 
1061.6     
  0.252      0.391      -9999      -9999      8.842      2.491      
  0.881      1.573      1.19       0.1472287  0.1472287  0.344549   
  1.493449   1.495489   2.555      0.2361998  0.5275507  81.888     
  0.5979403  0.5504835  0.6453971 
1061.8     
  0.265      0.404      -9999      -9999      8.903      2.296      
  0.768      1.386      1.183      0.1502005  0.1502005  0.3472993  
  1.695261   1.429864   2.479      0.2386668  0.5262778  81.555     
  0.597269   0.5606632  0.6338748 
1062       
  0.276      0.414      -9999      -9999      9.101      2.068      
  0.671      1.195      1.19       0.1435534  0.1435534  0.344549   
  1.276776   1.236055   2.416      0.1984286  0.5096018  81.24      
  0.6090776  0.5950207  0.6231344 
1062.2     
  0.274      0.425      -9999      -9999      9.436      1.973      
  0.577      1.065      1.204      0.1284219  0.1284219  0.3390484  
  0.6696433  0.9660763  2.351      0.1053936  0.4770404  81.103     
  0.6382621  0.6580129  0.6185113 
1062.4     
  0.269      0.431      -9999      -9999      9.772      1.925      
  0.623      1.055      1.217      0.111895   0.111895   0.3339407  
  0.3309217  0.7545116  2.318      0          0.4417309  81.083     
  0.6728657  0.7278925  0.6178389 
1062.6     
  0.268      0.435      -9999      -9999      9.931      1.916      
  0.622      1.039      1.212      0.107445   0.107445   0.3359052  
  0.2737165  0.6712255  2.297      0          0.4335224  81.18      
  0.6923035  0.7635008  0.6211062 
