~Version
 VERS              .         2.0                           : CWLS LOG ASCII STANDARD - VERSION 2.0
 WRAP              .         YES                            : ONE LINE PER DEPTH STEP
 DLM               .         SPACE                         : DELIMITING CHARACTER(SPACE TAB OR COMMA)
~Well Information
#_______________________________________________________________________________
#
#PARAMETER_NAME    .UNIT     VALUE                         : DESCRIPTION
#_______________________________________________________________________________
STRT               .M        890                           : First reference value
STOP               .M        1240                          : Last reference value
STEP               .M        0.2                           : Step increment
NULL               .         -9999                         : Missing value
COMP               .                                       : Company
WELL               .         4724                          : Well name
FLD                .         Узень                         : Field
LOC                .                                       : Location
CNTY               .                                       : County
STAT               .                                       : State
CTRY               .                                       : Country
SRVC               .                                       : Service Company
DATE               .         27.03.1990                    : Date
UWI                .         4724                          : Unique Well ID
Block              .         7                             : 
Cartographic_reference_system .         GCS_WGS_1984                  : ESRI,PE_10_3_1- <?xml version="1.0" encoding="utf-16"?><ILateBoundCoordinateReferenceSystem name="GCS_WGS_1984"><AuthorityCode>EPSG,4326</AuthorityCode></ILateBoundCoordinateReferenceSystem>
Category           .         Нефтяная                      : 
Condition          .         В работе                      : 
EREF               .m        94.7                          : 100.8
Gorizont           .         15                            : 14
HZCS               .GCS_WGS_1984 WGS_1984_EASE-Grid_2.0_Global : ESRI,PE_10_3_1- <?xml version="1.0" encoding="utf-16"?><ILateBoundCoordinateReferenceSystem name="WGS_1984_EASE-Grid_2.0_Global"><AuthorityCode>EPSG,6933</AuthorityCode></ILateBoundCoordinateReferenceSystem>
Interpretator      .         Сагынбаева А.Н.               : 
Kupol              .         основной                      : osnovnoi
LATI               .dega     0.6662122985                  : GCS_WGS_1984
LONG               .dega     0.4357261975                  : GCS_WGS_1984
Mud                .         глинистый                     : 
Mud_density        .         1,18                          : 
Mud_resistivity    .         0                             : 
NGDU               .         НГДУ-2                        : 
ORIGINALWELLNAME   .         4724                          : 
Spud_date          .         1990                          : 1961
Viscosity          .         40                            : 
X                  .m        42041.6                       : 46154
Y                  .m        84989.03                      : 85761.93
YEAR               .         2018                          : 
~Parameter Information Block
#_______________________________________________________________________________
#
#PARAMETER_NAME    .UNIT     VALUE                         : DESCRIPTION
#_______________________________________________________________________________
SET                .         LQC_KAZNIPI_Petrel            : 
TLFamily_CALI      .         Caliper                       : 
TLFamily_CILD      .         Conductivity                  : 
TLFamily_COLL      .         Net Reservoir Flag            : 
TLFamily_CSAT      .         Fluid Code                    : 
TLFamily_DEPT      .         Measured Depth                : 
TLFamily_GR        .         Russian Gamma Ray             : 
TLFamily_LLS       .         Lateral Log Resistivity       : 
TLFamily_MINV      .         Micro Gradient Resistivity    : 
TLFamily_MNOR      .         Micro Resistivity             : 
TLFamily_NGLD      .         Neutron Gamma                 : 
TLFamily_PHIE      .         Effective Porosity            : 
TLFamily_PHIEN     .         Effective Porosity            : 
TLFamily_PHIT      .         Porosity                      : 
TLFamily_PRMB      .         Permeability                  : 
TLFamily_PRMB_DGR  .         Permeability                  : 
TLFamily_RT        .         Formation Resistivity         : 
TLFamily_SOIL_ARCHIE .         Oil Saturation                : 
TLFamily_SOIL_DW   .         Oil Saturation                : 
TLFamily_SP        .         Spontaneous Potential         : 
TLFamily_VSH_FIN   .         Shale Volume                  : 
TLFamily_VSH_GR    .         Shale Volume                  : 
TLFamily_VSH_SP    .         Shale Volume                  : 
~Curve Information
#_______________________________________________________________________________
#
#LOGNAME           .UNIT     LOG_ID                        : DESCRIPTION
#_______________________________________________________________________________
DEPT               .M                                      : Колонка глубины 
CALI               .м                                      : Каверномер 
CILD               .мСм/м                                  : Индукционный каротаж 
COLL               .unitless                               : Описание 
CSAT               .unitless                               :  
GR                 .uR/h                                   : Гамма каротаж 
LLS                .Ohmm                                   : Боковой каротаж 
MINV               .Ohmm                                   : Микро-градиент зонд 
MNOR               .Ohmm                                   : Микро-потенциал зонд 
NGLD               .у.е.                                   : Показания зонда НГК-60 аппаратуры ДРСТ-3-90 
PHIE               .v/v                                    : Описание 
PHIEN              .v/v                                    :  
PHIT               .v/v                                    : Описание 
PRMB               .mD                                     :  
PRMB_DGR           .mD                                     :  
RT                 .ohmm                                   : УЭС пласта 
SOIL_ARCHIE        .v/v                                    :  
SOIL_DW            .v/v                                    :  
SP                 .мВ                                     : Потенциал самополяризации 
VSH_FIN            .v/v                                    : Описание 
VSH_GR             .v/v                                    : Shale volume 
VSH_SP             .v/v                                    : Shale Volume 
~Ascii
# ...
941.2000000000001 
  0.212      0.132      -9999      -9999      4.466      8.007      
  4.984      4.55       1.76       0.01       0          0.120596   
  0.004289259 3.945594   7.567      0          0          82.223     
  0.4709672  0.3704261  0.5715083 
941.4      
  0.213      0.132      -9999      -9999      4.464      7.535      
  4.985      4.553      1.724      0.01       0          0.1347404  
  0.004289259 3.952051   7.607      0          0          82.214     
  0.4707021  0.3701788  0.5712252 
941.6      
  0.213      0.136      -9999      -9999      4.446      6.554      
  4.876      4.229      1.688      0.01       0          0.1488848  
  0.004289259 4.010656   7.376      0          0          82.172     
  0.4689334  0.3679605  0.5699064 
941.8      
  0.213      0.135      -9999      -9999      4.362      5.13       
  4.609      3.636      1.667      0.01       0.004310027 0.1571357  
  0.004289259 4.29585    7.401      0          0.0000873  82.125     
  0.463108   0.3577825  0.5684336 
942        
  0.213      0.13       -9999      -9999      4.208      5.519      
  4.379      3.082      1.679      0.01       0.002600834 0.1524209  
  0.004289259 4.872412   7.698      0          0          82.116     
  0.4540002  0.3398485  0.5681519 
942.2000000000001 
  0.214      0.123      -9999      -9999      3.954      7.856      
  4.492      3.442      1.725      0.01       0          0.1343475  
  0.004289259 5.997293   8.139      0          0          82.142     
  0.4405888  0.3122116  0.5689659 
942.4      
  0.214      0.119      -9999      -9999      3.797      10.128     
  4.76       4.037      1.789      0.01       0          0.1092019  
  0.004289259 6.818922   8.441      0          0          82.206     
  0.4336194  0.2962649  0.5709739 
942.6      
  0.215      0.122      -9999      -9999      3.715      10.432     
  4.991      4.59       1.827      0.01       0          0.09427169 
  0.004289259 7.291873   8.218      0          0          82.342     
  0.4317619  0.2882625  0.5752612 
942.8      
  0.215      0.129      -9999      -9999      3.787      8.205      
  4.677      4.05       1.757      0.01       0          0.1217747  
  0.004289259 6.874915   7.81       0          0          82.513     
  0.4379841  0.2952772  0.5806909 
943        
  0.215      0.132      -9999      -9999      3.985      5.934      
  4.366      3.394      1.659      0.0113569  0.0113569  0.1602789  
  0.004544806 5.847164   7.568      0          0.04651308 82.713     
  0.4512787  0.3154604  0.5870972 
943.2000000000001 
  0.214      0.13       -9999      -9999      4.191      5.82       
  4.371      3.013      1.623      0.02074913 0.02074913 0.1744233  
  0.006783943 4.940625   7.677      0          0.2115537  82.909     
  0.4656793  0.3379247  0.5934339 
943.4      
  0.213      0.13       -9999      -9999      4.403      5.912      
  4.182      3.501      1.614      0.0187714  0.0187714  0.1779594  
  0.006235192 4.154201   7.725      0          0.209601   83.173     
  0.4823879  0.3627146  0.6020613 
943.6      
  0.213      0.134      -9999      -9999      4.512      5.928      
  3.922      3.455      1.628      0.01       0.00986355 0.1724588  
  0.004289259 3.799923   7.462      0          0.08043677 83.391     
  0.4927129  0.3761601  0.6092656 
943.8      
  0.213      0.137      -9999      -9999      4.63       7.119      
  3.724      3.486      1.605      0.01547047 0.01547047 0.1814955  
  0.005416375 3.45037    7.304      0          0.1694552  83.561     
  0.5031061  0.3912782  0.6149341 
944        
  0.213      0.138      -9999      -9999      4.862      8.145      
  3.745      3.931      1.582      0.01893047 0.01893047 0.1905322  
  0.006277638 2.854094   7.256      0          0.2289896  83.629     
  0.5200052  0.4227964  0.617214  
944.2000000000001 
  0.214      0.14       -9999      -9999      5.043      7.427      
  3.837      4.058      1.54       0.03060834 0.03060834 0.207034   
  0.01032996 2.461409   7.14       0          0.3454155  83.715     
  0.5346233  0.449139   0.6201075 
944.4      
  0.214      0.155      -9999      -9999      5.214      5.282      
  4.003      3.709      1.475      0.0512232  0.0512232  0.2325725  
  0.0248849  2.140183   6.553      0          0.4543818  83.817     
  0.5495433  0.4755323  0.6235544 
944.6      
  0.215      0.172      -9999      -9999      5.62       3.556      
  4.2        2.939      1.411      0.06425886 0.06425886 0.2577181  
  0.04338983 1.53552    5.886      0          0.499728   83.945     
  0.5862401  0.5445777  0.6279025 
944.8      
  0.215      0.186      -9999      -9999      5.897      3.656      
  3.949      2.594      1.38       0.06681664 0.06681664 0.269898   
  0.04839097 1.224265   5.374      0          0.4989522  84.107     
  0.615398   0.5973538  0.6334422 
945        
  0.216      0.193      -9999      -9999      5.996      3.917      
  3.215      2.389      1.386      0.06003144 0.06003144 0.2675406  
  0.03623147 1.129053   5.182      0          0.4695808  84.303     
  0.6288156  0.6174319  0.6401992 
945.2000000000001 
  0.217      0.2        -9999      -9999      5.938      4.2        
  2.698      2.443      1.397      0.05688428 0.05688428 0.2632187  
  0.03168056 1.183896   4.994      0          0.4446553  84.439     
  0.6252559  0.6055886  0.6449232 
945.4      
  0.217      0.206      -9999      -9999      5.745      4.384      
  2.86       2.843      1.403      0.06049312 0.06049312 0.2608613  
  0.03695195 1.386309   4.846      0          0.4430123  84.486     
  0.6071763  0.5677903  0.6465623 
945.6      
  0.218      0.21       -9999      -9999      5.585      4.585      
  3.283      3.057      1.419      0.05932832 0.05932832 0.2545749  
  0.0351611  1.580105   4.772      0          0.4257136  84.443     
  0.5916563  0.53825    0.6450625 
945.8      
  0.218      0.209      -9999      -9999      5.52       4.395      
  3.607      3.227      1.446      0.05086825 0.05086825 0.2439666  
  0.02451102 1.66637    4.782      0          0.3812413  84.401     
  0.5851465  0.5266929  0.6436003 
946        
  0.218      0.209      -9999      -9999      5.509      4.271      
  3.195      3.033      1.463      0.04463376 0.04463376 0.2372873  
  0.01878813 1.681428   4.796      0          0.3458894  84.379     
  0.5837985  0.5247617  0.6428354 
946.2000000000001 
  0.218      0.208      -9999      -9999      5.513      4.19       
  2.797      2.715      1.466      0.04360852 0.04360852 0.2361086  
  0.01798431 1.675937   4.798      0          0.3394324  84.332     
  0.5833336  0.5254632  0.6412041 
946.4      
  0.218      0.203      -9999      -9999      5.409      4.589      
  2.392      2.473      1.466      0.04709884 0.04709884 0.2361086  
  0.02087098 1.824713   4.944      0          0.3631528  84.239     
  0.5727569  0.5075276  0.6379861 
946.6      
  0.219      0.194      -9999      -9999      5.178      4.704      
  2.706      2.626      1.494      0.04309256 0.04309256 0.2251074  
  0.01759288 2.204129   5.181      0          0.3398502  84.102     
  0.5515602  0.4698498  0.6332705 
946.8      
  0.22       0.176      -9999      -9999      4.845      5.447      
  2.962      2.848      1.548      0.0312572  0.0312572  0.2038908  
  0.01061982 2.894049   5.745      0          0.2656994  83.885     
  0.5231321  0.4204031  0.6258612 
947        
  0.22       0.159      -9999      -9999      4.555      7.381      
  3.161      3.079      1.621      0.01040471 0.01040471 0.1752091  
  0.004363938 3.668622   6.373      0          0.02385882 83.629     
  0.4994072  0.3816004  0.617214  
947.2000000000001 
  0.219      0.142      -9999      -9999      4.333      9.792      
  3.745      3.635      1.694      0.01       0          0.1465274  
  0.004289259 4.398948   7.072      0          0          83.374     
  0.4815179  0.3543344  0.6087012 
947.4      
  0.22       0.135      -9999      -9999      4.191      9.389      
  3.474      3.944      1.767      0.01       0          0.1178457  
  0.004289259 4.940625   7.424      0          0          83.28      
  0.4717565  0.3379247  0.6055883 
