~Version
 VERS              .         2.0                           : CWLS LOG ASCII STANDARD - VERSION 2.0
 WRAP              .         YES                            : ONE LINE PER DEPTH STEP
 DLM               .         SPACE                         : DELIMITING CHARACTER(SPACE TAB OR COMMA)
~Well Information
#_______________________________________________________________________________
#
#PARAMETER_NAME    .UNIT     VALUE                         : DESCRIPTION
#_______________________________________________________________________________
STRT               .M        890                           : First reference value
STOP               .M        1240                          : Last reference value
STEP               .M        0.2                           : Step increment
NULL               .         -9999                         : Missing value
COMP               .                                       : Company
WELL               .         4724                          : Well name
FLD                .         Узень                         : Field
LOC                .                                       : Location
CNTY               .                                       : County
STAT               .                                       : State
CTRY               .                                       : Country
SRVC               .                                       : Service Company
DATE               .         27.03.1990                    : Date
UWI                .         4724                          : Unique Well ID
Block              .         7                             : 
Cartographic_reference_system .         GCS_WGS_1984                  : ESRI,PE_10_3_1- <?xml version="1.0" encoding="utf-16"?><ILateBoundCoordinateReferenceSystem name="GCS_WGS_1984"><AuthorityCode>EPSG,4326</AuthorityCode></ILateBoundCoordinateReferenceSystem>
Category           .         Нефтяная                      : 
Condition          .         В работе                      : 
EREF               .m        94.7                          : 100.8
Gorizont           .         15                            : 14
HZCS               .GCS_WGS_1984 WGS_1984_EASE-Grid_2.0_Global : ESRI,PE_10_3_1- <?xml version="1.0" encoding="utf-16"?><ILateBoundCoordinateReferenceSystem name="WGS_1984_EASE-Grid_2.0_Global"><AuthorityCode>EPSG,6933</AuthorityCode></ILateBoundCoordinateReferenceSystem>
Interpretator      .         Сагынбаева А.Н.               : 
Kupol              .         основной                      : osnovnoi
LATI               .dega     0.6662122985                  : GCS_WGS_1984
LONG               .dega     0.4357261975                  : GCS_WGS_1984
Mud                .         глинистый                     : 
Mud_density        .         1,18                          : 
Mud_resistivity    .         0                             : 
NGDU               .         НГДУ-2                        : 
ORIGINALWELLNAME   .         4724                          : 
Spud_date          .         1990                          : 1961
Viscosity          .         40                            : 
X                  .m        42041.6                       : 46154
Y                  .m        84989.03                      : 85761.93
YEAR               .         2018                          : 
~Parameter Information Block
#_______________________________________________________________________________
#
#PARAMETER_NAME    .UNIT     VALUE                         : DESCRIPTION
#_______________________________________________________________________________
SET                .         LQC_KAZNIPI_Petrel            : 
TLFamily_CALI      .         Caliper                       : 
TLFamily_CILD      .         Conductivity                  : 
TLFamily_COLL      .         Net Reservoir Flag            : 
TLFamily_CSAT      .         Fluid Code                    : 
TLFamily_DEPT      .         Measured Depth                : 
TLFamily_GR        .         Russian Gamma Ray             : 
TLFamily_LLS       .         Lateral Log Resistivity       : 
TLFamily_MINV      .         Micro Gradient Resistivity    : 
TLFamily_MNOR      .         Micro Resistivity             : 
TLFamily_NGLD      .         Neutron Gamma                 : 
TLFamily_PHIE      .         Effective Porosity            : 
TLFamily_PHIEN     .         Effective Porosity            : 
TLFamily_PHIT      .         Porosity                      : 
TLFamily_PRMB      .         Permeability                  : 
TLFamily_PRMB_DGR  .         Permeability                  : 
TLFamily_RT        .         Formation Resistivity         : 
TLFamily_SOIL_ARCHIE .         Oil Saturation                : 
TLFamily_SOIL_DW   .         Oil Saturation                : 
TLFamily_SP        .         Spontaneous Potential         : 
TLFamily_VSH_FIN   .         Shale Volume                  : 
TLFamily_VSH_GR    .         Shale Volume                  : 
TLFamily_VSH_SP    .         Shale Volume                  : 
~Curve Information
#_______________________________________________________________________________
#
#LOGNAME           .UNIT     LOG_ID                        : DESCRIPTION
#_______________________________________________________________________________
DEPT               .M                                      : Колонка глубины 
CALI               .м                                      : Каверномер 
CILD               .мСм/м                                  : Индукционный каротаж 
COLL               .unitless                               : Описание 
CSAT               .unitless                               :  
GR                 .uR/h                                   : Гамма каротаж 
LLS                .Ohmm                                   : Боковой каротаж 
MINV               .Ohmm                                   : Микро-градиент зонд 
MNOR               .Ohmm                                   : Микро-потенциал зонд 
NGLD               .у.е.                                   : Показания зонда НГК-60 аппаратуры ДРСТ-3-90 
PHIE               .v/v                                    : Описание 
PHIEN              .v/v                                    :  
PHIT               .v/v                                    : Описание 
PRMB               .mD                                     :  
PRMB_DGR           .mD                                     :  
RT                 .ohmm                                   : УЭС пласта 
SOIL_ARCHIE        .v/v                                    :  
SOIL_DW            .v/v                                    :  
SP                 .мВ                                     : Потенциал самополяризации 
VSH_FIN            .v/v                                    : Описание 
VSH_GR             .v/v                                    : Shale volume 
VSH_SP             .v/v                                    : Shale Volume 
~Ascii
# ...
986        
  0.25       0.365      -9999      -9999      6.437      2.76       
  3.17       1.874      1.277      0.08488134 0.08488134 0.3103667  
  0.1045602  0.7872051  2.736      0          0.4083133  84.618     
  0.6832891  0.7153933  0.6511848 
986.2000000000001 
  0.251      0.357      -9999      -9999      6.497      2.676      
  3.262      2.047      1.302      0.07158157 0.07158157 0.3005442  
  0.05929559 0.7495112  2.805      0          0.369715   84.805     
  0.6938261  0.7298715  0.6577806 
986.4      
  0.254      0.348      -9999      -9999      6.556      2.506      
  3.266      2.004      1.327      0.05842449 0.05842449 0.2907217  
  0.03383151 0.7142062  2.873      0          0.322948   84.965     
  0.7039309  0.744394   0.6634679 
986.6      
  0.256      0.342      -9999      -9999      6.539      2.385      
  2.994      1.834      1.337      0.05442332 0.05442332 0.2867927  
  0.02852398 0.7242046  2.921      0          0.3082234  85.095     
  0.7041496  0.7401801  0.6681191 
986.8      
  0.254      0.344      -9999      -9999      6.495      2.487      
  2.861      1.607      1.32       0.06248076 0.06248076 0.293472   
  0.04022103 0.7507382  2.909      0          0.3444978  85.163     
  0.6999734  0.7293841  0.6705626 
987        
  0.245      0.345      -9999      -9999      6.49       2.691      
  2.699      1.541      1.306      0.06797418 0.06797418 0.2989726  
  0.05083991 0.7538145  2.902      0          0.3682288  85.198     
  0.6999952  0.7281673  0.6718231 
987.2000000000001 
  0.234      0.339      -9999      -9999      6.383      2.881      
  3.103      1.67       1.313      0.06944106 0.06944106 0.2962223  
  0.05412213 0.8227478  2.951      0          0.373508   85.198     
  0.6872159  0.7026088  0.6718231 
987.4      
  0.227      0.328      -9999      -9999      6.146      2.905      
  3.395      1.82       1.331      0.07124359 0.07124359 0.2891501  
  0.058447   0.9987118  3.055      0          0.3787884  85.189     
  0.6603228  0.6491466  0.671499  
987.6      
  0.227      0.318      -9999      -9999      5.837      2.919      
  3.737      2.022      1.343      0.07733259 0.07733259 0.2844353  
  0.07577835 1.285834   3.147      0          0.396861   85.138     
  0.6275839  0.5855045  0.6696634 
987.8      
  0.227      0.308      -9999      -9999      5.604      2.994      
  3.471      1.969      1.335      0.08826392 0.08826392 0.2875785  
  0.1207869  1.555743   3.243      0          0.4353085  85.044     
  0.6039835  0.5416759  0.6662911 
988        
  0.226      0.3        -9999      -9999      5.526      3.171      
  3.285      1.981      1.357      0.08254266 0.08254266 0.2789347  
  0.09463424 1.658214   3.339      0          0.4192131  84.938     
  0.5951274  0.5277492  0.6625056 
988.2000000000001 
  0.223      0.288      -9999      -9999      5.429      3.345      
  3.558      2.078      1.391      0.07246412 0.07246412 0.2655761  
  0.06157002 1.795111   3.479      0          0.3863338  84.852     
  0.5851878  0.5109286  0.659447  
988.4      
  0.223      0.277      -9999      -9999      5.335      3.464      
  3.92       2.274      1.434      0.0584203  0.0584203  0.2486814  
  0.03382547 1.938547   3.616      0          0.3262798  84.81      
  0.5765488  0.4951399  0.6579577 
988.6      
  0.223      0.268      -9999      -9999      5.112      3.661      
  4.149      2.446      1.44       0.06207757 0.06207757 0.246324   
  0.03953533 2.326364   3.734      0          0.3450358  84.784     
  0.5583224  0.4596079  0.657037  
988.8      
  0.223      0.261      -9999      -9999      4.908      3.881      
  4.125      2.632      1.447      0.06436798 0.06436798 0.2435737  
  0.04359224 2.74872    3.828      0          0.3555568  84.776     
  0.5430476  0.4293411  0.6567542 
989        
  0.223      0.256      -9999      -9999      4.728      3.949      
  4.3        2.957      1.454      0.06604768 0.06604768 0.2408234  
  0.0468297  3.184636   3.905      0          0.3622926  84.725     
  0.5296234  0.4042947  0.6549521 
989.2000000000001 
  0.224      0.251      -9999      -9999      4.626      3.784      
  4.673      3.073      1.45       0.07025435 0.07025435 0.242395   
  0.05603237 3.461676   3.981      0          0.383704   84.656     
  0.5216383  0.3907559  0.6525207 
989.4      
  0.224      0.247      -9999      -9999      4.615      3.539      
  4.656      2.927      1.402      0.08984248 0.08984248 0.2612542  
  0.1291989  3.492957   4.047      0.05359577 0.4647794  84.571     
  0.5194295  0.3893231  0.6495358 
989.6      
  0.224      0.245      -9999      -9999      4.686      3.358      
  4.628      2.658      1.345      0.1116759  0.1116759  0.2836495  
  0.3278434  3.29592    4.086      0.2204633  0.532394   84.401     
  0.5211321  0.398664   0.6436003 
989.8      
  0.223      0.245      -9999      -9999      4.826      3.39       
  3.885      2.453      1.288      0.1325027  0.1325027  0.3060448  
  0.7969483  2.939368   4.088      0.3284859  0.5815436  84.124     
  0.525885   0.4177442  0.6340259 
990        
  0.223      0.248      -9999      -9999      4.944      3.479      
  3.544      2.446      1.258      0.1429619  0.1429619  0.3178318  
  1.244974   2.668977   4.029      0.3671799  0.5998607  83.868     
  0.5299086  0.4345335  0.6252837 
990.2000000000001 
  0.222      0.252      -9999      -9999      5.014      3.54       
  3.204      2.503      1.234      0.151433   0.151433   0.3272614  
  1.786756   2.520481   3.969      0.3938723  0.6126122  83.736     
  0.5328133  0.4448105  0.6208159 
990.4      
  0.221      0.257      -9999      -9999      5.041      3.426      
  3.773      2.681      1.231      0.1519971  0.1519971  0.3284401  
  1.830265   2.465438   3.897      0.3906194  0.6104711  83.727     
  0.5346757  0.4488391  0.6205122 
990.6      
  0.222      0.259      -9999      -9999      5.048      3.239      
  4.16       2.704      1.236      0.1499038  0.1499038  0.3264756  
  1.673943   2.451366   3.856      0.3801457  0.604879   83.719     
  0.535066   0.4498895  0.6202425 
990.8      
  0.222      0.262      -9999      -9999      5.158      3.126      
  4.312      2.508      1.242      0.1447913  0.1447913  0.3241182  
  1.345997   2.240476   3.815      0.3579133  0.595728   83.715     
  0.5434149  0.4667223  0.6201075 
991        
  0.222      0.263      -9999      -9999      5.378      3.151      
  4.072      2.277      1.251      0.1353847  0.1353847  0.3205821  
  0.901179   1.871563   3.802      0.3181363  0.5819353  83.715     
  0.5612042  0.5023009  0.6201075 
991.2000000000001 
  0.222      0.264      -9999      -9999      5.624      3.265      
  3.885      2.241      1.26       0.1247528  0.1247528  0.317046   
  0.572642   1.530505   3.787      0.2664349  0.5653582  83.715     
  0.5827066  0.5453057  0.6201075 
991.4      
  0.222      0.266      -9999      -9999      5.77       3.245      
  4.034      2.398      1.269      0.1167214  0.1167214  0.3135099  
  0.4065563  1.358254   3.754      0.2194639  0.5496735  83.715     
  0.5963289  0.5725502  0.6201075 
991.6      
  0.223      0.274      -9999      -9999      5.724      3.088      
  4.258      2.52       1.275      0.116043   0.116043   0.3111525  
  0.3949626  1.410323   3.658      0.2058964  0.5406277  83.672     
  0.5912409  0.5638226  0.6186593 
991.8      
  0.226      0.283      -9999      -9999      5.626      2.839      
  4.04       2.493      1.259      0.1260772  0.1260772  0.3174389  
  0.6059182  1.528003   3.539      0.2496782  0.552457   83.536     
  0.5798839  0.5456699  0.6140979 
992        
  0.227      0.292      -9999      -9999      5.539      2.666      
  3.091      2.214      1.247      0.1350519  0.1350519  0.3221537  
  0.8884798  1.640678   3.431      0.2829433  0.560872   83.229     
  0.5669751  0.5300452  0.603905  
992.2000000000001 
  0.226      0.293      -9999      -9999      5.582      2.681      
  2.082      1.923      1.233      0.141176   0.141176   0.3276543  
  1.153667   1.583987   3.419      0.3089764  0.5718439  82.879     
  0.5650856  0.537711   0.5924603 
