~Version
 VERS              .         2.0                           : CWLS LOG ASCII STANDARD - VERSION 2.0
 WRAP              .         YES                            : ONE LINE PER DEPTH STEP
 DLM               .         SPACE                         : DELIMITING CHARACTER(SPACE TAB OR COMMA)
~Well Information
#_______________________________________________________________________________
#
#PARAMETER_NAME    .UNIT     VALUE                         : DESCRIPTION
#_______________________________________________________________________________
STRT               .M        890                           : First reference value
STOP               .M        1240                          : Last reference value
STEP               .M        0.2                           : Step increment
NULL               .         -9999                         : Missing value
COMP               .                                       : Company
WELL               .         4724                          : Well name
FLD                .         Узень                         : Field
LOC                .                                       : Location
CNTY               .                                       : County
STAT               .                                       : State
CTRY               .                                       : Country
SRVC               .                                       : Service Company
DATE               .         27.03.1990                    : Date
UWI                .         4724                          : Unique Well ID
Block              .         7                             : 
Cartographic_reference_system .         GCS_WGS_1984                  : ESRI,PE_10_3_1- <?xml version="1.0" encoding="utf-16"?><ILateBoundCoordinateReferenceSystem name="GCS_WGS_1984"><AuthorityCode>EPSG,4326</AuthorityCode></ILateBoundCoordinateReferenceSystem>
Category           .         Нефтяная                      : 
Condition          .         В работе                      : 
EREF               .m        94.7                          : 100.8
Gorizont           .         15                            : 14
HZCS               .GCS_WGS_1984 WGS_1984_EASE-Grid_2.0_Global : ESRI,PE_10_3_1- <?xml version="1.0" encoding="utf-16"?><ILateBoundCoordinateReferenceSystem name="WGS_1984_EASE-Grid_2.0_Global"><AuthorityCode>EPSG,6933</AuthorityCode></ILateBoundCoordinateReferenceSystem>
Interpretator      .         Сагынбаева А.Н.               : 
Kupol              .         основной                      : osnovnoi
LATI               .dega     0.6662122985                  : GCS_WGS_1984
LONG               .dega     0.4357261975                  : GCS_WGS_1984
Mud                .         глинистый                     : 
Mud_density        .         1,18                          : 
Mud_resistivity    .         0                             : 
NGDU               .         НГДУ-2                        : 
ORIGINALWELLNAME   .         4724                          : 
Spud_date          .         1990                          : 1961
Viscosity          .         40                            : 
X                  .m        42041.6                       : 46154
Y                  .m        84989.03                      : 85761.93
YEAR               .         2018                          : 
~Parameter Information Block
#_______________________________________________________________________________
#
#PARAMETER_NAME    .UNIT     VALUE                         : DESCRIPTION
#_______________________________________________________________________________
SET                .         LQC_KAZNIPI_Petrel            : 
TLFamily_CALI      .         Caliper                       : 
TLFamily_CILD      .         Conductivity                  : 
TLFamily_COLL      .         Net Reservoir Flag            : 
TLFamily_CSAT      .         Fluid Code                    : 
TLFamily_DEPT      .         Measured Depth                : 
TLFamily_GR        .         Russian Gamma Ray             : 
TLFamily_LLS       .         Lateral Log Resistivity       : 
TLFamily_MINV      .         Micro Gradient Resistivity    : 
TLFamily_MNOR      .         Micro Resistivity             : 
TLFamily_NGLD      .         Neutron Gamma                 : 
TLFamily_PHIE      .         Effective Porosity            : 
TLFamily_PHIEN     .         Effective Porosity            : 
TLFamily_PHIT      .         Porosity                      : 
TLFamily_PRMB      .         Permeability                  : 
TLFamily_PRMB_DGR  .         Permeability                  : 
TLFamily_RT        .         Formation Resistivity         : 
TLFamily_SOIL_ARCHIE .         Oil Saturation                : 
TLFamily_SOIL_DW   .         Oil Saturation                : 
TLFamily_SP        .         Spontaneous Potential         : 
TLFamily_VSH_FIN   .         Shale Volume                  : 
TLFamily_VSH_GR    .         Shale Volume                  : 
TLFamily_VSH_SP    .         Shale Volume                  : 
~Curve Information
#_______________________________________________________________________________
#
#LOGNAME           .UNIT     LOG_ID                        : DESCRIPTION
#_______________________________________________________________________________
DEPT               .M                                      : Колонка глубины 
CALI               .м                                      : Каверномер 
CILD               .мСм/м                                  : Индукционный каротаж 
COLL               .unitless                               : Описание 
CSAT               .unitless                               :  
GR                 .uR/h                                   : Гамма каротаж 
LLS                .Ohmm                                   : Боковой каротаж 
MINV               .Ohmm                                   : Микро-градиент зонд 
MNOR               .Ohmm                                   : Микро-потенциал зонд 
NGLD               .у.е.                                   : Показания зонда НГК-60 аппаратуры ДРСТ-3-90 
PHIE               .v/v                                    : Описание 
PHIEN              .v/v                                    :  
PHIT               .v/v                                    : Описание 
PRMB               .mD                                     :  
PRMB_DGR           .mD                                     :  
RT                 .ohmm                                   : УЭС пласта 
SOIL_ARCHIE        .v/v                                    :  
SOIL_DW            .v/v                                    :  
SP                 .мВ                                     : Потенциал самополяризации 
VSH_FIN            .v/v                                    : Описание 
VSH_GR             .v/v                                    : Shale volume 
VSH_SP             .v/v                                    : Shale Volume 
~Ascii
# ...
1120.4     
  0.239      0.358      -9999      -9999      7.881      2.662      
  3.467      2.445      1.428      0.1282961  0.1282961  0.2510388  
  0.6660594  14.20525   2.84       0.1806068  0.4252144  78.102     
  0.3719476  0.2195487  0.5243466 
1120.6     
  0.239      0.413      -9999      -9999      7.918      1.895      
  2.914      1.669      1.351      0.1637855  0.1637855  0.2812921  
  3.025956   13.63921   2.45       0.2900599  0.4752323  76.85      
  0.3560807  0.2232246  0.4889369 
1120.8     
  0.238      0.453      -9999      -9999      8.158      1.732      
  1.976      1.277      1.286      0.1912651  0.1912651  0.3068306  
  9.769039   10.47705   2.215      0.3497143  0.5076521  75.445     
  0.3501984  0.2486088  0.4517881 
1121       
  0.24       0.488      -9999      -9999      8.475      1.759      
  2.168      1.317      1.293      0.1876369  0.1876369  0.3040803  
  8.368514   7.394993   2.053      0.3147849  0.4818587  74.117     
  0.3528588  0.2866143  0.4191034 
1121.2     
  0.242      0.516      -9999      -9999      8.954      1.849      
  2.377      1.396      1.297      0.1773436  0.1773436  0.3025087  
  5.395009   4.368327   1.944      0.2616102  0.4536828  73.436     
  0.379288   0.3553466  0.4032295 
1121.4     
  0.243      0.556      -9999      -9999      9.302      1.877      
  2.553      1.393      1.307      0.1639221  0.1639221  0.2985797  
  3.043644   2.980013   1.804      0.1809976  0.4103214  73.325     
  0.4080531  0.4154082  0.400698  
1121.6     
  0.242      0.592      -9999      -9999      9.53       1.816      
  2.337      1.303      1.3        0.1575903  0.1575903  0.30133    
  2.32334    2.319507   1.694      0.1270139  0.385491   73.772     
  0.4355749  0.4601621  0.4109877 
1121.8     
  0.24       0.619      -9999      -9999      9.73       1.723      
  2.076      1.263      1.285      0.1535827  0.1535827  0.3072235  
  1.958312   1.86182    1.617      0.08750271 0.3722458  74.479     
  0.4655783  0.5033726  0.427784  
1122       
  0.236      0.625      -9999      -9999      9.897      1.639      
  1.544      1.2        1.255      0.1562054  0.1562054  0.3190105  
  2.190083   1.549636   1.601      0.09665543 0.387582   75.143     
  0.4933489  0.5425466  0.4441512 
1122.2     
  0.229      0.617      -9999      -9999      9.989      1.588      
  1.339      1.095      1.241      0.1548996  0.1548996  0.3245111  
  2.071446   1.400615   1.621      0.09531242 0.3958441  75.862     
  0.5139743  0.5654149  0.4625337 
1122.4     
  0.222      0.6        -9999      -9999      9.765      1.721      
  1.386      1.032      1.252      0.1568228  0.1568228  0.3201892  
  2.248523   1.791563   1.667      0.1166591  0.4020961  76.475     
  0.4950496  0.5113415  0.4787578 
1122.6     
  0.217      0.584      -9999      -9999      9.273      2.081      
  2.092      1.275      1.273      0.1635669  0.1635669  0.3119383  
  2.997876   3.076519   1.714      0.1595042  0.4104636  76.859     
  0.4496104  0.4100371  0.4891837 
1122.8     
  0.216      0.567      -9999      -9999      8.716      2.325      
  2.336      1.826      1.283      0.1742931  0.1742931  0.3080093  
  4.736839   5.674281   1.765      0.2156047  0.4289362  76.927     
  0.4052007  0.3193502  0.4910512 
1123       
  0.216      0.559      -9999      -9999      8.428      2.306      
  2.313      1.928      1.291      0.1772701  0.1772701  0.3048661  
  5.378115   7.787002   1.79       0.2321746  0.4332297  76.986     
  0.3866546  0.2806325  0.4926767 
1123.2     
  0.215      0.558      -9999      -9999      8.341      1.99       
  1.757      1.737      1.268      0.1878062  0.1878062  0.3139028  
  8.429172   8.568306   1.793      0.270404   0.4562215  77.046     
  0.3821109  0.269887   0.4943347 
1123.4     
  0.215      0.558      -9999      -9999      8.204      1.91       
  1.812      1.271      1.24       0.201385   0.201385   0.324904   
  15.04172   9.960556   1.792      0.3132617  0.4818854  77.063     
  0.3742999  0.2537942  0.4948056 
1123.6     
  0.216      0.54       -9999      -9999      8.058      1.962      
  2.328      1.418      1.208      0.2180419  0.2180419  0.3374768  
  30.60719   11.69415   1.858      0.36997    0.5182717  76.748     
  0.3619239  0.2376988  0.486149  
1123.8     
  0.217      0.513      -9999      -9999      7.852      2.088      
  2.672      1.866      1.212      0.2213391  0.2213391  0.3359052  
  35.22861   14.66527   1.953      0.3925346  0.5316948  76.433     
  0.3471699  0.21671    0.4776298 
1124       
  0.216      0.478      -9999      -9999      7.76       2.137      
  2.405      2.601      1.235      0.2134471  0.2134471  0.3268685  
  25.16033   16.22561   2.097      0.3936041  0.5338554  76.501     
  0.3437012  0.2079451  0.4794573 
1124.2     
  0.217      0.449      -9999      -9999      7.787      2.227      
  1.683      2.634      1.279      0.1930532  0.1930532  0.3095809  
  10.5432    15.75122   2.235      0.3576785  0.5142891  77.097     
  0.3531141  0.21048    0.4957481 
1124.4     
  0.218      0.417      -9999      -9999      8.016      2.474      
  1.299      2.275      1.333      0.1628669  0.1628669  0.2883643  
  2.909702   12.24658   2.408      0.2807614  0.4773911  78.204     
  0.3802952  0.2332606  0.5273297 
1124.6     
  0.219      0.392      -9999      -9999      8.204      2.682      
  1.437      1.725      1.385      0.1339386  0.1339386  0.2679335  
  0.8472794  9.960556   2.56       0.1713603  0.4279217  79.234     
  0.406045   0.2537942  0.5582959 
1124.8     
  0.219      0.372      -9999      -9999      8.149      2.791      
  1.625      1.617      1.42       0.1170564  0.1170564  0.254182   
  0.4124076  10.58119   2.688      0.08928511 0.3928381  80.035     
  0.4155321  0.2476067  0.5834575 
1125       
  0.217      0.356      -9999      -9999      8.037      2.822      
  1.761      1.69       1.432      0.1159073  0.1159073  0.2494672  
  0.3926831  11.96717   2.811      0.1005118  0.3970675  79.737     
  0.404727   0.2354693  0.5739847 
1125.2     
  0.214      0.33       -9999      -9999      7.933      2.992      
  1.651      1.689      1.441      0.125398   0.125398   0.2459311  
  0.5886164  13.4162    3.051      0.1917801  0.4334271  77.455     
  0.365252   0.2247322  0.5057718 
1125.4     
  0.211      0.3        -9999      -9999      8          3.268      
  1.657      1.846      1.439      0.1380077  0.1380077  0.2467169  
  1.00785    12.46382   3.365      0.2898946  0.4813116  74.457     
  0.3294218  0.2315918  0.4272517 
1125.6     
  0.21       0.265      1          2          8.095      3.555      
  1.839      2.109      1.427      0.1522833  0.1522833  0.2514317  
  1.852735   11.22815   3.805      0.3847575  0.536251   71.4       
  0.3004498  0.2416786  0.359221  
1125.8     
  0.21       0.241      1          2          8.18       3.916      
  2.112      2.378      1.411      0.1631837  0.1631837  0.2577181  
  2.949275   10.22677   4.175      0.4453945  0.5757289  69.459     
  0.286468   0.2510754  0.3218606 
1126       
  0.211      0.221      1          2          8.088      4.452      
  2.304      2.535      1.4        0.1754105  0.1754105  0.26204    
  4.96805    11.31487   4.546      0.4996146  0.609048   67.228     
  0.2625137  0.2409206  0.2841067 
1126.2     
  0.211      0.202      1          2          7.928      5.206      
  2.315      2.602      1.394      0.1854214  0.1854214  0.2643974  
  7.613982   13.49014   4.982      0.5432839  0.6368724  65.21      
  0.2393212  0.2242285  0.2544139 
1126.4     
  0.211      0.184      1          2          7.753      6.087      
  2.449      2.768      1.396      0.191314   0.191314   0.2636116  
  9.789424   16.35092   5.471      0.574665   0.6573299  63.379     
  0.2190837  0.2072929  0.2308744 
1126.6     
  0.211      0.165      1          2          7.7        7.118      
  2.662      2.987      1.4        0.1925274  0.1925274  0.26204    
  10.3094    17.3316    6.1        0.5980604  0.6751921  62.34      
  0.2106442  0.2024207  0.2188676 
