~Version
 VERS              .         2.0                           : CWLS LOG ASCII STANDARD - VERSION 2.0
 WRAP              .         YES                            : ONE LINE PER DEPTH STEP
 DLM               .         SPACE                         : DELIMITING CHARACTER(SPACE TAB OR COMMA)
~Well Information
#_______________________________________________________________________________
#
#PARAMETER_NAME    .UNIT     VALUE                         : DESCRIPTION
#_______________________________________________________________________________
STRT               .M        890                           : First reference value
STOP               .M        1240                          : Last reference value
STEP               .M        0.2                           : Step increment
NULL               .         -9999                         : Missing value
COMP               .                                       : Company
WELL               .         4724                          : Well name
FLD                .         Узень                         : Field
LOC                .                                       : Location
CNTY               .                                       : County
STAT               .                                       : State
CTRY               .                                       : Country
SRVC               .                                       : Service Company
DATE               .         27.03.1990                    : Date
UWI                .         4724                          : Unique Well ID
Block              .         7                             : 
Cartographic_reference_system .         GCS_WGS_1984                  : ESRI,PE_10_3_1- <?xml version="1.0" encoding="utf-16"?><ILateBoundCoordinateReferenceSystem name="GCS_WGS_1984"><AuthorityCode>EPSG,4326</AuthorityCode></ILateBoundCoordinateReferenceSystem>
Category           .         Нефтяная                      : 
Condition          .         В работе                      : 
EREF               .m        94.7                          : 100.8
Gorizont           .         15                            : 14
HZCS               .GCS_WGS_1984 WGS_1984_EASE-Grid_2.0_Global : ESRI,PE_10_3_1- <?xml version="1.0" encoding="utf-16"?><ILateBoundCoordinateReferenceSystem name="WGS_1984_EASE-Grid_2.0_Global"><AuthorityCode>EPSG,6933</AuthorityCode></ILateBoundCoordinateReferenceSystem>
Interpretator      .         Сагынбаева А.Н.               : 
Kupol              .         основной                      : osnovnoi
LATI               .dega     0.6662122985                  : GCS_WGS_1984
LONG               .dega     0.4357261975                  : GCS_WGS_1984
Mud                .         глинистый                     : 
Mud_density        .         1,18                          : 
Mud_resistivity    .         0                             : 
NGDU               .         НГДУ-2                        : 
ORIGINALWELLNAME   .         4724                          : 
Spud_date          .         1990                          : 1961
Viscosity          .         40                            : 
X                  .m        42041.6                       : 46154
Y                  .m        84989.03                      : 85761.93
YEAR               .         2018                          : 
~Parameter Information Block
#_______________________________________________________________________________
#
#PARAMETER_NAME    .UNIT     VALUE                         : DESCRIPTION
#_______________________________________________________________________________
SET                .         LQC_KAZNIPI_Petrel            : 
TLFamily_CALI      .         Caliper                       : 
TLFamily_CILD      .         Conductivity                  : 
TLFamily_COLL      .         Net Reservoir Flag            : 
TLFamily_CSAT      .         Fluid Code                    : 
TLFamily_DEPT      .         Measured Depth                : 
TLFamily_GR        .         Russian Gamma Ray             : 
TLFamily_LLS       .         Lateral Log Resistivity       : 
TLFamily_MINV      .         Micro Gradient Resistivity    : 
TLFamily_MNOR      .         Micro Resistivity             : 
TLFamily_NGLD      .         Neutron Gamma                 : 
TLFamily_PHIE      .         Effective Porosity            : 
TLFamily_PHIEN     .         Effective Porosity            : 
TLFamily_PHIT      .         Porosity                      : 
TLFamily_PRMB      .         Permeability                  : 
TLFamily_PRMB_DGR  .         Permeability                  : 
TLFamily_RT        .         Formation Resistivity         : 
TLFamily_SOIL_ARCHIE .         Oil Saturation                : 
TLFamily_SOIL_DW   .         Oil Saturation                : 
TLFamily_SP        .         Spontaneous Potential         : 
TLFamily_VSH_FIN   .         Shale Volume                  : 
TLFamily_VSH_GR    .         Shale Volume                  : 
TLFamily_VSH_SP    .         Shale Volume                  : 
~Curve Information
#_______________________________________________________________________________
#
#LOGNAME           .UNIT     LOG_ID                        : DESCRIPTION
#_______________________________________________________________________________
DEPT               .M                                      : Колонка глубины 
CALI               .м                                      : Каверномер 
CILD               .мСм/м                                  : Индукционный каротаж 
COLL               .unitless                               : Описание 
CSAT               .unitless                               :  
GR                 .uR/h                                   : Гамма каротаж 
LLS                .Ohmm                                   : Боковой каротаж 
MINV               .Ohmm                                   : Микро-градиент зонд 
MNOR               .Ohmm                                   : Микро-потенциал зонд 
NGLD               .у.е.                                   : Показания зонда НГК-60 аппаратуры ДРСТ-3-90 
PHIE               .v/v                                    : Описание 
PHIEN              .v/v                                    :  
PHIT               .v/v                                    : Описание 
PRMB               .mD                                     :  
PRMB_DGR           .mD                                     :  
RT                 .ohmm                                   : УЭС пласта 
SOIL_ARCHIE        .v/v                                    :  
SOIL_DW            .v/v                                    :  
SP                 .мВ                                     : Потенциал самополяризации 
VSH_FIN            .v/v                                    : Описание 
VSH_GR             .v/v                                    : Shale volume 
VSH_SP             .v/v                                    : Shale Volume 
~Ascii
# ...
1190.8     
  0.221      0.405      -9999      -9999      10.312     2.06       
  2.526      1.696      1.176      0.1857852  0.1857852  0.3547392  
  7.733044   1.271992   2.47       0.3751027  0.5736873  72.758     
  0.5119818  0.588098   0.4358657 
1191       
  0.22       0.407      -9999      -9999      10.458     2.015      
  2.157      1.547      1.155      0.1813929  0.1813929  0.3617385  
  6.412011   1.070646   2.458      0.3604845  0.5737615  73.791     
  0.5465019  0.63097    0.4620339 
1191.2     
  0.221      0.408      -9999      -9999      10.452     2.034      
  1.697      1.405      1.14       0.1835877  0.1835877  0.366738   
  7.041229   1.078256   2.451      0.3663011  0.5786949  74.501     
  0.5550008  0.6291479  0.4808536 
1191.4     
  0.222      0.408      -9999      -9999      10.356     2.17       
  1.62       1.435      1.13       0.1912707  0.1912707  0.370071   
  9.771356   1.20762    2.45       0.3884118  0.5875603  74.578     
  0.5418192  0.6007022  0.4829363 
1191.6     
  0.223      0.407      -9999      -9999      10.209     2.167      
  1.76       1.446      1.136      0.1956286  0.1956286  0.3680712  
  11.76725   1.43642    2.454      0.400754   0.5901654  74.672     
  0.5225532  0.5596169  0.4854895 
1191.8     
  0.222      0.401      -9999      -9999      10.242     2.134      
  1.769      1.344      1.156      0.1866745  0.1866745  0.3614052  
  8.031973   1.381548   2.493      0.3803971  0.5812262  74.851     
  0.529487   0.5685884  0.4903857 
1192       
  0.221      0.397      -9999      -9999      10.46      2.106      
  1.654      1.226      1.189      0.1640359  0.1640359  0.3504063  
  3.058449   1.068122   2.523      0.3104335  0.5540449  75.124     
  0.5647587  0.6315784  0.497939  
1192.2     
  0.22       0.395      -9999      -9999      10.7       2.225      
  1.824      1.268      1.236      0.1342541  0.1342541  0.3347412  
  0.8587574  0.8046349  2.53       0.1800371  0.5060433  75.413     
  0.6075366  0.7090246  0.5060487 
1192.4     
  0.22       0.4        -9999      -9999      10.737     2.24       
  2.037      1.484      1.299      0.1124894  0.1124894  0.3137433  
  0.3394174  0.7702515  2.502      0.03846411 0.448133   75.124     
  0.6098604  0.7217817  0.497939  
1192.6     
  0.222      0.399      -9999      -9999      10.355     2.158      
  1.977      1.551      1.34       0.1233975  0.1233975  0.300078   
  0.54048    1.209047   2.508      0.1139271  0.4516421  74.109     
  0.5353953  0.6004126  0.470378  
1192.8     
  0.225      0.386      -9999      -9999      9.717      2.127      
  1.663      1.605      1.364      0.1504234  0.1504234  0.2920788  
  1.71145    2.567301   2.598      0.2665431  0.4918256  71.978     
  0.4292589  0.44148    0.4170377 
1193       
  0.228      0.366      1          2          9.077      2.374      
  1.761      1.724      1.365      0.186285   0.186285   0.2917455  
  7.899658   5.46432    2.736      0.4057788  0.54497    67.016     
  0.3195772  0.3243049  0.3148496 
1193.2     
  0.225      0.343      1          2          8.694      2.825      
  2.385      2.146      1.367      0.208267   0.208267   0.2910789  
  20.17291   8.587338   2.926      0.4775148  0.579164   61.441     
  0.2509451  0.2696426  0.2322476 
1193.4     
  0.218      0.324      1          2          8.451      3.322      
  3.062      2.648      1.367      0.2213412  0.2213412  0.2910789  
  35.23169   11.43981   3.094      0.5173116  0.6010248  56.522     
  0.2113265  0.2398427  0.1828102 
1193.6     
  0.212      0.307      1          2          8.288      3.67       
  3.54       3.15       1.354      0.2312823  0.2312823  0.2954118  
  53.83538   13.86664   3.255      0.5463607  0.6213956  54.373     
  0.1943318  0.2217222  0.1669413 
1193.8     
  0.21       0.291      1          2          8.209      4.036      
  3.283      3.098      1.344      0.2372372  0.2372372  0.2987448  
  69.40114   15.2218    3.44       0.5676562  0.6380025  53.163     
  0.1863867  0.213439   0.1593344 
1194       
  0.21       0.275      1          2          8.131      4.363      
  2.916      2.861      1.338      0.2414544  0.2414544  0.3007446  
  83.07685   16.6897    3.652      0.5860227  0.6526153  52.174     
  0.1796671  0.2055643  0.1537699 
1194.2     
  0.209      0.261      1          2          8.009      4.734      
  3.023      2.877      1.332      0.2457515  0.2457515  0.3027444  
  99.78669   19.27456   3.836      0.6016303  0.6648555  51.756     
  0.1727057  0.193826   0.1515853 
1194.4     
  0.209      0.265      1          2          7.982      4.91       
  3.649      3.319      1.337      0.2441908  0.2441908  0.3010779  
  93.36057   19.89869   3.779      0.5965894  0.6603459  52.114     
  0.1723852  0.1913202  0.1534503 
1194.6     
  0.208      0.283      1          2          7.961      4.441      
  4.306      3.768      1.343      0.240726   0.240726   0.2990781  
  80.53558   20.39807   3.557      0.5797663  0.6464253  53.962     
  0.1768245  0.1893936  0.1642553 
1194.8     
  0.209      0.306      1          2          8.164      3.731      
  4.056      3.605      1.351      0.2310217  0.2310217  0.2964117  
  53.24033   16.05214   3.273      0.5470887  0.6229963  57.078     
  0.1981515  0.2088598  0.1874432 
1195       
  0.21       0.34       1          2          8.4        3.015      
  3.732      3.209      1.361      0.217041   0.217041   0.2930787  
  29.32816   12.14958   2.965      0.4990817  0.5907069  60.985     
  0.2304172  0.2340193  0.2268151 
1195.2     
  0.211      0.371      1          2          8.716      2.718      
  3.75       3.112      1.374      0.1976365  0.1976365  0.2887458  
  12.81933   8.367237   2.719      0.4339637  0.5517572  64.891     
  0.2760889  0.2725167  0.2796611 
1195.4     
  0.213      0.399      -9999      -9999      9.026      2.388      
  4.207      2.743      1.39       0.1771588  0.1771588  0.283413   
  5.352644   5.803341   2.505      0.3529693  0.5062233  67.717     
  0.3219825  0.3164309  0.3275341 
1195.6     
  0.214      0.423      -9999      -9999      9.295      1.978      
  4.465      2.47       1.399      0.1229421  0.1229421  0.2804133  
  0.5300836  2.353641   2.373      0.08768607 0.4109544  69.446     
  0.4771853  0.4574253  0.4969453 
1195.8     
  0.215      0.456      -9999      -9999      9.572      1.733      
  4.155      1.83       1.387      0.1136866  0.1136866  0.2844129  
  0.3571982  1.719931   2.208      0          0.376919   70.077     
  0.5173525  0.5199326  0.5147725 
1196       
  0.215      0.488      -9999      -9999      9.849      1.692      
  3.529      1.573      1.355      0.1091389  0.1091389  0.2950785  
  0.2942218  1.256845   2.054      0          0.3595446  70.801     
  0.5634534  0.5909818  0.535925  
1196.2     
  0.215      0.5        -9999      -9999      9.992      1.772      
  3.123      1.416      1.337      0.1057173  0.1057173  0.3010779  
  0.2542725  1.068942   2.002      0          0.3523231  71.355     
  0.5920017  0.6313805  0.5526229 
1196.4     
  0.217      0.495      -9999      -9999      9.594      1.877      
  3.335      1.344      1.35       0.1167682  0.1167682  0.296745   
  0.407369   1.677612   2.021      0          0.3721994  71.773     
  0.5453843  0.5252489  0.5655198 
1196.6     
  0.218      0.487      -9999      -9999      9.062      1.964      
  3.912      1.629      1.376      0.1257663  0.1257663  0.2880792  
  0.5979363  3.064292   2.054      0.04286069 0.3827254  72.012     
  0.4918572  0.4107044  0.5730101 
1196.8     
  0.219      0.486      -9999      -9999      8.587      2.009      
  3.893      1.736      1.391      0.1290501  0.1290501  0.2830797  
  0.6878277  5.247306   2.059      0.06517565 0.3827445  72.967     
  0.4667562  0.3297161  0.6037964 
1197       
  0.222      0.49       -9999      -9999      8.574      2.029      
  2.903      1.665      1.383      0.1251779  0.1251779  0.2857461  
  0.5831178  5.325121   2.042      0.03629729 0.3766652  74.194     
  0.4865703  0.3277401  0.6454006 
