~Version
 VERS              .         2.0                           : CWLS LOG ASCII STANDARD - VERSION 2.0
 WRAP              .         NO                            : ONE LINE PER DEPTH STEP
 DLM               .         SPACE                         : DELIMITING CHARACTER(SPACE TAB OR COMMA)
~Well Information
#_______________________________________________________________________________
#
#PARAMETER_NAME    .UNIT     VALUE                         : DESCRIPTION
#_______________________________________________________________________________
STRT               .M        896                           : First reference value
STOP               .M        1244                          : Last reference value
STEP               .M        0.2                           : Step increment
NULL               .         -9999                         : Missing value
COMP               .                                       : Company
WELL               .         4909                          : Well name
FLD                .         УЗЕНЬ                         : Field
LOC                .                                       : Location
CNTY               .                                       : County
STAT               .                                       : State
CTRY               .                                       : Country
SRVC               .                                       : Service Company
DATE               .         28-29.11.89                   : Date
UWI                .         4909                          : Unique Well ID
Block              .         7                             : 
Category           .         Нефтяная                      : 
Condition          .         В работе                      : 
Date               .         01.02.1990                    : 
EREF               .m        93.7                          : 100.8
Gorizont           .         14                            : 14
Interpretator      .         Алпанова Н.К.                 : 
Kupol              .         основной                      : osnovnoi
Moii_14            .         14_gor                        : 
Mud                .                                       : 
Mud_density        .                                       : 
Mud_resistivity    .                                       : 
NGDU               .         НГДУ-2                        : 
ORIGINALWELLNAME   .         4909                          : 
Spud_date          .         1989                          : 1961
Viscosity          .                                       : 
X                  .m        42307                         : 46154
Y                  .m        85012.73                      : 85761.93
YEAR               .         2019                          : 
~Parameter Information Block
#_______________________________________________________________________________
#
#PARAMETER_NAME    .UNIT     VALUE                         : DESCRIPTION
#_______________________________________________________________________________
SET                .         LQC_KAZNIPI_Petrel            : 
TLFamily_CALI      .         Caliper                       : 
TLFamily_CILD      .         Conductivity                  : 
TLFamily_COLL      .         Net Reservoir Flag            : 
TLFamily_CSAT      .         Fluid Code                    : 
TLFamily_DEPT      .         Measured Depth                : 
TLFamily_GR        .         Russian Gamma Ray             : 
TLFamily_GZ3       .         Gradient 225                  : 
TLFamily_LLS       .         Lateral Log Resistivity       : 
TLFamily_MINV      .         Micro Gradient Resistivity    : 
TLFamily_MNOR      .         Micro Resistivity             : 
TLFamily_NGLD      .         Neutron Far                   : 
TLFamily_OGZ       .         Gradient Inverted 225         : 
TLFamily_PHIE      .         Effective Porosity            : 
TLFamily_PHIEN     .         Effective Porosity            : 
TLFamily_PHIT      .         Porosity                      : 
TLFamily_PRMB      .         Permeability                  : 
TLFamily_PRMB_DGR  .         Permeability                  : 
TLFamily_RT        .         Formation Resistivity         : 
TLFamily_SOIL_ARCHIE .         Oil Saturation                : 
TLFamily_SOIL_DW   .         Oil Saturation                : 
TLFamily_SP        .         Spontaneous Potential         : 
TLFamily_VSH_FIN   .         Shale Volume                  : 
TLFamily_VSH_GR    .         Shale Volume                  : 
TLFamily_VSH_SP    .         Shale Volume                  : 
~Curve Information
#_______________________________________________________________________________
#
#LOGNAME           .UNIT     LOG_ID                        : DESCRIPTION
#_______________________________________________________________________________
DEPT               .M                                      : Колонка глубины 
CALI               .м                                      : Каверномер 
CILD               .мСм/м                                  : Индукционный каротаж 
COLL               .unitless                               : Описание 
CSAT               .unitless                               : Описание 
GR                 .uR/h                                   : Гамма каротаж 
GZ3                .Ohmm                                   :  
LLS                .Ohmm                                   : Боковой каротаж 
MINV               .Ohmm                                   : Микро-градиент зонд 
MNOR               .Ohmm                                   : Микро-потенциал зонд 
NGLD               .у.е.                                   : Показания зонда НГК-60 аппаратуры ДРСТ-3-90 
OGZ                .Ohmm                                   :  
PHIE               .v/v                                    : Описание 
PHIEN              .v/v                                    :  
PHIT               .v/v                                    : Описание 
PRMB               .mD                                     :  
PRMB_DGR           .mD                                     :  
RT                 .ohmm                                   : УЭС пласта 
SOIL_ARCHIE        .v/v                                    :  
SOIL_DW            .v/v                                    :  
SP                 .мВ                                     : Потенциал самополяризации 
VSH_FIN            .v/v                                    : Описание 
VSH_GR             .v/v                                    : Shale volume 
VSH_SP             .v/v                                    : Shale Volume 
~Ascii
# ...
1007.6     0.239      288        -9999      -9999      6.91406    2.503      2.227      0.497      1.184      1.203724   3.156      0.1337603  0.1337603  0.3242015  0.8408583  1.144148   2.776      0.2013411  0.5120415  88.066     0.5770945  0.6140926  0.5400963 
1007.8     0.233      286        -9999      -9999      6.883298   2.57       2.202      0.634      1.229      1.221278   3.197      0.1305912  0.1305912  0.3206256  0.7345529  1.190783   2.795      0.1870931  0.5059561  88.271     0.575862   0.6041562  0.5475678 
1008       0.233      285        -9999      -9999      6.875183   2.637      2.22       0.69       1.303      1.232795   3.238      0.1274307  0.1274307  0.3182797  0.6419244  1.203399   2.806      0.1710908  0.5001773  88.475     0.5783302  0.6015618  0.5550985 
1008.2     0.233      285        -9999      -9999      6.888516   2.744      2.28       0.612      1.323      1.237476   3.315      0.1250363  0.1250363  0.3173261  0.5796078  1.18274    2.808      0.1575647  0.4959435  88.577     0.5826962  0.6058303  0.5595621 
1008.4     0.233      285        -9999      -9999      6.913384   2.744      2.265      0.535      1.233      1.237567   3.238      0.1229494  0.1229494  0.3173077  0.530248   1.145152   2.811      0.1455524  0.4931233  88.679     0.5889645  0.6138726  0.5640564 
1008.6     0.231      284        -9999      -9999      6.937238   2.667      2.307      0.546      1.217      1.236367   3.259      0.1223341  0.1223341  0.317552   0.5165148  1.110222   2.816      0.1425262  0.4929082  88.552     0.5915692  0.621687   0.5614515 
1008.8     0.231      284        -9999      -9999      6.952762   2.642      2.334      0.601      1.311      1.235835   3.29       0.1223531  0.1223531  0.3176605  0.5169332  1.088064   2.816      0.142642   0.4930475  88.36      0.5918406  0.626826   0.5568551 
1009       0.233      284        -9999      -9999      6.961883   2.703      2.185      0.535      1.201      1.236042   3.32       0.1225575  0.1225575  0.3176183  0.5214593  1.075251   2.821      0.1445999  0.4937579  88.169     0.5910934  0.6298652  0.5523217 
1009.2     0.221      283        -9999      -9999      6.964361   2.821      2.178      0.49       1.184      1.236509   3.32       0.1233928  0.1233928  0.3175231  0.5403717  1.071796   2.826      0.1503519  0.4953448  87.913     0.5882735  0.6306934  0.5458536 
1009.4     0.221      277        -9999      -9999      6.943867   2.831      2.358      1.424      1.477      1.237505   3.32       0.1241     0.1241     0.3173203  0.5569168  1.100706   2.888      0.1631362  0.5016158  87.913     0.5855161  0.6238763  0.5471559 
1009.6     0.225      277        -9999      -9999      6.880297   2.893      2.508      1.601      1.429      1.239581   3.32       0.126874   0.126874   0.3168973  0.6268626  1.195432   2.891      0.1794951  0.5054272  87.913     0.5758281  0.6031954  0.5484608 
1009.8     0.227      277        -9999      -9999      6.773703   2.893      2.293      1.023      1.281      1.24293    3.402      0.1304123  0.1304123  0.3162152  0.7289713  1.372919   2.891      0.1989183  0.509696   88.118     0.5630389  0.5700449  0.5560329 
1010       0.228      273        -9999      -9999      6.648532   2.78       2.233      0.944      1.384      1.247769   3.633      0.1330222  0.1330222  0.3152296  0.8148034  1.61526    2.935      0.2181863  0.5159608  88.552     0.5521433  0.5334353  0.5708513 
1010.2     0.222      270        -9999      -9999      6.532241   2.872      2.41       1.905      2.033      1.254513   3.73       0.1361579  0.1361579  0.3138557  0.9313906  1.878589   2.967      0.2377794  0.5213943  88.654     0.5384784  0.501533   0.575424  
1010.4     0.221      270        -9999      -9999      6.42687    2.893      2.468      1.696      2.232      1.263093   3.843      0.142101   0.142101   0.312108   1.200087   2.154081   2.966      0.2655041  0.5272413  87.99      0.5151727  0.4742771  0.5560683 
1010.6     0.22       270        -9999      -9999      6.300704   2.816      2.276      0.947      1.982      1.273046   3.945      0.1455676  0.1455676  0.3100806  1.391307   2.537585   2.965      0.2806482  0.5295359  87.862     0.4985244  0.4435839  0.5534648 
1010.8     0.221      269        -9999      -9999      6.106482   2.765      2.23       0.825      1.731      1.284982   4.048      0.1516983  0.1516983  0.3076493  1.807083   3.265606   2.976      0.3072402  0.5354688  87.607     0.4725787  0.400171   0.5449864 
1011       0.226      265        -9999      -9999      5.814717   2.765      2.166      0.703      1.481      1.30105    4.294      0.1586444  0.1586444  0.304376   2.430172   4.770038   3.022      0.3385123  0.5439197  87.479     0.441611   0.3428081  0.5404139 
1011.2     0.222      262        -9999      -9999      5.43952    2.765      2.22       0.581      1.514      1.323998   4.442      0.1649241  0.1649241  0.2997016  3.176521   7.764915   3.057      0.3639498  0.5491234  87.351     0.4084169  0.2809582  0.5358756 
1011.4     0.22       262        -9999      -9999      5.038896   2.846      2.327      2.959      1.732      1.35644    4.559999   0.169899   0.169899   0.2930931  3.927349   13.06448   3.057      0.380202   0.5483293  86.815     0.3733157  0.2271833  0.5194481 
1011.6     0.22       260        -9999      -9999      4.68172    2.846      2.417      2.956      1.849      1.400118   4.688      0.1740493  0.1740493  0.284196   4.687844   20.77508   3.082      0.3954093  0.5461498  85.411     0.3337779  0.1879826  0.4795732 
1011.8     0.221      254        -9999      -9999      4.402814   2.795      2.381      3.07       1.882      1.453151   4.811      0.1705145  0.1705145  0.2733931  4.031811   29.84341   3.146      0.3904157  0.5364513  84.747     0.3117534  0.1621378  0.4613689 
1012       0.222      242        -9999      -9999      4.196301   2.795      2.269      3.177      1.913      1.508134   4.939      0.1638167  0.1638167  0.2621931  3.029988   39.02329   3.313      0.3839015  0.5293232  84.364     0.2981102  0.1453194  0.450901  
1012.2     0.215      230        -9999      -9999      4.049181   2.882      2.476      1.799      1.321      1.55481    4.96       0.1567442  0.1567442  0.2526852  2.240999   47.23898   3.474      0.3738584  0.5216801  84.236     0.2907302  0.134413   0.4470474 
1012.4     0.213      223        -9999      -9999      3.964993   3.102      3.092      2.856      1.94       1.585585   4.35       0.151223   0.151223   0.2464163  1.770819   52.69669   3.586      0.3635416  0.5151435  84.313     0.2884648  0.1285443  0.4483853 
1012.6     0.213      217        -9999      -9999      3.949152   3.161      3.496      3.913      3.151      1.598597   3.73       0.1510545  0.1510545  0.2437658  1.758141   53.79203   3.687      0.3711733  0.5185121  83.777     0.2809432  0.1274689  0.4344176 
1012.8     0.213      215        -9999      -9999      3.986123   3.22       3.584      4.971      3.232      1.597785   3.602      0.1586358  0.1586358  0.2439313  2.429283   51.27032   3.723      0.4001707  0.5304267  81.76      0.2584711  0.1299927  0.3869495 
1013       0.212      211        -9999      -9999      4.046868   3.282      3.055      4.17       2.424      1.590608   3.315      0.1615762  0.1615762  0.2453932  2.753861   47.38109   3.793      0.4148267  0.5398751  81.172     0.2539909  0.1342483  0.3737336 
1013.2     0.207      206        -9999      -9999      4.117327   3.364      3.002      3.825      2.274      1.583947   3.202      0.1634983  0.1634983  0.24675    2.989121   43.23799   3.893      0.4278524  0.5494801  80.789     0.2522779  0.1393592  0.3651967 
1013.4     0.21       201        -9999      -9999      4.214656   3.43       2.928      3.818      2.32       1.57961    3.177      0.1645396  0.1645396  0.2476335  3.124859   38.10406   3.972      0.4363461  0.5560763  80.406     0.2517996  0.1467408  0.3568584 
1013.6     0.214      197        -9999      -9999      4.376841   3.609      3.055      3.922      2.437      1.572795   3.013      0.1655933  0.1655933  0.2490218  3.268498   30.86721   4.055      0.4448848  0.5632337  79.87      0.2528134  0.15992    0.3457068 
