~Version
 VERS              .         2.0                           : CWLS LOG ASCII STANDARD - VERSION 2.0
 WRAP              .         NO                            : ONE LINE PER DEPTH STEP
 DLM               .         SPACE                         : DELIMITING CHARACTER(SPACE TAB OR COMMA)
~Well Information
#_______________________________________________________________________________
#
#PARAMETER_NAME    .UNIT     VALUE                         : DESCRIPTION
#_______________________________________________________________________________
STRT               .M        896                           : First reference value
STOP               .M        1244                          : Last reference value
STEP               .M        0.2                           : Step increment
NULL               .         -9999                         : Missing value
COMP               .                                       : Company
WELL               .         4909                          : Well name
FLD                .         УЗЕНЬ                         : Field
LOC                .                                       : Location
CNTY               .                                       : County
STAT               .                                       : State
CTRY               .                                       : Country
SRVC               .                                       : Service Company
DATE               .         28-29.11.89                   : Date
UWI                .         4909                          : Unique Well ID
Block              .         7                             : 
Category           .         Нефтяная                      : 
Condition          .         В работе                      : 
Date               .         01.02.1990                    : 
EREF               .m        93.7                          : 100.8
Gorizont           .         14                            : 14
Interpretator      .         Алпанова Н.К.                 : 
Kupol              .         основной                      : osnovnoi
Moii_14            .         14_gor                        : 
Mud                .                                       : 
Mud_density        .                                       : 
Mud_resistivity    .                                       : 
NGDU               .         НГДУ-2                        : 
ORIGINALWELLNAME   .         4909                          : 
Spud_date          .         1989                          : 1961
Viscosity          .                                       : 
X                  .m        42307                         : 46154
Y                  .m        85012.73                      : 85761.93
YEAR               .         2019                          : 
~Parameter Information Block
#_______________________________________________________________________________
#
#PARAMETER_NAME    .UNIT     VALUE                         : DESCRIPTION
#_______________________________________________________________________________
SET                .         LQC_KAZNIPI_Petrel            : 
TLFamily_CALI      .         Caliper                       : 
TLFamily_CILD      .         Conductivity                  : 
TLFamily_COLL      .         Net Reservoir Flag            : 
TLFamily_CSAT      .         Fluid Code                    : 
TLFamily_DEPT      .         Measured Depth                : 
TLFamily_GR        .         Russian Gamma Ray             : 
TLFamily_GZ3       .         Gradient 225                  : 
TLFamily_LLS       .         Lateral Log Resistivity       : 
TLFamily_MINV      .         Micro Gradient Resistivity    : 
TLFamily_MNOR      .         Micro Resistivity             : 
TLFamily_NGLD      .         Neutron Far                   : 
TLFamily_OGZ       .         Gradient Inverted 225         : 
TLFamily_PHIE      .         Effective Porosity            : 
TLFamily_PHIEN     .         Effective Porosity            : 
TLFamily_PHIT      .         Porosity                      : 
TLFamily_PRMB      .         Permeability                  : 
TLFamily_PRMB_DGR  .         Permeability                  : 
TLFamily_RT        .         Formation Resistivity         : 
TLFamily_SOIL_ARCHIE .         Oil Saturation                : 
TLFamily_SOIL_DW   .         Oil Saturation                : 
TLFamily_SP        .         Spontaneous Potential         : 
TLFamily_VSH_FIN   .         Shale Volume                  : 
TLFamily_VSH_GR    .         Shale Volume                  : 
TLFamily_VSH_SP    .         Shale Volume                  : 
~Curve Information
#_______________________________________________________________________________
#
#LOGNAME           .UNIT     LOG_ID                        : DESCRIPTION
#_______________________________________________________________________________
DEPT               .M                                      : Колонка глубины 
CALI               .м                                      : Каверномер 
CILD               .мСм/м                                  : Индукционный каротаж 
COLL               .unitless                               : Описание 
CSAT               .unitless                               : Описание 
GR                 .uR/h                                   : Гамма каротаж 
GZ3                .Ohmm                                   :  
LLS                .Ohmm                                   : Боковой каротаж 
MINV               .Ohmm                                   : Микро-градиент зонд 
MNOR               .Ohmm                                   : Микро-потенциал зонд 
NGLD               .у.е.                                   : Показания зонда НГК-60 аппаратуры ДРСТ-3-90 
OGZ                .Ohmm                                   :  
PHIE               .v/v                                    : Описание 
PHIEN              .v/v                                    :  
PHIT               .v/v                                    : Описание 
PRMB               .mD                                     :  
PRMB_DGR           .mD                                     :  
RT                 .ohmm                                   : УЭС пласта 
SOIL_ARCHIE        .v/v                                    :  
SOIL_DW            .v/v                                    :  
SP                 .мВ                                     : Потенциал самополяризации 
VSH_FIN            .v/v                                    : Описание 
VSH_GR             .v/v                                    : Shale volume 
VSH_SP             .v/v                                    : Shale Volume 
~Ascii
# ...
1032.4     0.224      264        -9999      -9999      6.044539   3.818      3.399      2.263      1.784      1.268873   5.607999   0.1611023  0.1611023  0.3109305  2.698751   3.539157   3.028      0.3479179  0.5529495  83.055     0.4540249  0.3872398  0.5208099 
1032.6     0.225      254        -9999      -9999      6.000587   4.114      4.181      2.372      1.634      1.253866   4.864      0.1661451  0.1661451  0.3139876  3.346325   3.747053   3.146      0.3764766  0.5692183  82.927     0.4480076  0.3783184  0.5176967 
1032.8     0.23       259        -9999      -9999      5.837749   3.72       4.388      2.413      1.798      1.243272   4.067999   0.1739732  0.1739732  0.3161454  4.672665   4.629474   3.088      0.3957309  0.5747262  82.8       0.4308248  0.3470207  0.5146289 
1033       0.243      267        -9999      -9999      5.588151   3.132      2.877      2.502      2.026      1.245761   3.966      0.1810733  0.1810733  0.3156386  6.325203   6.401873   3.002      0.4086337  0.575016   82.672     0.4077736  0.303999   0.5115483 
1033.2     0.249      269        -9999      -9999      5.315183   2.61       2.216      2.825      2.253      1.263479   4.217      0.1866209  0.1866209  0.3120293  8.013628   9.125654   2.971      0.4211614  0.5749691  82.136     0.3800256  0.2630306  0.4970205 
1033.4     0.25       261        -9999      -9999      5.059521   2.451      2.024      3.149      2.48       1.293447   4.33       0.1884665  0.1884665  0.3059249  8.669923   12.71919   3.069      0.4347754  0.5784944  81.575     0.3559345  0.2296818  0.4821873 
1033.6     0.241      248        -9999      -9999      4.826617   2.446      2.423      3.472      1.98       1.330966   4.438      0.1877206  0.1877206  0.2982822  8.398457   17.21152   3.227      0.446025   0.5820169  80.988     0.335035   0.2029962  0.4670738 
1033.8     0.225      241        -9999      -9999      4.614038   2.467      2.856      3.087      2.419      1.37204    4.447999   0.1836057  0.1836057  0.2899155  7.04661    22.6838    3.315      0.4423127  0.5767763  80.81      0.322151   0.1813553  0.4629468 
1034       0.224      235        -9999      -9999      4.433944   2.554      3.24       3.811      3.378      1.412981   4.576      0.1786711  0.1786711  0.2815757  5.709268   28.66097   3.41       0.4364437  0.5706915  80.631     0.3118321  0.1648366  0.4588277 
1034.2     0.223      224        -9999      -9999      4.310537   2.861      3.197      4.912      4.338      1.447267   4.623      0.1733231  0.1733231  0.2745917  4.544876   33.64289   3.568      0.4334979  0.5687121  80.631     0.3068745  0.1543948  0.4593541 
1034.4     0.223      212        -9999      -9999      4.258438   3.481      3.064      3.457      2.693      1.465937   5.302      0.1686433  0.1686433  0.2707886  3.722552   35.99795   3.779      0.4352637  0.5727331  80.975     0.3095312  0.1501876  0.4688748 
1034.6     0.223      202        -9999      -9999      4.264025   4.102      3.585      2.447      2.39       1.46452    5.982      0.1672533  0.1672533  0.2710774  3.508288   35.73772   3.966      0.4439254  0.581803   81.32      0.3146183  0.1506332  0.4786034 
1034.8     0.223      181        -9999      -9999      4.298769   4.722      4.982      3.449      3.429      1.447439   5.484      0.1661246  0.1661246  0.2745568  3.343406   34.16101   4.417      0.4682046  0.6056728  82.213     0.3285822  0.1534343  0.5037301 
1035       0.222      179        -9999      -9999      4.356771   5.342      6.923      3.547      3.194      1.422605   5.218      0.1697008  0.1697008  0.2796153  3.894288   31.68233   4.469      0.4808376  0.6155345  82.341     0.3330744  0.158227   0.5079218 
1035.2     0.222      187        -9999      -9999      4.456513   4.989      2.57       2.742      2.462      1.394217   5.171      0.1733733  0.1733733  0.2853979  4.554623   27.83311   4.28       0.4799906  0.6152425  82.468     0.3394684  0.1668213  0.5121155 
1035.4     0.222      189        -9999      -9999      4.5937     4.693      3.707      2.557      2.541      1.364413   5.392      0.176789   0.176789   0.2914691  5.268891   23.29092   4.244      0.4867215  0.6214289  82.57      0.3475156  0.1794098  0.5156214 
1035.6     0.222      177        -9999      -9999      4.722456   4.892      4.715      2.992      2.16       1.339196   4.946      0.1771589  0.1771589  0.2966057  5.352671   19.70457   4.527      0.5029425  0.6375778  83.106     0.36196    0.1920876  0.5318323 
1035.8     0.223      176        -9999      -9999      4.803802   4.666999   4.181      2.774      2.063      1.326518   4.628      0.1769291  0.1769291  0.2991883  5.300458   17.72914   4.558      0.5039712  0.6405032  83.374     0.3704824  0.2005549  0.5404098 
1036       0.223      178        -9999      -9999      4.847958   4.498      3.082      3.754      2.743      1.326841   4.402      0.1746441  0.1746441  0.2991225  4.808279   16.74105   4.494      0.4949835  0.636026   83.642     0.3772072  0.2053065  0.549108  
1036.2     0.223      197        -9999      -9999      4.891992   4.201      3.096      4.33       3.423      1.329615   4.597      0.1714977  0.1714977  0.2985575  4.204465   15.81056   4.059      0.4618166  0.6138052  83.974     0.3850297  0.2101571  0.5599024 
1036.4     0.223      195        -9999      -9999      4.944911   4.247      2.761      3.225      2.476      1.322413   4.92       0.1713522  0.1713522  0.3000244  4.178459   14.76048   4.1        0.4639528  0.6167482  84.076     0.3899158  0.2161382  0.5636933 
1036.6     0.223      187        -9999      -9999      4.969795   4.401      3.233      2.121      1.949      1.303572   5.007      0.1770726  0.1770726  0.3038624  5.333014   14.2911    4.28       0.4894653  0.6325763  83.591     0.3842113  0.2190092  0.5494135 
1036.8     0.224      194        -9999      -9999      4.921651   4.621      4.205      1.017      0.981      1.28286    4.546      0.1812588  0.1812588  0.3080814  6.375444   15.21315   4.128      0.4911889  0.6323994  83.795     0.384311   0.2134886  0.5551334 
1037       0.225      204        -9999      -9999      4.799336   4.749      3.351      1.366      1.585      1.271185   4.366      0.1854164  0.1854164  0.3104596  7.61237    17.83226   3.931      0.4895608  0.6284143  83.897     0.3789187  0.2000806  0.5577568 
1037.2     0.226      218        -9999      -9999      4.653906   4.314      2.802      3.168      2.189      1.273196   4.176      0.1894681  0.1894681  0.31005    9.048317   21.53923   3.676      0.483065   0.6187512  83.514     0.3653994  0.1852302  0.5455686 
1037.4     0.227      220        -9999      -9999      4.542319   4.094      2.864      4.971      2.793      1.288397   4.067999   0.1900955  0.1900955  0.3069536  9.293666   24.89809   3.635      0.4818309  0.6148099  83.132     0.3541155  0.1745874  0.5336435 
1037.6     0.227      210        -9999      -9999      4.475921   4.048      2.282      2.911      1.972      1.314859   4.13       0.1876364  0.1876364  0.3015633  8.368349   27.14033   3.811      0.4874216  0.6178084  82.749     0.345233   0.1685471  0.5219189 
1037.8     0.224      207        -9999      -9999      4.429482   4.432      2.364      2.855      2.051      1.350286   4.13       0.1817873  0.1817873  0.2943468  6.520772   28.82754   3.872      0.4769986  0.610369   82.621     0.3410896  0.164447   0.5177321 
1038       0.224      204        -9999      -9999      4.398989   4.478      2.783      4.978      2.884      1.388907   3.971      0.1744344  0.1744344  0.2864796  4.765475   29.99201   3.914      0.4605869  0.5995466  82.621     0.3395309  0.1618093  0.5172526 
1038.2     0.224      202        -9999      -9999      4.434233   4.493      3.857      3.696      2.516      1.418874   3.991      0.1713579  0.1713579  0.2803754  4.179473   28.65022   3.956      0.454899   0.5936166  81.881     0.3303563  0.1648619  0.4958507 
1038.4     0.225      184        -9999      -9999      4.594983   4.488      2.831      4.981      3.298      1.426508   4.012      0.1686176  0.1686176  0.2788204  3.718478   23.25215   4.357      0.471679   0.6089576  81.626     0.3339477  0.1795319  0.4883635 
