~Version
 VERS              .         2.0                           : CWLS LOG ASCII STANDARD - VERSION 2.0
 WRAP              .         NO                            : ONE LINE PER DEPTH STEP
 DLM               .         SPACE                         : DELIMITING CHARACTER(SPACE TAB OR COMMA)
~Well Information
#_______________________________________________________________________________
#
#PARAMETER_NAME    .UNIT     VALUE                         : DESCRIPTION
#_______________________________________________________________________________
STRT               .M        896                           : First reference value
STOP               .M        1244                          : Last reference value
STEP               .M        0.2                           : Step increment
NULL               .         -9999                         : Missing value
COMP               .                                       : Company
WELL               .         4909                          : Well name
FLD                .         УЗЕНЬ                         : Field
LOC                .                                       : Location
CNTY               .                                       : County
STAT               .                                       : State
CTRY               .                                       : Country
SRVC               .                                       : Service Company
DATE               .         28-29.11.89                   : Date
UWI                .         4909                          : Unique Well ID
Block              .         7                             : 
Category           .         Нефтяная                      : 
Condition          .         В работе                      : 
Date               .         01.02.1990                    : 
EREF               .m        93.7                          : 100.8
Gorizont           .         14                            : 14
Interpretator      .         Алпанова Н.К.                 : 
Kupol              .         основной                      : osnovnoi
Moii_14            .         14_gor                        : 
Mud                .                                       : 
Mud_density        .                                       : 
Mud_resistivity    .                                       : 
NGDU               .         НГДУ-2                        : 
ORIGINALWELLNAME   .         4909                          : 
Spud_date          .         1989                          : 1961
Viscosity          .                                       : 
X                  .m        42307                         : 46154
Y                  .m        85012.73                      : 85761.93
YEAR               .         2019                          : 
~Parameter Information Block
#_______________________________________________________________________________
#
#PARAMETER_NAME    .UNIT     VALUE                         : DESCRIPTION
#_______________________________________________________________________________
SET                .         LQC_KAZNIPI_Petrel            : 
TLFamily_CALI      .         Caliper                       : 
TLFamily_CILD      .         Conductivity                  : 
TLFamily_COLL      .         Net Reservoir Flag            : 
TLFamily_CSAT      .         Fluid Code                    : 
TLFamily_DEPT      .         Measured Depth                : 
TLFamily_GR        .         Russian Gamma Ray             : 
TLFamily_GZ3       .         Gradient 225                  : 
TLFamily_LLS       .         Lateral Log Resistivity       : 
TLFamily_MINV      .         Micro Gradient Resistivity    : 
TLFamily_MNOR      .         Micro Resistivity             : 
TLFamily_NGLD      .         Neutron Far                   : 
TLFamily_OGZ       .         Gradient Inverted 225         : 
TLFamily_PHIE      .         Effective Porosity            : 
TLFamily_PHIEN     .         Effective Porosity            : 
TLFamily_PHIT      .         Porosity                      : 
TLFamily_PRMB      .         Permeability                  : 
TLFamily_PRMB_DGR  .         Permeability                  : 
TLFamily_RT        .         Formation Resistivity         : 
TLFamily_SOIL_ARCHIE .         Oil Saturation                : 
TLFamily_SOIL_DW   .         Oil Saturation                : 
TLFamily_SP        .         Spontaneous Potential         : 
TLFamily_VSH_FIN   .         Shale Volume                  : 
TLFamily_VSH_GR    .         Shale Volume                  : 
TLFamily_VSH_SP    .         Shale Volume                  : 
~Curve Information
#_______________________________________________________________________________
#
#LOGNAME           .UNIT     LOG_ID                        : DESCRIPTION
#_______________________________________________________________________________
DEPT               .M                                      : Колонка глубины 
CALI               .м                                      : Каверномер 
CILD               .мСм/м                                  : Индукционный каротаж 
COLL               .unitless                               : Описание 
CSAT               .unitless                               : Описание 
GR                 .uR/h                                   : Гамма каротаж 
GZ3                .Ohmm                                   :  
LLS                .Ohmm                                   : Боковой каротаж 
MINV               .Ohmm                                   : Микро-градиент зонд 
MNOR               .Ohmm                                   : Микро-потенциал зонд 
NGLD               .у.е.                                   : Показания зонда НГК-60 аппаратуры ДРСТ-3-90 
OGZ                .Ohmm                                   :  
PHIE               .v/v                                    : Описание 
PHIEN              .v/v                                    :  
PHIT               .v/v                                    : Описание 
PRMB               .mD                                     :  
PRMB_DGR           .mD                                     :  
RT                 .ohmm                                   : УЭС пласта 
SOIL_ARCHIE        .v/v                                    :  
SOIL_DW            .v/v                                    :  
SP                 .мВ                                     : Потенциал самополяризации 
VSH_FIN            .v/v                                    : Описание 
VSH_GR             .v/v                                    : Shale volume 
VSH_SP             .v/v                                    : Shale Volume 
~Ascii
# ...
1075.8     0.229      251        -9999      -9999      9.430683   3.464      3.249      4.999      2.401      1.248784   2.534      0.1538078  0.1538078  0.3150227  1.977201   1.727951   3.187      0.337175   0.5599568  84.484     0.4885302  0.5189461  0.4581144 
1076       0.237      264        -9999      -9999      9.788493   3.388      3.206      4.048      2.42       1.216257   2.411      0.1478445  0.1478445  0.3216484  1.533193   1.248446   3.03       0.2974921  0.5477561  84.586     0.5266785  0.592602   0.460755  
1076.2     0.243      287        -9999      -9999      9.999696   3.045      2.409      2.758      2.445      1.187826   2.201      0.1464818  0.1464818  0.3274399  1.446624   1.030499   2.786      0.2633455  0.5319709  84.395     0.548358   0.6408944  0.4558216 
1076.4     0.246      301        -9999      -9999      10.07836   2.927      1.821      0.518      1.329      1.169966   2.068      0.1477987  0.1477987  0.3310779  1.530198   0.9594267  2.656      0.2524897  0.5255486  84.203     0.5553917  0.6598715  0.4509121 
1076.6     0.241      307        -9999      -9999      10.02915   2.82       1.74       0.747      1.235      1.162933   2.216      0.1517324  0.1517324  0.3325105  1.809713   1.003296   2.609      0.2632498  0.5272638  84.076     0.5478126  0.6479338  0.4476914 
1076.8     0.239      322        -9999      -9999      9.849942   2.717      1.687      0.752      1.192      1.160902   2.437      0.1580608  0.1580608  0.3329243  2.370433   1.180667   2.485      0.2725751  0.5234032  84.305     0.5298893  0.6062645  0.4535142 
1077       0.24       332        -9999      -9999      9.54982    2.666      1.75       0.46       1.007      1.158632   2.601      0.1668762  0.1668762  0.3333867  3.452308   1.550708   2.409      0.295972   0.5262842  84.816     0.5045772  0.5423934  0.4667611 
1077.2     0.241      337        -9999      -9999      9.16298    2.635      1.764      0.48       0.996      1.156296   2.719      0.1779208  0.1779208  0.3338624  5.529457   2.203658   2.372      0.329338   0.5347112  85.135     0.4725505  0.4698908  0.4752101 
1077.4     0.245      354        -9999      -9999      8.747901   2.559      1.771      0.701      1.207      1.157378   3.212      0.1873471  0.1873471  0.3336421  8.265723   3.212913   2.258      0.3438328  0.53248    85.454     0.4433183  0.4028379  0.4837986 
1077.6     0.245      357        -9999      -9999      8.361197   2.681      1.668      0.716      1.276      1.163543   3.468      0.1930126  0.1930126  0.3323862  10.52492   4.565198   2.243      0.3586368  0.5353596  85.887     0.4223445  0.3490075  0.4956815 
1077.8     0.241      348        -9999      -9999      8.032009   2.748      1.75       1.222      1.08       1.173523   3.679      0.1975991  0.1975991  0.3303534  12.79888   6.15643    2.301      0.3791052  0.5438437  85.887     0.4022861  0.3088907  0.4956815 
1078       0.241      334        -9999      -9999      7.766707   2.722      1.853      1.735      1.347      1.186988   3.894      0.1977413  0.1977413  0.3276106  12.87675   7.834196   2.394      0.3909247  0.5506778  86.296     0.3935435  0.2799409  0.5071462 
1078.2     0.237      330        -9999      -9999      7.563984   2.538      1.9        1.886      1.443      1.20665    3.997      0.1953989  0.1953989  0.3236054  11.65254   9.418287   2.424      0.3881566  0.5480098  86.653     0.3885044  0.2596623  0.5173464 
1078.4     0.23       318        -9999      -9999      7.408613   2.487      1.875      1.991      1.553      1.234188   4.109      0.1911511  0.1911511  0.3179958  9.721666   10.84596   2.513      0.3867956  0.5474423  86.87      0.3843779  0.2451205  0.5236353 
1078.6     0.231      304        -9999      -9999      7.265699   2.461      2.203      2.253      1.71       1.265288   4.022      0.1858555  0.1858555  0.3116608  7.756281   12.34951   2.633      0.3852118  0.5474491  87.087     0.3812281  0.2324648  0.5299915 
1078.8     0.235      300        -9999      -9999      7.101051   2.415      2.329      2.5        1.929      1.291625   3.889      0.1811419  0.1811419  0.3062961  6.343741   14.34187   2.663      0.3746352  0.5406005  87.418     0.3792551  0.2186922  0.5398179 
1079       0.24       297        -9999      -9999      6.911412   2.339      2.42       2.747      1.959      1.307791   3.909      0.1791578  0.1791578  0.303003   5.829024   17.03811   2.693      0.3719181  0.538164   87.648     0.3752885  0.2038373  0.5467397 
1079.2     0.244      281        -9999      -9999      6.721514   2.313      2.096      2.545      1.519      1.315008   4.166      0.1873409  0.1873409  0.3015329  8.263543   20.24598   2.849      0.4116358  0.5576601  86.117     0.3460364  0.1899733  0.5020996 
1079.4     0.231      269        -9999      -9999      6.5637     2.354      1.974      2.349      1.509      1.318615   4.279      0.1908374  0.1908374  0.3007981  9.592453   23.36677   2.971      0.4323164  0.5694298  85.581     0.3332143  0.1791718  0.4872569 
1079.6     0.224      258        -9999      -9999      6.461553   2.441      2.777      2.912      1.929      1.322256   4.397      0.1912536  0.1912536  0.3000565  9.764235   25.63878   3.098      0.4444134  0.5780989  85.568     0.3297059  0.17251    0.4869018 
1079.8     0.223      247        -9999      -9999      6.42367    2.63       2.54       3.1        1.963      1.32327    4.438      0.1914981  0.1914981  0.2998498  9.866599   26.53643   3.238      0.4564234  0.5873644  85.556     0.3283386  0.1701029  0.4865743 
1080       0.223      237        -9999      -9999      6.440501   2.953      2.574      2.963      2.337      1.315445   4.453      0.1931457  0.1931457  0.3014439  10.58485   26.13381   3.373      0.4707074  0.5983754  85.505     0.3281763  0.1711682  0.4851846 
1080.2     0.221      228        -9999      -9999      6.486731   3.306      3.675      3.317      3.438      1.29821    4.551      0.1963967  0.1963967  0.3049547  12.15909   25.05902   3.509      0.4879336  0.6115739  85.454     0.3289637  0.1741287  0.4837986 
1080.4     0.222      220        -9999      -9999      6.523779   3.464      3.285      2.71       2.52       1.280933   4.571      0.2001986  0.2001986  0.3084739  14.29955   24.22972   3.643      0.5051925  0.6243087  85.198     0.3281069  0.1765382  0.4796757 
1080.6     0.22       216        -9999      -9999      6.510937   3.603      2.936      2.84       2.189      1.275218   4.284      0.20104    0.20104    0.3096381  14.82198   24.51402   3.699      0.5105131  0.6286296  85.198     0.3290852  0.1756992  0.4824712 
1080.8     0.221      216        -9999      -9999      6.431731   3.756      3.045      3.61       2.446      1.284482   4.022      0.198603   0.198603   0.307751   13.35883   26.34283   3.699      0.5052862  0.6254292  85.403     0.3307513  0.1706123  0.4908902 
1081       0.221      217        -9999      -9999      6.318656   3.818      3.192      3.429      2.201      1.301976   3.735      0.1952584  0.1952584  0.3041874  11.58288   29.19256   3.682      0.4968271  0.6193447  85.505     0.330088   0.1636043  0.4965718 
1081.2     0.223      210        -9999      -9999      6.237732   3.664      2.551      2.847      2.015      1.316937   3.612      0.1920618  0.1920618  0.3011399  10.10669   31.41941   3.817      0.4980942  0.6213679  85.607     0.3305395  0.1587663  0.5023127 
1081.4     0.221      204        -9999      -9999      6.237617   3.603      2.477      2.741      1.921      1.321504   3.586      0.1906519  0.1906519  0.3002096  9.51686    31.42271   3.916      0.5008963  0.6243776  85.607     0.3319931  0.1587595  0.5052267 
1081.6     0.221      202        -9999      -9999      6.315767   3.782      2.662      2.733      1.987      1.313226   3.402      0.1921549  0.1921549  0.3018959  10.14688   29.26929   3.956      0.5066565  0.628707   85.377     0.3325486  0.163429   0.5016681 
1081.8     0.221      208        -9999      -9999      6.432513   4.155      3.155      3.454      2.114      1.293623   3.207      0.1939986  0.1939986  0.3058889  10.97697   26.32413   3.854      0.5047083  0.628197   85.479     0.3390616  0.1706618  0.5074615 
