~Version
 VERS              .         2.0                           : CWLS LOG ASCII STANDARD - VERSION 2.0
 WRAP              .         NO                            : ONE LINE PER DEPTH STEP
 DLM               .         SPACE                         : DELIMITING CHARACTER(SPACE TAB OR COMMA)
~Well Information
#_______________________________________________________________________________
#
#PARAMETER_NAME    .UNIT     VALUE                         : DESCRIPTION
#_______________________________________________________________________________
STRT               .M        896                           : First reference value
STOP               .M        1244                          : Last reference value
STEP               .M        0.2                           : Step increment
NULL               .         -9999                         : Missing value
COMP               .                                       : Company
WELL               .         4909                          : Well name
FLD                .         УЗЕНЬ                         : Field
LOC                .                                       : Location
CNTY               .                                       : County
STAT               .                                       : State
CTRY               .                                       : Country
SRVC               .                                       : Service Company
DATE               .         28-29.11.89                   : Date
UWI                .         4909                          : Unique Well ID
Block              .         7                             : 
Category           .         Нефтяная                      : 
Condition          .         В работе                      : 
Date               .         01.02.1990                    : 
EREF               .m        93.7                          : 100.8
Gorizont           .         14                            : 14
Interpretator      .         Алпанова Н.К.                 : 
Kupol              .         основной                      : osnovnoi
Moii_14            .         14_gor                        : 
Mud                .                                       : 
Mud_density        .                                       : 
Mud_resistivity    .                                       : 
NGDU               .         НГДУ-2                        : 
ORIGINALWELLNAME   .         4909                          : 
Spud_date          .         1989                          : 1961
Viscosity          .                                       : 
X                  .m        42307                         : 46154
Y                  .m        85012.73                      : 85761.93
YEAR               .         2019                          : 
~Parameter Information Block
#_______________________________________________________________________________
#
#PARAMETER_NAME    .UNIT     VALUE                         : DESCRIPTION
#_______________________________________________________________________________
SET                .         LQC_KAZNIPI_Petrel            : 
TLFamily_CALI      .         Caliper                       : 
TLFamily_CILD      .         Conductivity                  : 
TLFamily_COLL      .         Net Reservoir Flag            : 
TLFamily_CSAT      .         Fluid Code                    : 
TLFamily_DEPT      .         Measured Depth                : 
TLFamily_GR        .         Russian Gamma Ray             : 
TLFamily_GZ3       .         Gradient 225                  : 
TLFamily_LLS       .         Lateral Log Resistivity       : 
TLFamily_MINV      .         Micro Gradient Resistivity    : 
TLFamily_MNOR      .         Micro Resistivity             : 
TLFamily_NGLD      .         Neutron Far                   : 
TLFamily_OGZ       .         Gradient Inverted 225         : 
TLFamily_PHIE      .         Effective Porosity            : 
TLFamily_PHIEN     .         Effective Porosity            : 
TLFamily_PHIT      .         Porosity                      : 
TLFamily_PRMB      .         Permeability                  : 
TLFamily_PRMB_DGR  .         Permeability                  : 
TLFamily_RT        .         Formation Resistivity         : 
TLFamily_SOIL_ARCHIE .         Oil Saturation                : 
TLFamily_SOIL_DW   .         Oil Saturation                : 
TLFamily_SP        .         Spontaneous Potential         : 
TLFamily_VSH_FIN   .         Shale Volume                  : 
TLFamily_VSH_GR    .         Shale Volume                  : 
TLFamily_VSH_SP    .         Shale Volume                  : 
~Curve Information
#_______________________________________________________________________________
#
#LOGNAME           .UNIT     LOG_ID                        : DESCRIPTION
#_______________________________________________________________________________
DEPT               .M                                      : Колонка глубины 
CALI               .м                                      : Каверномер 
CILD               .мСм/м                                  : Индукционный каротаж 
COLL               .unitless                               : Описание 
CSAT               .unitless                               : Описание 
GR                 .uR/h                                   : Гамма каротаж 
GZ3                .Ohmm                                   :  
LLS                .Ohmm                                   : Боковой каротаж 
MINV               .Ohmm                                   : Микро-градиент зонд 
MNOR               .Ohmm                                   : Микро-потенциал зонд 
NGLD               .у.е.                                   : Показания зонда НГК-60 аппаратуры ДРСТ-3-90 
OGZ                .Ohmm                                   :  
PHIE               .v/v                                    : Описание 
PHIEN              .v/v                                    :  
PHIT               .v/v                                    : Описание 
PRMB               .mD                                     :  
PRMB_DGR           .mD                                     :  
RT                 .ohmm                                   : УЭС пласта 
SOIL_ARCHIE        .v/v                                    :  
SOIL_DW            .v/v                                    :  
SP                 .мВ                                     : Потенциал самополяризации 
VSH_FIN            .v/v                                    : Описание 
VSH_GR             .v/v                                    : Shale volume 
VSH_SP             .v/v                                    : Shale Volume 
~Ascii
# ...
964.2000000000001 0.22       247        -9999      -9999      5.78508    3.747      2.334      0.708      1.61       1.197116   3.208      0.1868174  0.1868174  0.3255474  8.08107    4.957209   3.244      0.4450629  0.6036686  88.22      0.4203941  0.3374625  0.5033256 
964.4      0.22       250        -9999      -9999      5.864157   3.911      2.24       3.106      2.057      1.19146    3.177      0.1858815  0.1858815  0.3266995  7.764863   4.473394   3.195      0.4386351  0.6006997  88.156     0.4267214  0.3519146  0.5015282 
964.6      0.221      257        -9999      -9999      5.883901   3.998      2.185      0.652      1.242      1.199373   3.12       0.183954   0.183954   0.3250876  7.152091   4.360153   3.115      0.4267345  0.5927189  88.092     0.4276776  0.3556184  0.4997368 
964.8      0.227      256        -9999      -9999      5.850356   3.522      2.554      0.551      1.285      1.214162   3.064      0.1809095  0.1809095  0.3220753  6.281167   4.554299   3.127      0.4193895  0.5885023  88.322     0.4277752  0.3493484  0.506202  
965        0.23       249        -9999      -9999      5.777806   3.42       3.29       0.51       1.204      1.226438   3.279      0.1795052  0.1795052  0.3195745  5.916016   5.00426    3.21       0.4225776  0.5906793  88.552     0.4244527  0.3361633  0.512742  
965.2000000000001 0.233      242        -9999      -9999      5.704579   3.44       4.239      0.551      1.072      1.229663   3.561      0.1798741  0.1798741  0.3189175  6.009832   5.503523   3.302      0.4312018  0.5962459  88.781     0.4213438  0.3233596  0.5193281 
965.4      0.232      236        -9999      -9999      5.6959     3.532      3.399      0.634      1.612      1.223528   3.699      0.180265   0.180265   0.3201674  6.110878   5.565906   3.388      0.439085   0.6026865  89.011     0.4239466  0.3218748  0.5260184 
965.6      0.224      232        -9999      -9999      5.794465   3.865      2.725      0.667      2.152      1.215471   3.981      0.1796674  0.1796674  0.3218085  5.957094   4.897162   3.444      0.4417714  0.6066338  88.884     0.4307305  0.3391461  0.5223149 
965.8      0.219      245        -9999      -9999      5.966574   4.28       2.185      3.53       2.692      1.217544   4.022      0.173407   0.173407   0.3213862  4.561181   3.916273   3.264      0.409572   0.5899429  88.986     0.4484217  0.371556   0.5252875 
966        0.219      248        -9999      -9999      6.118121   4.5        2.624      2.588      1.621      1.236357   3.961      0.1647527  0.1647527  0.317554   3.153385   3.216617   3.231      0.3796984  0.576466   88.922     0.4630345  0.4026484  0.5234205 
966.2000000000001 0.221      237        -9999      -9999      6.171185   4.541      2.883      2.827      1.45       1.264378   3.638      0.1574557  0.1574557  0.3118461  2.310043   3.002415   3.37       0.3673642  0.5732461  88.858     0.4678496  0.4141398  0.5215595 
966.4      0.225      227        -9999      -9999      6.120464   3.845      2.891      0.809      1.567      1.285383   3.505      0.1569302  0.1569302  0.3075674  2.258841   3.206843   3.526      0.3788503  0.5786943  88.449     0.4564765  0.4031491  0.5098039 
966.6      0.225      229        -9999      -9999      6.019461   3.517      2.866      0.898      1.722      1.289093   3.325      0.160536   0.160536   0.3068117  2.634354   3.656321   3.501      0.3889826  0.5802637  88.258     0.4432598  0.382124   0.5043956 
966.8      0.223      235        -9999      -9999      5.928129   3.384      2.99       1.106      1.864      1.276414   3.238      0.1669882  0.1669882  0.3093944  3.468838   4.116769   3.398      0.4012652  0.582583   88.066     0.4315341  0.3640577  0.4990106 
967        0.219      246        -9999      -9999      5.878912   3.323      2.691      0.736      1.679      1.253016   3.131      0.173885   0.173885   0.3141607  4.655104   4.388489   3.251      0.4098815  0.5838538  87.939     0.425078   0.354679   0.4954771 
967.2000000000001 0.22       254        -9999      -9999      5.875736   3.389      2.407      0.885      1.722      1.225038   3.028      0.1787441  0.1787441  0.3198597  5.727075   4.406629   3.156      0.4158045  0.5867239  88.143     0.427623   0.3540821  0.5011638 
967.4      0.228      259        -9999      -9999      5.903864   3.338      2.358      1.034      1.646      1.198877   2.844      0.1831952  0.1831952  0.3251887  6.924325   4.248565   3.084      0.4219603  0.5900856  88.143     0.4302835  0.3594032  0.5011638 
967.6      0.232      265        -9999      -9999      5.943883   3.43       2.458      1.183      1.621      1.179835   2.793      0.1853897  0.1853897  0.3290676  7.603706   4.033399   3.019      0.4221771  0.5905881  88.232     0.4353876  0.3671119  0.5036633 
967.8      0.239      272        -9999      -9999      5.988549   3.497      2.791      0.601      1.435      1.169356   2.767      0.1856536  0.1856536  0.3312022  7.689756   3.80609    2.94       0.4156666  0.5869771  88.322     0.4410566  0.3759112  0.506202  
968        0.241      279        -9999      -9999      6.047356   3.497      2.185      0.51       1.09       1.164873   2.859      0.1836455  0.1836455  0.3321154  7.058591   3.526238   2.869      0.4032996  0.5808045  88.526     0.4499087  0.3878185  0.511999  
968.2000000000001 0.242      281        -9999      -9999      6.129714   3.538      1.831      0.604      1.262      1.162459   2.9        0.1812805  0.1812805  0.332607   6.381347   3.168552   2.844      0.3940416  0.577199   88.526     0.4585652  0.4051315  0.511999  
968.4      0.232      293        -9999      -9999      6.226745   3.625      1.644      0.515      1.095      1.160834   2.808      0.1786832  0.1786832  0.3329381  5.712219   2.793408   2.729      0.3743761  0.5662019  88.398     0.467439   0.4265231  0.5083548 
968.6      0.231      296        -9999      -9999      6.307849   3.819      2.082      0.501      0.904      1.162852   2.808      0.1757721  0.1757721  0.332527   5.045253   2.514149   2.706      0.3628356  0.5612326  88.271     0.4750149  0.4452677  0.5047621 
968.8      0.233      293        -9999      -9999      6.333633   3.927      2.29       0.487      0.841      1.172021   2.977      0.172893   0.172893   0.3306594  4.462268   2.431355   2.728      0.3560558  0.558674   88.271     0.4780799  0.4513978  0.5047621 
969        0.234      289        -9999      -9999      6.283991   3.573      2.085      0.434      1.029      1.188291   3.131      0.1707992  0.1707992  0.3273451  4.081068   2.593266   2.77       0.3538355  0.5572357  88.424     0.4743814  0.4396697  0.5090932 
969.2000000000001 0.232      284        -9999      -9999      6.180187   3.287      2.532      0.566      1.148      1.208153   3.305      0.1699188  0.1699188  0.3232993  3.930662   2.96752    2.813      0.3555954  0.5563887  88.577     0.4647895  0.4161214  0.5134575 
969.4      0.232      284        -9999      -9999      6.067245   3.21       2.482      0.541      1.12       1.227343   3.454      0.1700011  0.1700011  0.3193901  3.944496   3.436324   2.813      0.3558674  0.5531649  88.577     0.452694   0.3919305  0.5134575 
969.6      0.23       280        -9999      -9999      5.968194   3.205      2.248      0.533      1.11       1.242887   3.535      0.169661   0.169661   0.316224   3.887688   3.908044   2.857      0.3594253  0.5535684  88.679     0.4441303  0.3718753  0.5163854 
969.8      0.225      276        -9999      -9999      5.867376   3.338      2.555      0.963      1.739      1.253021   3.597      0.1705484  0.1705484  0.3141595  4.03764    4.454731   2.902      0.3669884  0.556179   88.73      0.4351854  0.3525158  0.5178549 
970        0.222      263        -9999      -9999      5.74129    3.358      2.904      1.039      1.474      1.256932   3.638      0.1732707  0.1732707  0.313363   4.534726   5.247294   3.045      0.3895939  0.5687441  88.781     0.4245222  0.3297164  0.5193281 
970.2000000000001 0.222      258        -9999      -9999      5.595091   3.251      2.541      1.797      1.665      1.255141   3.625      0.1775314  0.1775314  0.3137277  5.438391   6.344437   3.106      0.4079098  0.5773656  88.815     0.4127161  0.3051197  0.5203124 
