~Version
 VERS              .         2.0                           : CWLS LOG ASCII STANDARD - VERSION 2.0
 WRAP              .         NO                            : ONE LINE PER DEPTH STEP
 DLM               .         SPACE                         : DELIMITING CHARACTER(SPACE TAB OR COMMA)
~Well Information
#_______________________________________________________________________________
#
#PARAMETER_NAME    .UNIT     VALUE                         : DESCRIPTION
#_______________________________________________________________________________
STRT               .M        896                           : First reference value
STOP               .M        1244                          : Last reference value
STEP               .M        0.2                           : Step increment
NULL               .         -9999                         : Missing value
COMP               .                                       : Company
WELL               .         4909                          : Well name
FLD                .         УЗЕНЬ                         : Field
LOC                .                                       : Location
CNTY               .                                       : County
STAT               .                                       : State
CTRY               .                                       : Country
SRVC               .                                       : Service Company
DATE               .         28-29.11.89                   : Date
UWI                .         4909                          : Unique Well ID
Block              .         7                             : 
Category           .         Нефтяная                      : 
Condition          .         В работе                      : 
Date               .         01.02.1990                    : 
EREF               .m        93.7                          : 100.8
Gorizont           .         14                            : 14
Interpretator      .         Алпанова Н.К.                 : 
Kupol              .         основной                      : osnovnoi
Moii_14            .         14_gor                        : 
Mud                .                                       : 
Mud_density        .                                       : 
Mud_resistivity    .                                       : 
NGDU               .         НГДУ-2                        : 
ORIGINALWELLNAME   .         4909                          : 
Spud_date          .         1989                          : 1961
Viscosity          .                                       : 
X                  .m        42307                         : 46154
Y                  .m        85012.73                      : 85761.93
YEAR               .         2019                          : 
~Parameter Information Block
#_______________________________________________________________________________
#
#PARAMETER_NAME    .UNIT     VALUE                         : DESCRIPTION
#_______________________________________________________________________________
SET                .         LQC_KAZNIPI_Petrel            : 
TLFamily_CALI      .         Caliper                       : 
TLFamily_CILD      .         Conductivity                  : 
TLFamily_COLL      .         Net Reservoir Flag            : 
TLFamily_CSAT      .         Fluid Code                    : 
TLFamily_DEPT      .         Measured Depth                : 
TLFamily_GR        .         Russian Gamma Ray             : 
TLFamily_GZ3       .         Gradient 225                  : 
TLFamily_LLS       .         Lateral Log Resistivity       : 
TLFamily_MINV      .         Micro Gradient Resistivity    : 
TLFamily_MNOR      .         Micro Resistivity             : 
TLFamily_NGLD      .         Neutron Far                   : 
TLFamily_OGZ       .         Gradient Inverted 225         : 
TLFamily_PHIE      .         Effective Porosity            : 
TLFamily_PHIEN     .         Effective Porosity            : 
TLFamily_PHIT      .         Porosity                      : 
TLFamily_PRMB      .         Permeability                  : 
TLFamily_PRMB_DGR  .         Permeability                  : 
TLFamily_RT        .         Formation Resistivity         : 
TLFamily_SOIL_ARCHIE .         Oil Saturation                : 
TLFamily_SOIL_DW   .         Oil Saturation                : 
TLFamily_SP        .         Spontaneous Potential         : 
TLFamily_VSH_FIN   .         Shale Volume                  : 
TLFamily_VSH_GR    .         Shale Volume                  : 
TLFamily_VSH_SP    .         Shale Volume                  : 
~Curve Information
#_______________________________________________________________________________
#
#LOGNAME           .UNIT     LOG_ID                        : DESCRIPTION
#_______________________________________________________________________________
DEPT               .M                                      : Колонка глубины 
CALI               .м                                      : Каверномер 
CILD               .мСм/м                                  : Индукционный каротаж 
COLL               .unitless                               : Описание 
CSAT               .unitless                               : Описание 
GR                 .uR/h                                   : Гамма каротаж 
GZ3                .Ohmm                                   :  
LLS                .Ohmm                                   : Боковой каротаж 
MINV               .Ohmm                                   : Микро-градиент зонд 
MNOR               .Ohmm                                   : Микро-потенциал зонд 
NGLD               .у.е.                                   : Показания зонда НГК-60 аппаратуры ДРСТ-3-90 
OGZ                .Ohmm                                   :  
PHIE               .v/v                                    : Описание 
PHIEN              .v/v                                    :  
PHIT               .v/v                                    : Описание 
PRMB               .mD                                     :  
PRMB_DGR           .mD                                     :  
RT                 .ohmm                                   : УЭС пласта 
SOIL_ARCHIE        .v/v                                    :  
SOIL_DW            .v/v                                    :  
SP                 .мВ                                     : Потенциал самополяризации 
VSH_FIN            .v/v                                    : Описание 
VSH_GR             .v/v                                    : Shale volume 
VSH_SP             .v/v                                    : Shale Volume 
~Ascii
# ...
939.4      0.218      122        -9999      -9999      4.200507   8.14       4.698      4.172      2.602      1.643634   9.513      0.1248022  0.1248022  0.2345917  0.5738488  38.8107    6.547      0.4328171  0.6011534  86.729     0.3326954  0.1456439  0.5197468 
939.6      0.218      120        -9999      -9999      4.063319   8.104      6.67       3.641      2.488      1.655299   9.4        0.1236239  0.1236239  0.2322156  0.5457243  46.37954   6.672      0.4331649  0.6009726  86.831     0.3290657  0.1354246  0.5227067 
939.8      0.219      112        -9999      -9999      3.903162   7.497      9.47       4.661      2.978      1.685527   9.420999   0.1192859  0.1192859  0.2260582  0.4535472  57.10268   7.175      0.4348607  0.6033683  86.831     0.3235523  0.1243978  0.5227067 
940        0.219      107        -9999      -9999      3.783427   6.891      10.586     3.113      3.468      1.720441   9.298      0.1146531  0.1146531  0.2189463  0.3722303  66.70954   7.463      0.4257271  0.5972689  86.576     0.3160399  0.1167447  0.515335  
940.2000000000001 0.219      103        -9999      -9999      3.749284   6.284      5.488      4.218      3.958      1.736717   8.374      0.1134766  0.1134766  0.2156307  0.3540144  69.73415   7.767      0.4313008  0.5999286  86.194     0.3095576  0.1146499  0.5044652 
940.4      0.22       102        -9999      -9999      3.808897   6.56       4.337      4.895      4.447      1.72025    7.451      0.1165808  0.1165808  0.218985   0.4041271  64.53912   7.843      0.4470447  0.6097292  86.117     0.3103156  0.1183322  0.5022991 
940.6      0.22       113        -9999      -9999      3.941558   7.492      5.225      3.562      3.301      1.680644   6.527      0.121316   0.121316   0.2270527  0.4945667  54.32513   7.067      0.4391286  0.6040307  86.525     0.3204143  0.1269567  0.513872  
940.8      0.221      114        -9999      -9999      4.114965   8.424      5.368      2.7        2.514      1.642711   5.603001   0.127746   0.127746   0.2347797  0.6506143  43.37083   6.999      0.4613595  0.6179319  86.372     0.3243447  0.1391848  0.5095046 
941        0.223      108        -9999      -9999      4.302135   9.357      3.894      2.416      3.178      1.624249   5.747      0.1287484  0.1287484  0.2385405  0.6790324  34.01199   7.414      0.4792813  0.6334751  86.449     0.3327034  0.1537085  0.5116983 
941.2000000000001 0.223      115        -9999      -9999      4.494301   9.469      5.817      3.229      3.843      1.623769   6.146      0.123446   0.123446   0.2386383  0.5415989  26.50018   6.969      0.4439349  0.6158116  87.01      0.3490674  0.1701979  0.5279369 
941.4      0.222      117        -9999      -9999      4.703502   9.561      8.689      4.961      2.874      1.625355   6.320001   0.1183353  0.1183353  0.2383152  0.4355271  20.19564   6.861      0.4188319  0.6061082  87.316     0.3635755  0.1901665  0.5369846 
941.6      0.222      116        -9999      -9999      4.949558   9.894001   12.98      3.372      1.905      1.610802   6.988      0.1159187  0.1159187  0.2412796  0.392875   14.67166   6.926      0.4109062  0.6078628  87.52      0.3798815  0.2166714  0.5430917 
941.8      0.224      130        -9999      -9999      5.233528   10.635     3.407      4.447      3.126      1.569059   7.655001   0.1186117  0.1186117  0.2497827  0.4406911  10.14654   6.173      0.3905271  0.5969893  87.52      0.3974879  0.2518843  0.5430917 
942        0.222      150        -9999      -9999      5.520271   11.683     3.021      4.984      4.347      1.502842   7.886      0.1252746  0.1252746  0.263271   0.5855267  6.991853   5.351      0.3785515  0.5896384  87.52      0.4181711  0.2932506  0.5430917 
942.2000000000001 0.222      160        -9999      -9999      5.750994   12.961     2.795      4.981      3.369      1.430067   6.944      0.1344299  0.1344299  0.2780954  0.86522    5.181579   4.988      0.3959935  0.6000314  87.393     0.43535    0.3314175  0.5392826 
942.4      0.222      175        -9999      -9999      5.875798   13.447     2.955      3.915      1.74       1.375036   6.003      0.1428995  0.1428995  0.2893052  1.241663   4.406275   4.579      0.4038343  0.6020226  87.189     0.4436534  0.3540937  0.5332131 
942.6      0.222      177        -9999      -9999      5.873808   12.399     3.323      2.916      1.783      1.352381   5.061      0.1485678  0.1485678  0.29392    1.581227   4.417676   4.512      0.4196939  0.6088573  86.985     0.4404612  0.3537203  0.527202  
942.8      0.222      182        -9999      -9999      5.759046   9.602001   3.516      2.035      1.902      1.358986   4.902      0.1532268  0.1532268  0.2925746  1.928814   5.127684   4.388      0.4276564  0.6069751  86.449     0.4222662  0.3328355  0.5116968 
943        0.224      182        -9999      -9999      5.578043   7.433      3.412      1.154      1.745      1.3812     5.603001   0.1543289  0.1543289  0.2880496  2.021641   6.486469   4.408      0.4324303  0.6052211  86.321     0.4052142  0.3023737  0.5080546 
943.2000000000001 0.225      187        -9999      -9999      5.395975   6.506999   3.534      1.616      1.821      1.40634    6.166      0.1513822  0.1513822  0.2829285  1.782889   8.216678   4.269      0.4140762  0.5913709  86.831     0.398625   0.2745448  0.5227051 
943.4      0.223      188        -9999      -9999      5.268784   5.79       3.963      3.421      1.921      1.426699   6.386001   0.149699   0.149699   0.2787814  1.659381   9.692449   4.258      0.4076254  0.5853376  86.933     0.3911587  0.2566377  0.5256797 
943.6      0.222      191        -9999      -9999      5.209288   5.509      2.845      2.17       1.623      1.440384   6.458      0.1477285  0.1477285  0.2759939  1.525625   10.47104   4.191      0.3962729  0.5772868  87.036     0.388683   0.2486671  0.5286988 
943.8      0.22       191        -9999      -9999      5.175188   5.482999   2.824      2.829      2.591      1.452557   6.566      0.143684   0.143684   0.2735142  1.283908   10.94517   4.191      0.3814985  0.5703306  87.505     0.3934249  0.2442109  0.5426389 
944        0.221      182        -9999      -9999      5.101174   5.555      3.64       2.713      2.052      1.472759   6.661      0.1409957  0.1409957  0.2693991  1.144826   12.04943   4.388      0.3846481  0.5730543  87.53      0.3891013  0.2348115  0.543391  
944.2000000000001 0.221      175        -9999      -9999      4.950886   5.626      4.296      2.606      1.514      1.507213   6.861      0.1364373  0.1364373  0.2623806  0.9425562  14.64639   4.571      0.3788056  0.5694193  87.632     0.3816465  0.2168241  0.546469  
944.4      0.222      168        -9999      -9999      4.734745   5.647      3.581      2.687      2.482      1.554149   7.819      0.1345036  0.1345036  0.2528198  0.8679439  19.3926    4.77       0.3834876  0.566425   86.866     0.3585337  0.1933434  0.5237241 
944.6      0.22       152        -9999      -9999      4.483562   5.666999   3.945      4.21       3.45       1.606571   8.777      0.1266917  0.1266917  0.2421415  0.6220072  26.87235   5.267      0.380024   0.5663874  87.096     0.3498479  0.1692314  0.5304644 
944.8      0.22       144        -9999      -9999      4.223692   5.478001   8.83       2.563      3.026      1.657207   8.818      0.1194745  0.1194745  0.2318269  0.4572095  37.65953   5.575      0.3647005  0.5571948  87.198     0.3404618  0.1474456  0.5334779 
945        0.219      127        -9999      -9999      3.986409   5.299      10.009     2.682      2.177      1.699329   9.878999   0.1184     0.1184     0.2232468  0.4367296  51.2513    6.294      0.3951133  0.5720288  86.228     0.3177176  0.1300124  0.5054228 
945.2000000000001 0.22       118        -9999      -9999      3.819334   5.242      5.745      3.358      2.733      1.724222   9.945      0.1163283  0.1163283  0.2181759  0.3997984  63.67027   6.797      0.4075088  0.5794706  85.973     0.308629   0.118989   0.4982691 
945.4      0.22       118        -9999      -9999      3.761378   6.213      4.486      4.984      3.683      1.724638   10.058     0.1185826  0.1185826  0.2180913  0.4401451  68.64742   6.768      0.4161606  0.581621   85.59      0.3015415  0.1153876  0.4876954 
