~Version
 VERS              .         2.0                           : CWLS LOG ASCII STANDARD - VERSION 2.0
 WRAP              .         NO                            : ONE LINE PER DEPTH STEP
 DLM               .         SPACE                         : DELIMITING CHARACTER(SPACE TAB OR COMMA)
~Well Information
#_______________________________________________________________________________
#
#PARAMETER_NAME    .UNIT     VALUE                         : DESCRIPTION
#_______________________________________________________________________________
STRT               .M        896                           : First reference value
STOP               .M        1244                          : Last reference value
STEP               .M        0.2                           : Step increment
NULL               .         -9999                         : Missing value
COMP               .                                       : Company
WELL               .         4909                          : Well name
FLD                .         УЗЕНЬ                         : Field
LOC                .                                       : Location
CNTY               .                                       : County
STAT               .                                       : State
CTRY               .                                       : Country
SRVC               .                                       : Service Company
DATE               .         28-29.11.89                   : Date
UWI                .         4909                          : Unique Well ID
Block              .         7                             : 
Category           .         Нефтяная                      : 
Condition          .         В работе                      : 
Date               .         01.02.1990                    : 
EREF               .m        93.7                          : 100.8
Gorizont           .         14                            : 14
Interpretator      .         Алпанова Н.К.                 : 
Kupol              .         основной                      : osnovnoi
Moii_14            .         14_gor                        : 
Mud                .                                       : 
Mud_density        .                                       : 
Mud_resistivity    .                                       : 
NGDU               .         НГДУ-2                        : 
ORIGINALWELLNAME   .         4909                          : 
Spud_date          .         1989                          : 1961
Viscosity          .                                       : 
X                  .m        42307                         : 46154
Y                  .m        85012.73                      : 85761.93
YEAR               .         2019                          : 
~Parameter Information Block
#_______________________________________________________________________________
#
#PARAMETER_NAME    .UNIT     VALUE                         : DESCRIPTION
#_______________________________________________________________________________
SET                .         LQC_KAZNIPI_Petrel            : 
TLFamily_CALI      .         Caliper                       : 
TLFamily_CILD      .         Conductivity                  : 
TLFamily_COLL      .         Net Reservoir Flag            : 
TLFamily_CSAT      .         Fluid Code                    : 
TLFamily_DEPT      .         Measured Depth                : 
TLFamily_GR        .         Russian Gamma Ray             : 
TLFamily_GZ3       .         Gradient 225                  : 
TLFamily_LLS       .         Lateral Log Resistivity       : 
TLFamily_MINV      .         Micro Gradient Resistivity    : 
TLFamily_MNOR      .         Micro Resistivity             : 
TLFamily_NGLD      .         Neutron Far                   : 
TLFamily_OGZ       .         Gradient Inverted 225         : 
TLFamily_PHIE      .         Effective Porosity            : 
TLFamily_PHIEN     .         Effective Porosity            : 
TLFamily_PHIT      .         Porosity                      : 
TLFamily_PRMB      .         Permeability                  : 
TLFamily_PRMB_DGR  .         Permeability                  : 
TLFamily_RT        .         Formation Resistivity         : 
TLFamily_SOIL_ARCHIE .         Oil Saturation                : 
TLFamily_SOIL_DW   .         Oil Saturation                : 
TLFamily_SP        .         Spontaneous Potential         : 
TLFamily_VSH_FIN   .         Shale Volume                  : 
TLFamily_VSH_GR    .         Shale Volume                  : 
TLFamily_VSH_SP    .         Shale Volume                  : 
~Curve Information
#_______________________________________________________________________________
#
#LOGNAME           .UNIT     LOG_ID                        : DESCRIPTION
#_______________________________________________________________________________
DEPT               .M                                      : Колонка глубины 
CALI               .м                                      : Каверномер 
CILD               .мСм/м                                  : Индукционный каротаж 
COLL               .unitless                               : Описание 
CSAT               .unitless                               : Описание 
GR                 .uR/h                                   : Гамма каротаж 
GZ3                .Ohmm                                   :  
LLS                .Ohmm                                   : Боковой каротаж 
MINV               .Ohmm                                   : Микро-градиент зонд 
MNOR               .Ohmm                                   : Микро-потенциал зонд 
NGLD               .у.е.                                   : Показания зонда НГК-60 аппаратуры ДРСТ-3-90 
OGZ                .Ohmm                                   :  
PHIE               .v/v                                    : Описание 
PHIEN              .v/v                                    :  
PHIT               .v/v                                    : Описание 
PRMB               .mD                                     :  
PRMB_DGR           .mD                                     :  
RT                 .ohmm                                   : УЭС пласта 
SOIL_ARCHIE        .v/v                                    :  
SOIL_DW            .v/v                                    :  
SP                 .мВ                                     : Потенциал самополяризации 
VSH_FIN            .v/v                                    : Описание 
VSH_GR             .v/v                                    : Shale volume 
VSH_SP             .v/v                                    : Shale Volume 
~Ascii
# ...
1237       0.221      449        -9999      -9999      8.885222   1.318      1.529      1.393      1.572      1.374709   1.473      0.1570848  0.1570848  0.2893718  2.273783   5.082578   1.781      0.1567974  0.3931543  58.838     0.4008697  0.3340385  0.467701  
1237.2     0.223      456        -9999      -9999      8.881305   1.38       1.529      1.414      1.6        1.373248   1.622      0.1584688  0.1584688  0.2896695  2.412042   5.103766   1.756      0.1576456  0.3913411  58.608     0.3975777  0.3334715  0.461684  
1237.4     0.223      462        -9999      -9999      8.986351   1.459      1.635      1.342      1.697      1.35777    1.668      0.1588942  0.1588942  0.2928222  2.456197   4.565049   1.733      0.1543942  0.3919606  58.646     0.4058426  0.3490122  0.462673  
1237.6     0.223      466        -9999      -9999      9.207912   1.539      1.699      1.162      1.536      1.332938   1.714      0.1597716  0.1597716  0.2978805  2.549855   3.607989   1.717      0.1547693  0.3967526  58.264     0.4185117  0.384206   0.4528174 
1237.8     0.222      467        -9999      -9999      9.482021   1.608      1.597      1.123      1.503      1.307096   1.606      0.1582103  0.1582103  0.3031445  2.385591   2.696815   1.713      0.1465755  0.4001385  57.983     0.4391946  0.4326963  0.4456928 
1238       0.223      467        -9999      -9999      9.714424   1.677      1.535      1.192      1.546      1.286418   1.524      0.1548528  0.1548528  0.3073567  2.067319   2.107032   1.714      0.1307201  0.4003541  57.983     0.462133   0.4785732  0.4456928 
1238.2     0.223      454        -9999      -9999      9.862391   1.759      1.607      1.192      1.432      1.272721   1.565      0.1501529  0.1501529  0.3101467  1.691817   1.800659   1.764      0.119037   0.4051423  58.519     0.4848299  0.5102852  0.4593747 
1238.4     -9999      442        -9999      -9999      9.953386   1.79       1.515      1.187      1.386      1.264639   1.514      0.1397081  0.1397081  0.311793   1.083656   1.634806   1.812      0.0736877  0.3986993  60.457     0.5214692  0.5308218  0.5121167 
1238.6     -9999      441        -9999      -9999      10.0305    1.821      1.586      1.269      1.493      1.259126   1.514      0.1326694  0.1326694  0.312916   0.802635   1.506274   1.816      0.03203068 0.3889813  61.528     0.5462016  0.5488707  0.5435326 
1238.8     -9999      443        -9999      -9999      10.10895   1.841      1.588      1.22       1.442      1.253331   1.596      0.1271077  0.1271077  0.3140965  0.6331409  1.385876   1.804      0          0.3786337  62.242     0.5666326  0.5678626  0.5654027 
1239       -9999      450        -9999      -9999      10.17326   1.813      1.603      1.172      1.455      1.247356   1.412      0.1283956  0.1283956  0.3153137  0.6688926  1.294385   1.778      0          0.3779479  61.706     0.5664183  0.5839221  0.5489146 
1239.2     -9999      457        -9999      -9999      10.19437   1.785      1.652      1.174      1.383      1.244261   1.386      0.133431   0.133431   0.3159441  0.8291336  1.265698   1.751      0.02022859 0.3828109  60.622     0.5530698  0.5892904  0.5168493 
1239.4     -9999      464        -9999      -9999      10.15289   1.667      1.593      1.187      1.437      1.245602   1.386      0.1399011  0.1399011  0.3156709  1.092612   1.322697   1.725      0.05318949 0.3887683  59.539     0.5326357  0.5787857  0.4864857 
1239.6     -9999      469        -9999      -9999      10.06124   1.615      1.614      1.06       1.378      1.248384   1.386      0.1574296  0.1574296  0.3151042  2.307467   1.457887   1.706      0.1412421  0.4118177  56.045     0.4778021  0.5562375  0.3993667 
1239.8     -9999      480        -9999      -9999      9.950868   1.615      1.567      1.289      1.528      1.248308   1.386      0.1613517  0.1613517  0.3151196  2.727609   1.639184   1.668      0.1505192  0.4108309  56.147     0.4659636  0.5302424  0.4016848 
1240       -9999      498        -9999      -9999      9.840794   1.636      1.628      1.242      1.52       1.244914   1.427      0.1671656  0.1671656  0.315811   3.495191   1.842434   1.606      0.1615377  0.4086065  55.867     0.4504406  0.5055286  0.3953526 
1240.2     -9999      516        -9999      -9999      9.731605   1.703      1.574      1.265      1.508      1.242225   1.448      0.1729699  0.1729699  0.3163588  4.476931   2.06894    1.55       0.1724275  0.4066757  55.485     0.4345118  0.4821517  0.3868718 
1240.4     -9999      533        -9999      -9999      9.619598   1.723      1.463      1.213      1.433      1.24405    1.396      0.1839996  0.1839996  0.3159871  7.16599    2.330254   1.5        0.2036449  0.4110927  53.241     0.3999622  0.4592944  0.34063   
1240.6     -9999      542        -9999      -9999      9.501403   1.697      1.408      1.195      1.457      1.249509   1.345      0.1932745  0.1932745  0.314875   10.64318   2.641878   1.476      0.2312374  0.4167232  51.022     0.3684863  0.4363481  0.3006245 
1240.8     -9999      578        1          3          9.366182   1.559      1.426      1.185      1.5        1.253422   1.345      0.2019979  0.2019979  0.3140779  15.44008   3.049819   1.383      0.2372935  0.4072442  48.931     0.3396362  0.4114991  0.2677732 
1241       -9999      605        1          3          9.202398   1.451      1.405      1.131      1.434      1.251506   1.386      0.2106043  0.2106043  0.3144681  22.28749   3.629178   1.321      0.2485106  0.404201   47.376     0.3147388  0.3832885  0.2461892 
1241.2     -9999      630        1          3          9.026851   1.313      1.359      1.062      1.447      1.244585   1.386      0.2209915  0.2209915  0.315878   34.71014   4.372881   1.269      0.2656598  0.405631   45.209     0.2875349  0.3551954  0.2198743 
1241.4     -9999      642        1          3          8.899989   1.249      1.312      0.937      1.388      1.236807   1.335      0.2275659  0.2275659  0.3174623  45.9441    5.003498   1.246      0.2780015  0.4091532  44.163     0.2724135  0.3361842  0.2086428 
1241.6     -9999      641        1          3          8.894165   1.185      1.355      1.024      1.309      1.231414   1.187      0.2282779  0.2282779  0.3185609  47.36083   5.034541   1.248      0.2805051  0.411582   44.469     0.2735848  0.3353363  0.2118334 
1241.8     -9999      618        1          3          9.034884   1.18       1.452      1.129      1.472      1.22958    1.217      0.2237733  0.2237733  0.3189345  39.08252   4.335732   1.294      0.2802367  0.4177362  45.247     0.2883673  0.3564349  0.2202997 
1242       -9999      608        1          3          9.27323    1.292      1.531      1.014      1.393      1.231411   1.279      0.2155139  0.2155139  0.3185616  27.4788    3.366217   1.316      0.262131   0.4131855  46.025     0.3122658  0.3952432  0.2292884 
1242.2     -9999      579        1          3          9.522353   1.354      1.487      1.022      1.396      1.236261   1.299      0.2036829  0.2036829  0.3175737  16.59047   2.583753   1.381      0.2422772  0.4126838  47.657     0.3451236  0.4403301  0.2499172 
1242.4     -9999      572        -9999      -9999      9.720136   1.374      1.469      1.037      1.416      1.243111   1.32       0.1938073  0.1938073  0.3161783  10.88779   2.094291   1.398      0.2132879  0.4028103  48.523     0.370821   0.4797599  0.2618822 
1242.6     -9999      562        -9999      -9999      9.851822   1.349      1.441      1.053      1.437      1.251701   1.34       0.1871654  0.1871654  0.3144285  8.20193    1.820983   1.423      0.1957451  0.3977101  48.625     0.3856457  0.5079519  0.2633395 
1242.8     -9999      558        -9999      -9999      9.924321   1.297      1.412      0.993      1.386      1.262541   1.34       0.1844112  0.1844112  0.3122203  7.292901   1.68605    1.433      0.1879662  0.3936798  47.695     0.3873004  0.5241739  0.250427  
1243       -9999      558        -9999      -9999      9.94718    1.246      1.45       1.044      1.386      1.275657   1.289      0.1800492  0.1800492  0.3095486  6.054883   1.645616   1.434      0.17113    0.3848904  48.064     0.3924227  0.5293952  0.2554502 
