~Version
 VERS              .         2.0                           : CWLS LOG ASCII STANDARD - VERSION 2.0
 WRAP              .         NO                            : ONE LINE PER DEPTH STEP
 DLM               .         SPACE                         : DELIMITING CHARACTER(SPACE TAB OR COMMA)
~Well Information
#_______________________________________________________________________________
#
#PARAMETER_NAME    .UNIT     VALUE                         : DESCRIPTION
#_______________________________________________________________________________
STRT               .M        896                           : First reference value
STOP               .M        1244                          : Last reference value
STEP               .M        0.2                           : Step increment
NULL               .         -9999                         : Missing value
COMP               .                                       : Company
WELL               .         4909                          : Well name
FLD                .         УЗЕНЬ                         : Field
LOC                .                                       : Location
CNTY               .                                       : County
STAT               .                                       : State
CTRY               .                                       : Country
SRVC               .                                       : Service Company
DATE               .         28-29.11.89                   : Date
UWI                .         4909                          : Unique Well ID
Block              .         7                             : 
Category           .         Нефтяная                      : 
Condition          .         В работе                      : 
Date               .         01.02.1990                    : 
EREF               .m        93.7                          : 100.8
Gorizont           .         14                            : 14
Interpretator      .         Алпанова Н.К.                 : 
Kupol              .         основной                      : osnovnoi
Moii_14            .         14_gor                        : 
Mud                .                                       : 
Mud_density        .                                       : 
Mud_resistivity    .                                       : 
NGDU               .         НГДУ-2                        : 
ORIGINALWELLNAME   .         4909                          : 
Spud_date          .         1989                          : 1961
Viscosity          .                                       : 
X                  .m        42307                         : 46154
Y                  .m        85012.73                      : 85761.93
YEAR               .         2019                          : 
~Parameter Information Block
#_______________________________________________________________________________
#
#PARAMETER_NAME    .UNIT     VALUE                         : DESCRIPTION
#_______________________________________________________________________________
SET                .         LQC_KAZNIPI_Petrel            : 
TLFamily_CALI      .         Caliper                       : 
TLFamily_CILD      .         Conductivity                  : 
TLFamily_COLL      .         Net Reservoir Flag            : 
TLFamily_CSAT      .         Fluid Code                    : 
TLFamily_DEPT      .         Measured Depth                : 
TLFamily_GR        .         Russian Gamma Ray             : 
TLFamily_GZ3       .         Gradient 225                  : 
TLFamily_LLS       .         Lateral Log Resistivity       : 
TLFamily_MINV      .         Micro Gradient Resistivity    : 
TLFamily_MNOR      .         Micro Resistivity             : 
TLFamily_NGLD      .         Neutron Far                   : 
TLFamily_OGZ       .         Gradient Inverted 225         : 
TLFamily_PHIE      .         Effective Porosity            : 
TLFamily_PHIEN     .         Effective Porosity            : 
TLFamily_PHIT      .         Porosity                      : 
TLFamily_PRMB      .         Permeability                  : 
TLFamily_PRMB_DGR  .         Permeability                  : 
TLFamily_RT        .         Formation Resistivity         : 
TLFamily_SOIL_ARCHIE .         Oil Saturation                : 
TLFamily_SOIL_DW   .         Oil Saturation                : 
TLFamily_SP        .         Spontaneous Potential         : 
TLFamily_VSH_FIN   .         Shale Volume                  : 
TLFamily_VSH_GR    .         Shale Volume                  : 
TLFamily_VSH_SP    .         Shale Volume                  : 
~Curve Information
#_______________________________________________________________________________
#
#LOGNAME           .UNIT     LOG_ID                        : DESCRIPTION
#_______________________________________________________________________________
DEPT               .M                                      : Колонка глубины 
CALI               .м                                      : Каверномер 
CILD               .мСм/м                                  : Индукционный каротаж 
COLL               .unitless                               : Описание 
CSAT               .unitless                               : Описание 
GR                 .uR/h                                   : Гамма каротаж 
GZ3                .Ohmm                                   :  
LLS                .Ohmm                                   : Боковой каротаж 
MINV               .Ohmm                                   : Микро-градиент зонд 
MNOR               .Ohmm                                   : Микро-потенциал зонд 
NGLD               .у.е.                                   : Показания зонда НГК-60 аппаратуры ДРСТ-3-90 
OGZ                .Ohmm                                   :  
PHIE               .v/v                                    : Описание 
PHIEN              .v/v                                    :  
PHIT               .v/v                                    : Описание 
PRMB               .mD                                     :  
PRMB_DGR           .mD                                     :  
RT                 .ohmm                                   : УЭС пласта 
SOIL_ARCHIE        .v/v                                    :  
SOIL_DW            .v/v                                    :  
SP                 .мВ                                     : Потенциал самополяризации 
VSH_FIN            .v/v                                    : Описание 
VSH_GR             .v/v                                    : Shale volume 
VSH_SP             .v/v                                    : Shale Volume 
~Ascii
# ...
1144       0.216      234        1          2          7.096409   4.6        3.01       1.196      1.659      1.33167    3.65       0.2501847  0.2501847  0.2981387  120.5551   33.9666    3.426      0.5805845  0.639728   50.218     0.1453153  0.1537923  0.1368383 
1144.2     0.216      250        1          2          7.125256   4.355      2.881      1.173      1.771      1.331747   3.782      0.2499894  0.2499894  0.2981231  119.5551   32.9419    3.2        0.5666412  0.6270882  49.963     0.1458596  0.155728   0.1359911 
1144.4     0.215      254        1          2          7.155785   4.228      2.818      0.967      1.507      1.337797   4.104      0.2484681  0.2484681  0.2968908  112.0442   31.89107   3.15       0.5610996  0.6222662  49.861     0.1467354  0.1578033  0.1356676 
1144.6     0.215      258        1          2          7.181792   4.151      2.711      1.148      1.578      1.347445   4.276999   0.2461495  0.2461495  0.2949254  101.4949   31.02237   3.102      0.5543011  0.6163742  49.963     0.1478057  0.1595929  0.1360185 
1144.8     0.215      267        1          2          7.184634   4.233      2.725      1.193      1.576      1.356436   4.487      0.244112   0.244112   0.2930939  93.04758   30.92891   2.992      0.5433918  0.6065982  50.269     0.1484301  0.1597896  0.1370705 
1145       0.216      274        1          2          7.142489   4.274      2.709      1.272      1.529      1.361731   4.548      0.2433532  0.2433532  0.2920155  90.08433   32.34454   2.918      0.5367396  0.6002669  50.537     0.1474616  0.1568961  0.138027  
1145.2     0.218      278        1          2          7.054478   4.202      2.615      1.374      1.677      1.364342   4.512      0.2436893  0.2436893  0.2914836  91.38498   35.51322   2.877      0.5342134  0.597241   50.703     0.1448312  0.1510213  0.1386412 
1145.4     0.219      282        1          2          6.945089   4.202      2.507      1.265      1.731      1.367318   4.4        0.2439756  0.2439756  0.2908774  92.50772   39.88762   2.836      0.5315448  0.5940554  51.123     0.1421266  0.1440252  0.1402279 
1145.6     0.219      287        1          2          6.837319   4.044      2.459      1.423      1.837      1.371545   4.237      0.2439235  0.2439235  0.2900162  92.30224   44.72392   2.787      0.5276098  0.5897653  51.544     0.1396749  0.1374497  0.1419002 
1145.8     0.219      287        1          2          6.736346   3.606      2.573      1.171      1.786      1.375365   4.257      0.244046   0.244046   0.2892382  92.78581   49.78595   2.786      0.5277368  0.5891441  51.646     0.1369461  0.1315615  0.1423307 
1146       0.22       283        1          2          6.641573   3.458      2.695      1.26       1.774      1.37797    4.276999   0.2444715  0.2444715  0.2887076  94.48525   55.05718   2.831      0.5319852  0.5922932  51.519     0.1340486  0.1262646  0.1418326 
1146.2     0.223      263        1          2          6.566405   3.407      2.885      1.41       1.837      1.381332   4.226      0.2449846  0.2449846  0.2880227  96.57561   59.63211   3.044      0.5484743  0.6066291  50.677     0.1304184  0.1222155  0.1386213 
1146.4     0.231      240        1          2          6.538635   3.488      3.883      1.262      1.677      1.387696   4.191      0.2440782  0.2440782  0.2867263  92.91351   61.41685   3.329      0.5656452  0.6222727  50.422     0.1292366  0.1207527  0.1377205 
1146.6     0.233      226        1          2          6.57901    3.641      5.227      1.153      1.474      1.396379   4.359      0.2421018  0.2421018  0.2849576  85.40271   58.83927   3.535      0.5747115  0.6308641  50.167     0.129866   0.1228853  0.1368466 
1146.8     0.234      217        1          2          6.682785   4.238      7.036      1.218      1.647      1.404216   4.4        0.2398091  0.2398091  0.2833611  77.447     52.69968   3.693      0.5798818  0.6362106  49.733     0.1319758  0.1285412  0.1354104 
1147       0.233      211        1          2          6.819324   4.519      7.078      1.186      1.609      1.408316   4.196001   0.2376847  0.2376847  0.282526   70.73827   45.58677   3.791      0.5817849  0.6389723  49.721     0.135883   0.1363814  0.1353847 
1147.2     0.228      224        1          2          6.947547   5.257999   3.215      1.153      1.741      1.405594   4.012      0.2369572  0.2369572  0.2830804  68.57735   39.78366   3.571      0.5687362  0.6279541  49.708     0.1397673  0.1441788  0.1353558 
1147.4     0.223      243        1          2          7.035293   5.498      2.753      1.28       1.88       1.391791   3.496      0.2385472  0.2385472  0.2858922  73.38906   36.24416   3.287      0.5542387  0.615508   50.244     0.1434696  0.1497702  0.137169  
1147.6     0.218      252        1          2          7.071611   5.503      2.374      1.369      1.644      1.366405   3.175      0.2432055  0.2432055  0.2910633  89.51859   34.87293   3.177      0.5546268  0.6160865  50.448     0.1450238  0.1521475  0.1379002 
1147.8     0.213      258        1          2          7.069409   5.115      2.292      0.883      1.39       1.336505   3.012      0.2492573  0.2492573  0.2971539  115.8799   34.95459   3.1        0.5590115  0.6199377  50.55      0.1451412  0.1520022  0.1382802 
1148       0.211      264        1          2          7.056041   4.728      2.259      0.845      1.266      1.311202   2.96       0.2545165  0.2545165  0.3023082  145.0174   35.45433   3.027      0.5620888  0.6225297  50.613     0.1448233  0.1511237  0.138523  
1148.2     0.212      277        1          2          7.05419    4.539      2.259      1.036      1.357      1.294067   2.991      0.2579858  0.2579858  0.3057985  168.1436   35.52407   2.89       0.5577132  0.6184292  50.677     0.144887   0.1510025  0.1387715 
1148.4     0.211      299        1          2          7.06524    4.289      2.272      1.07       1.489      1.283538   3.012      0.2600084  0.2600084  0.3079433  183.2926   35.10968   2.678      0.544722   0.6065114  50.677     0.1452571  0.1517277  0.1387865 
1148.6     0.211      303        1          2          7.070031   4.156      2.333      1.008      1.418      1.276868   2.986      0.261389   0.261389   0.3093021  194.4087   34.93151   2.645      0.5441725  0.6059531  50.55      0.1451913  0.1520432  0.1383395 
1148.8     0.211      311        1          2          7.046841   4.048999   2.409      1.148      1.472      1.270254   2.884      0.2631198  0.2631198  0.3106492  209.3033   35.80238   2.573      0.5408775  0.6025909  50.32      0.1440284  0.150522   0.1375348 
1149       0.212      318        1          2          6.990757   3.937      2.464      1.11       1.522      1.259527   2.976      0.2658544  0.2658544  0.3128344  235.1947   37.99943   2.515      0.5400991  0.6014063  50.397     0.1423634  0.1469056  0.1378212 
1149.2     0.212      320        1          2          6.916173   3.886      2.573      0.901      1.377      1.244109   2.996      0.2695661  0.2695661  0.3159749  275.5352   41.13141   2.497      0.5440851  0.6046     50.728     0.1406327  0.1422307  0.1390347 
1149.4     0.212      323        1          2          6.841311   3.861      2.581      1.061      1.41       1.22942    3.139      0.2731795  0.2731795  0.3189672  321.4443   44.53475   2.478      0.5477237  0.6074603  50.932     0.1387505  0.1376878  0.1398131 
1149.6     0.213      323        1          2          6.773187   3.682      2.589      1.283      1.555      1.222828   3.2        0.2746104  0.2746104  0.32031    341.6721   47.87585   2.48       0.5499473  0.6094335  51.799     0.1384834  0.13368    0.1432868 
1149.8     0.213      322        1          2          6.710504   3.55       2.604      1.392      1.692      1.226549   3.2        0.2743965  0.2743965  0.3195519  338.569    51.1711    2.483      0.5498972  0.6090081  51.863     0.1368345  0.1300955  0.1435734 
1150       0.213      321        1          2          6.656247   3.442      2.727      1.443      1.769      1.236401   3.226      0.2731919  0.2731919  0.3175451  321.6139   54.20593   2.489      0.5486805  0.6073294  51.413     0.1344038  0.1270706  0.1417369 
