~Version
 VERS              .         2.0                           : CWLS LOG ASCII STANDARD - VERSION 2.0
 WRAP              .         NO                            : ONE LINE PER DEPTH STEP
 DLM               .         SPACE                         : DELIMITING CHARACTER(SPACE TAB OR COMMA)
~Well Information
#_______________________________________________________________________________
#
#PARAMETER_NAME    .UNIT     VALUE                         : DESCRIPTION
#_______________________________________________________________________________
STRT               .M        896                           : First reference value
STOP               .M        1244                          : Last reference value
STEP               .M        0.2                           : Step increment
NULL               .         -9999                         : Missing value
COMP               .                                       : Company
WELL               .         4909                          : Well name
FLD                .         УЗЕНЬ                         : Field
LOC                .                                       : Location
CNTY               .                                       : County
STAT               .                                       : State
CTRY               .                                       : Country
SRVC               .                                       : Service Company
DATE               .         28-29.11.89                   : Date
UWI                .         4909                          : Unique Well ID
Block              .         7                             : 
Category           .         Нефтяная                      : 
Condition          .         В работе                      : 
Date               .         01.02.1990                    : 
EREF               .m        93.7                          : 100.8
Gorizont           .         14                            : 14
Interpretator      .         Алпанова Н.К.                 : 
Kupol              .         основной                      : osnovnoi
Moii_14            .         14_gor                        : 
Mud                .                                       : 
Mud_density        .                                       : 
Mud_resistivity    .                                       : 
NGDU               .         НГДУ-2                        : 
ORIGINALWELLNAME   .         4909                          : 
Spud_date          .         1989                          : 1961
Viscosity          .                                       : 
X                  .m        42307                         : 46154
Y                  .m        85012.73                      : 85761.93
YEAR               .         2019                          : 
~Parameter Information Block
#_______________________________________________________________________________
#
#PARAMETER_NAME    .UNIT     VALUE                         : DESCRIPTION
#_______________________________________________________________________________
SET                .         LQC_KAZNIPI_Petrel            : 
TLFamily_CALI      .         Caliper                       : 
TLFamily_CILD      .         Conductivity                  : 
TLFamily_COLL      .         Net Reservoir Flag            : 
TLFamily_CSAT      .         Fluid Code                    : 
TLFamily_DEPT      .         Measured Depth                : 
TLFamily_GR        .         Russian Gamma Ray             : 
TLFamily_GZ3       .         Gradient 225                  : 
TLFamily_LLS       .         Lateral Log Resistivity       : 
TLFamily_MINV      .         Micro Gradient Resistivity    : 
TLFamily_MNOR      .         Micro Resistivity             : 
TLFamily_NGLD      .         Neutron Far                   : 
TLFamily_OGZ       .         Gradient Inverted 225         : 
TLFamily_PHIE      .         Effective Porosity            : 
TLFamily_PHIEN     .         Effective Porosity            : 
TLFamily_PHIT      .         Porosity                      : 
TLFamily_PRMB      .         Permeability                  : 
TLFamily_PRMB_DGR  .         Permeability                  : 
TLFamily_RT        .         Formation Resistivity         : 
TLFamily_SOIL_ARCHIE .         Oil Saturation                : 
TLFamily_SOIL_DW   .         Oil Saturation                : 
TLFamily_SP        .         Spontaneous Potential         : 
TLFamily_VSH_FIN   .         Shale Volume                  : 
TLFamily_VSH_GR    .         Shale Volume                  : 
TLFamily_VSH_SP    .         Shale Volume                  : 
~Curve Information
#_______________________________________________________________________________
#
#LOGNAME           .UNIT     LOG_ID                        : DESCRIPTION
#_______________________________________________________________________________
DEPT               .M                                      : Колонка глубины 
CALI               .м                                      : Каверномер 
CILD               .мСм/м                                  : Индукционный каротаж 
COLL               .unitless                               : Описание 
CSAT               .unitless                               : Описание 
GR                 .uR/h                                   : Гамма каротаж 
GZ3                .Ohmm                                   :  
LLS                .Ohmm                                   : Боковой каротаж 
MINV               .Ohmm                                   : Микро-градиент зонд 
MNOR               .Ohmm                                   : Микро-потенциал зонд 
NGLD               .у.е.                                   : Показания зонда НГК-60 аппаратуры ДРСТ-3-90 
OGZ                .Ohmm                                   :  
PHIE               .v/v                                    : Описание 
PHIEN              .v/v                                    :  
PHIT               .v/v                                    : Описание 
PRMB               .mD                                     :  
PRMB_DGR           .mD                                     :  
RT                 .ohmm                                   : УЭС пласта 
SOIL_ARCHIE        .v/v                                    :  
SOIL_DW            .v/v                                    :  
SP                 .мВ                                     : Потенциал самополяризации 
VSH_FIN            .v/v                                    : Описание 
VSH_GR             .v/v                                    : Shale volume 
VSH_SP             .v/v                                    : Shale Volume 
~Ascii
# ...
920.8      0.213      461        1          3          2.562595   1.744      1.453      1.525      1.405      1.37446    1.443      0.2641011  0.2641011  0.2894225  218.2481   3779.075   1.736      0.4495561  0.496954   70.718     0.07673161 0.02245683 0.1310064 
921        0.214      462        1          3          2.56363    1.68       1.453      1.614      1.445      1.374846   1.443      0.2641251  0.2641251  0.2893439  218.4718   3774.375   1.733      0.4491528  0.4964603  70.527     0.07642061 0.02246824 0.130373  
921.2000000000001 0.214      462        1          3          2.531207   1.616      1.432      1.622      1.511      1.378262   1.464      0.263556   0.263556   0.288648   213.2328   3924.47    1.73       0.447668   0.4948633  70.399     0.07603633 0.0221133  0.1299594 
921.4      0.214      461        1          3          2.484688   1.559      1.523      1.574      1.511      1.381239   1.551      0.263032   0.263032   0.2880416  208.5207   4150.309   1.734      0.4473092  0.4944086  70.399     0.07578658 0.02161381 0.1299594 
921.6      0.214      460        1          3          2.438029   1.534      1.457      1.572      1.486      1.382264   1.571      0.262904   0.262904   0.2878328  207.3857   4389.877   1.738      0.4476725  0.4946762  70.399     0.07554176 0.02112416 0.1299594 
921.8      0.213      459        1          3          2.394484   1.534      1.436      1.546      1.463      1.381669   1.592      0.2630989  0.2630989  0.2879539  209.1166   4625.919   1.742      0.4486239  0.4955383  70.399     0.07531828 0.02067719 0.1299594 
922        0.212      453        1          3          2.36309    1.575      1.47       1.481      1.47       1.379732   1.592      0.26345    0.26345    0.2883487  212.2715   4803.932   1.765      0.4526435  0.4995142  70.578     0.07545051 0.02036083 0.1305402 
922.2000000000001 0.212      447        1          3          2.361701   1.57       1.651      1.534      1.546      1.377167   1.75       0.2638906  0.2638906  0.2888711  216.2975   4811.965   1.791      0.4571772  0.5040292  70.731     0.07569858 0.02034694 0.1310502 
922.4      0.213      446        1          3          2.394991   1.519      1.534      1.609      1.652      1.377205   1.899      0.2637412  0.2637412  0.2888634  214.9243   4623.103   1.795      0.4574777  0.5044541  70.884     0.07612771 0.02068234 0.1315731 
922.6      0.213      449        1          3          2.43909    1.57       1.479      1.612      1.554      1.384558   1.932      0.2619281  0.2619281  0.2873656  198.9304   4384.282   1.783      0.4524876  0.499833   71.292     0.0770835  0.02113516 0.1330318 
922.8      0.214      457        1          3          2.46046    1.611      1.407      1.56       1.42       1.401069   1.965      0.2582712  0.2582712  0.2840023  170.2027   4273.025   1.751      0.4410114  0.4888049  71.7       0.07797322 0.02135816 0.1345883 
923        0.214      457        1          3          2.447525   1.631      1.396      1.554      1.46       1.423563   1.939      0.2535767  0.2535767  0.2794203  139.3203   4340.024   1.751      0.4320091  0.4799587  71.904     0.07831378 0.02122291 0.1354046 
923.2000000000001 0.214      458        1          3          2.415204   1.519      1.413      1.541      1.473      1.445738   1.832      0.2491148  0.2491148  0.2749032  115.1779   4512.064   1.748      0.4226944  0.4706302  71.904     0.07814666 0.02088868 0.1354046 
923.4      0.214      458        1          3          2.380868   1.467      1.413      1.551      1.465      1.461823   1.781      0.2462403  0.2462403  0.2716267  101.8886   4702.302   1.746      0.4165159  0.4640262  71.369     0.07692868 0.02053938 0.133318  
923.6      0.214      457        1          3          2.346298   1.416      1.402      1.525      1.448      1.469832   1.842      0.2449685  0.2449685  0.2699952  96.50922   4901.943   1.749      0.4143504  0.4614456  70.858     0.07583845 0.0201936  0.1314833 
923.8      0.213      449        1          3          2.306626   1.365      1.439      1.518      1.445      1.472323   1.817      0.2446351  0.2446351  0.2694879  95.14682   5141.513   1.784      0.4190819  0.4658697  70.603     0.07531132 0.02       0.1306226 
924        0.213      440        1          3          2.265124   1.36       1.521      1.508      1.488      1.473788   1.766      0.2443503  0.2443503  0.2691894  93.99796   5404.669   1.819      0.4237698  0.470434   70.578     0.07527009 0.02       0.1305402 
924.2000000000001 0.213      430        1          3          2.23282    1.36       1.661      1.599      1.574      1.477269   1.735      0.2438429  0.2438429  0.2684803  91.98549   5618.794   1.86       0.4287322  0.4750458  70.195     0.07465892 0.02       0.1293178 
924.4      0.213      421        1          3          2.221571   1.36       1.731      1.814      1.769      1.482517   1.847      0.2429014  0.2429014  0.2674114  88.36504   5695.334   1.901      0.4326389  0.478689   69.94      0.0742728  0.02       0.1285456 
924.6      0.213      415        1          3          2.237964   1.401      1.718      1.885      1.743      1.486661   1.95       0.242057   0.242057   0.2665671  85.23966   5584.143   1.928      0.4346695  0.4806413  69.94      0.0742728  0.02       0.1285456 
924.8      0.213      411        1          3          2.279913   1.508      1.622      1.915      1.865      1.486606   2.042      0.242018   0.242018   0.2665783  85.09779   5309.386   1.945      0.4369145  0.4828927  70.042     0.07442529 0.02       0.1288506 
925        0.213      406        1          3          2.333109   1.567      1.548      1.675      1.721      1.481946   2.124      0.2428007  0.2428007  0.2675276  87.98661   4980.321   1.97       0.441851   0.487936   70.348     0.07493009 0.02006323 0.129797  
925.2000000000001 0.213      400        1          3          2.374691   1.626      1.695      1.642      1.569      1.475351   2.144      0.2440219  0.2440219  0.2688709  92.69057   4737.366   2.002      0.4484706  0.4945845  70.45      0.07530013 0.02047717 0.1301231 
925.4      0.213      388        1          3          2.388366   1.641      1.809      1.865      1.827      1.469474   2.078      0.2451963  0.2451963  0.2700682  97.45165   4660.087   2.063      0.4584537  0.5043961  70.45      0.07536913 0.02061515 0.1301231 
925.6      0.213      381        1          3          2.382071   1.662      1.841      1.536      1.738      1.464006   2.078      0.2463208  0.2463208  0.2711821  102.2389   4695.5     2.101      0.4652076  0.5110121  70.45      0.07533731 0.02055153 0.1301231 
925.8      0.216      378        1          3          2.383371   1.682      1.819      1.751      1.789      1.456748   2.129      0.2478101  0.2478101  0.2726603  108.9439   4688.167   2.118      0.4700161  0.5157419  70.425     0.07530366 0.02056464 0.1300427 
926        0.217      373        1          3          2.41211    1.631      1.782      1.756      1.743      1.447274   2.19       0.2497987  0.2497987  0.2745903  118.5867   4528.884   2.144      0.4766973  0.5222626  70.22      0.07512613 0.02085696 0.1293953 
926.2000000000001 0.217      366        1          3          2.465525   1.652      1.835      1.834      1.776      1.438742   2.113      0.2515479  0.2515479  0.2763282  127.7718   4247.077   2.185      0.484471   0.5298772  70.016     0.07509185 0.02141135 0.1287724 
926.4      0.216      354        1          3          2.531934   1.652      1.871      1.857      1.895      1.435233   2.037      0.2522079  0.2522079  0.277043   131.4195   3921.039   2.262      0.4939381  0.5391476  69.889     0.07525811 0.0221212  0.128395  
926.6      0.214      353        1          3          2.603636   1.667      1.918      1.966      1.913      1.437348   2.011      0.2517076  0.2517076  0.2766122  128.6454   3597.062   2.268      0.493692   0.5389559  69.761     0.07546835 0.02291406 0.1280226 
926.8      0.213      352        1          3          2.672745   1.728      2.101      1.875      1.849      1.44122    2.011      0.2505222  0.2505222  0.2758235  122.3031   3310.159   2.275      0.4923407  0.5379798  70.297     0.07667052 0.02370514 0.1296359 
