~Version
 VERS              .         2.0                           : CWLS LOG ASCII STANDARD - VERSION 2.0
 WRAP              .         NO                            : ONE LINE PER DEPTH STEP
 DLM               .         SPACE                         : DELIMITING CHARACTER(SPACE TAB OR COMMA)
~Well Information
#_______________________________________________________________________________
#
#PARAMETER_NAME    .UNIT     VALUE                         : DESCRIPTION
#_______________________________________________________________________________
STRT               .M        896                           : First reference value
STOP               .M        1244                          : Last reference value
STEP               .M        0.2                           : Step increment
NULL               .         -9999                         : Missing value
COMP               .                                       : Company
WELL               .         4909                          : Well name
FLD                .         УЗЕНЬ                         : Field
LOC                .                                       : Location
CNTY               .                                       : County
STAT               .                                       : State
CTRY               .                                       : Country
SRVC               .                                       : Service Company
DATE               .         28-29.11.89                   : Date
UWI                .         4909                          : Unique Well ID
Block              .         7                             : 
Category           .         Нефтяная                      : 
Condition          .         В работе                      : 
Date               .         01.02.1990                    : 
EREF               .m        93.7                          : 100.8
Gorizont           .         14                            : 14
Interpretator      .         Алпанова Н.К.                 : 
Kupol              .         основной                      : osnovnoi
Moii_14            .         14_gor                        : 
Mud                .                                       : 
Mud_density        .                                       : 
Mud_resistivity    .                                       : 
NGDU               .         НГДУ-2                        : 
ORIGINALWELLNAME   .         4909                          : 
Spud_date          .         1989                          : 1961
Viscosity          .                                       : 
X                  .m        42307                         : 46154
Y                  .m        85012.73                      : 85761.93
YEAR               .         2019                          : 
~Parameter Information Block
#_______________________________________________________________________________
#
#PARAMETER_NAME    .UNIT     VALUE                         : DESCRIPTION
#_______________________________________________________________________________
SET                .         LQC_KAZNIPI_Petrel            : 
TLFamily_CALI      .         Caliper                       : 
TLFamily_CILD      .         Conductivity                  : 
TLFamily_COLL      .         Net Reservoir Flag            : 
TLFamily_CSAT      .         Fluid Code                    : 
TLFamily_DEPT      .         Measured Depth                : 
TLFamily_GR        .         Russian Gamma Ray             : 
TLFamily_GZ3       .         Gradient 225                  : 
TLFamily_LLS       .         Lateral Log Resistivity       : 
TLFamily_MINV      .         Micro Gradient Resistivity    : 
TLFamily_MNOR      .         Micro Resistivity             : 
TLFamily_NGLD      .         Neutron Far                   : 
TLFamily_OGZ       .         Gradient Inverted 225         : 
TLFamily_PHIE      .         Effective Porosity            : 
TLFamily_PHIEN     .         Effective Porosity            : 
TLFamily_PHIT      .         Porosity                      : 
TLFamily_PRMB      .         Permeability                  : 
TLFamily_PRMB_DGR  .         Permeability                  : 
TLFamily_RT        .         Formation Resistivity         : 
TLFamily_SOIL_ARCHIE .         Oil Saturation                : 
TLFamily_SOIL_DW   .         Oil Saturation                : 
TLFamily_SP        .         Spontaneous Potential         : 
TLFamily_VSH_FIN   .         Shale Volume                  : 
TLFamily_VSH_GR    .         Shale Volume                  : 
TLFamily_VSH_SP    .         Shale Volume                  : 
~Curve Information
#_______________________________________________________________________________
#
#LOGNAME           .UNIT     LOG_ID                        : DESCRIPTION
#_______________________________________________________________________________
DEPT               .M                                      : Колонка глубины 
CALI               .м                                      : Каверномер 
CILD               .мСм/м                                  : Индукционный каротаж 
COLL               .unitless                               : Описание 
CSAT               .unitless                               : Описание 
GR                 .uR/h                                   : Гамма каротаж 
GZ3                .Ohmm                                   :  
LLS                .Ohmm                                   : Боковой каротаж 
MINV               .Ohmm                                   : Микро-градиент зонд 
MNOR               .Ohmm                                   : Микро-потенциал зонд 
NGLD               .у.е.                                   : Показания зонда НГК-60 аппаратуры ДРСТ-3-90 
OGZ                .Ohmm                                   :  
PHIE               .v/v                                    : Описание 
PHIEN              .v/v                                    :  
PHIT               .v/v                                    : Описание 
PRMB               .mD                                     :  
PRMB_DGR           .mD                                     :  
RT                 .ohmm                                   : УЭС пласта 
SOIL_ARCHIE        .v/v                                    :  
SOIL_DW            .v/v                                    :  
SP                 .мВ                                     : Потенциал самополяризации 
VSH_FIN            .v/v                                    : Описание 
VSH_GR             .v/v                                    : Shale volume 
VSH_SP             .v/v                                    : Shale Volume 
~Ascii
# ...
1212.2     0.221      193        1          2          7.556161   4.821      3.529      0.963      1.322      1.32436    2.762      0.2388161  0.2388161  0.2996279  74.23549   20.84601   4.137      0.6057974  0.6713874  39.625     0.1842781  0.1877211  0.1808352 
1212.4     0.222      216        1          2          7.689616   4.882      3.348      0.96       1.207      1.32872    2.563      0.2339336  0.2339336  0.2987396  60.28048   18.09156   3.699      0.5770009  0.6488295  41.129     0.1963818  0.1989046  0.193859  
1212.6     0.222      240        -9999      -9999      7.856296   4.6        2.816      1.067      1.228      1.336311   2.563      0.2254396  0.2254396  0.2971934  41.96107   15.15676   3.34       0.5417154  0.6235135  43.781     0.2174358  0.2138126  0.2210591 
1212.8     0.222      246        -9999      -9999      8.001886   4.292      2.584      1.088      1.399      1.35028    2.512      0.2076484  0.2076484  0.2943479  19.64763   12.98562   3.256      0.5017806  0.6031677  49.288     0.2627258  0.2277458  0.2977058 
1213       0.219      251        -9999      -9999      8.032856   4.185      2.114      1.083      1.618      1.371978   2.404      0.1978485  0.1978485  0.2899282  12.93579   12.5655    3.187      0.4751053  0.5871504  50.946     0.2790292  0.2308247  0.3272336 
1213.2     0.219      258        -9999      -9999      7.875613   4.185      2.091      0.925      1.605      1.396587   2.138      0.1956562  0.1956562  0.2849152  11.78111   14.84901   3.098      0.4628951  0.5750002  50.818     0.2704818  0.215611   0.3253525 
1213.4     0.219      271        1          2          7.562806   4.276999   2.062      0.958      1.595      1.417764   2.005      0.2064334  0.2064334  0.2806015  18.65545   20.69944   2.949      0.4754061  0.5701652  46.841     0.2247517  0.1882627  0.2612405 
1213.6     0.219      284        1          2          7.242344   4.149      2.033      0.981      1.541      1.434245   1.918      0.2131086  0.2131086  0.2772443  24.7997    29.0904    2.813      0.4783153  0.5626791  43.985     0.1943508  0.1638387  0.2248629 
1213.8     0.219      308        1          2          7.068676   3.708      2.004      1.08       1.602      1.448482   1.647      0.2153918  0.2153918  0.2743442  27.33608   34.98178   2.594      0.4630979  0.5438642  42.149     0.1786438  0.151954   0.2053337 
1214       0.22       357        1          2          7.091856   3.323      2.167      0.948      1.416      1.460383   1.514      0.2145271  0.2145271  0.2719201  26.3463    34.13124   2.243      0.423172   0.5061107  40.976     0.1739182  0.1534889  0.1943476 
1214.2     0.22       370        1          2          7.256108   3.097      2.765      0.907      1.4        1.465108   1.463      0.2132008  0.2132008  0.2709575  24.89745   28.66831   2.163      0.4100795  0.4947076  39.905     0.1750203  0.1648194  0.1852212 
1214.4     0.22       384        1          2          7.471927   2.897      2.931      0.885      1.413      1.457217   1.504      0.2131253  0.2131253  0.2725649  24.8174    22.79659   2.081      0.3990978  0.4865305  39.14      0.18012    0.1809883  0.1792517 
1214.6     0.221      398        1          2          7.679475   2.744      2.13       0.861      1.373      1.437061   1.491      0.2144177  0.2144177  0.2766706  26.22374   18.28743   2.009      0.3922946  0.4832301  39.115     0.188645   0.1980319  0.1792582 
1214.8     0.221      421        1          2          7.871129   2.585      1.904      0.881      1.322      1.4112     1.478      0.2157634  0.2157634  0.2819386  27.77275   14.91988   1.902      0.3798727  0.4760463  39.905     0.2005311  0.2151922  0.1858699 
1215       0.222      426        1          2          8.078892   2.508      2          0.922      1.353      1.385377   1.499      0.2168053  0.2168053  0.2871987  29.03473   11.966     1.878      0.3787783  0.4793884  40.491     0.2133134  0.2354787  0.191148  
1215.2     0.224      431        1          2          8.341956   2.487      2.017      0.943      1.373      1.360958   1.673      0.2114193  0.2114193  0.2921728  23.07578   9.049582   1.854      0.3611731  0.4757603  43.832     0.2447078  0.2639313  0.2254843 
1215.4     0.226      431        -9999      -9999      8.671814   2.621      1.936      0.879      1.266      1.338864   1.847      0.1972252  0.1972252  0.2966733  12.5964    6.375351   1.858      0.3219974  0.4658748  48.982     0.301358   0.3045147  0.2982014 
1215.6     0.226      431        -9999      -9999      9.037131   2.621      1.886      0.815      1.162      1.322009   1.867      0.1679803  0.1679803  0.3001068  3.61877    4.325401   1.858      0.2202774  0.4340165  55.994     0.4003832  0.3567823  0.443984  
1215.8     0.225      432        -9999      -9999      9.373407   2.41       1.775      0.912      1.182      1.312704   1.877      0.148508   0.148508   0.3020023  1.577198   3.02651    1.851      0.1304134  0.4072016  58.697     0.4651342  0.4127903  0.5174781 
1216       0.224      436        -9999      -9999      9.617605   2.246      1.645      0.922      1.243      1.311617   1.898      0.1349901  0.1349901  0.3022236  0.8861396  2.335191   1.835      0.05118557 0.3828196  59.921     0.5067682  0.4588977  0.5546388 
1216.2     0.224      445        -9999      -9999      9.744151   2.133      1.621      0.948      1.312      1.319201   1.898      0.1305814  0.1305814  0.3006788  0.7342476  2.041558   1.798      0.01396531 0.3666479  59.615     0.5154467  0.484782   0.5461114 
1216.4     0.224      449        -9999      -9999      9.778976   1.882      1.612      0.968      1.358      1.333219   1.939      0.1219585  0.1219585  0.2978233  0.5083054  1.967438   1.782      0          0.3435207  60.482     0.5329238  0.4921581  0.5736896 
1216.6     0.224      453        -9999      -9999      9.774629   1.813      1.621      0.94       1.276      1.346667   2.133      0.1251835  0.1251835  0.295084   0.5832567  1.976542   1.766      0          0.3430943  59.309     0.5148501  0.4912311  0.5384692 
1216.8     0.224      458        -9999      -9999      9.772194   1.744      1.631      0.879      1.239      1.351803   2.251      0.1280805  0.1280805  0.2940376  0.6599635  1.981658   1.746      0          0.3435071  58.493     0.5029004  0.4907128  0.515088  
1217       0.224      450        -9999      -9999      9.788619   1.656      1.607      0.894      1.246      1.346499   2.414      0.1262974  0.1262974  0.2951181  0.6116338  1.947394   1.779      0          0.3477041  58.952     0.5115779  0.4942202  0.5289357 
1217.2     0.224      439        -9999      -9999      9.828981   1.631      1.628      0.839      1.218      1.335496   2.691      0.1228412  0.1228412  0.2973595  0.5278075  1.86569    1.823      0          0.3520354  59.794     0.5288433  0.502946   0.5547407 
1217.4     0.224      436        -9999      -9999      9.893843   1.672      1.628      0.8        1.116      1.326241   2.87       0.1241909  0.1241909  0.2992448  0.5590814  1.741513   1.836      0          0.3594943  59.411     0.5304663  0.517292   0.5436406 
1217.6     0.224      435        -9999      -9999      9.968413   1.672      1.593      0.864      1.154      1.324116   2.885      0.1151933  0.1151933  0.2996776  0.3809049  1.608926   1.84       0          0.3429085  60.686     0.5590435  0.5342919  0.5837951 
1217.8     0.224      431        -9999      -9999      10.01805   1.544      1.75       0.93       1.258      1.329208   2.946      0.1128146  0.1128146  0.2986403  0.3441588  1.526319   1.854      0          0.3389713  60.559     0.5631081  0.5459158  0.5803006 
1218       0.224      414        -9999      -9999      10.0156    1.451      1.655      0.853      1.164      1.33642    3.217      0.1203514  0.1203514  0.2971712  0.4746333  1.530286   1.932      0          0.3655532  58.774     0.5358175  0.5453375  0.5262975 
1218.2     0.224      405        -9999      -9999      9.967457   1.4        1.549      0.828      1.126      1.339717   3.483      0.1223153  0.1223153  0.2964997  0.5161009  1.610561   1.976      0.001405522 0.3754997  58.595     0.5278316  0.5340703  0.5215928 
