~Version
 VERS              .         2.0                           : CWLS LOG ASCII STANDARD - VERSION 2.0
 WRAP              .         NO                            : ONE LINE PER DEPTH STEP
 DLM               .         SPACE                         : DELIMITING CHARACTER(SPACE TAB OR COMMA)
~Well Information
#_______________________________________________________________________________
#
#PARAMETER_NAME    .UNIT     VALUE                         : DESCRIPTION
#_______________________________________________________________________________
STRT               .M        896                           : First reference value
STOP               .M        1244                          : Last reference value
STEP               .M        0.2                           : Step increment
NULL               .         -9999                         : Missing value
COMP               .                                       : Company
WELL               .         4909                          : Well name
FLD                .         УЗЕНЬ                         : Field
LOC                .                                       : Location
CNTY               .                                       : County
STAT               .                                       : State
CTRY               .                                       : Country
SRVC               .                                       : Service Company
DATE               .         28-29.11.89                   : Date
UWI                .         4909                          : Unique Well ID
Block              .         7                             : 
Category           .         Нефтяная                      : 
Condition          .         В работе                      : 
Date               .         01.02.1990                    : 
EREF               .m        93.7                          : 100.8
Gorizont           .         14                            : 14
Interpretator      .         Алпанова Н.К.                 : 
Kupol              .         основной                      : osnovnoi
Moii_14            .         14_gor                        : 
Mud                .                                       : 
Mud_density        .                                       : 
Mud_resistivity    .                                       : 
NGDU               .         НГДУ-2                        : 
ORIGINALWELLNAME   .         4909                          : 
Spud_date          .         1989                          : 1961
Viscosity          .                                       : 
X                  .m        42307                         : 46154
Y                  .m        85012.73                      : 85761.93
YEAR               .         2019                          : 
~Parameter Information Block
#_______________________________________________________________________________
#
#PARAMETER_NAME    .UNIT     VALUE                         : DESCRIPTION
#_______________________________________________________________________________
SET                .         LQC_KAZNIPI_Petrel            : 
TLFamily_CALI      .         Caliper                       : 
TLFamily_CILD      .         Conductivity                  : 
TLFamily_COLL      .         Net Reservoir Flag            : 
TLFamily_CSAT      .         Fluid Code                    : 
TLFamily_DEPT      .         Measured Depth                : 
TLFamily_GR        .         Russian Gamma Ray             : 
TLFamily_GZ3       .         Gradient 225                  : 
TLFamily_LLS       .         Lateral Log Resistivity       : 
TLFamily_MINV      .         Micro Gradient Resistivity    : 
TLFamily_MNOR      .         Micro Resistivity             : 
TLFamily_NGLD      .         Neutron Far                   : 
TLFamily_OGZ       .         Gradient Inverted 225         : 
TLFamily_PHIE      .         Effective Porosity            : 
TLFamily_PHIEN     .         Effective Porosity            : 
TLFamily_PHIT      .         Porosity                      : 
TLFamily_PRMB      .         Permeability                  : 
TLFamily_PRMB_DGR  .         Permeability                  : 
TLFamily_RT        .         Formation Resistivity         : 
TLFamily_SOIL_ARCHIE .         Oil Saturation                : 
TLFamily_SOIL_DW   .         Oil Saturation                : 
TLFamily_SP        .         Spontaneous Potential         : 
TLFamily_VSH_FIN   .         Shale Volume                  : 
TLFamily_VSH_GR    .         Shale Volume                  : 
TLFamily_VSH_SP    .         Shale Volume                  : 
~Curve Information
#_______________________________________________________________________________
#
#LOGNAME           .UNIT     LOG_ID                        : DESCRIPTION
#_______________________________________________________________________________
DEPT               .M                                      : Колонка глубины 
CALI               .м                                      : Каверномер 
CILD               .мСм/м                                  : Индукционный каротаж 
COLL               .unitless                               : Описание 
CSAT               .unitless                               : Описание 
GR                 .uR/h                                   : Гамма каротаж 
GZ3                .Ohmm                                   :  
LLS                .Ohmm                                   : Боковой каротаж 
MINV               .Ohmm                                   : Микро-градиент зонд 
MNOR               .Ohmm                                   : Микро-потенциал зонд 
NGLD               .у.е.                                   : Показания зонда НГК-60 аппаратуры ДРСТ-3-90 
OGZ                .Ohmm                                   :  
PHIE               .v/v                                    : Описание 
PHIEN              .v/v                                    :  
PHIT               .v/v                                    : Описание 
PRMB               .mD                                     :  
PRMB_DGR           .mD                                     :  
RT                 .ohmm                                   : УЭС пласта 
SOIL_ARCHIE        .v/v                                    :  
SOIL_DW            .v/v                                    :  
SP                 .мВ                                     : Потенциал самополяризации 
VSH_FIN            .v/v                                    : Описание 
VSH_GR             .v/v                                    : Shale volume 
VSH_SP             .v/v                                    : Shale Volume 
~Ascii
# ...
1100.6     0.273      266        -9999      -9999      8.667171   4.943      1.998      0.43       0.841      1.126861   2.211      0.1872134  0.1872134  0.3398584  8.218717   3.45739    3.008      0.4261002  0.5993333  83.272     0.4625607  0.3909536  0.5341679 
1100.8     0.285      279        -9999      -9999      8.763288   4.196001   1.795      0.578      0.798      1.107229   2.278      0.1896273  0.1896273  0.3438573  9.109963   3.168318   2.868      0.4196325  0.59462    83.208     0.4673637  0.4051437  0.5295836 
1101       0.292      292        -9999      -9999      8.825534   4.089      1.863      0.702      0.915      1.091819   2.345      0.191521   0.191521   0.3469965  9.876254   2.994138   2.742      0.4123745  0.5892983  83.234     0.4711377  0.4146069  0.5276684 
1101.2     0.285      305        -9999      -9999      8.859191   4.038      1.954      0.555      0.867      1.081253   2.386      0.1930083  0.1930083  0.3491488  10.523     2.903979   2.627      0.4044661  0.5832459  83.285     0.4731531  0.4198155  0.5264906 
1101.4     0.261      312        -9999      -9999      8.8781     3.853      1.986      0.45       0.864      1.077332   2.406      0.1935133  0.1935133  0.3499475  10.75212   2.854521   2.562      0.398793   0.5790098  83.336     0.4740428  0.4227705  0.5253151 
1101.6     0.261      321        -9999      -9999      8.897856   3.393      1.951      0.461      0.963      1.08023    2.427      0.1908707  0.1908707  0.3493572  9.606081   2.803751   2.489      0.3832399  0.5701286  83.744     0.4802621  0.4258799  0.5346442 
1101.8     0.27       337        -9999      -9999      8.924768   3.321      1.922      0.58       0.91       1.087329   2.401      0.1889162  0.1889162  0.3479111  8.837808   2.736039   2.371      0.3633397  0.5566648  83.795     0.4818027  0.4301526  0.5334527 
1102       0.271      341        -9999      -9999      8.947388   3.209      1.903      0.608      0.981      1.094923   2.416      0.1869675  0.1869675  0.3463642  8.132978   2.680394   2.345      0.3542314  0.5511858  83.846     0.4830202  0.4337769  0.5322636 
1102.2     0.267      343        -9999      -9999      8.940259   3.116      1.903      0.575      0.943      1.100923   2.524      0.1876084  0.1876084  0.3451419  8.358367   2.697807   2.336      0.3549904  0.5499565  83.591     0.4773742  0.4326314  0.522117  
1102.4     0.274      342        -9999      -9999      8.883981   2.85       1.951      0.552      0.907      1.105515   2.545      0.1884646  0.1884646  0.3442065  8.669229   2.839314   2.343      0.3584448  0.5506896  83.616     0.4719451  0.4236937  0.5201966 
1102.6     0.275      341        -9999      -9999      8.797095   2.748      2.002      0.433      0.839      1.109397   2.499      0.1898394  0.1898394  0.3434159  9.192729   3.072494   2.349      0.3632577  0.5519172  83.718     0.4653831  0.4102563  0.52051   
1102.8     0.271      340        -9999      -9999      8.727541   2.666      2.04       0.527      0.905      1.112416   2.56       0.1908921  0.1908921  0.3428009  9.614877   3.272889   2.356      0.3672014  0.5530698  83.821     0.4603296  0.3998071  0.5208521 
1103       0.268      340        -9999      -9999      8.702217   2.615      2.066      0.476      0.989      1.113849   2.652      0.1916524  0.1916524  0.3425091  9.931731   3.349053   2.352      0.3688851  0.553159   83.821     0.4571415  0.3960691  0.5182138 
1103.2     0.271      341        -9999      -9999      8.708326   2.595      2.066      0.552      1.024      1.113351   2.714      0.1920387  0.1920387  0.3426103  10.09674   3.330518   2.348      0.3694877  0.5532134  83.821     0.4562775  0.3969677  0.5155873 
1103.4     0.27       345        -9999      -9999      8.72157    2.569      1.985      0.478      0.879      1.11111    2.688      0.1926041  0.1926041  0.3430668  10.34316   3.290689   2.322      0.3678052  0.5516012  83.821     0.4559476  0.3989226  0.5129727 
1103.6     0.262      348        -9999      -9999      8.722164   2.569      1.895      0.471      0.887      1.106924   2.699      0.1938718  0.1938718  0.3439195  10.91779   3.288914   2.296      0.3680769  0.5509106  83.821     0.45469    0.3990105  0.5103696 
1103.8     0.268      348        -9999      -9999      8.692224   2.518      1.865      0.428      0.836      1.100366   2.694      0.1917191  0.1917191  0.3452554  9.96003    3.379595   2.296      0.3619014  0.5499886  84.79      0.4652615  0.3946036  0.5359194 
1104       0.275      347        -9999      -9999      8.625331   2.492      1.848      0.494      0.823      1.093001   2.827      0.1937555  0.1937555  0.3467557  10.86376   3.591324   2.309      0.3694194  0.5542933  85.096     0.4636369  0.384933   0.5423408 
1104.2     0.28       345        -9999      -9999      8.540601   2.513      1.84       0.552      0.884      1.08889    2.853      0.1959972  0.1959972  0.3475931  11.95367   3.878662   2.322      0.3773481  0.5582001  85.3       0.4593816  0.373023   0.5457401 
1104.4     0.278      340        -9999      -9999      8.470819   2.441      1.84       0.616      0.996      1.090925   2.894      0.197609   0.197609   0.3471786  12.80431   4.132491   2.352      0.3854868  0.5621289  85.3       0.4532412  0.3634916  0.5429908 
1104.6     0.271      336        -9999      -9999      8.441965   2.364      1.887      0.457      0.967      1.097714   2.981      0.2011503  0.2011503  0.3457957  14.89189   4.242239   2.382      0.3985082  0.5669053  84.509     0.4383194  0.3596219  0.5170169 
1104.8     0.27       330        -9999      -9999      8.460761   2.313      1.989      0.448      0.966      1.105803   3.083      0.19952    0.19952    0.344148   13.89159   4.170422   2.425      0.3992942  0.568131   84.509     0.4382668  0.3621379  0.5143958 
1105       0.273      324        -9999      -9999      8.509602   2.367      2.046      0.428      0.928      1.113893   3.212      0.1962396  0.1962396  0.3425001  12.07791   3.989437   2.47       0.3957938  0.5680116  84.714     0.4432136  0.3687584  0.5176687 
1105.2     0.269      319        -9999      -9999      8.554239   2.421      2.14       0.447      1.105      1.122707   3.304      0.1938614  0.1938614  0.3407047  10.91291   3.830906   2.509      0.3938159  0.567939   84.714     0.4449798  0.3749149  0.5150447 
1105.4     0.267      314        -9999      -9999      8.565055   2.538      2.197      0.505      1.138      1.131669   3.304      0.1926979  0.1926979  0.338879   10.3846    3.79345    2.55       0.3952468  0.5690074  84.612     0.4429733  0.376422   0.5095245 
1105.6     0.262      308        -9999      -9999      8.536739   2.561      2.205      0.534      1.085      1.138475   3.33       0.1929832  0.1929832  0.3374926  10.51175   3.892292   2.596      0.4010716  0.5720338  84.484     0.4379072  0.3724891  0.5033253 
1105.8     0.262      303        -9999      -9999      8.483005   2.584      2.184      0.522      1.022      1.14168    3.463      0.192541   0.192541   0.3368398  10.31534   4.086999   2.643      0.4049055  0.5749739  84.79      0.4372691  0.3651382  0.5094    
1106       0.255      297        -9999      -9999      8.410031   2.571      2.21       0.557      1.111      1.141634   3.55       0.1926613  0.1926613  0.3368491  10.36842   4.367104   2.693      0.410437   0.5790492  85.198     0.4369329  0.3553872  0.5184786 
1106.2     0.255      292        -9999      -9999      8.309808   2.559      2.223      0.55       1.21       1.139269   3.499      0.1952315  0.1952315  0.337331   11.56963   4.783362   2.744      0.4223111  0.5855221  85.3       0.4306045  0.3424178  0.5187911 
1106.4     0.264      288        -9999      -9999      8.182921   2.472      2.223      0.473      1.146      1.135651   3.561      0.1970388  0.1970388  0.338068   12.4967    5.367745   2.782      0.4306155  0.5904053  85.709     0.4273611  0.3266749  0.5280472 
1106.6     0.266      284        -9999      -9999      8.050508   2.446      2.252      0.468      1.08       1.132305   3.668      0.2009901  0.2009901  0.3387495  14.79048   6.053843   2.821      0.444021   0.5969381  85.658     0.4174527  0.3110175  0.5238879 
