~Version
 VERS              .         2.0                           : CWLS LOG ASCII STANDARD - VERSION 2.0
 WRAP              .         NO                            : ONE LINE PER DEPTH STEP
 DLM               .         SPACE                         : DELIMITING CHARACTER(SPACE TAB OR COMMA)
~Well Information
#_______________________________________________________________________________
#
#PARAMETER_NAME    .UNIT     VALUE                         : DESCRIPTION
#_______________________________________________________________________________
STRT               .M        896                           : First reference value
STOP               .M        1244                          : Last reference value
STEP               .M        0.2                           : Step increment
NULL               .         -9999                         : Missing value
COMP               .                                       : Company
WELL               .         4909                          : Well name
FLD                .         УЗЕНЬ                         : Field
LOC                .                                       : Location
CNTY               .                                       : County
STAT               .                                       : State
CTRY               .                                       : Country
SRVC               .                                       : Service Company
DATE               .         28-29.11.89                   : Date
UWI                .         4909                          : Unique Well ID
Block              .         7                             : 
Category           .         Нефтяная                      : 
Condition          .         В работе                      : 
Date               .         01.02.1990                    : 
EREF               .m        93.7                          : 100.8
Gorizont           .         14                            : 14
Interpretator      .         Алпанова Н.К.                 : 
Kupol              .         основной                      : osnovnoi
Moii_14            .         14_gor                        : 
Mud                .                                       : 
Mud_density        .                                       : 
Mud_resistivity    .                                       : 
NGDU               .         НГДУ-2                        : 
ORIGINALWELLNAME   .         4909                          : 
Spud_date          .         1989                          : 1961
Viscosity          .                                       : 
X                  .m        42307                         : 46154
Y                  .m        85012.73                      : 85761.93
YEAR               .         2019                          : 
~Parameter Information Block
#_______________________________________________________________________________
#
#PARAMETER_NAME    .UNIT     VALUE                         : DESCRIPTION
#_______________________________________________________________________________
SET                .         LQC_KAZNIPI_Petrel            : 
TLFamily_CALI      .         Caliper                       : 
TLFamily_CILD      .         Conductivity                  : 
TLFamily_COLL      .         Net Reservoir Flag            : 
TLFamily_CSAT      .         Fluid Code                    : 
TLFamily_DEPT      .         Measured Depth                : 
TLFamily_GR        .         Russian Gamma Ray             : 
TLFamily_GZ3       .         Gradient 225                  : 
TLFamily_LLS       .         Lateral Log Resistivity       : 
TLFamily_MINV      .         Micro Gradient Resistivity    : 
TLFamily_MNOR      .         Micro Resistivity             : 
TLFamily_NGLD      .         Neutron Far                   : 
TLFamily_OGZ       .         Gradient Inverted 225         : 
TLFamily_PHIE      .         Effective Porosity            : 
TLFamily_PHIEN     .         Effective Porosity            : 
TLFamily_PHIT      .         Porosity                      : 
TLFamily_PRMB      .         Permeability                  : 
TLFamily_PRMB_DGR  .         Permeability                  : 
TLFamily_RT        .         Formation Resistivity         : 
TLFamily_SOIL_ARCHIE .         Oil Saturation                : 
TLFamily_SOIL_DW   .         Oil Saturation                : 
TLFamily_SP        .         Spontaneous Potential         : 
TLFamily_VSH_FIN   .         Shale Volume                  : 
TLFamily_VSH_GR    .         Shale Volume                  : 
TLFamily_VSH_SP    .         Shale Volume                  : 
~Curve Information
#_______________________________________________________________________________
#
#LOGNAME           .UNIT     LOG_ID                        : DESCRIPTION
#_______________________________________________________________________________
DEPT               .M                                      : Колонка глубины 
CALI               .м                                      : Каверномер 
CILD               .мСм/м                                  : Индукционный каротаж 
COLL               .unitless                               : Описание 
CSAT               .unitless                               : Описание 
GR                 .uR/h                                   : Гамма каротаж 
GZ3                .Ohmm                                   :  
LLS                .Ohmm                                   : Боковой каротаж 
MINV               .Ohmm                                   : Микро-градиент зонд 
MNOR               .Ohmm                                   : Микро-потенциал зонд 
NGLD               .у.е.                                   : Показания зонда НГК-60 аппаратуры ДРСТ-3-90 
OGZ                .Ohmm                                   :  
PHIE               .v/v                                    : Описание 
PHIEN              .v/v                                    :  
PHIT               .v/v                                    : Описание 
PRMB               .mD                                     :  
PRMB_DGR           .mD                                     :  
RT                 .ohmm                                   : УЭС пласта 
SOIL_ARCHIE        .v/v                                    :  
SOIL_DW            .v/v                                    :  
SP                 .мВ                                     : Потенциал самополяризации 
VSH_FIN            .v/v                                    : Описание 
VSH_GR             .v/v                                    : Shale volume 
VSH_SP             .v/v                                    : Shale Volume 
~Ascii
# ...
1193.6     0.22       310        1          2          8.331661   2.137      2.563      2.983      2.772      1.287929   1.787      0.232733   0.232733   0.3070488  57.27151   9.149057   2.577      0.4965621  0.5850077  51.264     0.2251993  0.2627557  0.1876429 
1193.8     0.22       309        1          2          8.253221   2.137      2.714      2.822      2.881      1.275041   1.894      0.2375123  0.2375123  0.3096742  70.22031   9.943783   2.587      0.5062947  0.5913544  50.754     0.2186724  0.2539689  0.1833759 
1194       0.22       319        1          2          8.194486   2.356      2.585      2.705      2.616      1.257224   2.108      0.241742   0.241742   0.3133035  84.10207   10.58374   2.511      0.5069762  0.5910542  51.085     0.216853   0.2475824  0.1861235 
1194.2     0.222      324        1          2          8.165071   2.968      3.048      2.797      2.774      1.232801   2.307      0.2428811  0.2428811  0.3182784  88.28875   10.91954   2.47       0.5051827  0.5922288  53.865     0.2284767  0.2444447  0.2125087 
1194.4     0.229      307        1          2          8.212852   4.218      3.592      2.873      3.003      1.204043   2.955      0.2358907  0.2358907  0.3241365  65.5278    10.37932   2.604      0.5048642  0.602219   59.412     0.2674115  0.2495621  0.2852609 
1194.6     0.239      305        -9999      -9999      8.398913   5.018      3.073      2.94       3.128      1.179616   4.281      0.2136775  0.2136775  0.3291122  25.40879   8.518456   2.62       0.4618726  0.5905942  66.643     0.349802   0.2705308  0.4290732 
1194.8     0.247      331        -9999      -9999      8.728107   5.039      1.908      1.393      2.125      1.170638   4.084001   0.1973711  0.1973711  0.3309411  12.67506   6.00541    2.415      0.4008772  0.561078   69.27      0.4047575  0.3120393  0.4974757 
1195       0.251      357        -9999      -9999      9.10938    4.615      1.936      0.698      1.197      1.181295   3.888      0.1807706  0.1807706  0.3287703  6.244073   4.00596    2.242      0.3302754  0.5263458  70.366     0.448484   0.3681365  0.5288314 
1195.2     0.253      368        -9999      -9999      9.402779   3.33       2.702      0.861      1.182      1.204789   3.279      0.1662488  0.1662488  0.3239844  3.361157   2.933569   2.175      0.2692726  0.4985878  70.672     0.4779869  0.4180811  0.5378926 
1195.4     0.235      379        -9999      -9999      9.522021   1.99       1.704      1.062      1.416      1.22926    2.491      0.1589725  0.1589725  0.3189998  2.464414   2.584664   2.114      0.230017   0.477557   70.392     0.4849314  0.4402667  0.5295961 
1195.6     0.234      411        -9999      -9999      9.503132   1.877      1.635      0.846      1.41       1.245702   2.046      0.163716   0.163716   0.3156505  3.017002   2.637032   1.946      0.219747   0.4581779  68.785     0.4604076  0.4366754  0.4841399 
1195.8     0.233      418        -9999      -9999      9.454107   1.764      1.85       1.136      1.353      1.251634   1.882      0.1721859  0.1721859  0.3144422  4.329717   2.777951   1.913      0.2472661  0.4629974  66.872     0.4310796  0.4274906  0.4346685 
1196       0.232      425        -9999      -9999      9.440547   1.554      2          1.929      1.721      1.251134   1.877      0.1763345  0.1763345  0.314544   5.167735   2.818243   1.881      0.256854   0.4636364  65.954     0.4188168  0.4249844  0.4126493 
1196.2     0.231      447        -9999      -9999      9.448588   1.477      1.735      2.132      2.13       1.25149    1.918      0.179193   0.179193   0.3144716  5.837781   2.79428    1.791      0.2501341  0.4537535  65.112     0.4099349  0.4264688  0.3934011 
1196.4     0.236      443        -9999      -9999      9.439309   1.426      1.506      2.249      1.725      1.257314   2.097      0.1751131  0.1751131  0.3132851  4.90544    2.821949   1.808      0.2383245  0.4500755  65.954     0.4187028  0.4247563  0.4126493 
1196.6     0.246      432        -9999      -9999      9.393949   1.6        1.306      1.406      1.126      1.266872   2.235      0.1637157  0.1637157  0.3113382  3.016968   2.961206   1.852      0.2014059  0.4399259  68.565     0.4473407  0.4164834  0.478198  
1196.8     0.252      423        -9999      -9999      9.313791   1.708      1.544      1.259      0.901      1.275473   2.445      0.1568929  0.1568929  0.309586   2.255255   3.224304   1.891      0.1793077  0.4345068  70.172     0.4627064  0.4022563  0.5231566 
1197       0.251      422        -9999      -9999      9.217079   1.897      1.643      1.717      1.177      1.280243   2.512      0.1576624  0.1576624  0.3086146  2.330491   3.573039   1.896      0.1838091  0.4352427  70.376     0.4574308  0.3857362  0.5291255 
1197.2     0.249      420        -9999      -9999      9.160174   2.072      1.722      1.6        1.463      1.280781   2.466      0.1567276  0.1567276  0.3085048  2.239413   3.795605   1.905      0.1813924  0.4351509  70.86      0.4599309  0.3763348  0.5435271 
1197.4     0.251      414        -9999      -9999      9.222979   2.072      1.616      1.579      1.551      1.277908   2.414      0.1593289  0.1593289  0.3090901  2.502165   3.550725   1.931      0.1981619  0.4431958  70.095     0.4538218  0.3867242  0.5209193 
1197.6     0.249      406        -9999      -9999      9.441224   1.939      1.696      1.126      1.08       1.274705   2.552      0.1615963  0.1615963  0.3097427  2.756216   2.816218   1.971      0.2155535  0.4526117  68.361     0.4489284  0.4251092  0.4727476 
1197.8     0.252      397        -9999      -9999      9.750284   1.769      1.71       1.064      1.238      1.276693   3.565      0.1522432  0.1522432  0.3093377  1.849573   2.028305   2.013      0.1818777  0.4452151  68.106     0.4760438  0.4860729  0.4660147 
1198       0.254      391        -9999      -9999      10.01373   1.88       1.64       0.902      0.729      1.287709   3.923      0.1328055  0.1328055  0.3070937  0.8073073  1.533339   2.046      0.08552732 0.4177553  69.764     0.5281458  0.5448939  0.5113977 
1198.2     0.249      384        -9999      -9999      10.10542   1.99       1.628      1.353      1.019      1.30544    4.189      0.1206226  0.1206226  0.3034819  0.4801556  1.391075   2.084      0.01414023 0.3976979  70.784     0.5541191  0.5669951  0.541243  
1198.4     0.239      379        -9999      -9999      9.966125   1.805      1.65       1.669      1.474      1.323097   4.916      0.12047    0.12047    0.2998852  0.4770391  1.612841   2.109      0.01855945 0.3964598  71.192     0.5436825  0.5337619  0.5536031 
1198.6     0.236      375        -9999      -9999      9.609925   1.8        1.94       2.267      2.147      1.335886   6.203      0.1311186  0.1311186  0.29728    0.7512645  2.354314   2.132      0.09298393 0.4151273  70.86      0.5035193  0.457372   0.5496666 
1198.8     0.233      365        -9999      -9999      9.113711   1.723      2.206      2.244      2.342      1.346901   7.491      0.1627352  0.1627352  0.2950363  2.893407   3.987576   2.195      0.2587415  0.4672337  66.398     0.4009124  0.3688286  0.4329961 
1199       0.227      340        1          2          8.594489   1.697      2.378      2.231      2.326      1.365967   8.779      0.1844711  0.1844711  0.2911525  7.31158    6.920935   2.354      0.3568732  0.5068849  62.548     0.3232767  0.2944739  0.3520796 
1199.2     0.222      296        1          2          8.161558   1.739      2.47       2.293      2.288      1.403372   10.067     0.1901395  0.1901395  0.283533   9.311142   10.96036   2.699      0.4125426  0.537954   60.763     0.2830107  0.2440726  0.3219488 
1199.4     0.221      248        1          2          7.855739   1.949      3.842      2          2.158      1.465254   12.123     0.1882706  0.1882706  0.2709277  8.597763   15.16571   3.221      0.4546454  0.5638171  58.519     0.2504762  0.213761   0.2871915 
1199.6     0.223      179        1          2          7.630262   1.856      10.843     1.872      1.944      1.552998   13.555     0.1851752  0.1851752  0.2530544  7.534452   19.26855   4.477      0.5259256  0.612305   53.113     0.2056944  0.1938508  0.2175381 
