~Version
 VERS              .         2.0                           : CWLS LOG ASCII STANDARD - VERSION 2.0
 WRAP              .         NO                            : ONE LINE PER DEPTH STEP
 DLM               .         SPACE                         : DELIMITING CHARACTER(SPACE TAB OR COMMA)
~Well Information
#_______________________________________________________________________________
#
#PARAMETER_NAME    .UNIT     VALUE                         : DESCRIPTION
#_______________________________________________________________________________
STRT               .M        896                           : First reference value
STOP               .M        1244                          : Last reference value
STEP               .M        0.2                           : Step increment
NULL               .         -9999                         : Missing value
COMP               .                                       : Company
WELL               .         4909                          : Well name
FLD                .         УЗЕНЬ                         : Field
LOC                .                                       : Location
CNTY               .                                       : County
STAT               .                                       : State
CTRY               .                                       : Country
SRVC               .                                       : Service Company
DATE               .         28-29.11.89                   : Date
UWI                .         4909                          : Unique Well ID
Block              .         7                             : 
Category           .         Нефтяная                      : 
Condition          .         В работе                      : 
Date               .         01.02.1990                    : 
EREF               .m        93.7                          : 100.8
Gorizont           .         14                            : 14
Interpretator      .         Алпанова Н.К.                 : 
Kupol              .         основной                      : osnovnoi
Moii_14            .         14_gor                        : 
Mud                .                                       : 
Mud_density        .                                       : 
Mud_resistivity    .                                       : 
NGDU               .         НГДУ-2                        : 
ORIGINALWELLNAME   .         4909                          : 
Spud_date          .         1989                          : 1961
Viscosity          .                                       : 
X                  .m        42307                         : 46154
Y                  .m        85012.73                      : 85761.93
YEAR               .         2019                          : 
~Parameter Information Block
#_______________________________________________________________________________
#
#PARAMETER_NAME    .UNIT     VALUE                         : DESCRIPTION
#_______________________________________________________________________________
SET                .         LQC_KAZNIPI_Petrel            : 
TLFamily_CALI      .         Caliper                       : 
TLFamily_CILD      .         Conductivity                  : 
TLFamily_COLL      .         Net Reservoir Flag            : 
TLFamily_CSAT      .         Fluid Code                    : 
TLFamily_DEPT      .         Measured Depth                : 
TLFamily_GR        .         Russian Gamma Ray             : 
TLFamily_GZ3       .         Gradient 225                  : 
TLFamily_LLS       .         Lateral Log Resistivity       : 
TLFamily_MINV      .         Micro Gradient Resistivity    : 
TLFamily_MNOR      .         Micro Resistivity             : 
TLFamily_NGLD      .         Neutron Far                   : 
TLFamily_OGZ       .         Gradient Inverted 225         : 
TLFamily_PHIE      .         Effective Porosity            : 
TLFamily_PHIEN     .         Effective Porosity            : 
TLFamily_PHIT      .         Porosity                      : 
TLFamily_PRMB      .         Permeability                  : 
TLFamily_PRMB_DGR  .         Permeability                  : 
TLFamily_RT        .         Formation Resistivity         : 
TLFamily_SOIL_ARCHIE .         Oil Saturation                : 
TLFamily_SOIL_DW   .         Oil Saturation                : 
TLFamily_SP        .         Spontaneous Potential         : 
TLFamily_VSH_FIN   .         Shale Volume                  : 
TLFamily_VSH_GR    .         Shale Volume                  : 
TLFamily_VSH_SP    .         Shale Volume                  : 
~Curve Information
#_______________________________________________________________________________
#
#LOGNAME           .UNIT     LOG_ID                        : DESCRIPTION
#_______________________________________________________________________________
DEPT               .M                                      : Колонка глубины 
CALI               .м                                      : Каверномер 
CILD               .мСм/м                                  : Индукционный каротаж 
COLL               .unitless                               : Описание 
CSAT               .unitless                               : Описание 
GR                 .uR/h                                   : Гамма каротаж 
GZ3                .Ohmm                                   :  
LLS                .Ohmm                                   : Боковой каротаж 
MINV               .Ohmm                                   : Микро-градиент зонд 
MNOR               .Ohmm                                   : Микро-потенциал зонд 
NGLD               .у.е.                                   : Показания зонда НГК-60 аппаратуры ДРСТ-3-90 
OGZ                .Ohmm                                   :  
PHIE               .v/v                                    : Описание 
PHIEN              .v/v                                    :  
PHIT               .v/v                                    : Описание 
PRMB               .mD                                     :  
PRMB_DGR           .mD                                     :  
RT                 .ohmm                                   : УЭС пласта 
SOIL_ARCHIE        .v/v                                    :  
SOIL_DW            .v/v                                    :  
SP                 .мВ                                     : Потенциал самополяризации 
VSH_FIN            .v/v                                    : Описание 
VSH_GR             .v/v                                    : Shale volume 
VSH_SP             .v/v                                    : Shale Volume 
~Ascii
# ...
1057.2     0.241      363        -9999      -9999      9.764648   2.282      1.872      1.914      1.146      1.075909   2.145      0.1710277  0.1710277  0.3502373  4.12103    1.275784   2.201      0.2810512  0.5237555  83.565     0.5430595  0.5873837  0.4987352 
1057.4     0.24       367        -9999      -9999      9.69231    2.282      1.826      1.58       1.103      1.071107   2.134      0.1737054  0.1737054  0.3512156  4.619594   1.362434   2.182      0.2878219  0.5253405  83.769     0.5379096  0.5718323  0.503987  
1057.6     0.239      370        -9999      -9999      9.620369   2.231      1.85       1.646      1.476      1.075766   2.124      0.1737639  0.1737639  0.3502665  4.631134   1.454445   2.163      0.2851028  0.5225261  84.101     0.5348564  0.5567746  0.5129381 
1057.8     0.241      368        -9999      -9999      9.620512   2.144      1.705      2.408      1.489      1.088039   2.17       0.1708552  0.1708552  0.3477665  4.090832   1.454256   2.174      0.2762392  0.5185221  84.203     0.5360948  0.5568041  0.5153856 
1058       0.245      356        -9999      -9999      9.760926   2.042      1.608      2.126      1.76       1.102534   2.257      0.1630694  0.1630694  0.3448138  2.934934   1.280104   2.248      0.2579803  0.5154721  84.203     0.5507406  0.5865732  0.514908  
1058.2     0.251      345        -9999      -9999      10.03768   2.083      1.646      1.92       1.664      1.113786   2.278      0.1489334  0.1489334  0.3425218  1.606076   0.9955449  2.318      0.2084752  0.5042602  84.509     0.5866314  0.6499888  0.523274  
1058.4     0.252      342        -9999      -9999      10.36593   2.172      2.069      1.928      1.418      1.11939    2.252      0.1339852  0.1339852  0.3413802  0.8489648  0.7388605  2.343      0.1364536  0.4863372  84.509     0.6284696  0.7341493  0.5227899 
1058.6     0.239      356        -9999      -9999      10.63286   2.262      2.229      1.905      1.349      1.120526   2.201      0.1235757  0.1235757  0.3411489  0.5446016  0.5797707  2.245      0.05466734 0.4596214  84.382     0.6593129  0.8        0.5186258 
1058.8     0.242      360        -9999      -9999      10.75971   2.323      2.121      2.014      1.388      1.120027   2.155      0.1255634  0.1255634  0.3412504  0.5927845  0.5166664  2.223      0.06339646 0.4601175  83.999     0.6535972  0.8        0.5071943 
1059       0.254      372        -9999      -9999      10.7262    2.298      1.939      1.852      1.349      1.120778   2.175      0.126556   0.126556   0.3410976  0.6184176  0.532634   2.148      0.05469504 0.4521493  83.769     0.650126   0.8        0.5002521 
1059.2     0.257      374        -9999      -9999      10.55799   2.247      1.675      1.778      1.36       1.124964   2.216      0.1277009  0.1277009  0.3402447  0.6493639  0.6205744  2.138      0.06002469 0.4517463  83.769     0.6440723  0.7883577  0.4997868 
1059.4     0.26       376        -9999      -9999      10.30444   2.17       1.626      1.852      1.316      1.132768   2.257      0.1368588  0.1368588  0.3386552  0.9596557  0.7813089  2.129      0.1132956  0.462536   83.986     0.6115043  0.7175929  0.5054156 
1059.6     0.262      378        -9999      -9999      10.02769   2.062      1.626      2.16       1.392      1.141646   2.298      0.1456637  0.1456637  0.3368468  1.39702    1.004622   2.119      0.1583058  0.4716932  84.203     0.5793428  0.6475846  0.5111009 
1059.8     0.266      394        -9999      -9999      9.794056   2.034      1.624      2.469      1.629      1.148124   2.319      0.1499975  0.1499975  0.3355272  1.680647   1.242154   2.029      0.162645   0.4646513  84.892     0.5622112  0.593826   0.5305964 
1060       0.263      391        -9999      -9999      9.651855   2.006      1.584      1.991      1.441      1.150982   2.381      0.1564934  0.1564934  0.334945   2.217156   1.413434   2.046      0.1961532  0.4747458  84.484     0.5407622  0.5633155  0.518209  
1060.2     0.257      384        -9999      -9999      9.616287   2.006      1.603      2.372      1.637      1.152727   2.406      0.1586415  0.1586415  0.3345896  2.429873   1.459849   2.082      0.2121166  0.4816476  84.229     0.533176   0.5559322  0.5104198 
1060.4     0.255      378        -9999      -9999      9.663645   2.088      1.675      1.902      1.286      1.157747   2.406      0.1554731  0.1554731  0.3335668  2.122738   1.398378   2.114      0.2038693  0.480653   84.356     0.5396782  0.5657842  0.5135721 
1060.6     0.253      375        -9999      -9999      9.736165   2.17       1.77       2.022      1.255      1.168736   2.381      0.1506451  0.1506451  0.3313285  1.727713   1.309225   2.131      0.1847625  0.474342   84.382     0.5475253  0.5812104  0.5138403 
1060.8     0.252      372        -9999      -9999      9.775684   2.195      1.836      1.781      1.31       1.184025   2.422      0.1473901  0.1473901  0.328214   1.503767   1.263057   2.148      0.1721963  0.4689938  84.127     0.5479513  0.5897931  0.5061096 
1061       0.251      369        -9999      -9999      9.77035    2.17       1.922      2.14       1.4        1.198123   2.37       0.1447882  0.1447882  0.3253422  1.345819   1.269192   2.17       0.1632656  0.465227   84.127     0.5471335  0.5886273  0.5056397 
1061.2     0.251      365        -9999      -9999      9.75341    2.093      2.006      2.5        1.497      1.205469   2.391      0.1445718  0.1445718  0.323846   1.333458   1.288875   2.192      0.1661316  0.4660809  83.999     0.5432549  0.5849402  0.5015694 
1061.4     0.253      358        -9999      -9999      9.75659    2.067      1.971      2.431      1.527      1.204684   2.437      0.1446949  0.1446949  0.324006   1.340474   1.285157   2.236      0.1744842  0.4716918  83.999     0.5433669  0.5856305  0.5011033 
1061.6     0.253      352        -9999      -9999      9.789643   2.134      1.864      2.286      1.609      1.198866   2.519      0.1447647  0.1447647  0.3251909  1.34447    1.247143   2.274      0.1813305  0.4774149  83.999     0.5467462  0.5928549  0.5006375 
1061.8     0.253      346        -9999      -9999      9.857302   2.154      1.87       2.634      1.54       1.191936   2.581      0.142811   0.142811   0.3266027  1.236984   1.1728     2.313      0.1781691  0.4806205  84.229     0.5569445  0.6079218  0.5059673 
1062       0.242      340        -9999      -9999      9.959303   2.154      1.928      1.971      1.421      1.185735   2.529      0.139919   0.139919   0.3278657  1.093444   1.069013   2.355      0.170429   0.4826106  84.331     0.5695356  0.6313635  0.5077078 
1062.2     0.237      337        -9999      -9999      10.07194   2.2        2          2.301      1.449      1.181079   2.463      0.1377947  0.1377947  0.3288142  0.9987337  0.9650391  2.371      0.1619685  0.4823864  84.076     0.5788471  0.6583017  0.4993925 
1062.4     0.236      338        -9999      -9999      10.15258   2.2        2.09       2.205      1.321      1.179265   2.524      0.136218   0.136218   0.3291837  0.9337845  0.8968779  2.369      0.1531916  0.4803439  83.821     0.5847444  0.6782889  0.4911998 
1062.6     0.24       340        -9999      -9999      10.16654   2.124      2.143      2.205      1.311      1.181102   2.504      0.1354467  0.1354467  0.3288095  0.9035646  0.8855774  2.356      0.1467927  0.4774503  83.821     0.585948   0.6818098  0.4900861 
1062.8     0.241      342        -9999      -9999      10.10496   2.124      1.84       2.228      1.37       1.186278   2.483      0.1371163  0.1371163  0.3277552  0.9702502  0.9365278  2.343      0.1536534  0.4772917  83.821     0.5776938  0.6664126  0.488975  
1063       0.239      343        -9999      -9999      9.977066   2.124      1.735      2.055      1.459      1.194575   2.601      0.1418512  0.1418512  0.326065   1.187372   1.051902   2.33       0.176164   0.4806825  83.565     0.5582236  0.6355372  0.48091   
1063.2     0.24       345        -9999      -9999      9.790639   2.19       1.69       2.068      1.612      1.206142   2.663      0.147134   0.147134   0.3237088  1.487428   1.246015   2.318      0.2000507  0.4840657  83.463     0.5350753  0.5930738  0.4770768 
