~Version
 VERS              .         2.0                           : CWLS LOG ASCII STANDARD - VERSION 2.0
 WRAP              .         NO                            : ONE LINE PER DEPTH STEP
 DLM               .         SPACE                         : DELIMITING CHARACTER(SPACE TAB OR COMMA)
~Well Information
#_______________________________________________________________________________
#
#PARAMETER_NAME    .UNIT     VALUE                         : DESCRIPTION
#_______________________________________________________________________________
STRT               .M        896                           : First reference value
STOP               .M        1244                          : Last reference value
STEP               .M        0.2                           : Step increment
NULL               .         -9999                         : Missing value
COMP               .                                       : Company
WELL               .         4909                          : Well name
FLD                .         УЗЕНЬ                         : Field
LOC                .                                       : Location
CNTY               .                                       : County
STAT               .                                       : State
CTRY               .                                       : Country
SRVC               .                                       : Service Company
DATE               .         28-29.11.89                   : Date
UWI                .         4909                          : Unique Well ID
Block              .         7                             : 
Category           .         Нефтяная                      : 
Condition          .         В работе                      : 
Date               .         01.02.1990                    : 
EREF               .m        93.7                          : 100.8
Gorizont           .         14                            : 14
Interpretator      .         Алпанова Н.К.                 : 
Kupol              .         основной                      : osnovnoi
Moii_14            .         14_gor                        : 
Mud                .                                       : 
Mud_density        .                                       : 
Mud_resistivity    .                                       : 
NGDU               .         НГДУ-2                        : 
ORIGINALWELLNAME   .         4909                          : 
Spud_date          .         1989                          : 1961
Viscosity          .                                       : 
X                  .m        42307                         : 46154
Y                  .m        85012.73                      : 85761.93
YEAR               .         2019                          : 
~Parameter Information Block
#_______________________________________________________________________________
#
#PARAMETER_NAME    .UNIT     VALUE                         : DESCRIPTION
#_______________________________________________________________________________
SET                .         LQC_KAZNIPI_Petrel            : 
TLFamily_CALI      .         Caliper                       : 
TLFamily_CILD      .         Conductivity                  : 
TLFamily_COLL      .         Net Reservoir Flag            : 
TLFamily_CSAT      .         Fluid Code                    : 
TLFamily_DEPT      .         Measured Depth                : 
TLFamily_GR        .         Russian Gamma Ray             : 
TLFamily_GZ3       .         Gradient 225                  : 
TLFamily_LLS       .         Lateral Log Resistivity       : 
TLFamily_MINV      .         Micro Gradient Resistivity    : 
TLFamily_MNOR      .         Micro Resistivity             : 
TLFamily_NGLD      .         Neutron Far                   : 
TLFamily_OGZ       .         Gradient Inverted 225         : 
TLFamily_PHIE      .         Effective Porosity            : 
TLFamily_PHIEN     .         Effective Porosity            : 
TLFamily_PHIT      .         Porosity                      : 
TLFamily_PRMB      .         Permeability                  : 
TLFamily_PRMB_DGR  .         Permeability                  : 
TLFamily_RT        .         Formation Resistivity         : 
TLFamily_SOIL_ARCHIE .         Oil Saturation                : 
TLFamily_SOIL_DW   .         Oil Saturation                : 
TLFamily_SP        .         Spontaneous Potential         : 
TLFamily_VSH_FIN   .         Shale Volume                  : 
TLFamily_VSH_GR    .         Shale Volume                  : 
TLFamily_VSH_SP    .         Shale Volume                  : 
~Curve Information
#_______________________________________________________________________________
#
#LOGNAME           .UNIT     LOG_ID                        : DESCRIPTION
#_______________________________________________________________________________
DEPT               .M                                      : Колонка глубины 
CALI               .м                                      : Каверномер 
CILD               .мСм/м                                  : Индукционный каротаж 
COLL               .unitless                               : Описание 
CSAT               .unitless                               : Описание 
GR                 .uR/h                                   : Гамма каротаж 
GZ3                .Ohmm                                   :  
LLS                .Ohmm                                   : Боковой каротаж 
MINV               .Ohmm                                   : Микро-градиент зонд 
MNOR               .Ohmm                                   : Микро-потенциал зонд 
NGLD               .у.е.                                   : Показания зонда НГК-60 аппаратуры ДРСТ-3-90 
OGZ                .Ohmm                                   :  
PHIE               .v/v                                    : Описание 
PHIEN              .v/v                                    :  
PHIT               .v/v                                    : Описание 
PRMB               .mD                                     :  
PRMB_DGR           .mD                                     :  
RT                 .ohmm                                   : УЭС пласта 
SOIL_ARCHIE        .v/v                                    :  
SOIL_DW            .v/v                                    :  
SP                 .мВ                                     : Потенциал самополяризации 
VSH_FIN            .v/v                                    : Описание 
VSH_GR             .v/v                                    : Shale volume 
VSH_SP             .v/v                                    : Shale Volume 
~Ascii
# ...
1125.4     0.208      80         1          2          7.740356   8.986      6.416      1.583      2.183      1.34117    10.795     0.2397935  0.2397935  0.2962037  77.39548   17.14256   10.063     0.7375157  0.7851762  51.085     0.17094    0.2033293  0.1385508 
1125.6     0.208      76         1          2          7.758513   9.425      7.078      1.509      2.157      1.342711   10.515     0.2398551  0.2398551  0.2958898  77.59889   16.81519   10.499     0.742746   0.7895778  49.937     0.1698021  0.2049365  0.1346677 
1125.8     0.209      73         1          2          7.759512   9.766      7.483      1.555      2.112      1.344436   9.989      0.2395526  0.2395526  0.2955383  76.6043    16.79736   10.944     0.7474313  0.7936488  49.81      0.1696538  0.2050253  0.1342822 
1126       0.209      73         1          2          7.75704    10.633     6.828      1.44       2.217      1.345317   9.295      0.2389661  0.2389661  0.295359   74.71181   16.84152   11.034     0.7478624  0.7942073  50.626     0.1708875  0.2048056  0.1369695 
1126.2     0.209      72         1          2          7.764699   10.939     6.685      1.587      2.231      1.344764   8.376      0.2382474  0.2382474  0.2954716  72.45672   16.70509   11.127     0.7481939  0.794854   51.799     0.1734065  0.2054869  0.141326  
1126.4     0.209      72         1          2          7.783008   11.245     6.724      1.619      2.178      1.343991   7.901      0.2370962  0.2370962  0.2956291  68.98515   16.38345   11.127     0.7471294  0.7944985  53.253     0.1773722  0.2071247  0.1476196 
1126.6     0.209      73         1          2          7.803124   11.615     6.7        1.654      2.114      1.34388    7.482999   0.2361569  0.2361569  0.2956517  66.27606   16.03718   10.944     0.7442712  0.7924501  54.069     0.1802872  0.2089394  0.1516351 
1126.8     0.212      74         1          2          7.817013   11.985     6.54       1.583      2.091      1.342689   7.406      0.2357906  0.2357906  0.2958943  65.24863   15.80239   10.753     0.7418008  0.7905777  54.528     0.1821326  0.2102014  0.1540637 
1127       0.213      78         1          2          7.820644   12.189     6.123      1.568      2.145      1.337781   6.982999   0.2363381  0.2363381  0.296894   66.79023   15.74157   10.256     0.7365357  0.7861908  54.962     0.1835026  0.2105327  0.1564725 
1127.2     0.213      89         1          2          7.809854   11.602     5.256      1.641      2.33       1.329759   7.427      0.2374689  0.2374689  0.2985281  70.0903    15.92298   8.999      0.7210265  0.7729272  55.65      0.1850279  0.2095499  0.1605059 
1127.4     0.212      98         1          2          7.781368   10.659     4.167      1.658      2.168      1.322435   7.855      0.2401374  0.2401374  0.3000201  78.53909   16.41201   8.197      0.711358   0.7638767  54.86      0.1814626  0.2069775  0.1559477 
1127.6     0.212      102        1          2          7.741042   11.016     4.18       1.675      2.117      1.318718   8.289      0.2418499  0.2418499  0.3007771  84.48998   17.13008   7.851      0.7072742  0.7598012  54.452     0.1785672  0.2033898  0.1537447 
1127.8     0.211      96         1          2          7.706096   11.22      5.302      1.725      2.521      1.318589   8.386      0.2427293  0.2427293  0.3008034  87.71884   17.7777    8.307      0.7158273  0.7668555  54.044     0.1759822  0.2003311  0.1516333 
1128       0.21       96         1          2          7.690856   11.424     6.286      1.641      2.567      1.319803   8.156      0.2426752  0.2426752  0.3005562  87.51688   18.06775   8.316      0.7159166  0.766849   54.069     0.175397   0.1990116  0.1517825 
1128.2     0.21       96         1          2          7.68777    11.832     7.026      1.578      2.277      1.31914    7.166      0.2428506  0.2428506  0.3006912  88.17414   18.12706   8.325      0.7162395  0.7671065  54.069     0.1752745  0.1987454  0.1518036 
1128.4     0.21       104        1          2          7.675135   11.475     7.417      1.565      2.145      1.314708   6.906001   0.243218   0.243218   0.301594   89.56633   18.37192   7.729      0.7065601  0.7588663  54.873     0.1768972  0.1976595  0.1561348 
1128.6     0.211      112        1          2          7.651379   10.939     5.136      1.593      2.361      1.307761   6.651      0.2441913  0.2441913  0.303009   93.36271   18.84127   7.136      0.6964172  0.7501468  55.676     0.1782356  0.1956339  0.1608372 
1128.8     0.212      119        1          2          7.642273   9.964999   5.047      1.871      2.48       1.301891   6.477      0.2437379  0.2437379  0.3042048  91.57457   19.02434   6.734      0.6875381  0.7431819  57.308     0.183233   0.194863   0.1716029 
1129       0.212      124        1          2          7.666269   9.353      5.114      1.862      2.34       1.300642   6.401      0.2427523  0.2427523  0.3044592  87.80502   18.54569   6.446      0.6799355  0.7371867  58.048     0.1869907  0.1969012  0.1770802 
1129.2     0.212      128        1          2          7.707153   8.139      5.054      1.779      2.351      1.305188   6.467      0.2405509  0.2405509  0.3035332  79.93642   17.75776   6.24       0.6724311  0.7313851  58.583     0.1908553  0.2004229  0.1812877 
1129.4     0.212      132        1          2          7.726492   7.828      4.616      1.689      2.17       1.312442   6.636      0.2376714  0.2376714  0.3020556  70.69836   17.3968    6.061      0.6644251  0.725289   59.4       0.1951036  0.2021106  0.1880965 
1129.6     0.212      136        1          2          7.692111   7.613999   4.359      1.662      2.132      1.316568   7.33       0.2363508  0.2363508  0.3012151  66.82658   18.04369   5.9        0.6585056  0.7204625  60.063     0.1965582  0.1991199  0.1939965 
1129.8     0.212      138        1          2          7.597692   7.604      4.379      1.883      2.262      1.314317   8.116      0.2385381  0.2385381  0.3016736  73.36062   19.94663   5.793      0.6583124  0.7192295  59.782     0.1913196  0.1911323  0.1915068 
1130       0.212      145        1          2          7.467621   7.951      4.595      1.384      2.131      1.307924   8.732999   0.2442736  0.2442736  0.3029758  93.69105   22.90107   5.525      0.6577879  0.7160695  57.767     0.1778854  0.1806507  0.1751201 
1130.2     0.212      147        1          2          7.3441     7.854      3.614      1.452      1.621      1.302735   9.600999   0.2484518  0.2484518  0.3040329  111.9666   26.11089   5.431      0.6600794  0.7162363  56.403     0.1684275  0.1712295  0.1656255 
1130.4     0.213      141        1          2          7.259411   7.436      3.224      1.904      2.348      1.302794   9.897      0.2506382  0.2506382  0.3040209  122.9095   28.5679    5.686      0.6698492  0.7236907  55.242     0.1617658  0.1650557  0.1584759 
1130.6     0.213      134        1          2          7.214015   7.334      3.987      1.425      2.16       1.308049   10.234     0.2505489  0.2505489  0.3029503  122.4423   29.97882   5.966      0.6771129  0.7296622  54.758     0.1587922  0.1618384  0.1557461 
1130.8     0.213      127        1          2          7.185286   7.369      4.495      1.738      2.445      1.314477   9.948001   0.2500213  0.2500213  0.301641   119.7181   30.9075    6.279      0.6841893  0.7355915  54.248     0.1564233  0.1598348  0.1530118 
1131       0.211      123        1          2          7.159847   7.405      5.106      1.596      2.285      1.317571   9.707999   0.2505364  0.2505364  0.3010108  122.3773   31.7538    6.483      0.6894493  0.7396976  53.202     0.1529526  0.1580815  0.1478238 
1131.2     0.211      122        1          2          7.145457   7.385      5.367      1.825      2.582      1.315929   9.525      0.2514711  0.2514711  0.3013453  127.3541   32.24274   6.552      0.6919889  0.7416453  52.615     0.1511338  0.1570981  0.1451695 
1131.4     0.21       117        1          2          7.141369   7.067999   5.462      1.677      2.462      1.31122    9.392      0.2528158  0.2528158  0.3023045  134.8717   32.38303   6.855      0.6998518  0.7484509  52.131     0.1499656  0.1568199  0.1431113 
