~Version
 VERS              .         2.0                           : CWLS LOG ASCII STANDARD - VERSION 2.0
 WRAP              .         NO                            : ONE LINE PER DEPTH STEP
 DLM               .         SPACE                         : DELIMITING CHARACTER(SPACE TAB OR COMMA)
~Well Information
#_______________________________________________________________________________
#
#PARAMETER_NAME    .UNIT     VALUE                         : DESCRIPTION
#_______________________________________________________________________________
STRT               .M        896                           : First reference value
STOP               .M        1244                          : Last reference value
STEP               .M        0.2                           : Step increment
NULL               .         -9999                         : Missing value
COMP               .                                       : Company
WELL               .         4909                          : Well name
FLD                .         УЗЕНЬ                         : Field
LOC                .                                       : Location
CNTY               .                                       : County
STAT               .                                       : State
CTRY               .                                       : Country
SRVC               .                                       : Service Company
DATE               .         28-29.11.89                   : Date
UWI                .         4909                          : Unique Well ID
Block              .         7                             : 
Category           .         Нефтяная                      : 
Condition          .         В работе                      : 
Date               .         01.02.1990                    : 
EREF               .m        93.7                          : 100.8
Gorizont           .         14                            : 14
Interpretator      .         Алпанова Н.К.                 : 
Kupol              .         основной                      : osnovnoi
Moii_14            .         14_gor                        : 
Mud                .                                       : 
Mud_density        .                                       : 
Mud_resistivity    .                                       : 
NGDU               .         НГДУ-2                        : 
ORIGINALWELLNAME   .         4909                          : 
Spud_date          .         1989                          : 1961
Viscosity          .                                       : 
X                  .m        42307                         : 46154
Y                  .m        85012.73                      : 85761.93
YEAR               .         2019                          : 
~Parameter Information Block
#_______________________________________________________________________________
#
#PARAMETER_NAME    .UNIT     VALUE                         : DESCRIPTION
#_______________________________________________________________________________
SET                .         LQC_KAZNIPI_Petrel            : 
TLFamily_CALI      .         Caliper                       : 
TLFamily_CILD      .         Conductivity                  : 
TLFamily_COLL      .         Net Reservoir Flag            : 
TLFamily_CSAT      .         Fluid Code                    : 
TLFamily_DEPT      .         Measured Depth                : 
TLFamily_GR        .         Russian Gamma Ray             : 
TLFamily_GZ3       .         Gradient 225                  : 
TLFamily_LLS       .         Lateral Log Resistivity       : 
TLFamily_MINV      .         Micro Gradient Resistivity    : 
TLFamily_MNOR      .         Micro Resistivity             : 
TLFamily_NGLD      .         Neutron Far                   : 
TLFamily_OGZ       .         Gradient Inverted 225         : 
TLFamily_PHIE      .         Effective Porosity            : 
TLFamily_PHIEN     .         Effective Porosity            : 
TLFamily_PHIT      .         Porosity                      : 
TLFamily_PRMB      .         Permeability                  : 
TLFamily_PRMB_DGR  .         Permeability                  : 
TLFamily_RT        .         Formation Resistivity         : 
TLFamily_SOIL_ARCHIE .         Oil Saturation                : 
TLFamily_SOIL_DW   .         Oil Saturation                : 
TLFamily_SP        .         Spontaneous Potential         : 
TLFamily_VSH_FIN   .         Shale Volume                  : 
TLFamily_VSH_GR    .         Shale Volume                  : 
TLFamily_VSH_SP    .         Shale Volume                  : 
~Curve Information
#_______________________________________________________________________________
#
#LOGNAME           .UNIT     LOG_ID                        : DESCRIPTION
#_______________________________________________________________________________
DEPT               .M                                      : Колонка глубины 
CALI               .м                                      : Каверномер 
CILD               .мСм/м                                  : Индукционный каротаж 
COLL               .unitless                               : Описание 
CSAT               .unitless                               : Описание 
GR                 .uR/h                                   : Гамма каротаж 
GZ3                .Ohmm                                   :  
LLS                .Ohmm                                   : Боковой каротаж 
MINV               .Ohmm                                   : Микро-градиент зонд 
MNOR               .Ohmm                                   : Микро-потенциал зонд 
NGLD               .у.е.                                   : Показания зонда НГК-60 аппаратуры ДРСТ-3-90 
OGZ                .Ohmm                                   :  
PHIE               .v/v                                    : Описание 
PHIEN              .v/v                                    :  
PHIT               .v/v                                    : Описание 
PRMB               .mD                                     :  
PRMB_DGR           .mD                                     :  
RT                 .ohmm                                   : УЭС пласта 
SOIL_ARCHIE        .v/v                                    :  
SOIL_DW            .v/v                                    :  
SP                 .мВ                                     : Потенциал самополяризации 
VSH_FIN            .v/v                                    : Описание 
VSH_GR             .v/v                                    : Shale volume 
VSH_SP             .v/v                                    : Shale Volume 
~Ascii
896.0      0.221      167        -9999      -9999      -9999      5.389      7.761      4.997      3.411      -9999      7.875999   -9999      -9999      -9999      -9999      -9999      4.782      -9999      -9999      81.524     -9999      0.06250964 0.8       
896.2000000000001 0.22       158        -9999      -9999      -9999      4.873      6.077      5          4.108      -9999      6.898      -9999      -9999      -9999      -9999      -9999      5.051      -9999      -9999      82.213     -9999      0.06250964 0.8       
896.4      0.22       145        -9999      -9999      -9999      4.898      4.759      4.787      3.166      -9999      6.489      -9999      -9999      -9999      -9999      -9999      5.533      -9999      -9999      82.417     -9999      0.06420354 0.8       
896.6      0.219      136        -9999      -9999      -9999      4.975      4.713      4.361      4.459      -9999      6.182      -9999      -9999      -9999      -9999      -9999      5.874      -9999      -9999      82.621     -9999      0.07304436 0.8       
896.8      0.219      132        -9999      -9999      -9999      4.822      5.904      4.997      3.421      -9999      5.291      -9999      -9999      -9999      -9999      -9999      6.056      -9999      -9999      82.723     -9999      0.08199896 0.8       
897        0.222      132        -9999      -9999      6.920152   4.643      6.402      3.738      2.383      1.278834   4.621      -9999      -9999      -9999      -9999      -9999      6.084      -9999      -9999      82.596     -9999      0.1090852  0.8       
897.2000000000001 0.224      131        -9999      -9999      7.24363    4.397      4.52       3.351      3.219      1.248442   4.038      -9999      -9999      -9999      -9999      -9999      6.116      -9999      -9999      82.341     -9999      0.1383924  0.8       
897.4      0.224      142        -9999      -9999      7.565823   4.551      3.191      3.838      4.055      1.21339    3.869      -9999      -9999      -9999      -9999      -9999      5.654      -9999      -9999      82.315     -9999      0.1815405  0.8       
897.6      0.226      182        -9999      -9999      7.872693   5.696      2.253      2.192      2.174      1.178245   3.638      -9999      -9999      -9999      -9999      -9999      4.405      -9999      -9999      82.187     -9999      0.2094582  0.8       
897.8      0.254      201        -9999      -9999      8.160619   6.841      1.938      0.546      1.054      1.152526   3.296      -9999      -9999      -9999      -9999      -9999      3.986      -9999      -9999      82.187     -9999      0.2375055  0.8       
898        0.281      213        -9999      -9999      8.411481   7.158      2.014      0.576      0.905      1.14529    3.096      -9999      -9999      -9999      -9999      -9999      3.765      -9999      -9999      82.187     -9999      0.3428053  0.8       
898.2000000000001 0.308      230        -9999      -9999      8.586677   6.21       2.129      0.546      0.834      1.155987   3.014      -9999      -9999      -9999      -9999      -9999      3.478      -9999      -9999      82.187     -9999      0.3794661  0.8       
898.4      0.308      225        -9999      -9999      8.656208   5.261      4.062      0.443      0.743      1.174742   3.958      -9999      -9999      -9999      -9999      -9999      3.56       -9999      -9999      82.29      -9999      0.3979095  0.8       
898.6      0.309      214        -9999      -9999      8.639863   5.185      7.749      0.457      1.771      1.188598   4.902      -9999      -9999      -9999      -9999      -9999      3.735      -9999      -9999      82.443     -9999      0.3952585  0.8       
898.8      0.309      204        -9999      -9999      8.625303   5.558      3.941      2.726      3.908      1.189002   5.847      -9999      -9999      -9999      -9999      -9999      3.931      -9999      -9999      82.596     -9999      0.2951349  0.8       
899        0.226      199        -9999      -9999      8.728737   6.977001   2.811      3.847      3.909      1.178258   6.791      -9999      -9999      -9999      -9999      -9999      4.016      -9999      -9999      82.698     -9999      0.2449217  0.8       
899.2000000000001 0.229      203        -9999      -9999      8.995562   8.395      2.577      1.577      1.773      1.16849    5.521999   -9999      -9999      -9999      -9999      -9999      3.951      -9999      -9999      82.685     -9999      0.3931504  0.8       
899.4      0.259      223        -9999      -9999      9.340482   6.892      2.674      0.447      0.783      1.170545   4.253      -9999      -9999      -9999      -9999      -9999      3.592      -9999      -9999      82.672     -9999      0.6310884  0.8       
899.6      0.288      220        -9999      -9999      9.612267   5.389      2.285      0.546      0.983      1.184527   4.079      -9999      -9999      -9999      -9999      -9999      3.64       -9999      -9999      82.672     -9999      0.8        0.8       
899.8      0.296      219        -9999      -9999      9.721499   4.760001   2.292      0.546      0.925      1.203121   4.278      -9999      -9999      -9999      -9999      -9999      3.656      -9999      -9999      82.672     -9999      0.7769142  0.8       
900        0.297      224        -9999      -9999      9.685614   4.489      2.751      0.46       0.826      1.221301   4.421      -9999      -9999      -9999      -9999      -9999      3.568      -9999      -9999      82.672     -9999      0.6948535  0.8       
900.2000000000001 0.306      228        -9999      -9999      9.569833   3.64       3.302      0.466      0.748      1.239296   4.38       -9999      -9999      -9999      -9999      -9999      3.509      -9999      -9999      82.876     -9999      0.6874617  0.8       
900.4      0.276      221        -9999      -9999      9.435173   3.41       3.965      0.422      0.953      1.256935   4.708      -9999      -9999      -9999      -9999      -9999      3.622      -9999      -9999      82.944     -9999      0.6210449  0.8       
900.6      0.245      211        -9999      -9999      9.342765   3.615      3.265      0.43       1.076      1.27012    5.394      -9999      -9999      -9999      -9999      -9999      3.793      -9999      -9999      83.012     -9999      0.4591009  0.8       
900.8      0.245      201        -9999      -9999      9.34574    3.906      2.968      0.499      1.107      1.274282   5.644001   -9999      -9999      -9999      -9999      -9999      3.98       -9999      -9999      83.081     -9999      0.46218    0.8       
901        0.264      199        -9999      -9999      9.440742   4.029      2.844      0.524      1.079      1.269645   5.286      -9999      -9999      -9999      -9999      -9999      4.012      -9999      -9999      83.412     -9999      0.5762483  0.8       
901.2000000000001 0.283      202        -9999      -9999      9.550341   4.147      2.803      0.498      1.022      1.2621     4.585      -9999      -9999      -9999      -9999      -9999      3.96       -9999      -9999      84.254     -9999      0.7409039  0.8       
901.4      0.246      201        -9999      -9999      9.569255   4.157      2.874      0.685      1.127      1.259034   4.437      -9999      -9999      -9999      -9999      -9999      3.98       -9999      -9999      83.31      -9999      0.8        0.8       
901.6      0.249      199        -9999      -9999      9.428316   4.341      3.291      0.816      1.306      1.263989   4.575      -9999      -9999      -9999      -9999      -9999      4.014      -9999      -9999      82.417     -9999      0.6555975  0.8       
901.8      0.262      198        -9999      -9999      9.132478   4.331      4.202      0.96       1.071      1.273676   4.416      -9999      -9999      -9999      -9999      -9999      4.047      -9999      -9999      82.353     -9999      0.6604356  0.8       
902        0.274      187        -9999      -9999      8.767348   3.773      5.366      1.018      1.041      1.280184   4.442      -9999      -9999      -9999      -9999      -9999      4.274      -9999      -9999      82.29      -9999      0.3013144  0.8       
