~Version
 VERS              .         2.0                           : CWLS LOG ASCII STANDARD - VERSION 2.0
 WRAP              .         NO                            : ONE LINE PER DEPTH STEP
 DLM               .         SPACE                         : DELIMITING CHARACTER(SPACE TAB OR COMMA)
~Well Information
#_______________________________________________________________________________
#
#PARAMETER_NAME    .UNIT     VALUE                         : DESCRIPTION
#_______________________________________________________________________________
STRT               .M        896                           : First reference value
STOP               .M        1244                          : Last reference value
STEP               .M        0.2                           : Step increment
NULL               .         -9999                         : Missing value
COMP               .                                       : Company
WELL               .         4909                          : Well name
FLD                .         УЗЕНЬ                         : Field
LOC                .                                       : Location
CNTY               .                                       : County
STAT               .                                       : State
CTRY               .                                       : Country
SRVC               .                                       : Service Company
DATE               .         28-29.11.89                   : Date
UWI                .         4909                          : Unique Well ID
Block              .         7                             : 
Category           .         Нефтяная                      : 
Condition          .         В работе                      : 
Date               .         01.02.1990                    : 
EREF               .m        93.7                          : 100.8
Gorizont           .         14                            : 14
Interpretator      .         Алпанова Н.К.                 : 
Kupol              .         основной                      : osnovnoi
Moii_14            .         14_gor                        : 
Mud                .                                       : 
Mud_density        .                                       : 
Mud_resistivity    .                                       : 
NGDU               .         НГДУ-2                        : 
ORIGINALWELLNAME   .         4909                          : 
Spud_date          .         1989                          : 1961
Viscosity          .                                       : 
X                  .m        42307                         : 46154
Y                  .m        85012.73                      : 85761.93
YEAR               .         2019                          : 
~Parameter Information Block
#_______________________________________________________________________________
#
#PARAMETER_NAME    .UNIT     VALUE                         : DESCRIPTION
#_______________________________________________________________________________
SET                .         LQC_KAZNIPI_Petrel            : 
TLFamily_CALI      .         Caliper                       : 
TLFamily_CILD      .         Conductivity                  : 
TLFamily_COLL      .         Net Reservoir Flag            : 
TLFamily_CSAT      .         Fluid Code                    : 
TLFamily_DEPT      .         Measured Depth                : 
TLFamily_GR        .         Russian Gamma Ray             : 
TLFamily_GZ3       .         Gradient 225                  : 
TLFamily_LLS       .         Lateral Log Resistivity       : 
TLFamily_MINV      .         Micro Gradient Resistivity    : 
TLFamily_MNOR      .         Micro Resistivity             : 
TLFamily_NGLD      .         Neutron Far                   : 
TLFamily_OGZ       .         Gradient Inverted 225         : 
TLFamily_PHIE      .         Effective Porosity            : 
TLFamily_PHIEN     .         Effective Porosity            : 
TLFamily_PHIT      .         Porosity                      : 
TLFamily_PRMB      .         Permeability                  : 
TLFamily_PRMB_DGR  .         Permeability                  : 
TLFamily_RT        .         Formation Resistivity         : 
TLFamily_SOIL_ARCHIE .         Oil Saturation                : 
TLFamily_SOIL_DW   .         Oil Saturation                : 
TLFamily_SP        .         Spontaneous Potential         : 
TLFamily_VSH_FIN   .         Shale Volume                  : 
TLFamily_VSH_GR    .         Shale Volume                  : 
TLFamily_VSH_SP    .         Shale Volume                  : 
~Curve Information
#_______________________________________________________________________________
#
#LOGNAME           .UNIT     LOG_ID                        : DESCRIPTION
#_______________________________________________________________________________
DEPT               .M                                      : Колонка глубины 
CALI               .м                                      : Каверномер 
CILD               .мСм/м                                  : Индукционный каротаж 
COLL               .unitless                               : Описание 
CSAT               .unitless                               : Описание 
GR                 .uR/h                                   : Гамма каротаж 
GZ3                .Ohmm                                   :  
LLS                .Ohmm                                   : Боковой каротаж 
MINV               .Ohmm                                   : Микро-градиент зонд 
MNOR               .Ohmm                                   : Микро-потенциал зонд 
NGLD               .у.е.                                   : Показания зонда НГК-60 аппаратуры ДРСТ-3-90 
OGZ                .Ohmm                                   :  
PHIE               .v/v                                    : Описание 
PHIEN              .v/v                                    :  
PHIT               .v/v                                    : Описание 
PRMB               .mD                                     :  
PRMB_DGR           .mD                                     :  
RT                 .ohmm                                   : УЭС пласта 
SOIL_ARCHIE        .v/v                                    :  
SOIL_DW            .v/v                                    :  
SP                 .мВ                                     : Потенциал самополяризации 
VSH_FIN            .v/v                                    : Описание 
VSH_GR             .v/v                                    : Shale volume 
VSH_SP             .v/v                                    : Shale Volume 
~Ascii
# ...
989        0.236      256        -9999      -9999      5.835109   3.44       2.388      1.68       1.482      1.208364   3.038      0.1835014  0.1835014  0.3232562  7.015336   4.645375   3.123      0.4261941  0.5914509  88.118     0.4234994  0.3465352  0.5004637 
989.2000000000001 0.238      250        -9999      -9999      5.851364   3.338      2.811      3.547      1.839      1.24502    3.151      0.1767141  0.1767141  0.3157895  5.252092   4.548336   3.197      0.413527   0.5843168  87.862     0.4214404  0.3495353  0.4933456 
989.4      0.238      239        -9999      -9999      5.84355    3.287      3.309      3.36       2.196      1.285487   3.213      0.1698645  0.1698645  0.3075464  3.92157    4.594727   3.344      0.4056538  0.5805082  87.607     0.417218   0.3480899  0.486346  
989.6      0.236      236        -9999      -9999      5.856281   3.42       3.309      3.683      2.423      1.316038   3.079      0.1644499  0.1644499  0.301323   3.112923   4.519388   3.388      0.3923845  0.5726336  87.339     0.4147671  0.3504478  0.4790865 
989.8      0.221      231        -9999      -9999      5.932486   3.517      3.437      3.702      2.243      1.326101   2.834      0.161197   0.161197   0.2992733  2.709682   4.093541   3.471      0.3887018  0.5726883  87.071     0.4184129  0.3648998  0.471926  
990        0.219      229        -9999      -9999      6.08334    3.62       3.188      3.697      2.291      1.311749   2.649      0.1586583  0.1586583  0.3021967  2.431614   3.365242   3.501      0.3826893  0.5744147  87.173     0.4349648  0.39529    0.4746396 
990.2000000000001 0.219      232        -9999      -9999      6.283803   3.701      2.709      2.713      2.095      1.278057   2.439      0.1570183  0.1570183  0.3090598  2.267344   2.5939     3.456      0.3732843  0.5758039  87.441     0.4607319  0.4396259  0.4818379 
990.4      0.219      244        -9999      -9999      6.494146   3.947      2.303      0.705      1.636      1.237273   2.337      0.1555621  0.1555621  0.3173674  2.130818   1.973866   3.285      0.352952   0.5704179  87.709     0.4903189  0.4915029  0.489135  
990.6      0.221      274        -9999      -9999      6.677181   3.988      1.957      0.482      1.177      1.200536   2.152      0.1522009  0.1522009  0.3248509  1.846242   1.556268   2.921      0.30316    0.5472192  88.271     0.5231817  0.5416013  0.5047621 
990.8      0.229      280        -9999      -9999      6.799651   3.983      2.182      0.538      1.052      1.170746   2.132      0.151558   0.151558   0.330919   1.796305   1.327425   2.862      0.2938567  0.5470933  88.424     0.5435181  0.5779431  0.5090932 
991        0.233      285        -9999      -9999      6.840181   3.471      2.22       0.662      1.262      1.145157   2.28       0.1539787  0.1539787  0.3361315  1.991666   1.259362   2.806      0.2970467  0.5497261  88.577     0.5519783  0.5904991  0.5134575 
991.2000000000001 0.237      296        -9999      -9999      6.811312   3.471      2.233      0.822      1.369      1.121743   2.28       0.1587669  0.1587669  0.340901   2.442903   1.307474   2.699      0.3029455  0.5501248  88.884     0.5519215  0.581528   0.5223149 
991.4      0.235      307        -9999      -9999      6.754094   3.471      2.186      0.525      1.062      1.10049    2.347      0.1665758  0.1665758  0.3452301  3.408365   1.40833    2.609      0.3207693  0.5541982  88.756     0.5413767  0.5641481  0.5186054 
991.6      0.233      317        -9999      -9999      6.689579   3.42       2.134      0.482      0.898      1.082015   2.47       0.17347    0.17347    0.3489936  4.573442   1.53141    2.525      0.3341947  0.5567959  88.756     0.5318897  0.545174   0.5186054 
991.8      0.234      324        -9999      -9999      6.596056   3.466      1.949      0.457      0.856      1.06735    2.47       0.1829775  0.1829775  0.3519809  6.860329   1.729176   2.47       0.3578262  0.5633113  88.296     0.5121316  0.5187958  0.5054674 
992        0.24       329        -9999      -9999      6.455716   3.364      2.053      0.48       0.975      1.058412   2.393      0.1904609  0.1904609  0.3538014  9.439649   2.074878   2.429      0.3749681  0.5678231  88.398     0.4949714  0.4815879  0.5083548 
992.2000000000001 0.245      334        -9999      -9999      6.299341   3.312      2.088      0.535      0.988      1.05818    2.393      0.1963481  0.1963481  0.3538487  12.13394   2.542081   2.392      0.3869221  0.5696955  88.501     0.4772743  0.4432633  0.5112853 
992.4      0.244      338        -9999      -9999      6.183661   3.082      1.671      0.518      0.767      1.069641   2.29       0.2008594  0.2008594  0.3515142  14.70826   2.954159   2.365      0.3957219  0.5693855  87.964     0.4565298  0.4168889  0.4961707 
992.6      0.242      356        -9999      -9999      6.135693   3.031      1.53       0.439      0.597      1.093596   2.137      0.1989271  0.1989271  0.3466345  13.54473   3.144044   2.247      0.3757995  0.5527687  87.696     0.4475983  0.406418   0.4887787 
992.8      0.244      374        -9999      -9999      6.134433   2.744      1.374      0.449      0.638      1.127463   2.106      0.1932763  0.1932763  0.3397357  10.64396   3.149193   2.139      0.3449672  0.5306931  87.428     0.4438165  0.4061466  0.4814864 
993        0.257      392        -9999      -9999      6.135695   2.381      1.3        0.406      0.577      1.166219   2.219      0.185337   0.185337   0.3318413  7.586628   3.144037   2.041      0.3054771  0.5045371  87.428     0.4439524  0.4064184  0.4814864 
993.2000000000001 0.27       410        -9999      -9999      6.107642   2.278      1.308      0.459      0.729      1.203747   2.5        0.1768398  0.1768398  0.3241968  5.280319   3.260691   1.953      0.2613811  0.4767194  87.837     0.4465362  0.4004171  0.4926553 
993.4      0.258      385        -9999      -9999      6.050848   2.227      1.655      0.436      1.074      1.234015   2.644      0.1698049  0.1698049  0.3180312  3.911614   3.510281   2.078      0.2567554  0.4785236  88.449     0.4491706  0.3885374  0.5098039 
993.6      0.255      363        -9999      -9999      5.998425   2.15       2.426      1.668      1.674      1.253043   2.839      0.1661149  0.1661149  0.3141551  3.342024   3.757586   2.204      0.2630387  0.4854589  88.781     0.4486065  0.377885   0.5193281 
993.8      0.243      330        -9999      -9999      6.000506   2.539      3.048      2.258      1.961      1.260095   2.905      0.162638   0.162638   0.3127187  2.881431   3.747445   2.424      0.2821141  0.5039267  89.19      0.45479    0.3783022  0.5312778 
994        0.234      311        -9999      -9999      6.093039   2.698      3.155      2.9        2.273      1.256086   2.946      0.162287   0.162287   0.3135353  2.838616   3.323119   2.575      0.3008715  0.519057   88.781     0.4583282  0.3973284  0.5193281 
994.2000000000001 0.221      298        -9999      -9999      6.26682    2.775      3.256      2.177      1.986      1.240717   2.767      0.1608994  0.1608994  0.3166659  2.675507   2.651744   2.683      0.3090739  0.5301418  88.398     0.4720196  0.4356844  0.5083548 
994.4      0.221      292        -9999      -9999      6.476253   2.852      3.129      1.454      1.976      1.213377   2.475      0.1586173  0.1586173  0.3222351  2.427363   2.02027    2.74       0.3072911  0.5374856  88.271     0.4958117  0.4868613  0.5047621 
994.6      0.224      291        -9999      -9999      6.679991   2.821      3.171      0.731      1.506      1.176793   2.342      0.1561894  0.1561894  0.3296872  2.188588   1.550599   2.749      0.2990017  0.5420446  88.424     0.5257511  0.5424089  0.5090932 
994.8      0.231      308        -9999      -9999      6.861312   2.683      2.519      0.538      0.98       1.137761   2.157      0.1543874  0.1543874  0.3376381  2.026687   1.225273   2.594      0.2723309  0.5334577  88.577     0.5553054  0.5971532  0.5134575 
995        0.24       317        -9999      -9999      7.014676   2.55       1.851      0.472      0.866      1.104094   2.055      0.1514356  0.1514356  0.344496   1.786952   1.004001   2.523      0.2502927  0.5294642  88.884     0.5850314  0.6477479  0.5223149 
