~Version
 VERS              .         2.0                           : CWLS LOG ASCII STANDARD - VERSION 2.0
 WRAP              .         NO                            : ONE LINE PER DEPTH STEP
 DLM               .         SPACE                         : DELIMITING CHARACTER(SPACE TAB OR COMMA)
~Well Information
#_______________________________________________________________________________
#
#PARAMETER_NAME    .UNIT     VALUE                         : DESCRIPTION
#_______________________________________________________________________________
STRT               .M        896                           : First reference value
STOP               .M        1244                          : Last reference value
STEP               .M        0.2                           : Step increment
NULL               .         -9999                         : Missing value
COMP               .                                       : Company
WELL               .         4909                          : Well name
FLD                .         УЗЕНЬ                         : Field
LOC                .                                       : Location
CNTY               .                                       : County
STAT               .                                       : State
CTRY               .                                       : Country
SRVC               .                                       : Service Company
DATE               .         28-29.11.89                   : Date
UWI                .         4909                          : Unique Well ID
Block              .         7                             : 
Category           .         Нефтяная                      : 
Condition          .         В работе                      : 
Date               .         01.02.1990                    : 
EREF               .m        93.7                          : 100.8
Gorizont           .         14                            : 14
Interpretator      .         Алпанова Н.К.                 : 
Kupol              .         основной                      : osnovnoi
Moii_14            .         14_gor                        : 
Mud                .                                       : 
Mud_density        .                                       : 
Mud_resistivity    .                                       : 
NGDU               .         НГДУ-2                        : 
ORIGINALWELLNAME   .         4909                          : 
Spud_date          .         1989                          : 1961
Viscosity          .                                       : 
X                  .m        42307                         : 46154
Y                  .m        85012.73                      : 85761.93
YEAR               .         2019                          : 
~Parameter Information Block
#_______________________________________________________________________________
#
#PARAMETER_NAME    .UNIT     VALUE                         : DESCRIPTION
#_______________________________________________________________________________
SET                .         LQC_KAZNIPI_Petrel            : 
TLFamily_CALI      .         Caliper                       : 
TLFamily_CILD      .         Conductivity                  : 
TLFamily_COLL      .         Net Reservoir Flag            : 
TLFamily_CSAT      .         Fluid Code                    : 
TLFamily_DEPT      .         Measured Depth                : 
TLFamily_GR        .         Russian Gamma Ray             : 
TLFamily_GZ3       .         Gradient 225                  : 
TLFamily_LLS       .         Lateral Log Resistivity       : 
TLFamily_MINV      .         Micro Gradient Resistivity    : 
TLFamily_MNOR      .         Micro Resistivity             : 
TLFamily_NGLD      .         Neutron Far                   : 
TLFamily_OGZ       .         Gradient Inverted 225         : 
TLFamily_PHIE      .         Effective Porosity            : 
TLFamily_PHIEN     .         Effective Porosity            : 
TLFamily_PHIT      .         Porosity                      : 
TLFamily_PRMB      .         Permeability                  : 
TLFamily_PRMB_DGR  .         Permeability                  : 
TLFamily_RT        .         Formation Resistivity         : 
TLFamily_SOIL_ARCHIE .         Oil Saturation                : 
TLFamily_SOIL_DW   .         Oil Saturation                : 
TLFamily_SP        .         Spontaneous Potential         : 
TLFamily_VSH_FIN   .         Shale Volume                  : 
TLFamily_VSH_GR    .         Shale Volume                  : 
TLFamily_VSH_SP    .         Shale Volume                  : 
~Curve Information
#_______________________________________________________________________________
#
#LOGNAME           .UNIT     LOG_ID                        : DESCRIPTION
#_______________________________________________________________________________
DEPT               .M                                      : Колонка глубины 
CALI               .м                                      : Каверномер 
CILD               .мСм/м                                  : Индукционный каротаж 
COLL               .unitless                               : Описание 
CSAT               .unitless                               : Описание 
GR                 .uR/h                                   : Гамма каротаж 
GZ3                .Ohmm                                   :  
LLS                .Ohmm                                   : Боковой каротаж 
MINV               .Ohmm                                   : Микро-градиент зонд 
MNOR               .Ohmm                                   : Микро-потенциал зонд 
NGLD               .у.е.                                   : Показания зонда НГК-60 аппаратуры ДРСТ-3-90 
OGZ                .Ohmm                                   :  
PHIE               .v/v                                    : Описание 
PHIEN              .v/v                                    :  
PHIT               .v/v                                    : Описание 
PRMB               .mD                                     :  
PRMB_DGR           .mD                                     :  
RT                 .ohmm                                   : УЭС пласта 
SOIL_ARCHIE        .v/v                                    :  
SOIL_DW            .v/v                                    :  
SP                 .мВ                                     : Потенциал самополяризации 
VSH_FIN            .v/v                                    : Описание 
VSH_GR             .v/v                                    : Shale volume 
VSH_SP             .v/v                                    : Shale Volume 
~Ascii
# ...
1168.8     0.292      452        -9999      -9999      9.631745   1.54       1.324      1.36       1.148      1.192865   1.409      0.1776959  0.1776959  0.3264133  5.476686   2.300388   1.769      0.2295225  0.4534873  74.345     0.4506589  0.46172    0.4395977 
1169       0.296      450        -9999      -9999      9.687533   1.413      1.349      0.75       0.649      1.191331   1.409      0.1727628  0.1727628  0.3267258  4.437562   2.168067   1.779      0.212482   0.4493221  75.148     0.4665546  0.4730254  0.4600838 
1169.2     0.28       450        -9999      -9999      9.756004   1.413      1.383      1.031      0.869      1.191662   1.536      0.1668137  0.1668137  0.3266584  3.443127   2.016021   1.779      0.1880766  0.4417184  75.952     0.4843779  0.48728    0.4814758 
1169.4     0.264      452        -9999      -9999      9.8519     1.413      1.423      0.557      0.803      1.189258   1.644      0.1612186  0.1612186  0.3271481  2.712176   1.820832   1.771      0.1618184  0.4335901  76.538     0.5028168  0.5079691  0.4976645 
1169.6     0.262      454        -9999      -9999      9.979357   1.586      1.448      1.362      0.935      1.18413    1.684      0.1543793  0.1543793  0.3281927  2.025986   1.590337   1.763      0.1277167  0.4239916  77.202     0.5267075  0.5368332  0.5165817 
1169.8     0.261      454        -9999      -9999      10.10967   1.739      1.452      1.135      1.014      1.180849   1.684      0.1486597  0.1486597  0.3288611  1.587434   1.384812   1.761      0.09807821 0.4161435  77.457     0.5460649  0.5680408  0.5240889 
1170       0.26       455        -9999      -9999      10.19234   1.918      1.495      1.334      1.042      1.184166   1.679      0.1433088  0.1433088  0.3281855  1.26353    1.268427   1.759      0.06832132 0.4069943  77.712     0.5602322  0.5887722  0.531692  
1170.2     0.249      452        -9999      -9999      10.19268   2.009      1.56       1.555      1.187      1.194421   1.848      0.139177   0.139177   0.3260964  1.059386   1.267969   1.771      0.04732143 0.4001556  78.12      0.5664222  0.5888592  0.5439852 
1170.4     0.24       447        -9999      -9999      10.12219   2.183      1.569      1.471      1.057      1.207703   1.884      0.1401649  0.1401649  0.3233908  1.104975   1.366525   1.79       0.0579017  0.4017794  78.12      0.55523    0.5711325  0.5393276 
1170.6     0.245      442        -9999      -9999      10.03835   2.305      1.569      1.463      1.034      1.220053   1.741      0.1412756  0.1412756  0.3208752  1.158575   1.493762   1.808      0.06873829 0.4035911  78.222     0.5442413  0.5507435  0.5377392 
1170.8     0.239      441        -9999      -9999      10.00431   2.295      1.607      1.555      1.182      1.229926   1.659      0.1402321  0.1402321  0.3188641  1.108148   1.548753   1.814      0.06416233 0.4005715  78.451     0.5413089  0.5426728  0.5399449 
1171       0.232      439        -9999      -9999      10.0423    2.244      1.627      1.713      1.233      1.236453   1.608      0.1390475  0.1390475  0.3175346  1.05355    1.487512   1.821      0.05892436 0.3982559  78.273     0.5408699  0.5516871  0.5300527 
1171.2     0.233      439        -9999      -9999      10.12807   1.887      1.616      1.715      1.408      1.2376     1.608      0.1340054  0.1340054  0.3173008  0.8496968  1.358021   1.821      0.02815888 0.3896837  78.706     0.5554404  0.5725905  0.5382904 
1171.4     0.242      446        -9999      -9999      10.22412   1.739      1.604      1.58       1.381      1.232035   1.669      0.1308804  0.1308804  0.3184345  0.7436692  1.226335   1.795      0.001262055 0.3813253  78.91      0.5683458  0.5969419  0.5397497 
1171.6     0.249      452        -9999      -9999      10.3079    1.663      1.549      1.565      1.255      1.221827   1.751      0.1299515  0.1299515  0.3205139  0.7147838  1.121939   1.77       0          0.3779231  78.936     0.5774619  0.6190275  0.5358963 
1171.8     0.247      458        -9999      -9999      10.37402   1.65       1.493      1.229      1.081      1.211369   1.858      0.1318366  0.1318366  0.3226441  0.7746267  1.045872   1.748      0          0.3799168  78.528     0.5782045  0.6370307  0.5193782 
1172       0.244      462        -9999      -9999      10.4256    1.637      1.458      1.186      0.908      1.20393    1.899      0.1323165  0.1323165  0.3241595  0.7906449  0.9901214  1.733      0          0.379912   78.4       0.5813423  0.6514403  0.5112442 
1172.2     0.244      461        -9999      -9999      10.46822   1.698      1.492      1.448      0.902      1.200447   1.924      0.1323397  0.1323397  0.3248689  0.7914261  0.9463071  1.737      0          0.3815248  78.273     0.5834218  0.6635917  0.5032519 
1172.4     0.243      460        -9999      -9999      10.50801   1.816      1.542      1.578      1.001      1.201146   1.965      0.1310093  0.1310093  0.3247265  0.74777    0.9071594  1.741      0          0.3797826  78.273     0.5870219  0.6751393  0.4989046 
1172.6     0.241      449        -9999      -9999      10.54637   1.816      1.58       1.664      1.004      1.206109   2.159      0.1273169  0.1273169  0.3237156  0.6388156  0.8709508  1.781      0          0.3791592  78.604     0.5951476  0.6864624  0.5038328 
1172.8     0.245      438        -9999      -9999      10.57241   1.816      1.592      1.675      1.083      1.213716   2.338      0.1232991  0.1232991  0.3221661  0.5382155  0.8471919  1.827      0          0.3779957  79.012     0.6026275  0.6942591  0.5109958 
1173       0.249      434        -9999      -9999      10.57131   1.816      1.625      1.535      1.027      1.220049   2.476      0.1208669  0.1208669  0.3208761  0.4851838  0.8481835  1.842      0          0.3744892  79.42      0.6060885  0.6939276  0.5182494 
1173.2     0.255      431        -9999      -9999      10.54315   1.821      1.662      1.724      1.018      1.221639   2.562      0.1210869  0.1210869  0.3205521  0.4897566  0.8739372  1.858      0          0.3771887  79.752     0.6044402  0.6855036  0.5233768 
1173.4     0.255      428        -9999      -9999      10.50269   1.821      1.688      1.914      1.034      1.21903    2.777      0.122858   0.122858   0.3210836  0.5281847  0.9123036  1.867      0          0.3825721  80.058     0.6006837  0.6735821  0.5277854 
1173.6     0.25       427        -9999      -9999      10.45999   1.821      1.7        1.593      0.994      1.216353   2.945      0.1240829  0.1240829  0.3216289  0.556512   0.954619   1.872      0          0.3862589  80.492     0.5986242  0.6612265  0.536022  
1173.8     0.249      427        -9999      -9999      10.41043   1.637      1.621      1.904      1.005      1.21607    3.129      0.1257174  0.1257174  0.3216866  0.5966919  1.006209   1.872      0          0.3967617  80.798     0.5938458  0.6471671  0.5405244 
1174       0.247      425        -9999      -9999      10.34139   1.612      1.591      1.728      1.06       1.216389   3.221      0.1293154  0.1293154  0.3216215  0.6956537  1.082748   1.885      0.02737104 0.4049429  80.849     0.5827458  0.6280807  0.537411  
1174.2     0.241      422        -9999      -9999      10.24251   1.617      1.591      1.855      1.1        1.215423   2.848      0.1408324  0.1408324  0.3218183  1.136885   1.202612   1.898      0.09993142 0.4256963  79.535     0.5484419  0.6017225  0.4951613 
1174.4     0.236      414        -9999      -9999      10.10432   1.53       1.604      1.178      1.197      1.21661    2.624      0.1585474  0.1585474  0.3215765  2.420137   1.392696   1.931      0.1947205  0.4554889  76.411     0.4940278  0.5667256  0.42133   
1174.6     0.227      404        -9999      -9999      9.906259   1.433      1.548      1.127      1.26       1.227567   2.619      0.1695921  0.1695921  0.3193446  3.876273   1.718702   1.979      0.2492932  0.4738198  74.677     0.4537955  0.5200844  0.3875065 
1174.8     0.223      389        -9999      -9999      9.620368   1.433      1.519      1.15       1.263      1.254128   2.567      0.1774657  0.1774657  0.313934   5.423167   2.32835    2.058      0.29152    0.4879228  73.491     0.4135405  0.4594477  0.3676332 
