~Version
 VERS              .         2.0                           : CWLS LOG ASCII STANDARD - VERSION 2.0
 WRAP              .         YES                            : ONE LINE PER DEPTH STEP
 DLM               .         SPACE                         : DELIMITING CHARACTER(SPACE TAB OR COMMA)
~Well Information
#_______________________________________________________________________________
#
#PARAMETER_NAME    .UNIT     VALUE                         : DESCRIPTION
#_______________________________________________________________________________
STRT               .м        900                           : First reference value
STOP               .м        1180                          : Last reference value
STEP               .м        0.2                           : Step increment
NULL               .         -9999                         : Missing value
COMP               .                                       : Company
WELL               .         5206                          : Well name
FLD                .         Узень                         : Field
LOC                .                                       : Location
CNTY               .                                       : County
STAT               .                                       : State
CTRY               .                                       : Country
SRVC               .                                       : Service Company
DATE               .         01.01.1983                    : Date
UWI                .                                       : Unique Well ID
Block              .         7                             : 
Cartographic_reference_system .         GCS_WGS_1984                  : ESRI,PE_10_3_1- <?xml version="1.0" encoding="utf-16"?><ILateBoundCoordinateReferenceSystem name="GCS_WGS_1984"><AuthorityCode>EPSG,4326</AuthorityCode></ILateBoundCoordinateReferenceSystem>
Category           .         Нефтяная                      : 
Condition          .         В работе                      : 
EREF               .m        94.5                          : 100.8
Gorizont           .         13                            : 14
HZCS               .GCS_WGS_1984 WGS_1984_EASE-Grid_2.0_Global : ESRI,PE_10_3_1- <?xml version="1.0" encoding="utf-16"?><ILateBoundCoordinateReferenceSystem name="WGS_1984_EASE-Grid_2.0_Global"><AuthorityCode>EPSG,6933</AuthorityCode></ILateBoundCoordinateReferenceSystem>
Interpretator      .         Сагынбаева А.Н.               : 
Kupol              .         основной                      : osnovnoi
LATI               .dega     0.6646091932                  : GCS_WGS_1984
LONG               .dega     0.4366071517                  : GCS_WGS_1984
Mud                .         глинистый                     : 
Mud_density        .         0                             : 
Mud_resistivity    .         0                             : 
NGDU               .         НГДУ-2                        : 
ORIGINALWELLNAME   .         5206                          : 
Spud_date          .         1982                          : 1961
Viscosity          .         40                            : 
X                  .m        42126.6                       : 46154
Y                  .m        84784.53                      : 85761.93
YEAR               .         2019                          : 
~Parameter Information Block
#_______________________________________________________________________________
#
#PARAMETER_NAME    .UNIT     VALUE                         : DESCRIPTION
#_______________________________________________________________________________
SET                .         LQC_KAZNIPI_Petrel            : 
TLFamily_CALI      .         Caliper                       : 
TLFamily_CILD      .         Conductivity                  : 
TLFamily_COLL      .         Net Reservoir Flag            : 
TLFamily_CSAT      .         Fluid Code                    : 
TLFamily_DEPT      .         Measured Depth                : 
TLFamily_GR        .         Russian Gamma Ray             : 
TLFamily_LLS       .         Lateral Log Resistivity       : 
TLFamily_MINV      .         Micro Gradient Resistivity    : 
TLFamily_MNOR      .         Micro Resistivity             : 
TLFamily_NGLD      .         Neutron Gamma                 : 
TLFamily_PHIE      .         Effective Porosity            : 
TLFamily_PHIEN     .         Effective Porosity            : 
TLFamily_PHIT      .         Porosity                      : 
TLFamily_PRMB      .         Permeability                  : 
TLFamily_PRMB_DGR  .         Permeability                  : 
TLFamily_RT        .         Formation Resistivity         : 
TLFamily_SOIL_ARCHIE .         Oil Saturation                : 
TLFamily_SOIL_DW   .         Oil Saturation                : 
TLFamily_SP        .         Spontaneous Potential         : 
TLFamily_VSH_FIN   .         Shale Volume                  : 
TLFamily_VSH_GR    .         Shale Volume                  : 
TLFamily_VSH_SP    .         Shale Volume                  : 
~Curve Information
#_______________________________________________________________________________
#
#LOGNAME           .UNIT     LOG_ID                        : DESCRIPTION
#_______________________________________________________________________________
DEPT               .м                                      : Колонка глубины 
CALI               .м                                      : Каверномер 
CILD               .мСм/м                                  : Индукционный каротаж 
COLL               .unitless                               : Описание 
CSAT               .unitless                               :  
GR                 .uR/h                                   : Гамма каротаж 
LLS                .Ohmm                                   : Боковой каротаж 
MINV               .Ohmm                                   : Микро-градиент зонд 
MNOR               .Ohmm                                   : Микро-потенциал зонд 
NGLD               .у.е.                                   : Показания зонда НГК-60 аппаратуры ДРСТ-3-90 
PHIE               .v/v                                    : Описание 
PHIEN              .v/v                                    :  
PHIT               .v/v                                    : Описание 
PRMB               .mD                                     :  
PRMB_DGR           .mD                                     :  
RT                 .ohmm                                   : УЭС пласта 
SOIL_ARCHIE        .v/v                                    :  
SOIL_DW            .v/v                                    :  
SP                 .мВ                                     : Потенциал самополяризации 
VSH_FIN            .v/v                                    : Описание 
VSH_GR             .v/v                                    : Shale volume 
VSH_SP             .v/v                                    : Shale Volume 
~Ascii
# ...
1136.8     
  0.204      123.19     1          2          7.069259   7.087      
  2.68       2.934      1.196098   0.2053023  0.2053023  0.2495255  
  17.77686   60.93797   8.118      0.6676348  0.7180134  35.433     
  0.1340095  0.1211392  0.1468798 
1137       
  0.205      123.19     1          2          7.191822   6.984      
  2.541      2.858      1.190197   0.2083047  0.2083047  0.2541623  
  20.20535   51.69133   8.118      0.671811   0.722702   35.687     
  0.1389625  0.1295593  0.1483657 
1137.2     
  0.205      124.46     1          2          7.394647   7.035      
  2.579      2.87       1.185185   0.2097283  0.2097283  0.2581004  
  21.47013   39.36799   8.035      0.6721749  0.7245319  35.687     
  0.1465821  0.1447985  0.1483657 
1137.4     
  0.205      123.19     1          2          7.61198    7.138      
  2.414      2.845      1.179667   0.2110399  0.2110399  0.2624355  
  22.70539   29.40416   8.118      0.6755188  0.7292841  35.687     
  0.1557441  0.1631225  0.1483657 
1137.6     
  0.205      123.19     1          2          7.781084   7.087      
  2.35       2.731      1.171303   0.2149969  0.2149969  0.2690072  
  26.87952   23.43143   8.118      0.6807263  0.7352121  35.687     
  0.1636677  0.1789698  0.1483657 
1137.8     
  0.205      123.19     1          2          7.871535   7.138      
  2.248      2.578      1.158874   0.2232613  0.2232613  0.278773   
  38.23838   20.75171   8.118      0.6910446  0.7447094  35.687     
  0.1682173  0.188069   0.1483657 
1138       
  0.205      123.19     1          2          7.885764   7.138      
  2.248      2.476      1.144337   0.2344394  0.2344394  0.2901942  
  61.59496   20.35901   8.118      0.7039149  0.7556542  35.687     
  0.1689538  0.1895419  0.1483657 
1138.2     
  0.205      123.19     1          2          7.841084   7.035      
  2.299      2.464      1.132277   0.2447959  0.2447959  0.2996701  
  95.80133   21.61777   8.118      0.714855   0.7644857  35.56      
  0.1662857  0.1849551  0.1476162 
1138.4     
  0.205      123.19     1          2          7.757525   6.984      
  2.286      2.54       1.12702    0.250293   0.250293   0.3038008  
  121.1135   24.18448   8.118      0.7203172  0.7685224  35.56      
  0.1621446  0.1766729  0.1476162 
1138.6     
  0.205      121.92     1          2          7.660252   6.933      
  2.401      2.565      1.130284   0.2492419  0.2492419  0.3012356  
  115.8036   27.5588    8.202      0.7206429  0.7681689  35.56      
  0.1575568  0.1674973  0.1476162 
1138.8     
  0.205      121.92     1          2          7.577633   6.984      
  2.248      2.603      1.140962   0.2419525  0.2419525  0.292846   
  84.86054   30.79198   8.202      0.7133268  0.7613823  35.687     
  0.1542225  0.1600794  0.1483657 
1139       
  0.205      120.65     1          2          7.525164   7.035      
  2.49       2.654      1.155656   0.2311564  0.2311564  0.2813008  
  53.54702   33.03959   8.288      0.7031567  0.7523137  35.687     
  0.1519528  0.1555398  0.1483657 
1139.2     
  0.205      119.38     1          2          7.502341   7.138      
  2.35       2.807      1.168949   0.2210312  0.2210312  0.2708565  
  34.769     34.06772   8.377      0.692891   0.7433802  35.687     
  0.1509857  0.1536057  0.1483657 
1139.4     
  0.205      114.3      1          2          7.503033   7.244      
  2.147      2.654      1.175049   0.216229   0.216229   0.2660639  
  28.32977   34.03609   8.749      0.6932771  0.7439278  35.687     
  0.1510148  0.153664   0.1483657 
1139.6     
  0.205      113.03     1          2          7.518363   7.351      
  2.248      2.476      1.171431   0.2188581  0.2188581  0.268907   
  31.69134   33.34264   8.847      0.6980711  0.7481971  35.687     
  0.1516633  0.154961   0.1483657 
1139.8     
  0.205      110.49     1          2          7.530631   7.513      
  2.236      2.565      1.161059   0.2268347  0.2268347  0.2770561  
  44.53344   32.79792   9.051      0.7104536  0.758979   35.687     
  0.1521862  0.1560068  0.1483657 
1140       
  0.205      110.49     1          2          7.511921   7.68       
  2.337      2.781      1.150475   0.2355365  0.2355365  0.2853716  
  64.54539   33.63233   9.051      0.7197928  0.7667991  35.56      
  0.1510154  0.1544146  0.1476162 
1140.2     
  0.205      111.76     1          2          7.436167   8.392      
  2.858      3.162      1.145326   0.2406189  0.2406189  0.2894174  
  80.16852   37.2333    8.948      0.7234736  0.7694498  35.56      
  0.1478744  0.1481325  0.1476162 
1140.4     
  0.206      113.03     1          2          7.305264   9.287      
  2.744      3.213      1.1469     0.2410746  0.2410746  0.2881804  
  81.74199   44.388     8.847      0.7224544  0.7677506  35.56      
  0.1427449  0.1378735  0.1476162 
1140.6     
  0.206      114.3      1          2          7.161493   9.086      
  2.185      2.705      1.152589   0.2383297  0.2383297  0.2837111  
  72.7114    53.83979   8.749      0.7182032  0.7631943  35.56      
  0.1375195  0.1274227  0.1476162 
1140.8     
  0.207      116.84     1          2          7.053767   8.203      
  2.426      2.769      1.159494   0.2341098  0.2341098  0.2782854  
  60.73516   62.21885   8.559      0.7108203  0.7560619  35.56      
  0.1338654  0.1201147  0.1476162 
1141       
  0.205      119.38     1          2          6.992601   7.458      
  1.74       2.527      1.166411   0.2294504  0.2294504  0.2728508  
  49.78929   67.54451   8.377      0.7027291  0.7484743  35.433     
  0.1315165  0.1161533  0.1468798 
1141.2     
  0.205      121.92     1          2          6.959036   7.138      
  2.185      2.692      1.172721   0.2248422  0.2248422  0.2678932  
  40.90543   70.65823   8.202      0.6944172  0.7408867  35.433     
  0.1304576  0.1140353  0.1468798 
1141.4     
  0.205      123.19     1          2          6.947551   6.933      
  2.02       2.35       1.176935   0.2217683  0.2217683  0.2645818  
  35.87944   71.75635   8.118      0.6892339  0.7361414  35.306     
  0.1297379  0.1133195  0.1461563 
1141.6     
  0.205      124.46     1          2          6.972116   6.783      
  2.083      2.286      1.1773     0.2212282  0.2212282  0.2642952  
  35.06232   69.42809   8.035      0.6870676  0.734342   35.306     
  0.1305062  0.1148561  0.1461563 
1141.8     
  0.205      127        1          2          7.035725   6.684      
  2.261      2.527      1.172996   0.2240548  0.2240548  0.2676771  
  39.5545    63.74456   7.874      0.6875552  0.7350282  35.179     
  0.1321889  0.1189323  0.1454454 
1142       
  0.205      128.27     1          2          7.121726   6.492      
  2.363      2.553      1.164995   0.2295088  0.2295088  0.2739634  
  49.91345   56.79277   7.796      0.6925992  0.7399086  35.052     
  0.1347109  0.1246745  0.1447472 
1142.2     
  0.205      132.08     1          2          7.211838   6.123      
  2.236      2.832      1.156198   0.2356029  0.2356029  0.2808751  
  64.72856   50.32054   7.571      0.6953784  0.7427077  34.798     
  0.1371884  0.130989   0.1433879 
1142.4     
  0.205      133.35     1          2          7.291329   5.86       
  1.639      2.121      1.149622   0.2399163  0.2399163  0.2860421  
  77.80175   45.22636   7.499      0.6988063  0.7461361  34.671     
  0.1397753  0.1368241  0.1427266 
1142.6     
  0.205      134.62     1          2          7.340404   5.691      
  2.033      1.918      1.145931   0.2422007  0.2422007  0.2889423  
  85.7637    42.34231   7.428      0.6999456  0.7474205  34.671     
  0.141641   0.1405555  0.1427266 
1142.8     
  0.205      133.35     1          2          7.343152   5.733      
  2.236      2.286      1.143272   0.2443622  0.2443622  0.2910315  
  94.04552   42.18633   7.499      0.7035847  0.7506013  34.544     
  0.1414223  0.1407675  0.1420772 
1143       
  0.205      133.35     1          2          7.307281   6.034      
  2.363      2.375      1.1398     0.2477503  0.2477503  0.2937589  
  108.6662   44.26792   7.499      0.7071183  0.753382   34.29      
  0.13942    0.1380261  0.1408139 
