~Version
 VERS              .         2.0                           : CWLS LOG ASCII STANDARD - VERSION 2.0
 WRAP              .         YES                            : ONE LINE PER DEPTH STEP
 DLM               .         SPACE                         : DELIMITING CHARACTER(SPACE TAB OR COMMA)
~Well Information
#_______________________________________________________________________________
#
#PARAMETER_NAME    .UNIT     VALUE                         : DESCRIPTION
#_______________________________________________________________________________
STRT               .м        900                           : First reference value
STOP               .м        1180                          : Last reference value
STEP               .м        0.2                           : Step increment
NULL               .         -9999                         : Missing value
COMP               .                                       : Company
WELL               .         5206                          : Well name
FLD                .         Узень                         : Field
LOC                .                                       : Location
CNTY               .                                       : County
STAT               .                                       : State
CTRY               .                                       : Country
SRVC               .                                       : Service Company
DATE               .         01.01.1983                    : Date
UWI                .                                       : Unique Well ID
Block              .         7                             : 
Cartographic_reference_system .         GCS_WGS_1984                  : ESRI,PE_10_3_1- <?xml version="1.0" encoding="utf-16"?><ILateBoundCoordinateReferenceSystem name="GCS_WGS_1984"><AuthorityCode>EPSG,4326</AuthorityCode></ILateBoundCoordinateReferenceSystem>
Category           .         Нефтяная                      : 
Condition          .         В работе                      : 
EREF               .m        94.5                          : 100.8
Gorizont           .         13                            : 14
HZCS               .GCS_WGS_1984 WGS_1984_EASE-Grid_2.0_Global : ESRI,PE_10_3_1- <?xml version="1.0" encoding="utf-16"?><ILateBoundCoordinateReferenceSystem name="WGS_1984_EASE-Grid_2.0_Global"><AuthorityCode>EPSG,6933</AuthorityCode></ILateBoundCoordinateReferenceSystem>
Interpretator      .         Сагынбаева А.Н.               : 
Kupol              .         основной                      : osnovnoi
LATI               .dega     0.6646091932                  : GCS_WGS_1984
LONG               .dega     0.4366071517                  : GCS_WGS_1984
Mud                .         глинистый                     : 
Mud_density        .         0                             : 
Mud_resistivity    .         0                             : 
NGDU               .         НГДУ-2                        : 
ORIGINALWELLNAME   .         5206                          : 
Spud_date          .         1982                          : 1961
Viscosity          .         40                            : 
X                  .m        42126.6                       : 46154
Y                  .m        84784.53                      : 85761.93
YEAR               .         2019                          : 
~Parameter Information Block
#_______________________________________________________________________________
#
#PARAMETER_NAME    .UNIT     VALUE                         : DESCRIPTION
#_______________________________________________________________________________
SET                .         LQC_KAZNIPI_Petrel            : 
TLFamily_CALI      .         Caliper                       : 
TLFamily_CILD      .         Conductivity                  : 
TLFamily_COLL      .         Net Reservoir Flag            : 
TLFamily_CSAT      .         Fluid Code                    : 
TLFamily_DEPT      .         Measured Depth                : 
TLFamily_GR        .         Russian Gamma Ray             : 
TLFamily_LLS       .         Lateral Log Resistivity       : 
TLFamily_MINV      .         Micro Gradient Resistivity    : 
TLFamily_MNOR      .         Micro Resistivity             : 
TLFamily_NGLD      .         Neutron Gamma                 : 
TLFamily_PHIE      .         Effective Porosity            : 
TLFamily_PHIEN     .         Effective Porosity            : 
TLFamily_PHIT      .         Porosity                      : 
TLFamily_PRMB      .         Permeability                  : 
TLFamily_PRMB_DGR  .         Permeability                  : 
TLFamily_RT        .         Formation Resistivity         : 
TLFamily_SOIL_ARCHIE .         Oil Saturation                : 
TLFamily_SOIL_DW   .         Oil Saturation                : 
TLFamily_SP        .         Spontaneous Potential         : 
TLFamily_VSH_FIN   .         Shale Volume                  : 
TLFamily_VSH_GR    .         Shale Volume                  : 
TLFamily_VSH_SP    .         Shale Volume                  : 
~Curve Information
#_______________________________________________________________________________
#
#LOGNAME           .UNIT     LOG_ID                        : DESCRIPTION
#_______________________________________________________________________________
DEPT               .м                                      : Колонка глубины 
CALI               .м                                      : Каверномер 
CILD               .мСм/м                                  : Индукционный каротаж 
COLL               .unitless                               : Описание 
CSAT               .unitless                               :  
GR                 .uR/h                                   : Гамма каротаж 
LLS                .Ohmm                                   : Боковой каротаж 
MINV               .Ohmm                                   : Микро-градиент зонд 
MNOR               .Ohmm                                   : Микро-потенциал зонд 
NGLD               .у.е.                                   : Показания зонда НГК-60 аппаратуры ДРСТ-3-90 
PHIE               .v/v                                    : Описание 
PHIEN              .v/v                                    :  
PHIT               .v/v                                    : Описание 
PRMB               .mD                                     :  
PRMB_DGR           .mD                                     :  
RT                 .ohmm                                   : УЭС пласта 
SOIL_ARCHIE        .v/v                                    :  
SOIL_DW            .v/v                                    :  
SP                 .мВ                                     : Потенциал самополяризации 
VSH_FIN            .v/v                                    : Описание 
VSH_GR             .v/v                                    : Shale volume 
VSH_SP             .v/v                                    : Shale Volume 
~Ascii
# ...
1066.4     
  0.245      425.45     -9999      -9999      8.409134   2.2        
  0.737      0.927      1.014694   0.1951659  0.1951659  0.3920549  
  11.53728   1.314101   2.35       0.3785442  0.5912841  57.912     
  0.5966336  0.5803287  0.6129384 
1066.6     
  0.245      424.18     -9999      -9999      8.518085   2.184      
  0.636      0.965      1.015235   0.190156   0.190156   0.39163    
  9.3177     1.171883   2.357      0.3651948  0.5875322  57.912     
  0.6105272  0.608116   0.6129384 
1066.8     
  0.245      422.91     -9999      -9999      8.606028   2.216      
  0.674      0.94       1.014154   0.1853831  0.1853831  0.3924792  
  7.601546   1.068393   2.365      0.3520145  0.584786   58.166     
  0.6275642  0.6315131  0.6236154 
1067       
  0.244      427.99     -9999      -9999      8.657106   2.265      
  0.623      0.826      1.009975   0.1854659  0.1854659  0.3957627  
  7.628464   1.012534   2.337      0.3486364  0.5845323  58.293     
  0.6372629  0.6455135  0.6290123 
1067.2     
  0.247      429.26     -9999      -9999      8.679781   2.315      
  0.953      0.991      1.004508   0.1869192  0.1869192  0.4000582  
  8.116228   0.988682   2.33       0.3521379  0.5879104  58.547     
  0.6458758  0.6518275  0.639924  
1067.4     
  0.254      424.18     -9999      -9999      8.689715   2.35       
  0.737      0.927      1.000718   0.1876105  0.1876105  0.4030356  
  8.359095   0.9784098  2.357      0.3576997  0.5927314  58.801     
  0.6528034  0.6546133  0.6509935 
1067.6     
  0.254      417.83     -9999      -9999      8.697007   2.367      
  0.686      0.952      1.000494   0.1874484  0.1874484  0.4032121  
  8.301511   0.9709377  2.393      0.361772   0.5957846  58.801     
  0.6538295  0.6566656  0.6509935 
1067.8     
  0.256      411.48     -9999      -9999      8.703328   2.385      
  0.699      1.245      1.004154   0.1824256  0.1824256  0.4003365  
  6.700741   0.964507   2.43       0.3511825  0.5929356  59.055     
  0.6603361  0.6584499  0.6622222 
1068       
  0.254      406.4      -9999      -9999      8.704151   2.402      
  0.699      1.041      1.010509   0.1755149  0.1755149  0.3953434  
  4.990217   0.9636728  2.461      0.3329681  0.5863786  59.309     
  0.6661469  0.6586826  0.6736111 
1068.2     
  0.241      402.59     -9999      -9999      8.69289    2.437      
  0.813      0.914      1.017155   0.168911   0.168911   0.3901212  
  3.765301   0.9751498  2.484      0.3133153  0.5788774  59.563     
  0.6703339  0.6555061  0.6851616 
1068.4     
  0.243      396.24     -9999      -9999      8.673104   2.491      
  0.89       1.156      1.021334   0.1636333  0.1636333  0.3868378  
  3.006374   0.9956463  2.524      0.2993373  0.5750356  59.944     
  0.6763772  0.6499619  0.7027926 
1068.6     
  0.243      389.89     -9999      -9999      8.664936   2.491      
  0.902      1.46       1.021375   0.1639767  0.1639767  0.3868058  
  3.050736   1.004233   2.565      0.3058841  0.5787497  59.944     
  0.6752397  0.6476868  0.7027926 
1068.8     
  0.244      316.76     -9999      -9999      8.691312   2.473      
  0.877      1.283      1.017643   0.1637189  0.1637189  0.3897382  
  3.017374   0.976769   -9999      -9999      -9999      60.198     
  0.684907   0.6550621  0.7147518 
1069       
  0.245      305.028    -9999      -9999      8.75638    2.402      
  0.813      1.232      1.0123     0.1628543  0.1628543  0.3939359  
  2.908138   0.9121851  -9999      -9999      -9999      60.452     
  0.7002472  0.6736178  0.7268764 
1069.2     
  0.243      293.296    -9999      -9999      8.835151   2.385      
  0.788      1.27       1.007859   0.1604925  0.1604925  0.3974249  
  2.629475   0.8396876  2.461      0.2789074  0.5739123  60.706     
  0.7179769  0.6967859  0.739168  
1069.4     
  0.23       293.296    -9999      -9999      8.893687   2.402      
  0.75       1.194      1.005814   0.1591736  0.1591736  0.3990317  
  2.485649   0.789571   2.461      0.2737062  0.5737275  60.706     
  0.7268426  0.7145173  0.739168  
1069.6     
  0.23       293.296    -9999      -9999      8.922269   2.437      
  1.029      1.283      1.007298   0.1565528  0.1565528  0.3978663  
  2.222778   0.7661985  2.461      0.263128   0.5703548  60.706     
  0.7312531  0.7233382  0.739168  
1069.8     
  0.233      293.296    -9999      -9999      8.943831   2.473      
  1.334      1.422      1.014067   0.1490997  0.1490997  0.3925475  
  1.617506   0.7490247  2.461      0.2311485  0.558962   60.833     
  0.7377207  0.7300649  0.7453765 
1070       
  0.229      336.313    -9999      -9999      8.980004   2.491      
  0.801      0.991      1.026257   0.1386614  0.1386614  0.38297    
  1.036344   0.7210752  2.461      0.1809775  0.5401675  60.706     
  0.7403291  0.7414902  0.739168  
1070.2     
  0.243      336.313    -9999      -9999      9.015827   2.509      
  1.156      1.168      1.040144   0.1268717  0.1268717  0.3720588  
  0.6268008  0.6944235  2.461      0.1150745  0.5166423  60.579     
  0.7429912  0.7529812  0.7330012 
1070.4     
  0.241      340.223    -9999      -9999      9.008872   2.491      
  1.474      1.105      1.050325   0.121257   0.121257   0.3640594  
  0.4933242  0.6995198  2.461      0.0794917  0.5019875  60.325     
  0.7357649  0.7507364  0.7207934 
1070.6     
  0.241      355.866    -9999      -9999      8.935632   2.491      
  1.664      1.016      1.054588   0.1217415  0.1217415  0.3607099  
  0.5036241  0.7555097  2.461      0.08268313 0.4996529  60.325     
  0.7241465  0.7274996  0.7207934 
1070.8     
  0.245      355.866    -9999      -9999      8.823114   2.509      
  1.537      1.029      1.055459   0.1296882  0.1296882  0.3600261  
  0.7068027  0.8503806  2.461      0.1318365  0.509978   59.944     
  0.6979937  0.6931949  0.7027926 
1071       
  0.245      406.4      -9999      -9999      8.73099    2.546      
  1.524      0.876      1.057939   0.1350837  0.1350837  0.3580775  
  0.889685   0.9368618  2.461      0.1621169  0.5153259  59.563     
  0.6757386  0.6663157  0.6851616 
1071.2     
  0.226      397.51     -9999      -9999      8.699529   2.622      
  1.651      0.914      1.066428   0.1346036  0.1346036  0.3514077  
  0.8716514  0.9683673  2.516      0.1681868  0.5142142  58.928     
  0.6569824  0.6573768  0.656588  
1071.4     
  0.219      365.76     -9999      -9999      8.716143   2.699      
  1.613      1.206      1.082272   0.125928   0.125928   0.3389586  
  0.602074   0.9516003  2.734      0.1522036  0.5115628  58.293     
  0.6455472  0.6620821  0.6290123 
1071.6     
  0.219      340.36     -9999      -9999      8.734853   2.821      
  2.655      1.359      1.10254    0.1091226  0.1091226  0.3230341  
  0.2940172  0.9330647  2.938      0.07144961 0.4888156  58.293     
  0.6482168  0.6674214  0.6290123 
1071.8     
  0.219      344.17     -9999      -9999      8.721403   2.991      
  2.401      2.007      1.12112    0.0969331  0.0969331  0.3084361  
  0.1748213  0.9463519  2.906      0          0.4482207  58.039     
  0.6409183  0.6635789  0.6182575 
1072       
  0.215      351.79     -9999      -9999      8.679367   3.194      
  2.134      1.867      1.131645   0.0914991  0.0914991  0.3001664  
  0.1386575  0.9891121  2.843      0          0.4208558  57.912     
  0.6323251  0.6517117  0.6129384 
1072.2     
  0.226      358.14     -9999      -9999      8.644595   3.194      
  2.007      1.283      1.131217   0.09166669 0.09166669 0.3005024  
  0.1396521  1.025939   2.792      0          0.4163828  58.166     
  0.6328356  0.6420557  0.6236154 
1072.4     
  0.228      360.68     -9999      -9999      8.648738   2.883      
  1.829      1.346      1.122277   0.09671538 0.09671538 0.3075271  
  0.1732054  1.021481   2.773      0          0.4336084  58.42      
  0.6388235  0.6431986  0.6344483 
1072.6     
  0.228      354.33     -9999      -9999      8.687593   2.661      
  1.766      1.219      1.111337   0.1035259  0.1035259  0.3161227  
  0.2315844  0.9805946  2.822      0.009328041 0.4612888  58.42      
  0.6442328  0.6540173  0.6344483 
