~Version
 VERS              .         2.0                           : CWLS LOG ASCII STANDARD - VERSION 2.0
 WRAP              .         YES                            : ONE LINE PER DEPTH STEP
 DLM               .         SPACE                         : DELIMITING CHARACTER(SPACE TAB OR COMMA)
~Well Information
#_______________________________________________________________________________
#
#PARAMETER_NAME    .UNIT     VALUE                         : DESCRIPTION
#_______________________________________________________________________________
STRT               .м        900                           : First reference value
STOP               .м        1180                          : Last reference value
STEP               .м        0.2                           : Step increment
NULL               .         -9999                         : Missing value
COMP               .                                       : Company
WELL               .         5206                          : Well name
FLD                .         Узень                         : Field
LOC                .                                       : Location
CNTY               .                                       : County
STAT               .                                       : State
CTRY               .                                       : Country
SRVC               .                                       : Service Company
DATE               .         01.01.1983                    : Date
UWI                .                                       : Unique Well ID
Block              .         7                             : 
Cartographic_reference_system .         GCS_WGS_1984                  : ESRI,PE_10_3_1- <?xml version="1.0" encoding="utf-16"?><ILateBoundCoordinateReferenceSystem name="GCS_WGS_1984"><AuthorityCode>EPSG,4326</AuthorityCode></ILateBoundCoordinateReferenceSystem>
Category           .         Нефтяная                      : 
Condition          .         В работе                      : 
EREF               .m        94.5                          : 100.8
Gorizont           .         13                            : 14
HZCS               .GCS_WGS_1984 WGS_1984_EASE-Grid_2.0_Global : ESRI,PE_10_3_1- <?xml version="1.0" encoding="utf-16"?><ILateBoundCoordinateReferenceSystem name="WGS_1984_EASE-Grid_2.0_Global"><AuthorityCode>EPSG,6933</AuthorityCode></ILateBoundCoordinateReferenceSystem>
Interpretator      .         Сагынбаева А.Н.               : 
Kupol              .         основной                      : osnovnoi
LATI               .dega     0.6646091932                  : GCS_WGS_1984
LONG               .dega     0.4366071517                  : GCS_WGS_1984
Mud                .         глинистый                     : 
Mud_density        .         0                             : 
Mud_resistivity    .         0                             : 
NGDU               .         НГДУ-2                        : 
ORIGINALWELLNAME   .         5206                          : 
Spud_date          .         1982                          : 1961
Viscosity          .         40                            : 
X                  .m        42126.6                       : 46154
Y                  .m        84784.53                      : 85761.93
YEAR               .         2019                          : 
~Parameter Information Block
#_______________________________________________________________________________
#
#PARAMETER_NAME    .UNIT     VALUE                         : DESCRIPTION
#_______________________________________________________________________________
SET                .         LQC_KAZNIPI_Petrel            : 
TLFamily_CALI      .         Caliper                       : 
TLFamily_CILD      .         Conductivity                  : 
TLFamily_COLL      .         Net Reservoir Flag            : 
TLFamily_CSAT      .         Fluid Code                    : 
TLFamily_DEPT      .         Measured Depth                : 
TLFamily_GR        .         Russian Gamma Ray             : 
TLFamily_LLS       .         Lateral Log Resistivity       : 
TLFamily_MINV      .         Micro Gradient Resistivity    : 
TLFamily_MNOR      .         Micro Resistivity             : 
TLFamily_NGLD      .         Neutron Gamma                 : 
TLFamily_PHIE      .         Effective Porosity            : 
TLFamily_PHIEN     .         Effective Porosity            : 
TLFamily_PHIT      .         Porosity                      : 
TLFamily_PRMB      .         Permeability                  : 
TLFamily_PRMB_DGR  .         Permeability                  : 
TLFamily_RT        .         Formation Resistivity         : 
TLFamily_SOIL_ARCHIE .         Oil Saturation                : 
TLFamily_SOIL_DW   .         Oil Saturation                : 
TLFamily_SP        .         Spontaneous Potential         : 
TLFamily_VSH_FIN   .         Shale Volume                  : 
TLFamily_VSH_GR    .         Shale Volume                  : 
TLFamily_VSH_SP    .         Shale Volume                  : 
~Curve Information
#_______________________________________________________________________________
#
#LOGNAME           .UNIT     LOG_ID                        : DESCRIPTION
#_______________________________________________________________________________
DEPT               .м                                      : Колонка глубины 
CALI               .м                                      : Каверномер 
CILD               .мСм/м                                  : Индукционный каротаж 
COLL               .unitless                               : Описание 
CSAT               .unitless                               :  
GR                 .uR/h                                   : Гамма каротаж 
LLS                .Ohmm                                   : Боковой каротаж 
MINV               .Ohmm                                   : Микро-градиент зонд 
MNOR               .Ohmm                                   : Микро-потенциал зонд 
NGLD               .у.е.                                   : Показания зонда НГК-60 аппаратуры ДРСТ-3-90 
PHIE               .v/v                                    : Описание 
PHIEN              .v/v                                    :  
PHIT               .v/v                                    : Описание 
PRMB               .mD                                     :  
PRMB_DGR           .mD                                     :  
RT                 .ohmm                                   : УЭС пласта 
SOIL_ARCHIE        .v/v                                    :  
SOIL_DW            .v/v                                    :  
SP                 .мВ                                     : Потенциал самополяризации 
VSH_FIN            .v/v                                    : Описание 
VSH_GR             .v/v                                    : Shale volume 
VSH_SP             .v/v                                    : Shale Volume 
~Ascii
# ...
938.4      
  0.208      128.27     -9999      -9999      5.343153   6.397      
  3.404      3.785      1.413791   0.01       0          0.07848474 
  0.004289259 3.269721   7.796      0          0          62.611     
  0.5266421  0.3999652  0.6533189 
938.6      
  0.208      130.81     -9999      -9999      5.331729   6.258      
  3.531      3.632      1.432239   0.01       0          0.06398949 
  0.004289259 3.325623   7.645      0          0          62.611     
  0.5252625  0.3972061  0.6533189 
938.8      
  0.208      142.24     -9999      -9999      5.288527   6.258      
  2.541      2.794      1.438024   0.01       0          0.05944479 
  0.004289259 3.545813   7.03       0          0          62.611     
  0.5201309  0.3869429  0.6533189 
939        
  0.208      147.32     -9999      -9999      5.243403   6.635      
  2.134      2.197      1.42916    0.01       0          0.06640871 
  0.004289259 3.791383   6.788      0          0          62.611     
  0.5149124  0.3765059  0.6533189 
939.2000000000001 
  0.208      137.16     -9999      -9999      5.219534   7.138      
  3.036      2.731      1.413475   0.01       0          0.07873304 
  0.004289259 3.928085   7.291      0          0          62.611     
  0.5122092  0.3710994  0.6533189 
939.4      
  0.207      134.62     -9999      -9999      5.2168     7.513      
  3.049      3.734      1.401802   0.01       0          0.08790449 
  0.004289259 3.944054   7.428      0          0          62.611     
  0.511902   0.3704851  0.6533189 
939.6      
  0.207      140.97     -9999      -9999      5.222484   7.68       
  2.045      2.134      1.398693   0.01       0          0.09034684 
  0.004289259 3.910928   7.094      0          0          62.611     
  0.5125411  0.3717633  0.6533189 
939.8      
  0.205      137.16     -9999      -9999      5.240283   6.733      
  1.118      1.295      1.399863   0.01       0          0.08942802 
  0.004289259 3.808981   7.291      0          0          62.611     
  0.5145568  0.3757946  0.6533189 
940        
  0.207      143.51     -9999      -9999      5.297843   6.539      
  2.642      3.81       1.396858   0.01       0          0.09178831 
  0.004289259 3.497135   6.968      0          0          62.611     
  0.521226   0.3891332  0.6533189 
940.2000000000001 
  0.208      166.37     -9999      -9999      5.417492   6.832      
  3.175      2.426      1.38137    0.01       0          0.1039575  
  0.004289259 2.928199   6.011      0          0          62.611     
  0.5358565  0.4183942  0.6533189 
940.4      
  0.208      182.88     -9999      -9999      5.59281    7.035      
  2.02       1.943      1.347864   0.01       0          0.1302836  
  0.004289259 2.257414   5.468      0          0          62.611     
  0.559304   0.4652891  0.6533189 
940.6      
  0.208      194.31     -9999      -9999      5.800802   6.882      
  2.083      1.524      1.298011   0.01       0          0.1694526  
  0.004289259 1.657923   5.146      0          0          62.611     
  0.590553   0.5277871  0.6533189 
940.8      
  0.208      203.2      -9999      -9999      6.018386   6.882      
  1.436      1.613      1.24372    0.01       0.005872745 0.2121091  
  0.004289259 1.200425   4.921      0          0.05440421 62.484     
  0.6249588  0.6021698  0.6477478 
941        
  0.208      210.82     -9999      -9999      6.20916    6.587      
  2.033      1.791      1.201338   0.0269964  0.0269964  0.2454089  
  0.00885517 0.9044501  4.743      0          0.2749059  62.484     
  0.661856   0.6759642  0.6477478 
941.2000000000001 
  0.208      215.9      -9999      -9999      6.317688   5.775      
  1.512      1.346      1.180145   0.03606622 0.03606622 0.2620601  
  0.01303743 0.7699103  4.632      0          0.3466604  62.484     
  0.6848301  0.7219123  0.6477478 
941.4      
  0.208      217.17     -9999      -9999      6.307117   5.026      
  2.147      2.426      1.177292   0.0390681  0.0390681  0.2643014  
  0.01481815 0.7820842  4.605      0          0.3615     62.484     
  0.6825252  0.7173024  0.6477478 
941.6      
  0.208      215.9      -9999      -9999      6.2006     4.342      
  2.706      1.994      1.183841   0.04132094 0.04132094 0.2591564  
  0.01631256 0.9160124  4.632      0          0.3630221  62.484     
  0.6601075  0.6724672  0.6477478 
941.8      
  0.209      215.9      -9999      -9999      6.063829   4.066      
  1.982      2.502      1.193203   0.04278982 0.04278982 0.2518002  
  0.01736718 1.122142   4.632      0          0.355237   62.484     
  0.6333649  0.618982   0.6477478 
942        
  0.209      220.98     -9999      -9999      5.952976   3.977      
  2.947      2.223      1.204113   0.0399335  0.0399335  0.243228   
  0.01537529 1.32279    4.525      0          0.3185199  62.611     
  0.616044   0.5787692  0.6533189 
942.2000000000001 
  0.207      222.25     -9999      -9999      5.890297   4.187      
  1.944      1.651      1.218155   0.03246014 0.03246014 0.2321957  
  0.01117889 1.45173    4.499      0          0.2546129  62.611     
  0.6052592  0.5571995  0.6533189 
942.4      
  0.209      213.36     -9999      -9999      5.874088   4.406      
  1.778      2.057      1.237352   0.0182752  0.0182752  0.2171122  
  0.006104627 1.487073   4.687      0          0.1313176  62.611     
  0.6025362  0.5517535  0.6533189 
942.6      
  0.209      199.39     -9999      -9999      5.886969   4.637      
  3.036      3.035      1.264369   0.01       0          0.1958849  
  0.004289259 1.458918   5.015      0          0          62.611     
  0.6046979  0.5560769  0.6533189 
942.8      
  0.21       182.88     -9999      -9999      5.897516   4.775      
  2.134      2.286      1.302466   0.01       0          0.1659524  
  0.004289259 1.436262   5.468      0          0          62.611     
  0.6064806  0.5596423  0.6533189 
943        
  0.208      170.18     -9999      -9999      5.874693   4.953      
  1.563      1.575      1.352263   0.01       0          0.1268273  
  0.004289259 1.485739   5.876      0          0          62.484     
  0.5998518  0.5519557  0.6477478 
943.2000000000001 
  0.208      158.75     -9999      -9999      5.808426   4.989      
  2.96       3.531      1.408389   0.01       0          0.08272878 
  0.004289259 1.639269   6.299      0          0          62.484     
  0.5889895  0.5302312  0.6477478 
943.4      
  0.208      144.78     -9999      -9999      5.711704   5.328      
  2.553      2.451      1.459406   0.01       0          0.04264507 
  0.004289259 1.892282   6.907      0          0          62.484     
  0.5738978  0.5000479  0.6477478 
943.6      
  0.208      144.78     -9999      -9999      5.606466   5.775      
  2.655      3.874      1.492024   0.01       0          0.01701679 
  0.004289259 2.212127   6.907      0          0          62.484     
  0.5584516  0.4691553  0.6477478 
943.8      
  0.208      152.4      -9999      -9999      5.50975    6.304      
  3.175      3.01       1.498051   0.01       0          0.01228167 
  0.004289259 2.553535   6.562      0          0          62.357     
  0.5423333  0.4424503  0.6422163 
944        
  0.208      158.75     -9999      -9999      5.430988   6.933      
  2.325      2.146      1.47965    0.01       0          0.02673907 
  0.004289259 2.870137   6.299      0          0          62.23      
  0.5292771  0.4218298  0.6367244 
944.2000000000001 
  0.208      154.94     -9999      -9999      5.374908   7.458      
  2.541      2.476      1.44878    0.01       0          0.05099332 
  0.004289259 3.11921    6.454      0          0          62.23      
  0.5222303  0.4077362  0.6367244 
944.4      
  0.207      148.59     -9999      -9999      5.344952   7.966      
  2.134      1.968      1.420985   0.01       0          0.07283238 
  0.004289259 3.261002   6.73       0          0          62.103     
  0.5158368  0.4004016  0.6312719 
944.6      
  0.207      142.24     -9999      -9999      5.331735   8.262      
  1.385      1.27       1.407567   0.01       0          0.08337478 
  0.004289259 3.325594   7.03       0          0          62.103     
  0.5142398  0.3972076  0.6312719 
