~Version
 VERS              .         2.0                           : CWLS LOG ASCII STANDARD - VERSION 2.0
 WRAP              .         YES                            : ONE LINE PER DEPTH STEP
 DLM               .         SPACE                         : DELIMITING CHARACTER(SPACE TAB OR COMMA)
~Well Information
#_______________________________________________________________________________
#
#PARAMETER_NAME    .UNIT     VALUE                         : DESCRIPTION
#_______________________________________________________________________________
STRT               .м        900                           : First reference value
STOP               .м        1180                          : Last reference value
STEP               .м        0.2                           : Step increment
NULL               .         -9999                         : Missing value
COMP               .                                       : Company
WELL               .         5206                          : Well name
FLD                .         Узень                         : Field
LOC                .                                       : Location
CNTY               .                                       : County
STAT               .                                       : State
CTRY               .                                       : Country
SRVC               .                                       : Service Company
DATE               .         01.01.1983                    : Date
UWI                .                                       : Unique Well ID
Block              .         7                             : 
Cartographic_reference_system .         GCS_WGS_1984                  : ESRI,PE_10_3_1- <?xml version="1.0" encoding="utf-16"?><ILateBoundCoordinateReferenceSystem name="GCS_WGS_1984"><AuthorityCode>EPSG,4326</AuthorityCode></ILateBoundCoordinateReferenceSystem>
Category           .         Нефтяная                      : 
Condition          .         В работе                      : 
EREF               .m        94.5                          : 100.8
Gorizont           .         13                            : 14
HZCS               .GCS_WGS_1984 WGS_1984_EASE-Grid_2.0_Global : ESRI,PE_10_3_1- <?xml version="1.0" encoding="utf-16"?><ILateBoundCoordinateReferenceSystem name="WGS_1984_EASE-Grid_2.0_Global"><AuthorityCode>EPSG,6933</AuthorityCode></ILateBoundCoordinateReferenceSystem>
Interpretator      .         Сагынбаева А.Н.               : 
Kupol              .         основной                      : osnovnoi
LATI               .dega     0.6646091932                  : GCS_WGS_1984
LONG               .dega     0.4366071517                  : GCS_WGS_1984
Mud                .         глинистый                     : 
Mud_density        .         0                             : 
Mud_resistivity    .         0                             : 
NGDU               .         НГДУ-2                        : 
ORIGINALWELLNAME   .         5206                          : 
Spud_date          .         1982                          : 1961
Viscosity          .         40                            : 
X                  .m        42126.6                       : 46154
Y                  .m        84784.53                      : 85761.93
YEAR               .         2019                          : 
~Parameter Information Block
#_______________________________________________________________________________
#
#PARAMETER_NAME    .UNIT     VALUE                         : DESCRIPTION
#_______________________________________________________________________________
SET                .         LQC_KAZNIPI_Petrel            : 
TLFamily_CALI      .         Caliper                       : 
TLFamily_CILD      .         Conductivity                  : 
TLFamily_COLL      .         Net Reservoir Flag            : 
TLFamily_CSAT      .         Fluid Code                    : 
TLFamily_DEPT      .         Measured Depth                : 
TLFamily_GR        .         Russian Gamma Ray             : 
TLFamily_LLS       .         Lateral Log Resistivity       : 
TLFamily_MINV      .         Micro Gradient Resistivity    : 
TLFamily_MNOR      .         Micro Resistivity             : 
TLFamily_NGLD      .         Neutron Gamma                 : 
TLFamily_PHIE      .         Effective Porosity            : 
TLFamily_PHIEN     .         Effective Porosity            : 
TLFamily_PHIT      .         Porosity                      : 
TLFamily_PRMB      .         Permeability                  : 
TLFamily_PRMB_DGR  .         Permeability                  : 
TLFamily_RT        .         Formation Resistivity         : 
TLFamily_SOIL_ARCHIE .         Oil Saturation                : 
TLFamily_SOIL_DW   .         Oil Saturation                : 
TLFamily_SP        .         Spontaneous Potential         : 
TLFamily_VSH_FIN   .         Shale Volume                  : 
TLFamily_VSH_GR    .         Shale Volume                  : 
TLFamily_VSH_SP    .         Shale Volume                  : 
~Curve Information
#_______________________________________________________________________________
#
#LOGNAME           .UNIT     LOG_ID                        : DESCRIPTION
#_______________________________________________________________________________
DEPT               .м                                      : Колонка глубины 
CALI               .м                                      : Каверномер 
CILD               .мСм/м                                  : Индукционный каротаж 
COLL               .unitless                               : Описание 
CSAT               .unitless                               :  
GR                 .uR/h                                   : Гамма каротаж 
LLS                .Ohmm                                   : Боковой каротаж 
MINV               .Ohmm                                   : Микро-градиент зонд 
MNOR               .Ohmm                                   : Микро-потенциал зонд 
NGLD               .у.е.                                   : Показания зонда НГК-60 аппаратуры ДРСТ-3-90 
PHIE               .v/v                                    : Описание 
PHIEN              .v/v                                    :  
PHIT               .v/v                                    : Описание 
PRMB               .mD                                     :  
PRMB_DGR           .mD                                     :  
RT                 .ohmm                                   : УЭС пласта 
SOIL_ARCHIE        .v/v                                    :  
SOIL_DW            .v/v                                    :  
SP                 .мВ                                     : Потенциал самополяризации 
VSH_FIN            .v/v                                    : Описание 
VSH_GR             .v/v                                    : Shale volume 
VSH_SP             .v/v                                    : Shale Volume 
~Ascii
# ...
1008.8     
  0.218      316.23     -9999      -9999      6.125056   3.125      
  1.918      2.172      1.141395   0.1359245  0.1359245  0.2925056  
  0.9221683  5.995405   3.162      0.2591045  0.5151891  62.23      
  0.4744881  0.3122518  0.6367244 
1009       
  0.217      308.61     -9999      -9999      5.961363   3.241      
  2.172      2.134      1.166001   0.1223415  0.1223415  0.2731728  
  0.5166777  7.291403   3.24       0.1971876  0.4799995  61.976     
  0.4570644  0.2882701  0.6258587 
1009.2     
  0.217      308.61     -9999      -9999      5.803517   3.362      
  2.909      1.93       1.185503   0.1123136  0.1123136  0.2578502  
  0.3368819  8.805788   3.24       0.1351063  0.443358   61.722     
  0.4410201  0.2668909  0.6151493 
1009.4     
  0.215      312.42     -9999      -9999      5.678551   3.289      
  2.337      2.057      1.191971   0.1124407  0.1124407  0.2527685  
  0.3387138  10.22477   3.201      0.1310341  0.4331792  61.341     
  0.4252358  0.2510955  0.599376  
1009.6     
  0.215      339.09     -9999      -9999      5.615252   3.079      
  2.325      2.489      1.179164   0.1237635  0.1237635  0.2628306  
  0.548982   11.02857   2.949      0.1693425  0.4440987  61.341     
  0.4214155  0.2434551  0.599376  
1009.8     
  0.228      381        -9999      -9999      5.630424   2.863      
  2.744      1.003      1.147358   0.1501585  0.1501585  0.2878209  
  1.692221   10.83034   2.625      0.2586586  0.482689   61.087     
  0.4171588  0.2452649  0.5890527 
1010       
  0.247      403.86     -9999      -9999      5.719757   2.622      
  1.042      0.546      1.103884   0.1850198  0.1850198  0.3219782  
  7.484689   9.733264   2.476      0.3647281  0.5415647  60.706     
  0.4150253  0.2561977  0.573853  
1010.2     
  0.264      397.51     -9999      -9999      5.858343   2.402      
  0.547      0.686      1.058922   0.2165577  0.2165577  0.3573048  
  28.7298    8.247111   2.516      0.4502576  0.5987963  60.833     
  0.4265062  0.2741306  0.5788817 
1010.4     
  0.238      383.54     -9999      -9999      6.006944   2.2        
  0.483      0.876      1.022255   0.2402861  0.2402861  0.3861146  
  79.03851   6.904703   2.607      0.5061551  0.63912    61.087     
  0.4419046  0.2947564  0.5890527 
1010.6     
  0.238      386.08     -9999      -9999      6.128619   2.216      
  0.483      1.08       1.001608   0.2535319  0.2535319  0.4023369  
  139.0544   5.969921   2.59       0.5272548  0.6542832  61.087     
  0.450924   0.3127953  0.5890527 
1010.8     
  0.25       417.83     -9999      -9999      6.206649   2.42       
  0.877      0.787      0.9983163  0.2524106  0.2524106  0.4049228  
  132.5608   5.438179   2.393      0.5074773  0.641066   61.341     
  0.4621583  0.3249406  0.599376  
1011       
  0.258      445.77     -9999      -9999      6.246777   2.437      
  0.585      0.521      1.004163   0.2450275  0.2450275  0.4003291  
  96.75253   5.183448   2.243      0.4789879  0.6222383  61.595     
  0.4706109  0.3313687  0.609853  
1011.2     
  0.248      455.93     -9999      -9999      6.257269   2.333      
  0.585      0.394      1.007317   0.2405148  0.2405148  0.3978513  
  79.81338   5.11883    2.193      0.4648526  0.6136642  61.849     
  0.4767775  0.3330705  0.6204844 
1011.4     
  0.231      439.42     -9999      -9999      6.235578   2.232      
  0.458      0.559      1.00357    0.2422573  0.2422573  0.4007949  
  85.97079   5.253315   2.276      0.4773968  0.6235361  62.103     
  0.480417   0.329562   0.6312719 
1011.6     
  0.231      424.18     -9999      -9999      6.186994   2.216      
  0.521      0.622      0.9997733  0.246515   0.246515   0.4037781  
  103.0895   5.567483   2.357      0.493645   0.6342642  62.103     
  0.4765547  0.3218375  0.6312719 
1011.8     
  0.233      408.94     -9999      -9999      6.134833   2.315      
  0.724      1.054      1.005497   0.2424537  0.2424537  0.3992813  
  86.6941    5.925731   2.445      0.4950269  0.6360732  62.23      
  0.475235   0.3137457  0.6367244 
1012       
  0.247      401.32     -9999      -9999      6.100814   2.42       
  1.055      0.724      1.02285    0.2278528  0.2278528  0.3856466  
  46.5099    6.171709   2.492      0.4716992  0.6226725  62.484     
  0.478163   0.3085782  0.6477478 
1012.2     
  0.254      407.67     -9999      -9999      6.084544   2.565      
  0.547      0.838      1.044434   0.209452   0.209452   0.368688   
  21.21866   6.292938   2.453      0.4272744  0.5959477  62.738     
  0.4825334  0.3061369  0.6589299 
1012.4     
  0.239      408.94     -9999      -9999      6.072947   2.68       
  0.521      0.914      1.059377   0.1970644  0.1970644  0.3569477  
  12.51035   6.380792   2.445      0.3951162  0.5772368  62.865     
  0.4844948  0.3044087  0.664581  
1012.6     
  0.239      407.67     -9999      -9999      6.056714   2.622      
  0.762      0.61       1.061217   0.1960148  0.1960148  0.3555017  
  11.96267   6.505838   2.453      0.393227   0.5759966  62.865     
  0.4832934  0.3020059  0.664581  
1012.8     
  0.248      408.94     -9999      -9999      6.034523   2.565      
  0.559      0.724      1.051687   0.202155   0.202155   0.3629896  
  15.54387   6.680744   2.445      0.4084042  0.5856968  63.119     
  0.4873776  0.2987519  0.6760034 
1013       
  0.257      408.94     -9999      -9999      6.015992   2.528      
  0.623      0.775      1.038521   0.2119907  0.2119907  0.3733337  
  23.64506   6.830409   2.445      0.4323831  0.6002485  63.246     
  0.4889182  0.2960613  0.6817752 
1013.2     
  0.259      402.59     -9999      -9999      6.011716   2.509      
  0.636      0.724      1.029975   0.2178487  0.2178487  0.3800489  
  30.35596   6.865419   2.484      0.4498011  0.6118577  63.373     
  0.4915158  0.2954439  0.6875877 
1013.4     
  0.247      400.05     -9999      -9999      6.01271    2.509      
  0.534      0.584      1.030669   0.2172796  0.2172796  0.3795035  
  29.62809   6.857269   2.5        0.4502052  0.6123647  63.373     
  0.4915875  0.2955873  0.6875877 
1013.6     
  0.247      397.51     -9999      -9999      5.991215   2.546      
  0.585      0.673      1.040712   0.2098982  0.2098982  0.371613   
  21.62628   7.035768   2.516      0.4350972  0.6032746  63.373     
  0.4900447  0.2925018  0.6875877 
1013.8     
  0.251      386.08     -9999      -9999      5.923964   2.584      
  0.597      0.787      1.057168   0.1994865  0.1994865  0.3586834  
  13.87175   7.624827   2.59       0.4174811  0.5924112  63.246     
  0.4824149  0.2830546  0.6817752 
1014       
  0.25       374.65     -9999      -9999      5.806399   2.699      
  0.559      0.749      1.076666   0.1867715  0.1867715  0.3433634  
  8.065288   8.775496   2.669      0.3917273  0.576901   63.246     
  0.4745209  0.2672667  0.6817752 
1014.2     
  0.23       359.41     -9999      -9999      5.650913   2.8        
  0.788      1.016      1.097986   0.1741964  0.1741964  0.3266125  
  4.717356   10.56826   2.782      0.366112   0.5609635  63.119     
  0.4618669  0.2477304  0.6760034 
1014.4     
  0.221      345.44     -9999      -9999      5.48431    2.904      
  0.877      0.94       1.122586   0.1590064  0.1590064  0.3072839  
  2.467984   12.89756   2.895      0.3263885  0.5371374  62.992     
  0.4493257  0.2283794  0.6702721 
1014.6     
  0.221      326.39     -9999      -9999      5.333689   2.991      
  0.724      0.864      1.15236    0.1382849  0.1382849  0.283891   
  1.019834   15.44233   3.064      0.2592677  0.5015524  62.992     
  0.4412306  0.2121891  0.6702721 
1014.8     
  0.218      307.34     -9999      -9999      5.208707   3.102      
  0.801      1.511      1.187018   0.1149979  0.1149979  0.2566602  
  0.3777444  17.93106   3.254      0.1544291  0.4478292  62.738     
  0.4292797  0.1996296  0.6589299 
1015       
  0.217      292.1      -9999      -9999      5.106189   3.218      
  2.299      2.705      1.223997   0.08939584 0.08939584 0.2276052  
  0.1267611  20.26915   3.423      0          0.3627607  62.484     
  0.4188162  0.1898845  0.6477478 
