~Version
 VERS              .         2.0                           : CWLS LOG ASCII STANDARD - VERSION 2.0
 WRAP              .         YES                            : ONE LINE PER DEPTH STEP
 DLM               .         SPACE                         : DELIMITING CHARACTER(SPACE TAB OR COMMA)
~Well Information
#_______________________________________________________________________________
#
#PARAMETER_NAME    .UNIT     VALUE                         : DESCRIPTION
#_______________________________________________________________________________
STRT               .м        900                           : First reference value
STOP               .м        1180                          : Last reference value
STEP               .м        0.2                           : Step increment
NULL               .         -9999                         : Missing value
COMP               .                                       : Company
WELL               .         5206                          : Well name
FLD                .         Узень                         : Field
LOC                .                                       : Location
CNTY               .                                       : County
STAT               .                                       : State
CTRY               .                                       : Country
SRVC               .                                       : Service Company
DATE               .         01.01.1983                    : Date
UWI                .                                       : Unique Well ID
Block              .         7                             : 
Cartographic_reference_system .         GCS_WGS_1984                  : ESRI,PE_10_3_1- <?xml version="1.0" encoding="utf-16"?><ILateBoundCoordinateReferenceSystem name="GCS_WGS_1984"><AuthorityCode>EPSG,4326</AuthorityCode></ILateBoundCoordinateReferenceSystem>
Category           .         Нефтяная                      : 
Condition          .         В работе                      : 
EREF               .m        94.5                          : 100.8
Gorizont           .         13                            : 14
HZCS               .GCS_WGS_1984 WGS_1984_EASE-Grid_2.0_Global : ESRI,PE_10_3_1- <?xml version="1.0" encoding="utf-16"?><ILateBoundCoordinateReferenceSystem name="WGS_1984_EASE-Grid_2.0_Global"><AuthorityCode>EPSG,6933</AuthorityCode></ILateBoundCoordinateReferenceSystem>
Interpretator      .         Сагынбаева А.Н.               : 
Kupol              .         основной                      : osnovnoi
LATI               .dega     0.6646091932                  : GCS_WGS_1984
LONG               .dega     0.4366071517                  : GCS_WGS_1984
Mud                .         глинистый                     : 
Mud_density        .         0                             : 
Mud_resistivity    .         0                             : 
NGDU               .         НГДУ-2                        : 
ORIGINALWELLNAME   .         5206                          : 
Spud_date          .         1982                          : 1961
Viscosity          .         40                            : 
X                  .m        42126.6                       : 46154
Y                  .m        84784.53                      : 85761.93
YEAR               .         2019                          : 
~Parameter Information Block
#_______________________________________________________________________________
#
#PARAMETER_NAME    .UNIT     VALUE                         : DESCRIPTION
#_______________________________________________________________________________
SET                .         LQC_KAZNIPI_Petrel            : 
TLFamily_CALI      .         Caliper                       : 
TLFamily_CILD      .         Conductivity                  : 
TLFamily_COLL      .         Net Reservoir Flag            : 
TLFamily_CSAT      .         Fluid Code                    : 
TLFamily_DEPT      .         Measured Depth                : 
TLFamily_GR        .         Russian Gamma Ray             : 
TLFamily_LLS       .         Lateral Log Resistivity       : 
TLFamily_MINV      .         Micro Gradient Resistivity    : 
TLFamily_MNOR      .         Micro Resistivity             : 
TLFamily_NGLD      .         Neutron Gamma                 : 
TLFamily_PHIE      .         Effective Porosity            : 
TLFamily_PHIEN     .         Effective Porosity            : 
TLFamily_PHIT      .         Porosity                      : 
TLFamily_PRMB      .         Permeability                  : 
TLFamily_PRMB_DGR  .         Permeability                  : 
TLFamily_RT        .         Formation Resistivity         : 
TLFamily_SOIL_ARCHIE .         Oil Saturation                : 
TLFamily_SOIL_DW   .         Oil Saturation                : 
TLFamily_SP        .         Spontaneous Potential         : 
TLFamily_VSH_FIN   .         Shale Volume                  : 
TLFamily_VSH_GR    .         Shale Volume                  : 
TLFamily_VSH_SP    .         Shale Volume                  : 
~Curve Information
#_______________________________________________________________________________
#
#LOGNAME           .UNIT     LOG_ID                        : DESCRIPTION
#_______________________________________________________________________________
DEPT               .м                                      : Колонка глубины 
CALI               .м                                      : Каверномер 
CILD               .мСм/м                                  : Индукционный каротаж 
COLL               .unitless                               : Описание 
CSAT               .unitless                               :  
GR                 .uR/h                                   : Гамма каротаж 
LLS                .Ohmm                                   : Боковой каротаж 
MINV               .Ohmm                                   : Микро-градиент зонд 
MNOR               .Ohmm                                   : Микро-потенциал зонд 
NGLD               .у.е.                                   : Показания зонда НГК-60 аппаратуры ДРСТ-3-90 
PHIE               .v/v                                    : Описание 
PHIEN              .v/v                                    :  
PHIT               .v/v                                    : Описание 
PRMB               .mD                                     :  
PRMB_DGR           .mD                                     :  
RT                 .ohmm                                   : УЭС пласта 
SOIL_ARCHIE        .v/v                                    :  
SOIL_DW            .v/v                                    :  
SP                 .мВ                                     : Потенциал самополяризации 
VSH_FIN            .v/v                                    : Описание 
VSH_GR             .v/v                                    : Shale volume 
VSH_SP             .v/v                                    : Shale Volume 
~Ascii
# ...
1175.2     
  0.211      518.16     -9999      -9999      8.203982   2.105      
  1.499      0.902      1.07043    0.1681787  0.1681787  0.3482633  
  3.64952    14.42519   1.93       0.2240578  0.486354   51.054     
  0.5457109  0.2181756  0.5457109 
1175.4     
  0.21       513.08     -9999      -9999      6.684653   2.121      
  1.575      0.914      1.065838   0.1941881  0.1941881  0.3518708  
  11.06608   108.1099   1.949      0.3185399  0.5195851  49.149     
  0.4778263  0.09585594 0.4778263 
1175.6     
  0.21       505.46     -9999      -9999      4.905055   2.184      
  1.55       0.94       1.06189    0.202823   0.202823   0.3549727  
  15.99309   1144.082   1.978      0.3484105  0.5337169  48.641     
  0.4610595  0.03658004 0.4610595 
1175.8     
  0.21       492.76     -9999      -9999      3.428032   2.315      
  1.893      0.876      1.058318   0.2174268  0.2174268  0.3577794  
  29.81465   8106.689   2.029      0.3939801  0.554306   47.498     
  0.4253108  0.02       0.4253108 
1176       
  0.21       483.87     -9999      -9999      2.568475   2.491      
  2.159      1.105      1.054817   0.2311001  0.2311001  0.3605299  
  53.41854   25335.37   2.067      0.4303128  0.5711056  46.355     
  0.3922117  0.02       0.3922117 
1176.2     
  0.21       459.74     -9999      -9999      2.218865   2.661      
  1.842      1.397      1.05243    0.2528272  0.2528272  0.3624056  
  134.937    40272.9    2.175      0.4856377  0.598182   44.006     
  0.3320559  0.02       0.3320559 
1176.4     
  0.211      408.94     -9999      -9999      2.119704   2.904      
  2.02       1.422      1.053514   0.2581703  0.2581703  0.3615537  
  169.472    45930.85   2.445      0.5219086  0.6237495  43.18      
  0.3132831  0.02       0.3132831 
1176.6     
  0.211      359.41     6          6          2.1        3.194      
  2.794      1.867      1.059288   0.25636    0.25636    0.3570172  
  156.8798   47146.45   2.782      0.5472514  0.6436157  42.799     
  0.3050219  0.02       0.3050219 
1176.8     
  0.21       313.69     6          6          2.1        3.617      
  3.76       2.807      1.067778   0.2478811  0.2478811  0.3503467  
  109.2744   47146.45   3.188      0.5626625  0.6586674  43.053     
  0.3105018  0.02       0.3105018 
1177       
  0.209      287.02     6          6          2.1        4.156      
  3.049      3.721      1.075434   0.2545674  0.2545674  0.3443315  
  145.3332   47146.45   3.484      0.5901222  0.6737717  41.148     
  0.2720124  0.02       0.2720124 
1177.2     
  0.208      269.24     6          6          2.1        4.953      
  3.303      3.264      1.079607   0.2627622  0.2627622  0.3410532  
  206.1348   47146.45   3.714      0.6130618  0.6864362  39.116     
  0.2372453  0.02       0.2372453 
1177.4     
  0.208      269.24     6          6          2.094411   5.733      
  3.861      3.861      1.078415   0.2636985  0.2636985  0.3419894  
  214.5326   47497.05   3.714      0.6142587  0.6874012  39.116     
  0.2372453  0.02       0.2372453 
1177.6     
  0.208      274.32     6          6          -9999      5.946      
  2.083      1.854      1.071838   0.2778485  0.2778485  0.3471568  
  392.2714   -9999      3.645      0.6281678  0.6939774  37.211     
  0.210025   -9999      0.210025  
1177.8     
  0.208      287.02     6          6          -9999      4.989      
  2.426      1.562      1.060643   0.285071   0.285071   0.355953   
  533.7819   -9999      3.484      0.6285957  0.6948037  37.571     
  0.2147942  -9999      0.2147942 
1178       
  0.208      303.53     -9999      -9999      -9999      3.724      
  2.121      2.083      -9999      -9999      -9999      -9999      
  -9999      -9999      3.295      -9999      -9999      37.973     
  0.220322   -9999      0.220322  
1178.2     
  0.208      318.77     -9999      -9999      -9999      3.194      
  2.058      1.765      -9999      -9999      -9999      -9999      
  -9999      -9999      3.137      -9999      -9999      39.624     
  0.2453601  -9999      0.2453601 
1178.4     
  0.207      332.74     -9999      -9999      -9999      2.991      
  1.88       1.765      -9999      -9999      -9999      -9999      
  -9999      -9999      3.005      -9999      -9999      41.148     
  0.2720124  -9999      0.2720124 
1178.6     
  0.207      345.44     -9999      -9999      -9999      2.842      
  1.855      1.651      -9999      -9999      -9999      -9999      
  -9999      -9999      2.895      -9999      -9999      41.148     
  0.2720124  -9999      0.2720124 
1178.8     
  0.208      359.41     -9999      -9999      -9999      2.72       
  1.931      1.626      -9999      -9999      -9999      -9999      
  -9999      -9999      2.782      -9999      -9999      43.18      
  0.3132831  -9999      0.3132831 
1179       
  0.207      373.38     -9999      -9999      -9999      2.68       
  2.02       1.753      -9999      -9999      -9999      -9999      
  -9999      -9999      2.678      -9999      -9999      44.704     
  0.3488642  -9999      0.3488642 
1179.2     
  0.207      387.35     -9999      -9999      -9999      2.565      
  2.312      1.511      -9999      -9999      -9999      -9999      
  -9999      -9999      2.582      -9999      -9999      45.212     
  0.3616561  -9999      0.3616561 
1179.4     
  0.208      403.86     -9999      -9999      -9999      2.491      
  2.033      1.727      -9999      -9999      -9999      -9999      
  -9999      -9999      2.476      -9999      -9999      45.593     
  0.3715652  -9999      0.3715652 
1179.6     
  0.208      416.56     -9999      -9999      -9999      2.385      
  1.753      1.6        -9999      -9999      -9999      -9999      
  -9999      -9999      2.401      -9999      -9999      45.593     
  0.3715652  -9999      0.3715652 
1179.8     
  0.21       426.72     -9999      -9999      -9999      2.299      
  1.791      1.054      -9999      -9999      -9999      -9999      
  -9999      -9999      2.343      -9999      -9999      45.085     
  0.3584133  -9999      0.3584133 
1180       
  0.21       429.26     -9999      -9999      -9999      2.232      
  1.817      1.092      -9999      -9999      -9999      -9999      
  -9999      -9999      2.33       -9999      -9999      44.069     
  0.333537   -9999      0.333537  
