~Version
 VERS              .         2.0                           : CWLS LOG ASCII STANDARD - VERSION 2.0
 WRAP              .         YES                            : ONE LINE PER DEPTH STEP
 DLM               .         SPACE                         : DELIMITING CHARACTER(SPACE TAB OR COMMA)
~Well Information
#_______________________________________________________________________________
#
#PARAMETER_NAME    .UNIT     VALUE                         : DESCRIPTION
#_______________________________________________________________________________
STRT               .м        900                           : First reference value
STOP               .м        1180                          : Last reference value
STEP               .м        0.2                           : Step increment
NULL               .         -9999                         : Missing value
COMP               .                                       : Company
WELL               .         5206                          : Well name
FLD                .         Узень                         : Field
LOC                .                                       : Location
CNTY               .                                       : County
STAT               .                                       : State
CTRY               .                                       : Country
SRVC               .                                       : Service Company
DATE               .         01.01.1983                    : Date
UWI                .                                       : Unique Well ID
Block              .         7                             : 
Cartographic_reference_system .         GCS_WGS_1984                  : ESRI,PE_10_3_1- <?xml version="1.0" encoding="utf-16"?><ILateBoundCoordinateReferenceSystem name="GCS_WGS_1984"><AuthorityCode>EPSG,4326</AuthorityCode></ILateBoundCoordinateReferenceSystem>
Category           .         Нефтяная                      : 
Condition          .         В работе                      : 
EREF               .m        94.5                          : 100.8
Gorizont           .         13                            : 14
HZCS               .GCS_WGS_1984 WGS_1984_EASE-Grid_2.0_Global : ESRI,PE_10_3_1- <?xml version="1.0" encoding="utf-16"?><ILateBoundCoordinateReferenceSystem name="WGS_1984_EASE-Grid_2.0_Global"><AuthorityCode>EPSG,6933</AuthorityCode></ILateBoundCoordinateReferenceSystem>
Interpretator      .         Сагынбаева А.Н.               : 
Kupol              .         основной                      : osnovnoi
LATI               .dega     0.6646091932                  : GCS_WGS_1984
LONG               .dega     0.4366071517                  : GCS_WGS_1984
Mud                .         глинистый                     : 
Mud_density        .         0                             : 
Mud_resistivity    .         0                             : 
NGDU               .         НГДУ-2                        : 
ORIGINALWELLNAME   .         5206                          : 
Spud_date          .         1982                          : 1961
Viscosity          .         40                            : 
X                  .m        42126.6                       : 46154
Y                  .m        84784.53                      : 85761.93
YEAR               .         2019                          : 
~Parameter Information Block
#_______________________________________________________________________________
#
#PARAMETER_NAME    .UNIT     VALUE                         : DESCRIPTION
#_______________________________________________________________________________
SET                .         LQC_KAZNIPI_Petrel            : 
TLFamily_CALI      .         Caliper                       : 
TLFamily_CILD      .         Conductivity                  : 
TLFamily_COLL      .         Net Reservoir Flag            : 
TLFamily_CSAT      .         Fluid Code                    : 
TLFamily_DEPT      .         Measured Depth                : 
TLFamily_GR        .         Russian Gamma Ray             : 
TLFamily_LLS       .         Lateral Log Resistivity       : 
TLFamily_MINV      .         Micro Gradient Resistivity    : 
TLFamily_MNOR      .         Micro Resistivity             : 
TLFamily_NGLD      .         Neutron Gamma                 : 
TLFamily_PHIE      .         Effective Porosity            : 
TLFamily_PHIEN     .         Effective Porosity            : 
TLFamily_PHIT      .         Porosity                      : 
TLFamily_PRMB      .         Permeability                  : 
TLFamily_PRMB_DGR  .         Permeability                  : 
TLFamily_RT        .         Formation Resistivity         : 
TLFamily_SOIL_ARCHIE .         Oil Saturation                : 
TLFamily_SOIL_DW   .         Oil Saturation                : 
TLFamily_SP        .         Spontaneous Potential         : 
TLFamily_VSH_FIN   .         Shale Volume                  : 
TLFamily_VSH_GR    .         Shale Volume                  : 
TLFamily_VSH_SP    .         Shale Volume                  : 
~Curve Information
#_______________________________________________________________________________
#
#LOGNAME           .UNIT     LOG_ID                        : DESCRIPTION
#_______________________________________________________________________________
DEPT               .м                                      : Колонка глубины 
CALI               .м                                      : Каверномер 
CILD               .мСм/м                                  : Индукционный каротаж 
COLL               .unitless                               : Описание 
CSAT               .unitless                               :  
GR                 .uR/h                                   : Гамма каротаж 
LLS                .Ohmm                                   : Боковой каротаж 
MINV               .Ohmm                                   : Микро-градиент зонд 
MNOR               .Ohmm                                   : Микро-потенциал зонд 
NGLD               .у.е.                                   : Показания зонда НГК-60 аппаратуры ДРСТ-3-90 
PHIE               .v/v                                    : Описание 
PHIEN              .v/v                                    :  
PHIT               .v/v                                    : Описание 
PRMB               .mD                                     :  
PRMB_DGR           .mD                                     :  
RT                 .ohmm                                   : УЭС пласта 
SOIL_ARCHIE        .v/v                                    :  
SOIL_DW            .v/v                                    :  
SP                 .мВ                                     : Потенциал самополяризации 
VSH_FIN            .v/v                                    : Описание 
VSH_GR             .v/v                                    : Shale volume 
VSH_SP             .v/v                                    : Shale Volume 
~Ascii
# ...
1028       
  0.24       287.02     -9999      -9999      6.332489   4.007      
  3.112      2.045      1.233195   0.06939352 0.06939352 0.2203786  
  0.05401252 4.286347   3.484      0          0.2951692  56.515     
  0.4575306  0.3581062  0.5569551 
1028.2     
  0.229      311.15     -9999      -9999      6.43463    3.671      
  1.804      1.232      1.200702   0.09024314 0.09024314 0.2459085  
  0.1314256  3.788264   3.214      0          0.376332   56.769     
  0.4717132  0.3766324  0.5667939 
1028.4     
  0.229      322.58     -9999      -9999      6.575181   3.079      
  1.105      1.041      1.15277    0.1217886  0.1217886  0.2835686  
  0.5046362  3.196091   3.1        0.1771333  0.4798293  57.023     
  0.4902424  0.4037024  0.5767823 
1028.6     
  0.229      330.2      -9999      -9999      6.703529   2.68       
  1.156      1.473      1.10507    0.154908   0.154908   0.3210466  
  2.072196   2.736577   3.028      0.325266   0.55502    57.023     
  0.5034502  0.430118   0.5767823 
1028.8     
  0.234      340.36     -9999      -9999      6.766699   2.584      
  1.042      0.952      1.074241   0.1743628  0.1743628  0.3452691  
  4.750951   2.5353     2.938      0.3826487  0.5872195  57.404     
  0.5178978  0.4437471  0.5920485 
1029       
  0.219      350.52     -9999      -9999      6.741977   2.661      
  1.016      1.003      1.06698    0.1783806  0.1783806  0.350974   
  5.638962   2.612246   2.853      0.3863813  0.5889387  57.785     
  0.5230104  0.4383625  0.6076582 
1029.2     
  0.216      342.9      -9999      -9999      6.642566   2.863      
  1.004      2.007      1.077923   0.1723762  0.1723762  0.3423758  
  4.364987   2.945962   2.916      0.3742532  0.5816737  57.912     
  0.5151502  0.4173621  0.6129384 
1029.4     
  0.215      323.85     -9999      -9999      6.503509   3.057      
  2.033      2.375      1.096668   0.1613411  0.1613411  0.327648   
  2.726377   3.485489   3.088      0.3547274  0.5715837  58.039     
  0.5039605  0.3896635  0.6182575 
1029.6     
  0.215      322.58     -9999      -9999      6.364487   3.265      
  2.782      1.867      1.114589   0.1515266  0.1515266  0.3135677  
  1.793904   4.123646   3.1        0.3197142  0.5499862  58.039     
  0.4910336  0.3638097  0.6182575 
1029.8     
  0.217      328.93     -9999      -9999      6.256582   3.462      
  2.172      1.397      1.126537   0.1461316  0.1461316  0.3041801  
  1.425183   4.698463   3.04       0.2914223  0.5304953  57.912     
  0.4789347  0.3449309  0.6129384 
1030       
  0.221      334.01     -9999      -9999      6.18566    3.512      
  1.69       1.168      1.131415   0.145994   0.145994   0.3003475  
  1.416839   5.119243   2.994      0.2857481  0.5230049  57.658     
  0.467738   0.3330594  0.6024166 
1030.2     
  0.216      312.42     -9999      -9999      6.128296   3.412      
  1.791      1.206      1.133812   0.1490414  0.1490414  0.2984638  
  1.61349    5.487003   3.201      0.3201507  0.5405416  57.15      
  0.452795   0.3237568  0.5818332 
1030.4     
  0.216      283.21     -9999      -9999      6.053293   3.487      
  2.134      1.435      1.142599   0.1473764  0.1473764  0.2915601  
  1.502887   6.007984   3.531      0.3443595  0.5542716  56.642     
  0.4369202  0.3119846  0.5618558 
1030.6     
  0.216      256.54     -9999      -9999      5.951438   3.671      
  2.071      1.676      1.164387   0.132783   0.132783   0.2744414  
  0.8065299  6.795561   3.898      0.3145823  0.5416856  56.642     
  0.4292681  0.2966804  0.5618558 
1030.8     
  0.216      248.92     -9999      -9999      5.838791   3.977      
  2.464      2.197      1.197918   0.1122841  0.1122841  0.248096   
  0.3364588  7.787372   4.017      0.2179167  0.4878074  56.134     
  0.4115511  0.2806271  0.5424752 
1031       
  0.228      255.27     -9999      -9999      5.739749   4.311      
  3.379      3.226      1.23436    0.0866462  0.0866462  0.2194636  
  0.1127342  8.778292   3.917      0.008180431 0.3833565  56.007     
  0.4024771  0.267232   0.5377222 
1031.2     
  0.224      262.89     -9999      -9999      5.676694   4.671      
  4.065      3.404      1.261941   0.06475283 0.06475283 0.197793   
  0.04431366 9.473891   3.804      0          0.258333   56.261     
  0.403152   0.259039   0.5472651 
1031.4     
  0.216      271.78     -9999      -9999      5.668499   4.57       
  2.541      1.283      1.271524   0.0549886  0.0549886  0.1902636  
  0.02922001 9.568247   3.679      0          0.1824883  56.642     
  0.4099243  0.2579928  0.5618558 
1031.6     
  0.216      264.16     -9999      -9999      5.720779   3.977      
  1.753      1.753      1.262356   0.06107878 0.06107878 0.1974671  
  0.03788657 8.982011   3.786      0          0.2408559  56.642     
  0.413298   0.2647402  0.5618558 
1031.8     
  0.214      247.65     -9999      -9999      5.813588   3.512      
  1.855      1.753      1.243894   0.07023916 0.07023916 0.2119724  
  0.0559961  8.02838    4.038      0          0.3310788  57.15      
  0.4294947  0.2771561  0.5818332 
1032       
  0.212      240.03     -9999      -9999      5.907549   3.462      
  2.147      1.956      1.229515   0.0759683  0.0759683  0.2232697  
  0.07149494 7.166006   4.166      0          0.3804502  57.658     
  0.4463679  0.2903193  0.6024166 
1032.2     
  0.215      243.84     -9999      -9999      5.969381   3.807      
  2.083      2.337      1.226489   0.07512477 0.07512477 0.2256475  
  0.06896854 6.649688   4.101      0          0.3774767  57.912     
  0.4561296  0.2993208  0.6129384 
1032.4     
  0.217      248.92     -9999      -9999      5.986113   4.096      
  3.087      1.867      1.232138   0.06939887 0.06939887 0.221209   
  0.05402483 6.516488   4.017      0          0.3452423  58.039     
  0.4600309  0.3018042  0.6182575 
1032.6     
  0.217      255.27     -9999      -9999      5.965332   4.007      
  3.061      2.095      1.23901    0.06450792 0.06450792 0.2158097  
  0.0438532  6.682336   3.917      0          0.3092354  58.039     
  0.4584902  0.2987228  0.6182575 
1032.8     
  0.215      257.81     -9999      -9999      5.929904   3.863      
  2.464      1.829      1.242703   0.06157741 0.06157741 0.2129084  
  0.0387009  6.97487    3.879      0          0.2886891  58.166     
  0.4585787  0.293542   0.6236154 
1033       
  0.215      254        -9999      -9999      5.904756   3.751      
  2.172      1.664      1.244444   0.05991628 0.05991628 0.21154    
  0.03605396 7.190253   3.937      0          0.2844969  58.293     
  0.4594657  0.2899192  0.6290123 
1033.2     
  0.22       241.3      -9999      -9999      5.892721   3.835      
  2.21       1.994      1.247098   0.05721775 0.05721775 0.2094549  
  0.03213435 7.295669   4.144      0          0.2873361  58.42      
  0.4613248  0.2882012  0.6344483 
1033.4     
  0.222      231.14     -9999      -9999      5.870695   4.007      
  2.604      2.731      1.250456   0.055094   0.055094   0.2068167  
  0.02935165 7.492625   4.326      0          0.2878656  58.42      
  0.4597659  0.2850834  0.6344483 
1033.6     
  0.222      240.03     -9999      -9999      5.82035    4.187      
  3.747      3.315      1.25142    0.0554916  0.0554916  0.2060593  
  0.02985363 7.962997   4.166      0          0.2741798  58.42      
  0.4562657  0.2780831  0.6344483 
1033.8     
  0.22       256.54     -9999      -9999      5.759584   4.066      
  3.633      2.273      1.246554   0.06067162 0.06067162 0.2098829  
  0.03723433 8.570228   3.898      0          0.2800762  58.42      
  0.4521554  0.2698623  0.6344483 
1034       
  0.219      265.43     -9999      -9999      5.729686   3.751      
  2.033      1.689      1.233508   0.07067062 0.07067062 0.2201328  
  0.05703604 8.885777   3.767      0          0.3258472  58.547     
  0.4529156  0.2659073  0.639924  
1034.2     
  0.219      269.24     -9999      -9999      5.757521   3.564      
  2.261      1.918      1.212719   0.08639731 0.08639731 0.2364667  
  0.1115439  8.591633   3.714      0          0.3957231  58.547     
  0.4547558  0.2695876  0.639924  
