~Version
 VERS              .         2.0                           : CWLS LOG ASCII STANDARD - VERSION 2.0
 WRAP              .         YES                            : ONE LINE PER DEPTH STEP
 DLM               .         SPACE                         : DELIMITING CHARACTER(SPACE TAB OR COMMA)
~Well Information
#_______________________________________________________________________________
#
#PARAMETER_NAME    .UNIT     VALUE                         : DESCRIPTION
#_______________________________________________________________________________
STRT               .м        900                           : First reference value
STOP               .м        1180                          : Last reference value
STEP               .м        0.2                           : Step increment
NULL               .         -9999                         : Missing value
COMP               .                                       : Company
WELL               .         5206                          : Well name
FLD                .         Узень                         : Field
LOC                .                                       : Location
CNTY               .                                       : County
STAT               .                                       : State
CTRY               .                                       : Country
SRVC               .                                       : Service Company
DATE               .         01.01.1983                    : Date
UWI                .                                       : Unique Well ID
Block              .         7                             : 
Cartographic_reference_system .         GCS_WGS_1984                  : ESRI,PE_10_3_1- <?xml version="1.0" encoding="utf-16"?><ILateBoundCoordinateReferenceSystem name="GCS_WGS_1984"><AuthorityCode>EPSG,4326</AuthorityCode></ILateBoundCoordinateReferenceSystem>
Category           .         Нефтяная                      : 
Condition          .         В работе                      : 
EREF               .m        94.5                          : 100.8
Gorizont           .         13                            : 14
HZCS               .GCS_WGS_1984 WGS_1984_EASE-Grid_2.0_Global : ESRI,PE_10_3_1- <?xml version="1.0" encoding="utf-16"?><ILateBoundCoordinateReferenceSystem name="WGS_1984_EASE-Grid_2.0_Global"><AuthorityCode>EPSG,6933</AuthorityCode></ILateBoundCoordinateReferenceSystem>
Interpretator      .         Сагынбаева А.Н.               : 
Kupol              .         основной                      : osnovnoi
LATI               .dega     0.6646091932                  : GCS_WGS_1984
LONG               .dega     0.4366071517                  : GCS_WGS_1984
Mud                .         глинистый                     : 
Mud_density        .         0                             : 
Mud_resistivity    .         0                             : 
NGDU               .         НГДУ-2                        : 
ORIGINALWELLNAME   .         5206                          : 
Spud_date          .         1982                          : 1961
Viscosity          .         40                            : 
X                  .m        42126.6                       : 46154
Y                  .m        84784.53                      : 85761.93
YEAR               .         2019                          : 
~Parameter Information Block
#_______________________________________________________________________________
#
#PARAMETER_NAME    .UNIT     VALUE                         : DESCRIPTION
#_______________________________________________________________________________
SET                .         LQC_KAZNIPI_Petrel            : 
TLFamily_CALI      .         Caliper                       : 
TLFamily_CILD      .         Conductivity                  : 
TLFamily_COLL      .         Net Reservoir Flag            : 
TLFamily_CSAT      .         Fluid Code                    : 
TLFamily_DEPT      .         Measured Depth                : 
TLFamily_GR        .         Russian Gamma Ray             : 
TLFamily_LLS       .         Lateral Log Resistivity       : 
TLFamily_MINV      .         Micro Gradient Resistivity    : 
TLFamily_MNOR      .         Micro Resistivity             : 
TLFamily_NGLD      .         Neutron Gamma                 : 
TLFamily_PHIE      .         Effective Porosity            : 
TLFamily_PHIEN     .         Effective Porosity            : 
TLFamily_PHIT      .         Porosity                      : 
TLFamily_PRMB      .         Permeability                  : 
TLFamily_PRMB_DGR  .         Permeability                  : 
TLFamily_RT        .         Formation Resistivity         : 
TLFamily_SOIL_ARCHIE .         Oil Saturation                : 
TLFamily_SOIL_DW   .         Oil Saturation                : 
TLFamily_SP        .         Spontaneous Potential         : 
TLFamily_VSH_FIN   .         Shale Volume                  : 
TLFamily_VSH_GR    .         Shale Volume                  : 
TLFamily_VSH_SP    .         Shale Volume                  : 
~Curve Information
#_______________________________________________________________________________
#
#LOGNAME           .UNIT     LOG_ID                        : DESCRIPTION
#_______________________________________________________________________________
DEPT               .м                                      : Колонка глубины 
CALI               .м                                      : Каверномер 
CILD               .мСм/м                                  : Индукционный каротаж 
COLL               .unitless                               : Описание 
CSAT               .unitless                               :  
GR                 .uR/h                                   : Гамма каротаж 
LLS                .Ohmm                                   : Боковой каротаж 
MINV               .Ohmm                                   : Микро-градиент зонд 
MNOR               .Ohmm                                   : Микро-потенциал зонд 
NGLD               .у.е.                                   : Показания зонда НГК-60 аппаратуры ДРСТ-3-90 
PHIE               .v/v                                    : Описание 
PHIEN              .v/v                                    :  
PHIT               .v/v                                    : Описание 
PRMB               .mD                                     :  
PRMB_DGR           .mD                                     :  
RT                 .ohmm                                   : УЭС пласта 
SOIL_ARCHIE        .v/v                                    :  
SOIL_DW            .v/v                                    :  
SP                 .мВ                                     : Потенциал самополяризации 
VSH_FIN            .v/v                                    : Описание 
VSH_GR             .v/v                                    : Shale volume 
VSH_SP             .v/v                                    : Shale Volume 
~Ascii
# ...
957.6      
  0.216      290.83     -9999      -9999      6.310808   3.437      
  2.477      1.74       1.147028   0.09055349 0.09055349 0.2880799  
  0.1331767  1.621851   3.438      0          0.4568952  62.865     
  0.598565   0.532549   0.664581  
957.8      
  0.212      283.21     -9999      -9999      6.357546   3.362      
  2.452      1.93       1.144766   0.08906863 0.08906863 0.2898577  
  0.1250044  1.521432   3.531      0          0.4632955  62.992     
  0.6084516  0.5466312  0.6702721 
958        
  0.211      285.75     -9999      -9999      6.429182   3.289      
  2.147      1.702      1.146294   0.08418635 0.08418635 0.2886564  
  0.1015064  1.379454   3.5        0          0.4491915  62.992     
  0.6196063  0.5689406  0.6702721 
958.2000000000001 
  0.212      293.37     -9999      -9999      6.505063   3.289      
  1.956      1.613      1.148185   0.07769205 0.07769205 0.287171   
  0.07694905 1.243485   3.409      0          0.4251105  63.119     
  0.6347848  0.5935662  0.6760034 
958.4      
  0.211      299.72     -9999      -9999      6.558118   3.462      
  1.855      1.448      1.146633   0.07596618 0.07596618 0.2883902  
  0.07148847 1.15646    3.336      0          0.416349   63.119     
  0.643709   0.6114146  0.6760034 
958.6      
  0.211      293.37     -9999      -9999      6.578555   3.617      
  2.401      1.257      1.141358   0.07895352 0.07895352 0.2925354  
  0.08120238 1.124587   3.409      0          0.4352171  63.119     
  0.6472178  0.6184321  0.6760034 
958.8      
  0.21       284.48     -9999      -9999      6.568357   3.512      
  2.248      1.943      1.134794   0.08469023 0.08469023 0.2976926  
  0.1037114  1.14038    3.515      0          0.4626827  63.119     
  0.6454619  0.6149203  0.6760034 
959        
  0.211      288.29     -9999      -9999      6.531033   3.337      
  2.185      1.829      1.128319   0.09186985 0.09186985 0.3027795  
  0.1408674  1.200098   3.469      0.002200398 0.4794285  63.119     
  0.63912    0.6022367  0.6760034 
959.2000000000001 
  0.213      294.64     -9999      -9999      6.478014   3.313      
  1.867      1.702      1.121287   0.1002942  0.1002942  0.308305   
  0.2017669  1.290344   3.394      0.06607495 0.4951694  63.119     
  0.6303357  0.584668   0.6760034 
959.4      
  0.215      302.26     -9999      -9999      6.43728    3.412      
  2.083      1.384      1.113474   0.1086019  0.1086019  0.3144431  
  0.2875598  1.364262   3.308      0.1180556  0.5088833  63.119     
  0.6237613  0.5715193  0.6760034 
959.6      
  0.215      297.18     -9999      -9999      6.440438   3.539      
  1.969      1.46       1.107057   0.1134774  0.1134774  0.3194852  
  0.3540263  1.358382   3.365      0.1579295  0.5254173  63.119     
  0.6242658  0.5725281  0.6760034 
959.8      
  0.22       285.75     -9999      -9999      6.496854   3.487      
  2.033      1.448      1.105234   0.112832   0.112832   0.3209174  
  0.3444142  1.257524   3.5        0.1692134  0.5350805  62.992     
  0.6305618  0.5908516  0.6702721 
960        
  0.218      275.59     -9999      -9999      6.581486   3.386      
  2.388      2.045      1.109575   0.1047034  0.1047034  0.3175068  
  0.2435118  1.120087   3.629      0.1282454  0.5281436  62.992     
  0.6448587  0.6194453  0.6702721 
960.2000000000001 
  0.217      269.24     -9999      -9999      6.651765   3.386      
  2.109      1.842      1.118527   0.09357944 0.09357944 0.3104737  
  0.1515222  1.017448   3.714      0.04904191 0.5082679  62.992     
  0.6572552  0.6442385  0.6702721 
960.4      
  0.213      266.7      -9999      -9999      6.681696   3.487      
  2.109      1.638      1.127566   0.08562426 0.08562426 0.303371   
  0.1079262  0.9766437  3.75       0          0.4882049  62.865     
  0.6598387  0.6550964  0.664581  
960.6      
  0.213      270.51     -9999      -9999      6.679761   3.617      
  1.918      1.664      1.131826   0.08239461 0.08239461 0.3000247  
  0.09403858 0.9792315  3.697      0          0.4741514  62.865     
  0.659485   0.654389   0.664581  
960.8      
  0.21       275.59     -9999      -9999      6.670239   3.724      
  2.312      1.372      1.130052   0.08436072 0.08436072 0.3014182  
  0.1022641  0.9920657  3.629      0          0.4749359  62.865     
  0.6577498  0.6509187  0.664581  
961        
  0.215      276.86     -9999      -9999      6.662889   3.807      
  1.982      1.384      1.125775   0.08909333 0.08909333 0.3047784  
  0.1251361  1.002088   3.612      0          0.4868697  62.738     
  0.6535912  0.6482525  0.6589299 
961.2000000000001 
  0.22       276.86     -9999      -9999      6.651643   3.948      
  2.045      2.045      1.123734   0.0913665  0.0913665  0.306382   
  0.1378756  1.017619   3.612      0.01624051 0.4929168  62.738     
  0.6515622  0.6441944  0.6589299 
961.4      
  0.215      274.32     -9999      -9999      6.629869   3.891      
  2.388      2.248      1.126306   0.09155621 0.09155621 0.3043613  
  0.1389956  1.048376   3.645      0.02219808 0.4933339  62.611     
  0.644864   0.636409   0.6533189 
961.6      
  0.215      266.7      -9999      -9999      6.592407   3.724      
  2.185      1.892      1.132953   0.08850722 0.08850722 0.2991385  
  0.1220468  1.103484   3.75       0.006257106 0.4889509  62.611     
  0.6382766  0.6232343  0.6533189 
961.8      
  0.222      257.81     -9999      -9999      6.528676   3.564      
  1.944      1.93       1.140294   0.08725456 0.08725456 0.2933713  
  0.1156976  1.203973   3.879      0.009685941 0.4885279  62.484     
  0.6245962  0.6014446  0.6477478 
962        
  0.219      260.35     -9999      -9999      6.430976   3.671      
  2.452      1.702      1.143113   0.09030858 0.09030858 0.2911563  
  0.1317929  1.376074   3.841      0.03446849 0.4893131  62.484     
  0.6086294  0.569511   0.6477478 
962.2000000000001 
  0.215      267.97     -9999      -9999      6.318045   3.779      
  2.083      1.638      1.138343   0.09887986 0.09887986 0.2949039  
  0.189956   1.605879   3.732      0.09565026 0.5018964  62.611     
  0.5940123  0.5347056  0.6533189 
962.4      
  0.208      276.86     -9999      -9999      6.237191   3.697      
  2.414      1.778      1.127841   0.1110261  0.1110261  0.3031553  
  0.3188822  1.79363    3.612      0.1698181  0.5224453  62.611     
  0.5822099  0.5111008  0.6533189 
962.6      
  0.208      288.29     -9999      -9999      6.227288   3.487      
  1.524      1.194      1.11652    0.1203863  0.1203863  0.3120505  
  0.4753398  1.818086   3.469      0.2115213  0.5353051  62.611     
  0.5808006  0.5082822  0.6533189 
962.8      
  0.219      289.56     -9999      -9999      6.286362   3.265      
  2.071      1.664      1.109133   0.1233776  0.1233776  0.3178545  
  0.5400208  1.676986   3.454      0.2266263  0.5438063  62.611     
  0.5893239  0.5253288  0.6533189 
963        
  0.233      289.56     -9999      -9999      6.377682   3.218      
  2.312      1.321      1.108413   0.1194084  0.1194084  0.31842    
  0.4559228  1.48011    3.454      0.2042839  0.5389515  62.611     
  0.6030655  0.552812   0.6533189 
963.2000000000001 
  0.227      292.1      -9999      -9999      6.461243   3.148      
  1.931      1.41       1.113876   0.1107593  0.1107593  0.3141279  
  0.3152744  1.32028    3.423      0.1468287  0.5201973  62.611     
  0.6162686  0.5792182  0.6533189 
963.4      
  0.219      295.91     -9999      -9999      6.512746   3.102      
  1.804      1.651      1.1222     0.1014306  0.1014306  0.3075878  
  0.2117872  1.230488   3.379      0.07327082 0.4952274  62.611     
  0.6247187  0.5961185  0.6533189 
963.6      
  0.219      290.83     -9999      -9999      6.525042   3.079      
  2.642      2.159      1.129673   0.0948808  0.0948808  0.3017156  
  0.1601698  1.20997    3.438      0.02574036 0.4815163  62.611     
  0.6267722  0.6002255  0.6533189 
963.8      
  0.214      276.86     -9999      -9999      6.500937   3.148      
  3.226      2.464      1.133444   0.09324238 0.09324238 0.2987531  
  0.1493596  1.25052    3.612      0.03350064 0.4878379  62.611     
  0.6227597  0.5922005  0.6533189 
