~Version
 VERS              .         2.0                           : CWLS LOG ASCII STANDARD - VERSION 2.0
 WRAP              .         YES                            : ONE LINE PER DEPTH STEP
 DLM               .         SPACE                         : DELIMITING CHARACTER(SPACE TAB OR COMMA)
~Well Information
#_______________________________________________________________________________
#
#PARAMETER_NAME    .UNIT     VALUE                         : DESCRIPTION
#_______________________________________________________________________________
STRT               .м        900                           : First reference value
STOP               .м        1180                          : Last reference value
STEP               .м        0.2                           : Step increment
NULL               .         -9999                         : Missing value
COMP               .                                       : Company
WELL               .         5206                          : Well name
FLD                .         Узень                         : Field
LOC                .                                       : Location
CNTY               .                                       : County
STAT               .                                       : State
CTRY               .                                       : Country
SRVC               .                                       : Service Company
DATE               .         01.01.1983                    : Date
UWI                .                                       : Unique Well ID
Block              .         7                             : 
Cartographic_reference_system .         GCS_WGS_1984                  : ESRI,PE_10_3_1- <?xml version="1.0" encoding="utf-16"?><ILateBoundCoordinateReferenceSystem name="GCS_WGS_1984"><AuthorityCode>EPSG,4326</AuthorityCode></ILateBoundCoordinateReferenceSystem>
Category           .         Нефтяная                      : 
Condition          .         В работе                      : 
EREF               .m        94.5                          : 100.8
Gorizont           .         13                            : 14
HZCS               .GCS_WGS_1984 WGS_1984_EASE-Grid_2.0_Global : ESRI,PE_10_3_1- <?xml version="1.0" encoding="utf-16"?><ILateBoundCoordinateReferenceSystem name="WGS_1984_EASE-Grid_2.0_Global"><AuthorityCode>EPSG,6933</AuthorityCode></ILateBoundCoordinateReferenceSystem>
Interpretator      .         Сагынбаева А.Н.               : 
Kupol              .         основной                      : osnovnoi
LATI               .dega     0.6646091932                  : GCS_WGS_1984
LONG               .dega     0.4366071517                  : GCS_WGS_1984
Mud                .         глинистый                     : 
Mud_density        .         0                             : 
Mud_resistivity    .         0                             : 
NGDU               .         НГДУ-2                        : 
ORIGINALWELLNAME   .         5206                          : 
Spud_date          .         1982                          : 1961
Viscosity          .         40                            : 
X                  .m        42126.6                       : 46154
Y                  .m        84784.53                      : 85761.93
YEAR               .         2019                          : 
~Parameter Information Block
#_______________________________________________________________________________
#
#PARAMETER_NAME    .UNIT     VALUE                         : DESCRIPTION
#_______________________________________________________________________________
SET                .         LQC_KAZNIPI_Petrel            : 
TLFamily_CALI      .         Caliper                       : 
TLFamily_CILD      .         Conductivity                  : 
TLFamily_COLL      .         Net Reservoir Flag            : 
TLFamily_CSAT      .         Fluid Code                    : 
TLFamily_DEPT      .         Measured Depth                : 
TLFamily_GR        .         Russian Gamma Ray             : 
TLFamily_LLS       .         Lateral Log Resistivity       : 
TLFamily_MINV      .         Micro Gradient Resistivity    : 
TLFamily_MNOR      .         Micro Resistivity             : 
TLFamily_NGLD      .         Neutron Gamma                 : 
TLFamily_PHIE      .         Effective Porosity            : 
TLFamily_PHIEN     .         Effective Porosity            : 
TLFamily_PHIT      .         Porosity                      : 
TLFamily_PRMB      .         Permeability                  : 
TLFamily_PRMB_DGR  .         Permeability                  : 
TLFamily_RT        .         Formation Resistivity         : 
TLFamily_SOIL_ARCHIE .         Oil Saturation                : 
TLFamily_SOIL_DW   .         Oil Saturation                : 
TLFamily_SP        .         Spontaneous Potential         : 
TLFamily_VSH_FIN   .         Shale Volume                  : 
TLFamily_VSH_GR    .         Shale Volume                  : 
TLFamily_VSH_SP    .         Shale Volume                  : 
~Curve Information
#_______________________________________________________________________________
#
#LOGNAME           .UNIT     LOG_ID                        : DESCRIPTION
#_______________________________________________________________________________
DEPT               .м                                      : Колонка глубины 
CALI               .м                                      : Каверномер 
CILD               .мСм/м                                  : Индукционный каротаж 
COLL               .unitless                               : Описание 
CSAT               .unitless                               :  
GR                 .uR/h                                   : Гамма каротаж 
LLS                .Ohmm                                   : Боковой каротаж 
MINV               .Ohmm                                   : Микро-градиент зонд 
MNOR               .Ohmm                                   : Микро-потенциал зонд 
NGLD               .у.е.                                   : Показания зонда НГК-60 аппаратуры ДРСТ-3-90 
PHIE               .v/v                                    : Описание 
PHIEN              .v/v                                    :  
PHIT               .v/v                                    : Описание 
PRMB               .mD                                     :  
PRMB_DGR           .mD                                     :  
RT                 .ohmm                                   : УЭС пласта 
SOIL_ARCHIE        .v/v                                    :  
SOIL_DW            .v/v                                    :  
SP                 .мВ                                     : Потенциал самополяризации 
VSH_FIN            .v/v                                    : Описание 
VSH_GR             .v/v                                    : Shale volume 
VSH_SP             .v/v                                    : Shale Volume 
~Ascii
# ...
919.2000000000001 
  0.209      482.6      1          3          3.825742   2          
  1.499      1.651      1.215757   0.1791484  0.1791484  0.2340797  
  5.826684   31.07811   2.072      0.28967    0.3866346  45.72      
  0.1664585  0.159476   0.173441  
919.4      
  0.209      476.25     1          3          3.830472   2          
  1.626      1.511      1.210657   0.1830802  0.1830802  0.238087   
  6.89044    30.86076   2.1        0.3073514  0.4021765  45.72      
  0.1666873  0.1599336  0.173441  
919.6      
  0.209      476.25     1          3          3.851271   1.986      
  1.41       1.13       1.204438   0.1876319  0.1876319  0.2429734  
  8.366722   29.92277   2.1        0.3220088  0.4152378  45.72      
  0.1677016  0.1619621  0.173441  
919.8      
  0.209      483.87     1          3          3.886412   2          
  1.334      1.029      1.200373   0.1902499  0.1902499  0.2461666  
  9.3551     28.40232   2.067      0.3251447  0.4184289  45.72      
  0.1694445  0.1654479  0.173441  
920        
  0.209      496.57     1          3          3.922217   2.06       
  1.448      1.245      1.199376   0.1904349  0.1904349  0.2469503  
  9.429174   26.93259   2.014      0.3174461  0.4121534  45.72      
  0.1712589  0.1690768  0.173441  
920.2000000000001 
  0.209      497.84     1          3          3.942162   2.09       
  0.978      0.952      1.200129   0.1895039  0.1895039  0.2463585  
  9.062122   26.14713   2.009      0.3137266  0.4093909  45.72      
  0.1722868  0.1711325  0.173441  
920.4      
  0.209      487.68     1          3          3.937402   2.075      
  1.169      1.206      1.201632   0.1884044  0.1884044  0.2451777  
  8.646988   26.33248   2.051      0.3169044  0.4124051  45.72      
  0.1720403  0.1706397  0.173441  
920.6      
  0.209      472.44     1          3          3.912875   2.045      
  1.512      1.587      1.204739   0.1863788  0.1863788  0.2427368  
  7.93133    27.30854   2.117      0.3206159  0.4156247  45.72      
  0.1707817  0.1681224  0.173441  
920.8      
  0.209      461.01     1          3          3.880609   2          
  1.575      1.435      1.210763   0.1821831  0.1821831  0.2380039  
  6.631783   28.64796   2.169      0.3148551  0.4104334  45.72      
  0.1691541  0.1648672  0.173441  
921        
  0.209      449.58     1          3          3.847681   2.045      
  1.347      1.435      1.219369   0.1759587  0.1759587  0.2312421  
  5.085567   30.0826    2.224      0.3020439  0.3992552  45.72      
  0.1675256  0.1616102  0.173441  
921.2000000000001 
  0.208      441.96     1          3          3.813292   2.152      
  1.512      1.664      1.228265   0.169519   0.169519   0.2242525  
  3.864213   31.65761   2.263      0.284865   0.3842007  45.72      
  0.1658592  0.1582774  0.173441  
921.4      
  0.208      436.88     1          3          3.779029   2.265      
  1.677      1.803      1.234581   0.1650931  0.1650931  0.21929    
  3.199504   33.3089    2.289      0.2721085  0.3727866  45.72      
  0.164233   0.1550251  0.173441  
921.6      
  0.208      427.99     1          3          3.754335   2.35       
  1.537      1.486      1.23666    0.1638392  0.1638392  0.2176562  
  3.032899   34.55214   2.337      0.2743604  0.3745639  45.72      
  0.1630818  0.1527227  0.173441  
921.8      
  0.208      415.29     1          3          3.747712   2.42       
  1.715      1.753      1.234978   0.1650416  0.1650416  0.2189774  
  3.192481   34.89339   2.408      0.2890224  0.3878924  45.847     
  0.1634421  0.152111   0.1747731 
922        
  0.208      401.32     1          3          3.756415   2.473      
  1.563      1.842      1.231197   0.1678797  0.1678797  0.2219482  
  3.603268   34.44568   2.492      0.3106835  0.4072352  45.847     
  0.1638442  0.1529152  0.1747731 
922.2000000000001 
  0.209      388.62     1          3          3.769144   2.509      
  1.753      2.083      1.225914   0.1718358  0.1718358  0.2260997  
  4.265539   33.8011    2.573      0.3345895  0.4284875  45.847     
  0.1644362  0.1540993  0.1747731 
922.4      
  0.215      374.65     1          3          3.774181   2.546      
  1.817      1.715      1.217809   0.1783452  0.1783452  0.2324671  
  5.630471   33.54939   2.669      0.3667719  0.4563706  45.72      
  0.1640057  0.1545704  0.173441  
922.6      
  0.215      377.19     1          3          3.770343   2.584      
  1.918      1.765      1.205243   0.1882777  0.1882777  0.2423403  
  8.600375   33.74104   2.651      0.3940464  0.4795033  45.72      
  0.1638261  0.1542113  0.173441  
922.8      
  0.214      384.81     1          3          3.774847   2.661      
  1.702      1.765      1.188872   0.2010713  0.2010713  0.2552035  
  14.8418    33.51627   2.599      0.422423   0.5037453  45.72      
  0.1640369  0.1546327  0.173441  
923        
  0.21       393.7      1          3          3.816192   2.76       
  1.753      1.727      1.172243   0.2137054  0.2137054  0.2682688  
  25.43907   31.52167   2.54       0.4463447  0.5246669  45.593     
  0.1653434  0.1585558  0.1721311 
923.2000000000001 
  0.209      402.59     1          3          3.909513   2.72       
  1.588      1.626      1.159497   0.2221979  0.2221979  0.2782833  
  36.54287   27.44516   2.484      0.4591927  0.5370881  45.593     
  0.1699556  0.1677802  0.1721311 
923.4      
  0.216      412.75     1          3          4.039079   2.584      
  1.537      1.549      1.152939   0.2253018  0.2253018  0.2834358  
  41.71517   22.64449   2.423      0.4594168  0.5389511  45.466     
  0.1761635  0.1814837  0.1708433 
923.6      
  0.216      422.91     1          3          4.16607    2.473      
  1.474      1.435      1.152887   0.2229472  0.2229472  0.2834764  
  37.72947   18.75509   2.365      0.4482096  0.5313067  45.466     
  0.1834219  0.1960005  0.1708433 
923.8      
  0.219      430.53     1          3          4.252192   2.367      
  1.626      1.6        1.15865    0.2166867  0.2166867  0.2789484  
  28.8882    16.50499   2.323      0.4295738  0.516911   45.466     
  0.1886719  0.2065006  0.1708433 
924        
  0.216      438.15     1          3          4.281048   2.282      
  1.524      1.575      1.168549   0.208308   0.208308   0.2711707  
  20.20817   15.81313   2.282      0.4046879  0.4962643  45.466     
  0.1904932  0.2101431  0.1708433 
924.2000000000001 
  0.212      444.5      1          3          4.266175   2.265      
  1.474      1.41       1.179621   0.1999201  0.1999201  0.2624718  
  14.13071   16.16604   2.25       0.3788898  0.474018   45.466     
  0.1895505  0.2082577  0.1708433 
924.4      
  0.212      447.04     1          3          4.238008   2.249      
  1.486      1.575      1.188744   0.193334   0.193334   0.2553042  
  10.67021   16.85607   2.237      0.3587602  0.4563655  45.466     
  0.1877883  0.2047334  0.1708433 
924.6      
  0.212      447.04     1          3          4.22168    2.232      
  1.766      1.74       1.194675   0.1890061  0.1890061  0.2506437  
  8.871763   17.26949   2.237      0.3459906  0.4452826  45.466     
  0.1867805  0.2027177  0.1708433 
924.8      
  0.209      445.77     1          3          4.222937   2.249      
  1.486      1.397      1.199088   0.1855139  0.1855139  0.2471769  
  7.644085   17.23731   2.243      0.3361158  0.4371491  45.466     
  0.1868577  0.2028722  0.1708433 
925        
  0.207      445.77     1          3          4.231729   2.249      
  1.537      1.626      1.204824   0.1806152  0.1806152  0.2426695  
  6.202821   17.01387   2.243      0.3204605  0.4246968  45.593     
  0.1880435  0.2039558  0.1721311 
925.2000000000001 
  0.21       444.5      1          3          4.23913    2.249      
  1.613      1.613      1.212929   0.1740958  0.1740958  0.2363014  
  4.697151   16.82805   2.25       0.2993756  0.4076141  45.593     
  0.1885018  0.2048725  0.1721311 
925.4      
  0.212      447.04     1          3          4.246887   2.265      
  1.88       1.664      1.22123    0.1674147  0.1674147  0.2297796  
  3.532518   16.63544   2.237      0.2731115  0.386202   45.593     
  0.1889844  0.2058378  0.1721311 
