~Version
 VERS              .         2.0                           : CWLS LOG ASCII STANDARD - VERSION 2.0
 WRAP              .         YES                            : ONE LINE PER DEPTH STEP
 DLM               .         SPACE                         : DELIMITING CHARACTER(SPACE TAB OR COMMA)
~Well Information
#_______________________________________________________________________________
#
#PARAMETER_NAME    .UNIT     VALUE                         : DESCRIPTION
#_______________________________________________________________________________
STRT               .м        900                           : First reference value
STOP               .м        1180                          : Last reference value
STEP               .м        0.2                           : Step increment
NULL               .         -9999                         : Missing value
COMP               .                                       : Company
WELL               .         5206                          : Well name
FLD                .         Узень                         : Field
LOC                .                                       : Location
CNTY               .                                       : County
STAT               .                                       : State
CTRY               .                                       : Country
SRVC               .                                       : Service Company
DATE               .         01.01.1983                    : Date
UWI                .                                       : Unique Well ID
Block              .         7                             : 
Cartographic_reference_system .         GCS_WGS_1984                  : ESRI,PE_10_3_1- <?xml version="1.0" encoding="utf-16"?><ILateBoundCoordinateReferenceSystem name="GCS_WGS_1984"><AuthorityCode>EPSG,4326</AuthorityCode></ILateBoundCoordinateReferenceSystem>
Category           .         Нефтяная                      : 
Condition          .         В работе                      : 
EREF               .m        94.5                          : 100.8
Gorizont           .         13                            : 14
HZCS               .GCS_WGS_1984 WGS_1984_EASE-Grid_2.0_Global : ESRI,PE_10_3_1- <?xml version="1.0" encoding="utf-16"?><ILateBoundCoordinateReferenceSystem name="WGS_1984_EASE-Grid_2.0_Global"><AuthorityCode>EPSG,6933</AuthorityCode></ILateBoundCoordinateReferenceSystem>
Interpretator      .         Сагынбаева А.Н.               : 
Kupol              .         основной                      : osnovnoi
LATI               .dega     0.6646091932                  : GCS_WGS_1984
LONG               .dega     0.4366071517                  : GCS_WGS_1984
Mud                .         глинистый                     : 
Mud_density        .         0                             : 
Mud_resistivity    .         0                             : 
NGDU               .         НГДУ-2                        : 
ORIGINALWELLNAME   .         5206                          : 
Spud_date          .         1982                          : 1961
Viscosity          .         40                            : 
X                  .m        42126.6                       : 46154
Y                  .m        84784.53                      : 85761.93
YEAR               .         2019                          : 
~Parameter Information Block
#_______________________________________________________________________________
#
#PARAMETER_NAME    .UNIT     VALUE                         : DESCRIPTION
#_______________________________________________________________________________
SET                .         LQC_KAZNIPI_Petrel            : 
TLFamily_CALI      .         Caliper                       : 
TLFamily_CILD      .         Conductivity                  : 
TLFamily_COLL      .         Net Reservoir Flag            : 
TLFamily_CSAT      .         Fluid Code                    : 
TLFamily_DEPT      .         Measured Depth                : 
TLFamily_GR        .         Russian Gamma Ray             : 
TLFamily_LLS       .         Lateral Log Resistivity       : 
TLFamily_MINV      .         Micro Gradient Resistivity    : 
TLFamily_MNOR      .         Micro Resistivity             : 
TLFamily_NGLD      .         Neutron Gamma                 : 
TLFamily_PHIE      .         Effective Porosity            : 
TLFamily_PHIEN     .         Effective Porosity            : 
TLFamily_PHIT      .         Porosity                      : 
TLFamily_PRMB      .         Permeability                  : 
TLFamily_PRMB_DGR  .         Permeability                  : 
TLFamily_RT        .         Formation Resistivity         : 
TLFamily_SOIL_ARCHIE .         Oil Saturation                : 
TLFamily_SOIL_DW   .         Oil Saturation                : 
TLFamily_SP        .         Spontaneous Potential         : 
TLFamily_VSH_FIN   .         Shale Volume                  : 
TLFamily_VSH_GR    .         Shale Volume                  : 
TLFamily_VSH_SP    .         Shale Volume                  : 
~Curve Information
#_______________________________________________________________________________
#
#LOGNAME           .UNIT     LOG_ID                        : DESCRIPTION
#_______________________________________________________________________________
DEPT               .м                                      : Колонка глубины 
CALI               .м                                      : Каверномер 
CILD               .мСм/м                                  : Индукционный каротаж 
COLL               .unitless                               : Описание 
CSAT               .unitless                               :  
GR                 .uR/h                                   : Гамма каротаж 
LLS                .Ohmm                                   : Боковой каротаж 
MINV               .Ohmm                                   : Микро-градиент зонд 
MNOR               .Ohmm                                   : Микро-потенциал зонд 
NGLD               .у.е.                                   : Показания зонда НГК-60 аппаратуры ДРСТ-3-90 
PHIE               .v/v                                    : Описание 
PHIEN              .v/v                                    :  
PHIT               .v/v                                    : Описание 
PRMB               .mD                                     :  
PRMB_DGR           .mD                                     :  
RT                 .ohmm                                   : УЭС пласта 
SOIL_ARCHIE        .v/v                                    :  
SOIL_DW            .v/v                                    :  
SP                 .мВ                                     : Потенциал самополяризации 
VSH_FIN            .v/v                                    : Описание 
VSH_GR             .v/v                                    : Shale volume 
VSH_SP             .v/v                                    : Shale Volume 
~Ascii
# ...
989.6      
  0.248      312.42     -9999      -9999      7.027332   3.289      
  0.572      1.206      1.131757   0.1149829  0.1149829  0.3000784  
  0.3775036  2.038627   3.201      0.1477913  0.4957119  62.23      
  0.5608954  0.4850664  0.6367244 
989.8      
  0.228      314.96     -9999      -9999      7.093627   3.079      
  0.699      0.952      1.112273   0.126753   0.126753   0.3153873  
  0.623636   1.883285   3.175      0.2141401  0.5264639  62.357     
  0.5716191  0.5010219  0.6422163 
990        
  0.231      325.12     -9999      -9999      7.149159   2.926      
  0.737      1.206      1.091442   0.1399351  0.1399351  0.3317538  
  1.094195   1.762312   3.076      0.2682249  0.5506639  62.484     
  0.581269   0.5147903  0.6477478 
990.2000000000001 
  0.238      337.82     -9999      -9999      7.190254   2.74       
  0.966      1.029      1.073221   0.1525301  0.1525301  0.3460702  
  1.872345   1.677819   2.96       0.3087855  0.5679861  62.484     
  0.5864851  0.5252223  0.6477478 
990.4      
  0.229      349.25     -9999      -9999      7.209171   2.699      
  0.597      0.927      1.059318   0.1617302  0.1617302  0.3569935  
  2.772005   1.640301   2.863      0.3328091  0.5785261  62.611     
  0.591707   0.5300951  0.6533189 
990.6      
  0.229      359.41     -9999      -9999      7.203971   2.699      
  0.572      0.851      1.049185   0.1699139  0.1699139  0.3649554  
  3.929841   1.65053    2.782      0.3522194  0.586041   62.611     
  0.591035   0.5287511  0.6533189 
990.8      
  0.243      365.76     -9999      -9999      7.185934   2.72       
  0.75       1.016      1.042319   0.1760732  0.1760732  0.3703499  
  5.110473   1.686509   2.734      0.3668508  0.5917562  62.611     
  0.5887173  0.5241156  0.6533189 
991        
  0.269      378.46     -9999      -9999      7.172917   2.72       
  0.686      0.749      1.039941   0.1775639  0.1775639  0.3722187  
  5.445941   1.712959   2.642      0.3613057  0.5873272  62.738     
  0.5898628  0.5207958  0.6589299 
991.2000000000001 
  0.281      397.51     -9999      -9999      7.179727   2.641      
  0.534      0.686      1.042771   0.1741216  0.1741216  0.3699949  
  4.702331   1.699071   2.516      0.3352526  0.5723798  62.865     
  0.5935555  0.5225299  0.664581  
991.4      
  0.262      412.75     -9999      -9999      7.209062   2.528      
  0.559      0.559      1.048032   0.1687441  0.1687441  0.365861   
  3.738598   1.640514   2.423      0.3046581  0.5559607  62.865     
  0.597324   0.530067   0.664581  
991.6      
  0.262      429.26     -9999      -9999      7.24498    2.455      
  0.47       0.47       1.050825   0.1650031  0.1650031  0.3636671  
  3.187242   1.571559   2.33       0.2778043  0.5416333  62.865     
  0.6020122  0.5394433  0.664581  
991.8      
  0.245      441.96     -9999      -9999      7.265132   2.42       
  0.559      0.635      1.048618   0.1658567  0.1658567  0.3654007  
  3.305415   1.534147   2.263      0.2711312  0.5371743  62.865     
  0.6046788  0.5447766  0.664581  
992        
  0.23       441.96     -9999      -9999      7.267512   2.333      
  0.661      0.737      1.043701   0.1696158  0.1696158  0.3692644  
  3.880209   1.529788   2.263      0.2852207  0.544061   62.865     
  0.6049955  0.5454099  0.664581  
992.2000000000001 
  0.221      427.99     -9999      -9999      7.273145   2.216      
  0.686      1.067      1.041981   0.1707194  0.1707194  0.3706157  
  4.067208   1.519521   2.337      0.299898   0.5534503  62.865     
  0.6057463  0.5469117  0.664581  
992.4      
  0.219      410.21     -9999      -9999      7.289012   2.184      
  1.385      2.083      1.04949    0.1641179  0.1641179  0.3647159  
  3.069162   1.490968   2.438      0.2896777  0.5518031  62.865     
  0.6078728  0.5511646  0.664581  
992.6      
  0.219      393.7      -9999      -9999      7.291006   2.315      
  2.185      1.727      1.068147   0.14937    0.14937    0.3500566  
  1.636262   1.487418   2.54       0.2436583  0.5333681  62.865     
  0.6081411  0.5517013  0.664581  
992.8      
  0.22       370.84     -9999      -9999      7.259663   2.491      
  2.312      1.194      1.09391    0.1305107  0.1305107  0.329815   
  0.7320363  1.544211   2.697      0.1729192  0.5059117  62.865     
  0.6039525  0.543324   0.664581  
993        
  0.22       346.71     -9999      -9999      7.214558   2.8        
  1.372      0.851      1.118773   0.1129279  0.1129279  0.3102798  
  0.3458254  1.629769   2.884      0.0908815  0.4766752  62.865     
  0.598036   0.531491   0.664581  
993.2000000000001 
  0.241      332.74     -9999      -9999      7.196509   3.125      
  0.864      0.673      1.13438    0.1014348  0.1014348  0.2980174  
  0.2118248  1.66532    3.005      0.02086329 0.4535476  62.865     
  0.5957047  0.5268285  0.664581  
993.4      
  0.267      340.36     -9999      -9999      7.227892   3.313      
  0.648      0.775      1.135462   0.09924323 0.09924323 0.2971678  
  0.1929228  1.603994   2.938      0          0.4421217  62.865     
  0.5997716  0.5349621  0.664581  
993.6      
  0.267      347.98     -9999      -9999      7.308288   3.218      
  0.559      0.66       1.122503   0.1058919  0.1058919  0.3073497  
  0.2561727  1.457001   2.874      0.03692187 0.4604842  62.865     
  0.6104783  0.5563756  0.664581  
993.8      
  0.278      355.6      -9999      -9999      7.423154   2.926      
  0.585      0.648      1.101601   0.1170194  0.1170194  0.3237722  
  0.4117575  1.270044   2.812      0.1081107  0.4908499  62.865     
  0.6265236  0.5884661  0.664581  
994        
  0.27       369.57     -9999      -9999      7.538407   2.641      
  0.547      0.635      1.080349   0.1280975  0.1280975  0.34047    
  0.6604415  1.106565   2.706      0.1606783  0.5134182  62.865     
  0.6435531  0.6225252  0.664581  
994.2000000000001 
  0.278      382.27     -9999      -9999      7.610096   2.491      
  0.559      0.584      1.063318   0.1378204  0.1378204  0.3538513  
  0.9998286  1.015675   2.616      0.1998906  0.529712   62.865     
  0.6546392  0.6446975  0.664581  
994.4      
  0.278      396.24     -9999      -9999      7.612878   2.385      
  0.547      0.546      1.0515     0.146961   0.146961   0.3631365  
  1.476494   1.012302   2.524      0.2305932  0.5398965  62.865     
  0.6550773  0.6455737  0.664581  
994.6      
  0.278      408.94     -9999      -9999      7.552936   2.299      
  0.521      0.533      1.044917   0.1552049  0.1552049  0.3683085  
  2.098596   1.08751    2.445      0.2552813  0.5458672  62.865     
  0.6457686  0.6269563  0.664581  
994.8      
  0.284      412.75     -9999      -9999      7.453827   2.265      
  0.521      0.724      1.043862   0.16092    0.16092    0.3691376  
  2.677853   1.224314   2.423      0.2753032  0.5505118  62.865     
  0.6309626  0.5973441  0.664581  
995        
  0.273      405.13     -9999      -9999      7.343397   2.249      
  0.534      0.711      1.047754   0.1630351  0.1630351  0.3660799  
  2.930645   1.397109   2.468      0.289659   0.5544724  62.865     
  0.6152874  0.5659938  0.664581  
995.2000000000001 
  0.268      400.05     -9999      -9999      7.243296   2.232      
  0.559      0.724      1.054788   0.1619622  0.1619622  0.3605531  
  2.799569   1.574726   2.5        0.2898685  0.5519931  62.865     
  0.6017905  0.539      0.664581  
995.4      
  0.26       400.05     -9999      -9999      7.160683   2.282      
  0.534      0.749      1.063262   0.1588198  0.1588198  0.3538952  
  2.448419   1.738197   2.5        0.2776465  0.5434015  62.865     
  0.5911378  0.5176946  0.664581  
995.6      
  0.26       400.05     -9999      -9999      7.091841   2.333      
  0.521      0.66       1.072088   0.1547078  0.1547078  0.3469603  
  2.054579   1.887312   2.5        0.2609533  0.5331513  62.865     
  0.5825831  0.5005852  0.664581  
995.8      
  0.251      398.78     -9999      -9999      7.035138   2.402      
  0.585      0.737      1.079588   0.1510702  0.1510702  0.3410676  
  1.759318   2.01969    2.508      0.2466083  0.5246617  62.865     
  0.5757497  0.4869184  0.664581  
