~Version
 VERS              .         2.0                           : CWLS LOG ASCII STANDARD - VERSION 2.0
 WRAP              .         YES                            : ONE LINE PER DEPTH STEP
 DLM               .         SPACE                         : DELIMITING CHARACTER(SPACE TAB OR COMMA)
~Well Information
#_______________________________________________________________________________
#
#PARAMETER_NAME    .UNIT     VALUE                         : DESCRIPTION
#_______________________________________________________________________________
STRT               .м        900                           : First reference value
STOP               .м        1180                          : Last reference value
STEP               .м        0.2                           : Step increment
NULL               .         -9999                         : Missing value
COMP               .                                       : Company
WELL               .         5206                          : Well name
FLD                .         Узень                         : Field
LOC                .                                       : Location
CNTY               .                                       : County
STAT               .                                       : State
CTRY               .                                       : Country
SRVC               .                                       : Service Company
DATE               .         01.01.1983                    : Date
UWI                .                                       : Unique Well ID
Block              .         7                             : 
Cartographic_reference_system .         GCS_WGS_1984                  : ESRI,PE_10_3_1- <?xml version="1.0" encoding="utf-16"?><ILateBoundCoordinateReferenceSystem name="GCS_WGS_1984"><AuthorityCode>EPSG,4326</AuthorityCode></ILateBoundCoordinateReferenceSystem>
Category           .         Нефтяная                      : 
Condition          .         В работе                      : 
EREF               .m        94.5                          : 100.8
Gorizont           .         13                            : 14
HZCS               .GCS_WGS_1984 WGS_1984_EASE-Grid_2.0_Global : ESRI,PE_10_3_1- <?xml version="1.0" encoding="utf-16"?><ILateBoundCoordinateReferenceSystem name="WGS_1984_EASE-Grid_2.0_Global"><AuthorityCode>EPSG,6933</AuthorityCode></ILateBoundCoordinateReferenceSystem>
Interpretator      .         Сагынбаева А.Н.               : 
Kupol              .         основной                      : osnovnoi
LATI               .dega     0.6646091932                  : GCS_WGS_1984
LONG               .dega     0.4366071517                  : GCS_WGS_1984
Mud                .         глинистый                     : 
Mud_density        .         0                             : 
Mud_resistivity    .         0                             : 
NGDU               .         НГДУ-2                        : 
ORIGINALWELLNAME   .         5206                          : 
Spud_date          .         1982                          : 1961
Viscosity          .         40                            : 
X                  .m        42126.6                       : 46154
Y                  .m        84784.53                      : 85761.93
YEAR               .         2019                          : 
~Parameter Information Block
#_______________________________________________________________________________
#
#PARAMETER_NAME    .UNIT     VALUE                         : DESCRIPTION
#_______________________________________________________________________________
SET                .         LQC_KAZNIPI_Petrel            : 
TLFamily_CALI      .         Caliper                       : 
TLFamily_CILD      .         Conductivity                  : 
TLFamily_COLL      .         Net Reservoir Flag            : 
TLFamily_CSAT      .         Fluid Code                    : 
TLFamily_DEPT      .         Measured Depth                : 
TLFamily_GR        .         Russian Gamma Ray             : 
TLFamily_LLS       .         Lateral Log Resistivity       : 
TLFamily_MINV      .         Micro Gradient Resistivity    : 
TLFamily_MNOR      .         Micro Resistivity             : 
TLFamily_NGLD      .         Neutron Gamma                 : 
TLFamily_PHIE      .         Effective Porosity            : 
TLFamily_PHIEN     .         Effective Porosity            : 
TLFamily_PHIT      .         Porosity                      : 
TLFamily_PRMB      .         Permeability                  : 
TLFamily_PRMB_DGR  .         Permeability                  : 
TLFamily_RT        .         Formation Resistivity         : 
TLFamily_SOIL_ARCHIE .         Oil Saturation                : 
TLFamily_SOIL_DW   .         Oil Saturation                : 
TLFamily_SP        .         Spontaneous Potential         : 
TLFamily_VSH_FIN   .         Shale Volume                  : 
TLFamily_VSH_GR    .         Shale Volume                  : 
TLFamily_VSH_SP    .         Shale Volume                  : 
~Curve Information
#_______________________________________________________________________________
#
#LOGNAME           .UNIT     LOG_ID                        : DESCRIPTION
#_______________________________________________________________________________
DEPT               .м                                      : Колонка глубины 
CALI               .м                                      : Каверномер 
CILD               .мСм/м                                  : Индукционный каротаж 
COLL               .unitless                               : Описание 
CSAT               .unitless                               :  
GR                 .uR/h                                   : Гамма каротаж 
LLS                .Ohmm                                   : Боковой каротаж 
MINV               .Ohmm                                   : Микро-градиент зонд 
MNOR               .Ohmm                                   : Микро-потенциал зонд 
NGLD               .у.е.                                   : Показания зонда НГК-60 аппаратуры ДРСТ-3-90 
PHIE               .v/v                                    : Описание 
PHIEN              .v/v                                    :  
PHIT               .v/v                                    : Описание 
PRMB               .mD                                     :  
PRMB_DGR           .mD                                     :  
RT                 .ohmm                                   : УЭС пласта 
SOIL_ARCHIE        .v/v                                    :  
SOIL_DW            .v/v                                    :  
SP                 .мВ                                     : Потенциал самополяризации 
VSH_FIN            .v/v                                    : Описание 
VSH_GR             .v/v                                    : Shale volume 
VSH_SP             .v/v                                    : Shale Volume 
~Ascii
900.0      
  0.328      212.09     -9999      -9999      -9999      -9999      
  1.639      1.638      -9999      -9999      -9999      -9999      
  -9999      -9999      4.715      -9999      -9999      58.039     
  -9999      0.2571692  0.8       
900.2000000000001 
  0.341      214.63     -9999      -9999      -9999      -9999      
  2.172      2.299      -9999      -9999      -9999      -9999      
  -9999      -9999      4.659      -9999      -9999      57.912     
  -9999      0.2637852  0.8       
900.4      
  0.231      217.17     -9999      -9999      -9999      -9999      
  1.601      1.854      -9999      -9999      -9999      -9999      
  -9999      -9999      4.605      -9999      -9999      57.785     
  -9999      0.2264969  0.8       
900.6      
  0.231      217.17     -9999      -9999      -9999      5.567      
  2.21       2.515      -9999      -9999      -9999      -9999      
  -9999      -9999      4.605      -9999      -9999      57.785     
  -9999      0.1711698  0.8       
900.8      
  0.251      213.36     -9999      -9999      -9999      5.567      
  1.321      1.41       -9999      -9999      -9999      -9999      
  -9999      -9999      4.687      -9999      -9999      57.658     
  -9999      0.1640016  0.8       
901        
  0.271      219.71     -9999      -9999      7.643758   5.328      
  1.651      1.854      1.074252   -9999      -9999      -9999      
  -9999      -9999      4.551      -9999      -9999      57.531     
  -9999      0.1847231  0.8       
901.2000000000001 
  0.29       229.87     -9999      -9999      7.643181   5.044      
  0.953      1.105      1.057228   -9999      -9999      -9999      
  -9999      -9999      4.35       -9999      -9999      57.531     
  -9999      0.178532   0.8       
901.4      
  0.267      241.3      -9999      -9999      7.659983   4.741      
  0.724      0.775      1.039453   -9999      -9999      -9999      
  -9999      -9999      4.144      -9999      -9999      57.531     
  -9999      0.1740543  0.8       
901.6      
  0.267      248.92     -9999      -9999      7.689824   4.217      
  1.016      1.092      1.023229   -9999      -9999      -9999      
  -9999      -9999      4.017      -9999      -9999      57.531     
  -9999      0.1926682  0.8       
901.8      
  0.261      238.76     -9999      -9999      7.739773   3.751      
  0.724      0.838      1.010375   -9999      -9999      -9999      
  -9999      -9999      4.188      -9999      -9999      57.531     
  -9999      0.1771057  0.8       
902        
  0.277      250.19     -9999      -9999      7.814401   3.564      
  1.207      1.092      1.001974   -9999      -9999      -9999      
  -9999      -9999      3.997      -9999      -9999      57.531     
  -9999      0.1926682  0.8       
902.2000000000001 
  0.272      261.62     -9999      -9999      7.898456   3.437      
  1.093      0.902      0.9976844  -9999      -9999      -9999      
  -9999      -9999      3.822      -9999      -9999      57.531     
  -9999      0.2170117  0.8       
902.4      
  0.269      276.86     -9999      -9999      7.957561   3.386      
  0.89       1.13       0.9961916  -9999      -9999      -9999      
  -9999      -9999      3.612      -9999      -9999      57.531     
  -9999      0.24855    0.8       
902.6      
  0.269      287.02     -9999      -9999      7.966997   3.412      
  0.699      0.826      0.9964463  -9999      -9999      -9999      
  -9999      -9999      3.484      -9999      -9999      57.531     
  -9999      0.2403803  0.8       
902.8      
  0.286      278.13     -9999      -9999      7.935341   3.512      
  0.762      0.635      0.9980882  -9999      -9999      -9999      
  -9999      -9999      3.595      -9999      -9999      57.531     
  -9999      0.2080628  0.8       
903        
  0.302      273.05     -9999      -9999      7.888129   3.462      
  1.626      1.638      1.001676   -9999      -9999      -9999      
  -9999      -9999      3.662      -9999      -9999      57.658     
  -9999      0.204478   0.8       
903.2000000000001 
  0.313      278.13     -9999      -9999      7.832845   3.362      
  0.915      1.118      1.009155   -9999      -9999      -9999      
  -9999      -9999      3.595      -9999      -9999      57.658     
  -9999      0.2115689  0.8       
903.4      
  0.295      280.67     -9999      -9999      7.754525   3.313      
  1.385      0.914      1.022907   -9999      -9999      -9999      
  -9999      -9999      3.563      -9999      -9999      57.531     
  -9999      0.2080628  0.8       
903.6      
  0.295      269.24     -9999      -9999      7.64051    3.362      
  2.223      1.486      1.043697   -9999      -9999      -9999      
  -9999      -9999      3.714      -9999      -9999      57.531     
  -9999      0.1847231  0.8       
903.8      
  0.256      257.81     -9999      -9999      7.498735   3.412      
  2.172      1.562      1.070172   -9999      -9999      -9999      
  -9999      -9999      3.879      -9999      -9999      57.531     
  -9999      0.1612838  0.8       
904        
  0.247      242.57     -9999      -9999      7.350149   3.539      
  1.778      1.689      1.100541   -9999      -9999      -9999      
  -9999      -9999      4.123      -9999      -9999      57.531     
  -9999      0.1456045  0.8       
904.2000000000001 
  0.251      228.6      -9999      -9999      7.209986   3.644      
  1.626      1.295      1.134385   -9999      -9999      -9999      
  -9999      -9999      4.374      -9999      -9999      57.404     
  -9999      0.1282384  0.8       
904.4      
  0.243      224.79     -9999      -9999      7.079746   3.722      
  2.82       2.095      1.173177   -9999      -9999      -9999      
  -9999      -9999      4.449      -9999      -9999      57.277     
  -9999      0.1271289  0.8       
904.6      
  0.243      219.71     -9999      -9999      6.954389   3.807      
  2.083      1.943      1.219234   -9999      -9999      -9999      
  -9999      -9999      4.551      -9999      -9999      57.277     
  -9999      0.1148468  0.8       
904.8      
  0.226      208.28     -9999      -9999      6.827646   3.977      
  1.105      1.232      1.273028   -9999      -9999      -9999      
  -9999      -9999      4.801      -9999      -9999      57.15      
  -9999      0.09691322 0.8       
905        
  0.212      190.5      -9999      -9999      6.681699   4.248      
  2.35       1.092      1.330842   -9999      -9999      -9999      
  -9999      -9999      5.249      -9999      -9999      57.023     
  -9999      0.1010815  0.8       
905.2000000000001 
  0.207      171.45     -9999      -9999      6.484179   4.604      
  4.001      2.984      1.38598    -9999      -9999      -9999      
  -9999      -9999      5.833      -9999      -9999      56.769     
  -9999      0.09607472 0.8       
905.4      
  0.207      149.86     -9999      -9999      6.213247   5.251      
  3.01       2.946      1.432657   -9999      -9999      -9999      
  -9999      -9999      6.673      -9999      -9999      56.388     
  -9999      0.07260624 0.8       
905.6      
  0.207      146.05     -9999      -9999      5.882921   5.447      
  1.931      1.994      1.467914   -9999      -9999      -9999      
  -9999      -9999      6.847      -9999      -9999      56.388     
  -9999      0.05628208 0.8       
905.8      
  0.209      153.67     -9999      -9999      5.536628   5.775      
  3.887      3.48       1.490364   -9999      -9999      -9999      
  -9999      -9999      6.507      -9999      -9999      55.88      
  -9999      0.04253389 0.8       
906        
  0.208      156.21     -9999      -9999      5.223427   6.123      
  2.185      3.569      1.499382   -9999      -9999      -9999      
  -9999      -9999      6.402      -9999      -9999      55.118     
  -9999      0.03186588 0.8       
906.2000000000001 
  0.203      157.48     6          6          4.977642   6.635      
  2.756      2.464      1.495988   0.01       0          0.0139025  
  0.004289259 5.624394   6.35       0          0          53.975     
  0.3184067  0.3205038  0.3163096 
