~Version
 VERS              .         2.0                           : CWLS LOG ASCII STANDARD - VERSION 2.0
 WRAP              .         YES                            : ONE LINE PER DEPTH STEP
 DLM               .         SPACE                         : DELIMITING CHARACTER(SPACE TAB OR COMMA)
~Well Information
#_______________________________________________________________________________
#
#PARAMETER_NAME    .UNIT     VALUE                         : DESCRIPTION
#_______________________________________________________________________________
STRT               .м        900                           : First reference value
STOP               .м        1180                          : Last reference value
STEP               .м        0.2                           : Step increment
NULL               .         -9999                         : Missing value
COMP               .                                       : Company
WELL               .         5206                          : Well name
FLD                .         Узень                         : Field
LOC                .                                       : Location
CNTY               .                                       : County
STAT               .                                       : State
CTRY               .                                       : Country
SRVC               .                                       : Service Company
DATE               .         01.01.1983                    : Date
UWI                .                                       : Unique Well ID
Block              .         7                             : 
Cartographic_reference_system .         GCS_WGS_1984                  : ESRI,PE_10_3_1- <?xml version="1.0" encoding="utf-16"?><ILateBoundCoordinateReferenceSystem name="GCS_WGS_1984"><AuthorityCode>EPSG,4326</AuthorityCode></ILateBoundCoordinateReferenceSystem>
Category           .         Нефтяная                      : 
Condition          .         В работе                      : 
EREF               .m        94.5                          : 100.8
Gorizont           .         13                            : 14
HZCS               .GCS_WGS_1984 WGS_1984_EASE-Grid_2.0_Global : ESRI,PE_10_3_1- <?xml version="1.0" encoding="utf-16"?><ILateBoundCoordinateReferenceSystem name="WGS_1984_EASE-Grid_2.0_Global"><AuthorityCode>EPSG,6933</AuthorityCode></ILateBoundCoordinateReferenceSystem>
Interpretator      .         Сагынбаева А.Н.               : 
Kupol              .         основной                      : osnovnoi
LATI               .dega     0.6646091932                  : GCS_WGS_1984
LONG               .dega     0.4366071517                  : GCS_WGS_1984
Mud                .         глинистый                     : 
Mud_density        .         0                             : 
Mud_resistivity    .         0                             : 
NGDU               .         НГДУ-2                        : 
ORIGINALWELLNAME   .         5206                          : 
Spud_date          .         1982                          : 1961
Viscosity          .         40                            : 
X                  .m        42126.6                       : 46154
Y                  .m        84784.53                      : 85761.93
YEAR               .         2019                          : 
~Parameter Information Block
#_______________________________________________________________________________
#
#PARAMETER_NAME    .UNIT     VALUE                         : DESCRIPTION
#_______________________________________________________________________________
SET                .         LQC_KAZNIPI_Petrel            : 
TLFamily_CALI      .         Caliper                       : 
TLFamily_CILD      .         Conductivity                  : 
TLFamily_COLL      .         Net Reservoir Flag            : 
TLFamily_CSAT      .         Fluid Code                    : 
TLFamily_DEPT      .         Measured Depth                : 
TLFamily_GR        .         Russian Gamma Ray             : 
TLFamily_LLS       .         Lateral Log Resistivity       : 
TLFamily_MINV      .         Micro Gradient Resistivity    : 
TLFamily_MNOR      .         Micro Resistivity             : 
TLFamily_NGLD      .         Neutron Gamma                 : 
TLFamily_PHIE      .         Effective Porosity            : 
TLFamily_PHIEN     .         Effective Porosity            : 
TLFamily_PHIT      .         Porosity                      : 
TLFamily_PRMB      .         Permeability                  : 
TLFamily_PRMB_DGR  .         Permeability                  : 
TLFamily_RT        .         Formation Resistivity         : 
TLFamily_SOIL_ARCHIE .         Oil Saturation                : 
TLFamily_SOIL_DW   .         Oil Saturation                : 
TLFamily_SP        .         Spontaneous Potential         : 
TLFamily_VSH_FIN   .         Shale Volume                  : 
TLFamily_VSH_GR    .         Shale Volume                  : 
TLFamily_VSH_SP    .         Shale Volume                  : 
~Curve Information
#_______________________________________________________________________________
#
#LOGNAME           .UNIT     LOG_ID                        : DESCRIPTION
#_______________________________________________________________________________
DEPT               .м                                      : Колонка глубины 
CALI               .м                                      : Каверномер 
CILD               .мСм/м                                  : Индукционный каротаж 
COLL               .unitless                               : Описание 
CSAT               .unitless                               :  
GR                 .uR/h                                   : Гамма каротаж 
LLS                .Ohmm                                   : Боковой каротаж 
MINV               .Ohmm                                   : Микро-градиент зонд 
MNOR               .Ohmm                                   : Микро-потенциал зонд 
NGLD               .у.е.                                   : Показания зонда НГК-60 аппаратуры ДРСТ-3-90 
PHIE               .v/v                                    : Описание 
PHIEN              .v/v                                    :  
PHIT               .v/v                                    : Описание 
PRMB               .mD                                     :  
PRMB_DGR           .mD                                     :  
RT                 .ohmm                                   : УЭС пласта 
SOIL_ARCHIE        .v/v                                    :  
SOIL_DW            .v/v                                    :  
SP                 .мВ                                     : Потенциал самополяризации 
VSH_FIN            .v/v                                    : Описание 
VSH_GR             .v/v                                    : Shale volume 
VSH_SP             .v/v                                    : Shale Volume 
~Ascii
# ...
1047.2     
  0.249      543.56     -9999      -9999      8.499163   1.846      
  1.144      0.838      0.9518641  0.2562457  0.2562457  0.4414203  
  156.117    1.195428   1.84       0.4501085  0.6136613  55.499     
  0.5611354  0.6031964  0.5190743 
1047.4     
  0.25       547.37     -9999      -9999      8.423194   1.846      
  1.016      0.914      0.948186   0.2608026  0.2608026  0.4443103  
  189.6072   1.29482    1.827      0.4566814  0.6165072  55.753     
  0.5560839  0.583842   0.5283257 
1047.6     
  0.25       547.37     -9999      -9999      8.393444   1.86       
  1.486      1.422      0.9453663  0.2642405  0.2642405  0.4465257  
  219.5496   1.335957   1.827      0.4628432  0.6196424  55.753     
  0.5523794  0.5764331  0.5283257 
1047.8     
  0.252      551.18     -9999      -9999      8.43187    1.901      
  1.08       0.775      0.9441696  0.2620484  0.2620484  0.4474659  
  199.9537   1.283063   1.814      0.4571156  0.617498   56.007     
  0.5618713  0.5860205  0.5377222 
1048       
  0.252      554.99     -9999      -9999      8.505601   1.929      
  1.144      0.864      0.9438616  0.2583967  0.2583967  0.447708   
  171.1164   1.187364   1.802      0.4487253  0.6142071  56.134     
  0.5736705  0.6048658  0.5424752 
1048.2     
  0.257      544.83     -9999      -9999      8.564285   1.929      
  1.08       0.838      0.9441838  0.2540106  0.2540106  0.4474548  
  141.9222   1.116323   1.835      0.4451887  0.61496    56.388     
  0.5861945  0.6202974  0.5520916 
1048.4     
  0.252      529.59     -9999      -9999      8.588925   1.971      
  1.245      0.927      0.9457928  0.2500469  0.2500469  0.4461906  
  119.8489   1.087776   1.888      0.4450022  0.6173844  56.642     
  0.5943747  0.6268936  0.5618558 
1048.6     
  0.252      515.62     -9999      -9999      8.580772   2          
  1.499      1.041      0.9483333  0.2484123  0.2484123  0.4441946  
  111.7781   1.09714    1.939      0.4487609  0.6204429  56.642     
  0.5932795  0.6247033  0.5618558 
1048.8     
  0.24       510.54     -9999      -9999      8.523657   2.015      
  1.372      0.965      0.950611   0.2474835  0.2474835  0.442405   
  107.4369   1.165037   1.959      0.4496163  0.6209014  56.896     
  0.5906709  0.6095725  0.5717694 
1049       
  0.231      511.81     -9999      -9999      8.395868   2.015      
  1.22       0.8        0.9531112  0.2492276  0.2492276  0.4404406  
  115.733    1.332557   1.954      0.4523158  0.6204455  57.15      
  0.5794333  0.5770332  0.5818332 
1049.2     
  0.237      508        -9999      -9999      8.210065   2.045      
  1.016      0.991      0.9581876  0.2525383  0.2525383  0.436452   
  133.2846   1.620018   1.969      0.4605141  0.6217915  57.15      
  0.5573142  0.5327951  0.5818332 
1049.4     
  0.247      496.57     -9999      -9999      8.010983   2.105      
  1.359      0.889      0.9677095  0.2514184  0.2514184  0.4289706  
  127.0681   1.997177   2.014      0.4641342  0.6214558  57.277     
  0.5380371  0.4891522  0.5869219 
1049.6     
  0.247      483.87     -9999      -9999      7.839343   2.184      
  1.105      0.876      0.9813351  0.2464459  0.2464459  0.418265   
  102.7862   2.392127   2.067      0.4613358  0.6175838  57.277     
  0.5206639  0.4544058  0.5869219 
1049.8     
  0.24       469.9      -9999      -9999      7.714843   2.282      
  1.144      1.08       0.9965478  0.239235   0.239235   0.4063124  
  75.57365   2.726646   2.128      0.4547152  0.6119087  57.15      
  0.5062951  0.4307571  0.5818332 
1050       
  0.237      452.12     -9999      -9999      7.648714   2.35       
  1.423      1.27       1.009588   0.2309784  0.2309784  0.3960665  
  53.14216   2.922954   2.212      0.4478993  0.6080103  57.15      
  0.5002669  0.4187005  0.5818332 
1050.2     
  0.248      433.07     -9999      -9999      7.650205   2.42       
  1.651      1.257      1.016984   0.2259568  0.2259568  0.3902557  
  42.89684   2.918374   2.309      0.4484486  0.6095044  57.023     
  0.4978755  0.4189687  0.5767823 
1050.4     
  0.249      425.45     -9999      -9999      7.718253   2.491      
  1.893      1.473      1.017217   0.2237244  0.2237244  0.3900726  
  39.00116   2.716888   2.35       0.4482346  0.611289   57.023     
  0.5040852  0.4313881  0.5767823 
1050.6     
  0.249      421.64     -9999      -9999      7.835007   2.546      
  1.588      1.511      1.01222    0.2239923  0.2239923  0.3939989  
  39.44924   2.403056   2.372      0.4512142  0.6156123  57.023     
  0.5151716  0.4535608  0.5767823 
1050.8     
  0.254      424.18     -9999      -9999      7.969677   2.491      
  1.524      1.194      1.006866   0.2245723  0.2245723  0.3982058  
  40.43723   2.085817   2.357      0.4508164  0.617252   56.896     
  0.5261621  0.4805549  0.5717694 
1051       
  0.262      430.53     -9999      -9999      8.092677   2.402      
  1.372      1.105      1.00612    0.2208585  0.2208585  0.3987913  
  34.51382   1.832808   2.323      0.4389698  0.6122655  56.896     
  0.5391902  0.5066112  0.5717694 
1051.2     
  0.256      421.64     -9999      -9999      8.177923   2.299      
  1.461      1.206      1.011606   0.2142537  0.2142537  0.3944812  
  26.04088   1.675696   2.372      0.4295515  0.6091204  56.769     
  0.546144   0.525494   0.5667939 
1051.4     
  0.254      410.21     -9999      -9999      8.2022     2.232      
  1.69       1.346      1.020562   0.2063089  0.2063089  0.3874448  
  18.55664   1.633469   2.438      0.4180096  0.6043987  56.769     
  0.5488966  0.5309992  0.5667939 
1051.6     
  0.254      406.4      -9999      -9999      8.165171   2.232      
  1.906      1.638      1.028131   0.2017434  0.2017434  0.3814976  
  15.2734    1.698313   2.461      0.4091644  0.5990358  56.769     
  0.5447095  0.5226251  0.5667939 
1051.8     
  0.262      412.75     -9999      -9999      8.106367   2.282      
  1.639      1.448      1.031304   0.2013997  0.2013997  0.3790043  
  15.05114   1.806618   2.423      0.4039496  0.5940134  56.769     
  0.5381956  0.5095972  0.5667939 
1052       
  0.262      422.91     -9999      -9999      8.076059   2.333      
  1.486      1.194      1.031249   0.2025303  0.2025303  0.379048   
  15.7947    1.865109   2.365      0.4000663  0.5899901  56.769     
  0.534902   0.50301    0.5667939 
1052.2     
  0.256      431.8      -9999      -9999      8.093142   2.282      
  1.448      1.156      1.031381   0.2018153  0.2018153  0.3789439  
  15.32032   1.831913   2.316      0.3922741  0.5850341  56.769     
  0.5367531  0.5067122  0.5667939 
1052.4     
  0.223      431.8      -9999      -9999      8.150984   2.216      
  1.613      1.118      1.033347   0.1989831  0.1989831  0.3773989  
  13.57714   1.723832   2.316      0.3847472  0.5817017  56.642     
  0.5406538  0.5194519  0.5618558 
1052.6     
  0.223      424.18     -9999      -9999      8.239319   2.168      
  1.588      1.245      1.036096   0.1935112  0.1935112  0.3752396  
  10.75116   1.570953   2.357      0.3747918  0.5793704  56.642     
  0.550692   0.5395283  0.5618558 
1052.8     
  0.23       416.56     -9999      -9999      8.344505   2.216      
  1.715      1.524      1.038302   0.1876661  0.1876661  0.3735065  
  8.378955   1.406491   2.401      0.3634147  0.5770794  56.642     
  0.5631525  0.5644492  0.5618558 
1053       
  0.241      411.48     -9999      -9999      8.452886   2.282      
  1.804      1.295      1.040122   0.1818006  0.1818006  0.3720765  
  6.524482   1.255026   2.43       0.3492402  0.5734519  56.642     
  0.5765936  0.5913314  0.5618558 
1053.2     
  0.249      410.21     -9999      -9999      8.564531   2.35       
  1.55       1.359      1.042531   0.1759256  0.1759256  0.3701831  
  5.078403   1.116034   2.438      0.331385   0.5674248  56.515     
  0.588659   0.620363   0.5569551 
1053.4     
  0.253      411.48     -9999      -9999      8.680677   2.367      
  1.817      1.346      1.045565   0.1675007  0.1675007  0.3677998  
  3.545502   0.9877505  2.43       0.3011113  0.5568275  56.642     
  0.6069671  0.6520784  0.5618558 
