~Version
 VERS              .         2.0                           : CWLS LOG ASCII STANDARD - VERSION 2.0
 WRAP              .         YES                            : ONE LINE PER DEPTH STEP
 DLM               .         SPACE                         : DELIMITING CHARACTER(SPACE TAB OR COMMA)
~Well Information
#_______________________________________________________________________________
#
#PARAMETER_NAME    .UNIT     VALUE                         : DESCRIPTION
#_______________________________________________________________________________
STRT               .м        900                           : First reference value
STOP               .м        1180                          : Last reference value
STEP               .м        0.2                           : Step increment
NULL               .         -9999                         : Missing value
COMP               .                                       : Company
WELL               .         5206                          : Well name
FLD                .         Узень                         : Field
LOC                .                                       : Location
CNTY               .                                       : County
STAT               .                                       : State
CTRY               .                                       : Country
SRVC               .                                       : Service Company
DATE               .         01.01.1983                    : Date
UWI                .                                       : Unique Well ID
Block              .         7                             : 
Cartographic_reference_system .         GCS_WGS_1984                  : ESRI,PE_10_3_1- <?xml version="1.0" encoding="utf-16"?><ILateBoundCoordinateReferenceSystem name="GCS_WGS_1984"><AuthorityCode>EPSG,4326</AuthorityCode></ILateBoundCoordinateReferenceSystem>
Category           .         Нефтяная                      : 
Condition          .         В работе                      : 
EREF               .m        94.5                          : 100.8
Gorizont           .         13                            : 14
HZCS               .GCS_WGS_1984 WGS_1984_EASE-Grid_2.0_Global : ESRI,PE_10_3_1- <?xml version="1.0" encoding="utf-16"?><ILateBoundCoordinateReferenceSystem name="WGS_1984_EASE-Grid_2.0_Global"><AuthorityCode>EPSG,6933</AuthorityCode></ILateBoundCoordinateReferenceSystem>
Interpretator      .         Сагынбаева А.Н.               : 
Kupol              .         основной                      : osnovnoi
LATI               .dega     0.6646091932                  : GCS_WGS_1984
LONG               .dega     0.4366071517                  : GCS_WGS_1984
Mud                .         глинистый                     : 
Mud_density        .         0                             : 
Mud_resistivity    .         0                             : 
NGDU               .         НГДУ-2                        : 
ORIGINALWELLNAME   .         5206                          : 
Spud_date          .         1982                          : 1961
Viscosity          .         40                            : 
X                  .m        42126.6                       : 46154
Y                  .m        84784.53                      : 85761.93
YEAR               .         2019                          : 
~Parameter Information Block
#_______________________________________________________________________________
#
#PARAMETER_NAME    .UNIT     VALUE                         : DESCRIPTION
#_______________________________________________________________________________
SET                .         LQC_KAZNIPI_Petrel            : 
TLFamily_CALI      .         Caliper                       : 
TLFamily_CILD      .         Conductivity                  : 
TLFamily_COLL      .         Net Reservoir Flag            : 
TLFamily_CSAT      .         Fluid Code                    : 
TLFamily_DEPT      .         Measured Depth                : 
TLFamily_GR        .         Russian Gamma Ray             : 
TLFamily_LLS       .         Lateral Log Resistivity       : 
TLFamily_MINV      .         Micro Gradient Resistivity    : 
TLFamily_MNOR      .         Micro Resistivity             : 
TLFamily_NGLD      .         Neutron Gamma                 : 
TLFamily_PHIE      .         Effective Porosity            : 
TLFamily_PHIEN     .         Effective Porosity            : 
TLFamily_PHIT      .         Porosity                      : 
TLFamily_PRMB      .         Permeability                  : 
TLFamily_PRMB_DGR  .         Permeability                  : 
TLFamily_RT        .         Formation Resistivity         : 
TLFamily_SOIL_ARCHIE .         Oil Saturation                : 
TLFamily_SOIL_DW   .         Oil Saturation                : 
TLFamily_SP        .         Spontaneous Potential         : 
TLFamily_VSH_FIN   .         Shale Volume                  : 
TLFamily_VSH_GR    .         Shale Volume                  : 
TLFamily_VSH_SP    .         Shale Volume                  : 
~Curve Information
#_______________________________________________________________________________
#
#LOGNAME           .UNIT     LOG_ID                        : DESCRIPTION
#_______________________________________________________________________________
DEPT               .м                                      : Колонка глубины 
CALI               .м                                      : Каверномер 
CILD               .мСм/м                                  : Индукционный каротаж 
COLL               .unitless                               : Описание 
CSAT               .unitless                               :  
GR                 .uR/h                                   : Гамма каротаж 
LLS                .Ohmm                                   : Боковой каротаж 
MINV               .Ohmm                                   : Микро-градиент зонд 
MNOR               .Ohmm                                   : Микро-потенциал зонд 
NGLD               .у.е.                                   : Показания зонда НГК-60 аппаратуры ДРСТ-3-90 
PHIE               .v/v                                    : Описание 
PHIEN              .v/v                                    :  
PHIT               .v/v                                    : Описание 
PRMB               .mD                                     :  
PRMB_DGR           .mD                                     :  
RT                 .ohmm                                   : УЭС пласта 
SOIL_ARCHIE        .v/v                                    :  
SOIL_DW            .v/v                                    :  
SP                 .мВ                                     : Потенциал самополяризации 
VSH_FIN            .v/v                                    : Описание 
VSH_GR             .v/v                                    : Shale volume 
VSH_SP             .v/v                                    : Shale Volume 
~Ascii
# ...
1085.6     
  0.233      346.71     -9999      -9999      8.177357   2.904      
  0.61       1.08       1.17218    0.08729112 0.08729112 0.2683185  
  0.1158781  1.676694   2.884      0          0.3707466  56.896     
  0.5485678  0.5253662  0.5717694 
1085.8     
  0.239      349.25     -9999      -9999      8.14662    2.863      
  0.636      1.118      1.16824    0.09069537 0.09069537 0.2714136  
  0.1339851  1.73176    2.863      0          0.3813612  57.023     
  0.547631   0.5184796  0.5767823 
1086       
  0.229      349.25     -9999      -9999      8.174723   2.78       
  0.877      1.435      1.165134   0.09126411 0.09126411 0.2738541  
  0.1372748  1.681343   2.863      0          0.3863034  57.15      
  0.5533029  0.5247725  0.5818332 
1086.2     
  0.232      345.44     -9999      -9999      8.259692   2.68       
  0.877      1.499      1.164327   0.08868189 0.08868189 0.2744885  
  0.1229594  1.537663   2.895      0          0.3846065  57.15      
  0.5630504  0.5442677  0.5818332 
1086.4     
  0.242      351.79     -9999      -9999      8.370395   2.68       
  1.004      1.511      1.16367    0.08398744 0.08398744 0.2750045  
  0.1006489  1.368726   2.843      0          0.3682658  57.277     
  0.5788397  0.5707574  0.5869219 
1086.6     
  0.242      360.68     -9999      -9999      8.45882    2.661      
  0.75       1.702      1.158476   0.08442509 0.08442509 0.2790858  
  0.1025453  1.24722    2.773      0          0.3676829  57.277     
  0.5898809  0.5928399  0.5869219 
1086.8     
  0.246      370.84     -9999      -9999      8.49651    2.622      
  0.877      1.283      1.146966   0.09271242 0.09271242 0.288129   
  0.1460216  1.198767   2.697      0          0.3917615  57.15      
  0.5921715  0.6025098  0.5818332 
1087       
  0.24       381        -9999      -9999      8.500868   2.528      
  0.597      1.003      1.132972   0.103521   0.103521   0.2991238  
  0.231536   1.193287   2.625      0          0.4208561  57.15      
  0.5927357  0.6036381  0.5818332 
1087.2     
  0.241      392.43     -9999      -9999      8.512197   2.42       
  0.636      0.864      1.122321   0.1114037  0.1114037  0.3074921  
  0.3240598  1.179158   2.548      0.02499936 0.4372837  57.15      
  0.5942072  0.6065812  0.5818332 
1087.4     
  0.231      401.32     -9999      -9999      8.547776   2.402      
  0.661      0.952      1.117608   0.1135665  0.1135665  0.3111953  
  0.3553733  1.135867   2.492      0.0311399  0.4392083  57.15      
  0.598875   0.6159168  0.5818332 
1087.6     
  0.231      396.24     -9999      -9999      8.582467   2.473      
  0.775      1.13       1.116809   0.1126697  0.1126697  0.3118232  
  0.342038   1.095187   2.524      0.03025077 0.4419383  57.15      
  0.6034956  0.625158   0.5818332 
1087.8     
  0.224      393.7      -9999      -9999      8.57846    2.546      
  0.928      0.914      1.116493   0.1139283  0.1139283  0.3120712  
  0.3609003  1.099811   2.54       0.04243199 0.4461641  57.023     
  0.6004329  0.6240834  0.5767823 
1088       
  0.236      392.43     -9999      -9999      8.526056   2.622      
  1.283      1.13       1.115709   0.116835   0.116835   0.3126872  
  0.4085314  1.162102   2.548      0.06459537 0.4526578  57.023     
  0.5934916  0.6102007  0.5767823 
1088.2     
  0.241      392.43     -9999      -9999      8.45194    2.68       
  1.436      0.978      1.11664    0.1200842  0.1200842  0.3119563  
  0.4692555  1.256275   2.548      0.0866783  0.4571914  56.896     
  0.5814304  0.5910913  0.5717694 
1088.4     
  0.241      389.89     -9999      -9999      8.392614   2.74       
  1.651      1.105      1.120985   0.1199433  0.1199433  0.3085419  
  0.4664432  1.337123   2.565      0.0885921  0.4549388  56.769     
  0.5715109  0.5762278  0.5667939 
1088.6     
  0.241      384.81     -9999      -9999      8.36947    2.72       
  1.499      1.08       1.127228   0.1159781  0.1159781  0.3036367  
  0.3938703  1.370057   2.599      0.06729329 0.4462762  56.769     
  0.5686624  0.5705309  0.5667939 
1088.8     
  0.23       382.27     -9999      -9999      8.38481    2.72       
  1.486      1.041      1.132929   0.1116922  0.1116922  0.299158   
  0.3280715  1.348138   2.616      0.03914219 0.4352312  56.642     
  0.5680782  0.5743006  0.5618558 
1089       
  0.233      381        -9999      -9999      8.433441   2.72       
  1.22       1.08       1.13815    0.1063996  0.1063996  0.2950558  
  0.2617803  1.280945   2.625      0          0.4212767  56.515     
  0.5716856  0.586416   0.5569551 
1089.2     
  0.228      377.19     -9999      -9999      8.506413   2.68       
  1.524      1.181      1.144679   0.09899313 0.09899313 0.2899259  
  0.1908758  1.18635    2.651      0          0.4026236  56.388     
  0.5785843  0.6050768  0.5520916 
1089.4     
  0.224      370.84     -9999      -9999      8.581658   2.78       
  1.677      1.372      1.152907   0.09004658 0.09004658 0.2834606  
  0.1303285  1.096119   2.697      0          0.3790392  56.261     
  0.586103   0.6249409  0.5472651 
1089.6     
  0.224      361.95     -9999      -9999      8.622935   2.863      
  2.426      1.727      1.16059    0.08216676 0.08216676 0.2774242  
  0.09312919 1.04957    2.763      0          0.3582467  56.261     
  0.5916892  0.6361134  0.5472651 
1089.8     
  0.234      361.95     -9999      -9999      8.608143   2.969      
  1.829      1.74       1.164349   0.08066802 0.08066802 0.2744707  
  0.08736258 1.06602    2.763      0          0.3496838  56.134     
  0.587281   0.6320868  0.5424752 
1090       
  0.242      368.3      -9999      -9999      8.553267   2.969      
  1.524      1.054      1.162717   0.08516292 0.08516292 0.2757532  
  0.1058234  1.12933    2.715      0          0.3577151  56.007     
  0.5775462  0.6173702  0.5377222 
1090.2     
  0.231      369.57     -9999      -9999      8.499539   2.926      
  1.626      1.13       1.158927   0.09124144 0.09124144 0.2787309  
  0.1371421  1.194955   2.706      0          0.3759706  55.88      
  0.5681499  0.603294   0.5330058 
1090.4     
  0.22       350.52     -9999      -9999      8.477145   2.991      
  1.74       1.321      1.159258   0.09193353 0.09193353 0.2784706  
  0.1412506  1.223422   2.853      0          0.3934607  55.88      
  0.5652639  0.597522   0.5330058 
1090.6     
  0.22       332.74     -9999      -9999      8.479436   3.194      
  1.918      1.321      1.167892   0.08505356 0.08505356 0.2716877  
  0.105331   1.220479   3.005      0          0.3831843  55.88      
  0.5655578  0.5981098  0.5330058 
1090.8     
  0.219      317.5      -9999      -9999      8.471538   3.412      
  2.198      1.689      1.183867   0.07283539 0.07283539 0.2591354  
  0.06255273 1.230656   3.15       0          0.3453747  55.88      
  0.5645456  0.5960853  0.5330058 
1091       
  0.219      302.26     -9999      -9999      8.424921   3.59       
  1.969      2.057      1.201829   0.06067156 0.06067156 0.2450229  
  0.03723424 1.292471   3.308      0          0.296589   55.88      
  0.5586404  0.5842751  0.5330058 
1091.2     
  0.219      287.02     -9999      -9999      8.343829   3.724      
  1.74       1.74       1.214305   0.05493989 0.05493989 0.2352207  
  0.02915937 1.407491   3.484      0          0.2730809  55.753     
  0.5463055  0.5642854  0.5283257 
1091.4     
  0.23       276.86     -9999      -9999      8.256307   3.779      
  1.474      1.575      1.215461   0.0566923  0.0566923  0.234312   
  0.03142223 1.543145   3.612      0          0.291007   55.88      
  0.5382415  0.5434772  0.5330058 
1091.6     
  0.23       274.32     -9999      -9999      8.184173   3.751      
  2.972      2.642      1.204551   0.06799918 0.06799918 0.2428846  
  0.05089414 1.664722   3.645      0          0.3498953  55.88      
  0.5299557  0.5269057  0.5330058 
1091.8     
  0.232      279.4      -9999      -9999      8.133181   3.617      
  1.906      1.638      1.18552    0.08405563 0.08405563 0.2578368  
  0.1009421  1.756401   3.579      0          0.4125925  56.007     
  0.5266096  0.515497   0.5377222 
