~Version
 VERS              .         2.0                           : CWLS LOG ASCII STANDARD - VERSION 2.0
 WRAP              .         YES                            : ONE LINE PER DEPTH STEP
 DLM               .         SPACE                         : DELIMITING CHARACTER(SPACE TAB OR COMMA)
~Well Information
#_______________________________________________________________________________
#
#PARAMETER_NAME    .UNIT     VALUE                         : DESCRIPTION
#_______________________________________________________________________________
STRT               .м        900                           : First reference value
STOP               .м        1180                          : Last reference value
STEP               .м        0.2                           : Step increment
NULL               .         -9999                         : Missing value
COMP               .                                       : Company
WELL               .         5206                          : Well name
FLD                .         Узень                         : Field
LOC                .                                       : Location
CNTY               .                                       : County
STAT               .                                       : State
CTRY               .                                       : Country
SRVC               .                                       : Service Company
DATE               .         01.01.1983                    : Date
UWI                .                                       : Unique Well ID
Block              .         7                             : 
Cartographic_reference_system .         GCS_WGS_1984                  : ESRI,PE_10_3_1- <?xml version="1.0" encoding="utf-16"?><ILateBoundCoordinateReferenceSystem name="GCS_WGS_1984"><AuthorityCode>EPSG,4326</AuthorityCode></ILateBoundCoordinateReferenceSystem>
Category           .         Нефтяная                      : 
Condition          .         В работе                      : 
EREF               .m        94.5                          : 100.8
Gorizont           .         13                            : 14
HZCS               .GCS_WGS_1984 WGS_1984_EASE-Grid_2.0_Global : ESRI,PE_10_3_1- <?xml version="1.0" encoding="utf-16"?><ILateBoundCoordinateReferenceSystem name="WGS_1984_EASE-Grid_2.0_Global"><AuthorityCode>EPSG,6933</AuthorityCode></ILateBoundCoordinateReferenceSystem>
Interpretator      .         Сагынбаева А.Н.               : 
Kupol              .         основной                      : osnovnoi
LATI               .dega     0.6646091932                  : GCS_WGS_1984
LONG               .dega     0.4366071517                  : GCS_WGS_1984
Mud                .         глинистый                     : 
Mud_density        .         0                             : 
Mud_resistivity    .         0                             : 
NGDU               .         НГДУ-2                        : 
ORIGINALWELLNAME   .         5206                          : 
Spud_date          .         1982                          : 1961
Viscosity          .         40                            : 
X                  .m        42126.6                       : 46154
Y                  .m        84784.53                      : 85761.93
YEAR               .         2019                          : 
~Parameter Information Block
#_______________________________________________________________________________
#
#PARAMETER_NAME    .UNIT     VALUE                         : DESCRIPTION
#_______________________________________________________________________________
SET                .         LQC_KAZNIPI_Petrel            : 
TLFamily_CALI      .         Caliper                       : 
TLFamily_CILD      .         Conductivity                  : 
TLFamily_COLL      .         Net Reservoir Flag            : 
TLFamily_CSAT      .         Fluid Code                    : 
TLFamily_DEPT      .         Measured Depth                : 
TLFamily_GR        .         Russian Gamma Ray             : 
TLFamily_LLS       .         Lateral Log Resistivity       : 
TLFamily_MINV      .         Micro Gradient Resistivity    : 
TLFamily_MNOR      .         Micro Resistivity             : 
TLFamily_NGLD      .         Neutron Gamma                 : 
TLFamily_PHIE      .         Effective Porosity            : 
TLFamily_PHIEN     .         Effective Porosity            : 
TLFamily_PHIT      .         Porosity                      : 
TLFamily_PRMB      .         Permeability                  : 
TLFamily_PRMB_DGR  .         Permeability                  : 
TLFamily_RT        .         Formation Resistivity         : 
TLFamily_SOIL_ARCHIE .         Oil Saturation                : 
TLFamily_SOIL_DW   .         Oil Saturation                : 
TLFamily_SP        .         Spontaneous Potential         : 
TLFamily_VSH_FIN   .         Shale Volume                  : 
TLFamily_VSH_GR    .         Shale Volume                  : 
TLFamily_VSH_SP    .         Shale Volume                  : 
~Curve Information
#_______________________________________________________________________________
#
#LOGNAME           .UNIT     LOG_ID                        : DESCRIPTION
#_______________________________________________________________________________
DEPT               .м                                      : Колонка глубины 
CALI               .м                                      : Каверномер 
CILD               .мСм/м                                  : Индукционный каротаж 
COLL               .unitless                               : Описание 
CSAT               .unitless                               :  
GR                 .uR/h                                   : Гамма каротаж 
LLS                .Ohmm                                   : Боковой каротаж 
MINV               .Ohmm                                   : Микро-градиент зонд 
MNOR               .Ohmm                                   : Микро-потенциал зонд 
NGLD               .у.е.                                   : Показания зонда НГК-60 аппаратуры ДРСТ-3-90 
PHIE               .v/v                                    : Описание 
PHIEN              .v/v                                    :  
PHIT               .v/v                                    : Описание 
PRMB               .mD                                     :  
PRMB_DGR           .mD                                     :  
RT                 .ohmm                                   : УЭС пласта 
SOIL_ARCHIE        .v/v                                    :  
SOIL_DW            .v/v                                    :  
SP                 .мВ                                     : Потенциал самополяризации 
VSH_FIN            .v/v                                    : Описание 
VSH_GR             .v/v                                    : Shale volume 
VSH_SP             .v/v                                    : Shale Volume 
~Ascii
# ...
1104.8     
  0.248      355.6      -9999      -9999      8.064038   2.969      
  1.918      1.422      1.035676   0.1740689  0.1740689  0.3755693  
  4.691772   1.888829   2.812      0.3688921  0.5992095  60.325     
  0.6106071  0.5004209  0.7207934 
1105       
  0.235      350.52     -9999      -9999      8.011854   2.991      
  1.842      1.283      1.032566   0.1773382  0.1773382  0.3780131  
  5.393765   1.99535    2.853      0.3832412  0.6064796  60.452     
  0.6081058  0.4893351  0.7268764 
1105.2     
  0.226      346.71     -9999      -9999      7.962852   3.013      
  2.096      1.448      1.029824   0.1801624  0.1801624  0.3801672  
  6.084187   2.100837   2.884      0.3947475  0.6123077  60.579     
  0.6060751  0.479149   0.7330012 
1105.4     
  0.23       341.63     -9999      -9999      7.924423   3.057      
  1.829      1.283      1.032485   0.1793657  0.1793657  0.3780769  
  5.880921   2.187451   2.927      0.3966118  0.6131972  60.579     
  0.6021553  0.4713093  0.7330012 
1105.6     
  0.23       335.28     -9999      -9999      7.903799   3.102      
  1.677      1.257      1.042404   0.1722576  0.1722576  0.3702833  
  4.342964   2.235399   2.983      0.3805171  0.6058649  60.579     
  0.600078   0.4671549  0.7330012 
1105.8     
  0.224      327.66     -9999      -9999      7.888717   3.171      
  1.55       1.232      1.057245   0.1610942  0.1610942  0.3586225  
  2.697822   2.271124   3.052      0.3503008  0.592343   60.579     
  0.5985706  0.4641401  0.7330012 
1106       
  0.217      320.04     -9999      -9999      7.861305   3.241      
  1.423      1.448      1.072726   0.1498267  0.1498267  0.3464591  
  1.668445   2.337528   3.125      0.3155811  0.5770391  60.579     
  0.5958557  0.4587102  0.7330012 
1106.2     
  0.22       313.69     -9999      -9999      7.824144   3.313      
  1.994      1.88       1.085002   0.1423897  0.1423897  0.3368137  
  1.214957   2.430657   3.188      0.2912199  0.565619   60.452     
  0.5891635  0.4514506  0.7268764 
1106.4     
  0.224      309.88     -9999      -9999      7.793092   3.362      
  2.096      1.6        1.091247   0.1394735  0.1394735  0.3319074  
  1.072865   2.511317   3.227      0.2824358  0.5608968  60.325     
  0.583133   0.4454726  0.7207934 
1106.6     
  0.224      314.96     -9999      -9999      7.76991    3.386      
  1.664      1.664      1.090029   0.1411583  0.1411583  0.3328643  
  1.152795   2.573275   3.175      0.284467   0.5600711  60.325     
  0.5809273  0.4410613  0.7207934 
1106.8     
  0.224      320.04     -9999      -9999      7.747004   3.337      
  1.283      1.219      1.08253    0.1487595  0.1487595  0.3387565  
  1.594206   2.635995   3.125      0.3113066  0.5698804  60.198     
  0.5757487  0.4367455  0.7147518 
1107       
  0.231      327.66     -9999      -9999      7.735126   3.265      
  1.055      1.499      1.072985   0.1576153  0.1576153  0.3462558  
  2.325823   2.669118   3.052      0.3378291  0.5798787  60.071     
  0.5716378  0.4345242  0.7087515 
1107.2     
  0.231      335.28     -9999      -9999      7.759878   3.218      
  1.093      1.384      1.06613    0.1641948  0.1641948  0.3516415  
  3.079247   2.600557   2.983      0.3541055  0.5855533  59.817     
  0.5680203  0.439166   0.6968747 
1107.4     
  0.219      339.09     -9999      -9999      7.828168   3.171      
  0.788      1.092      1.064832   0.1649919  0.1649919  0.3526617  
  3.185725   2.420395   2.949      0.3533548  0.5846826  59.563     
  0.5686964  0.4522312  0.6851616 
1107.6     
  0.219      316.23     -9999      -9999      7.908411   3.241      
  0.813      1.283      1.071078   0.1574687  0.1574687  0.3477537  
  2.311324   2.224585   3.162      0.3482123  0.5882181  59.563     
  0.5766211  0.4680807  0.6851616 
1107.8     
  0.214      276.86     -9999      -9999      7.947899   3.462      
  0.966      1.219      1.087361   0.1462038  0.1462038  0.3349605  
  1.429577   2.134124   3.612      0.3467717  0.5944786  59.182     
  0.5719898  0.4760832  0.6678966 
1108       
  0.215      254        -9999      -9999      7.912844   3.835      
  0.775      1.372      1.115212   0.1282835  0.1282835  0.3130779  
  0.6657022  2.214242   3.937      0.296983   0.5746285  58.801     
  0.5599829  0.4689723  0.6509935 
1108.2     
  0.215      246.38     -9999      -9999      7.81229    4.374      
  2.147      2.426      1.153194   0.1053374  0.1053374  0.2832357  
  0.2501858  2.46114    4.059      0.1772089  0.5204502  58.293     
  0.5390857  0.449159   0.6290123 
1108.4     
  0.214      238.76     -9999      -9999      7.681834   4.917      
  4.026      3.658      1.196932   0.07939657 0.07939657 0.2488702  
  0.08275136 2.822927   4.188      0          0.43325    57.658     
  0.5135564  0.4246962  0.6024166 
1108.6     
  0.214      237.49     -9999      -9999      7.552444   5.691      
  3.938      3.848      1.239266   0.04992108 0.04992108 0.2156085  
  0.0235406  3.234272   4.211      0          0.2767406  57.658     
  0.5020831  0.4017495  0.6024166 
1108.8     
  0.214      260.35     -9999      -9999      7.444279   6.258      
  2.807      3.061      1.270396   0.03269979 0.03269979 0.1911499  
  0.01129373 3.623789   3.841      0          0.06894013 57.023     
  0.4801517  0.3835211  0.5767823 
1109       
  0.214      292.1      -9999      -9999      7.377753   5.86       
  3.95       3.962      1.28082    0.03116137 0.03116137 0.1829594  
  0.01057651 3.886308   3.423      0          0          56.261     
  0.4599941  0.3727232  0.5472651 
1109.2     
  0.214      320.04     -9999      -9999      7.373335   4.881      
  3.976      2.54       1.266688   0.04627264 0.04627264 0.194063   
  0.02014835 3.904401   3.125      0          0.07552686 55.626     
  0.4478495  0.372017   0.5236819 
1109.4     
  0.213      336.55     -9999      -9999      7.441901   4.036      
  1.372      1.359      1.23223    0.0759859  0.0759859  0.2211368  
  0.07154863 3.632859   2.971      0          0.2618055  54.864     
  0.4398513  0.3831299  0.4965728 
1109.6     
  0.213      345.44     -9999      -9999      7.574852   3.337      
  1.182      1.092      1.186692   0.1080525  0.1080525  0.2569164  
  0.2809002  3.158972   2.895      0.05694328 0.4012696  54.864     
  0.4511027  0.4056327  0.4965728 
1109.8     
  0.215      354.33     -9999      -9999      7.742984   2.78       
  1.664      1.194      1.140145   0.1438782  0.1438782  0.2934878  
  1.294587   2.647159   2.822      0.2562435  0.498832   54.102     
  0.4533626  0.4359924  0.4707327 
1110       
  0.218      363.22     -9999      -9999      7.912394   2.622      
  1.55       1.168      1.101248   0.1737295  0.1737295  0.3240493  
  4.624349   2.215291   2.753      0.3614965  0.556067   53.213     
  0.4555145  0.4688817  0.4421473 
1110.2     
  0.219      372.11     -9999      -9999      8.06209    2.72       
  1.74       1.295      1.075094   0.1929718  0.1929718  0.3445987  
  10.50666   1.892702   2.687      0.4106469  0.5846033  52.451     
  0.4594752  0.5000025  0.4189479 
1110.4     
  0.224      379.73     -9999      -9999      8.178964   2.821      
  1.982      1.181      1.061181   0.1977691  0.1977691  0.3555303  
  12.89206   1.673863   2.633      0.4175956  0.5921974  52.832     
  0.4780642  0.5257288  0.4303995 
1110.6     
  0.224      382.27     -9999      -9999      8.244632   2.883      
  1.931      1.41       1.055102   0.2000648  0.2000648  0.3603062  
  14.21818   1.562202   2.616      0.4216652  0.596011   52.832     
  0.4855799  0.5407602  0.4303995 
1110.8     
  0.229      378.46     -9999      -9999      8.248086   2.969      
  1.169      0.952      1.053421   0.1945987  0.1945987  0.3616275  
  11.26157   1.55654    2.642      0.4102853  0.5945171  54.102     
  0.5061477  0.5415627  0.4707327 
1111       
  0.22       370.84     -9999      -9999      8.205584   3.013      
  1.982      1.245      1.055746   0.186411   0.186411   0.3598005  
  7.942225   1.627669   2.697      0.3936795  0.5906388  55.499     
  0.5254227  0.5317711  0.5190743 
