~Version
 VERS              .         2.0                           : CWLS LOG ASCII STANDARD - VERSION 2.0
 WRAP              .         YES                            : ONE LINE PER DEPTH STEP
 DLM               .         SPACE                         : DELIMITING CHARACTER(SPACE TAB OR COMMA)
~Well Information
#_______________________________________________________________________________
#
#PARAMETER_NAME    .UNIT     VALUE                         : DESCRIPTION
#_______________________________________________________________________________
STRT               .м        900                           : First reference value
STOP               .м        1180                          : Last reference value
STEP               .м        0.2                           : Step increment
NULL               .         -9999                         : Missing value
COMP               .                                       : Company
WELL               .         5206                          : Well name
FLD                .         Узень                         : Field
LOC                .                                       : Location
CNTY               .                                       : County
STAT               .                                       : State
CTRY               .                                       : Country
SRVC               .                                       : Service Company
DATE               .         01.01.1983                    : Date
UWI                .                                       : Unique Well ID
Block              .         7                             : 
Cartographic_reference_system .         GCS_WGS_1984                  : ESRI,PE_10_3_1- <?xml version="1.0" encoding="utf-16"?><ILateBoundCoordinateReferenceSystem name="GCS_WGS_1984"><AuthorityCode>EPSG,4326</AuthorityCode></ILateBoundCoordinateReferenceSystem>
Category           .         Нефтяная                      : 
Condition          .         В работе                      : 
EREF               .m        94.5                          : 100.8
Gorizont           .         13                            : 14
HZCS               .GCS_WGS_1984 WGS_1984_EASE-Grid_2.0_Global : ESRI,PE_10_3_1- <?xml version="1.0" encoding="utf-16"?><ILateBoundCoordinateReferenceSystem name="WGS_1984_EASE-Grid_2.0_Global"><AuthorityCode>EPSG,6933</AuthorityCode></ILateBoundCoordinateReferenceSystem>
Interpretator      .         Сагынбаева А.Н.               : 
Kupol              .         основной                      : osnovnoi
LATI               .dega     0.6646091932                  : GCS_WGS_1984
LONG               .dega     0.4366071517                  : GCS_WGS_1984
Mud                .         глинистый                     : 
Mud_density        .         0                             : 
Mud_resistivity    .         0                             : 
NGDU               .         НГДУ-2                        : 
ORIGINALWELLNAME   .         5206                          : 
Spud_date          .         1982                          : 1961
Viscosity          .         40                            : 
X                  .m        42126.6                       : 46154
Y                  .m        84784.53                      : 85761.93
YEAR               .         2019                          : 
~Parameter Information Block
#_______________________________________________________________________________
#
#PARAMETER_NAME    .UNIT     VALUE                         : DESCRIPTION
#_______________________________________________________________________________
SET                .         LQC_KAZNIPI_Petrel            : 
TLFamily_CALI      .         Caliper                       : 
TLFamily_CILD      .         Conductivity                  : 
TLFamily_COLL      .         Net Reservoir Flag            : 
TLFamily_CSAT      .         Fluid Code                    : 
TLFamily_DEPT      .         Measured Depth                : 
TLFamily_GR        .         Russian Gamma Ray             : 
TLFamily_LLS       .         Lateral Log Resistivity       : 
TLFamily_MINV      .         Micro Gradient Resistivity    : 
TLFamily_MNOR      .         Micro Resistivity             : 
TLFamily_NGLD      .         Neutron Gamma                 : 
TLFamily_PHIE      .         Effective Porosity            : 
TLFamily_PHIEN     .         Effective Porosity            : 
TLFamily_PHIT      .         Porosity                      : 
TLFamily_PRMB      .         Permeability                  : 
TLFamily_PRMB_DGR  .         Permeability                  : 
TLFamily_RT        .         Formation Resistivity         : 
TLFamily_SOIL_ARCHIE .         Oil Saturation                : 
TLFamily_SOIL_DW   .         Oil Saturation                : 
TLFamily_SP        .         Spontaneous Potential         : 
TLFamily_VSH_FIN   .         Shale Volume                  : 
TLFamily_VSH_GR    .         Shale Volume                  : 
TLFamily_VSH_SP    .         Shale Volume                  : 
~Curve Information
#_______________________________________________________________________________
#
#LOGNAME           .UNIT     LOG_ID                        : DESCRIPTION
#_______________________________________________________________________________
DEPT               .м                                      : Колонка глубины 
CALI               .м                                      : Каверномер 
CILD               .мСм/м                                  : Индукционный каротаж 
COLL               .unitless                               : Описание 
CSAT               .unitless                               :  
GR                 .uR/h                                   : Гамма каротаж 
LLS                .Ohmm                                   : Боковой каротаж 
MINV               .Ohmm                                   : Микро-градиент зонд 
MNOR               .Ohmm                                   : Микро-потенциал зонд 
NGLD               .у.е.                                   : Показания зонда НГК-60 аппаратуры ДРСТ-3-90 
PHIE               .v/v                                    : Описание 
PHIEN              .v/v                                    :  
PHIT               .v/v                                    : Описание 
PRMB               .mD                                     :  
PRMB_DGR           .mD                                     :  
RT                 .ohmm                                   : УЭС пласта 
SOIL_ARCHIE        .v/v                                    :  
SOIL_DW            .v/v                                    :  
SP                 .мВ                                     : Потенциал самополяризации 
VSH_FIN            .v/v                                    : Описание 
VSH_GR             .v/v                                    : Shale volume 
VSH_SP             .v/v                                    : Shale Volume 
~Ascii
# ...
1117.6     
  0.226      623.57     -9999      -9999      8.700588   2.152      
  0.661      0.978      1.027579   0.1854684  0.1854684  0.3819309  
  7.629254   0.9672891  1.604      0.22282    0.4873281  55.88      
  0.5953408  0.6576759  0.5330058 
1117.8     
  0.223      575.31     -9999      -9999      8.53653    2.216      
  0.762      0.787      1.029113   0.1844202  0.1844202  0.3807261  
  7.295701   1.149377   1.738      0.247834   0.5054564  57.023     
  0.5948663  0.6129504  0.5767823 
1118       
  0.224      541.02     -9999      -9999      8.41169    2.333      
  0.648      0.851      1.040977   0.1735323  0.1735323  0.3714042  
  4.585619   1.310575   1.848      0.2294083  0.5015818  58.039     
  0.5996116  0.5809658  0.6182575 
1118.2     
  0.225      510.54     -9999      -9999      8.347623   2.455      
  0.674      0.749      1.06445    0.1513661  0.1513661  0.352962   
  1.781665   1.401889   1.959      0.1554424  0.4740075  58.928     
  0.6108965  0.5652052  0.656588  
1118.4     
  0.219      478.79     -9999      -9999      8.333606   2.584      
  0.788      0.927      1.095083   0.1202328  0.1202328  0.3288929  
  0.472238   1.4227     2.089      0          0.420813   59.944     
  0.6323034  0.5618143  0.7027926 
1118.6     
  0.219      444.5      -9999      -9999      8.340826   2.74       
  0.712      0.699      1.125759   0.09584361 0.09584361 0.3047915  
  0.1668838  1.411942   2.25       0          0.3655483  59.944     
  0.6331755  0.5635584  0.7027926 
1118.8     
  0.216      422.91     -9999      -9999      8.34771    2.883      
  0.762      0.864      1.150955   0.07280146 0.07280146 0.2849947  
  0.06246225 1.401761   2.365      0          0.2917039  60.325     
  0.6430098  0.5652262  0.7207934 
1119       
  0.212      415.29     -9999      -9999      8.351809   3.035      
  1.118      1.105      1.169001   0.07089213 0.07089213 0.2708161  
  0.05757744 1.395733   2.408      0          0.2669941  58.674     
  0.6058303  0.5662217  0.6454389 
1119.2     
  0.21       400.05     -9999      -9999      8.363071   3.148      
  1.461      1.422      1.18099    0.07957074 0.07957074 0.2613961  
  0.08336835 1.379304   2.5        0          0.2904727  55.88      
  0.5509859  0.568966   0.5330058 
1119.4     
  0.21       369.57     -9999      -9999      8.39017    3.194      
  1.677      1.626      1.188455   0.08694194 0.08694194 0.2555312  
  0.1141652  1.340564   2.706      0          0.3283179  53.34      
  0.5108765  0.5756235  0.4461297 
1119.6     
  0.21       339.09     1          2          8.421492   3.241      
  1.906      1.867      1.192423   0.1368497  0.1368497  0.2524132  
  0.9592838  9.91643    2.949      0.2389667  0.4517498  53.34      
  0.3501922  0.2542547  0.4461297 
1119.8     
  0.21       308.61     1          2          8.428254   3.362      
  1.245      1.422      1.193634   0.1432695  0.1432695  0.2514614  
  1.261413   9.826796   3.24       0.3003446  0.4851218  51.816     
  0.3278543  0.2551992  0.4005095 
1120       
  0.21       278.13     1          2          8.393576   3.564      
  1.474      1.537      1.192424   0.1538842  0.1538842  0.2524124  
  1.983656   10.29518   3.595      0.3738756  0.526001   49.784     
  0.2985705  0.2503928  0.3467481 
1120.2     
  0.21       259.08     1          2          8.326377   3.891      
  1.817      1.88       1.188938   0.1674715  0.1674715  0.2551517  
  3.541082   11.2673    3.86       0.4374501  0.5607659  47.244     
  0.2656976  0.2413354  0.2900598 
1120.4     
  0.21       243.84     1          2          8.245152   4.217      
  1.88       2.057      1.183762   0.1780335  0.1780335  0.2592182  
  5.556105   12.56564   4.101      0.4815761  0.5882502  45.72      
  0.2460143  0.2308237  0.261205  
1120.6     
  0.21       229.87     1          2          8.164804   4.504      
  2.134      2.299      1.17773    0.1844143  0.1844143  0.2639576  
  7.293883   13.99713   4.35       0.5109506  0.6101341  45.72      
  0.2410404  0.2208759  0.261205  
1120.8     
  0.21       217.17     1          2          8.103358   4.706      
  1.944      2.108      1.171263   0.1928603  0.1928603  0.2690387  
  10.45681   15.20091   4.605      0.5420644  0.6321594  44.958     
  0.2308435  0.2135587  0.2481282 
1121       
  0.209      204.47     1          2          8.074057   4.846      
  2.02       2.032      1.164114   0.1993848  0.1993848  0.2746559  
  13.81176   15.8109    4.891      0.5675458  0.6521946  44.831     
  0.2280942  0.2101552  0.2460331 
1121.2     
  0.209      194.31     1          2          8.063592   4.953      
  1.867      1.93       1.156148   0.2061837  0.2061837  0.2809146  
  18.45786   16.03463   5.146      0.5898908  0.6699844  44.704     
  0.2264573  0.2089529  0.2439616 
1121.4     
  0.209      185.42     1          2          8.041181   5.063      
  2.033      2.134      1.148469   0.2126379  0.2126379  0.2869477  
  24.3068    16.52447   5.393      0.6094415  0.6856604  44.704     
  0.2251813  0.2064011  0.2439616 
1121.6     
  0.209      179.07     1          2          7.998637   5.1        
  2.121      2.172      1.143584   0.2172611  0.2172611  0.2907858  
  29.60471   17.49589   5.584      0.6228992  0.6962012  44.704     
  0.222802   0.2016424  0.2439616 
1121.8     
  0.209      175.26     1          2          7.957873   5.175      
  2.058      2.197      1.143776   0.2194971  0.2194971  0.2906353  
  32.56689   18.48021   5.706      0.6300187  0.7006552  44.069     
  0.2155702  0.1971857  0.2339547 
1122       
  0.21       175.26     1          2          7.929891   5.328      
  2.02       2.248      1.149137   0.2185171  0.2185171  0.2864231  
  31.23382   19.18777   5.706      0.628574   0.6975336  42.926     
  0.2057756  0.1941836  0.2173676 
1122.2     
  0.21       177.8      1          2          7.896866   5.486      
  1.867      2.146      1.157361   0.2148217  0.2148217  0.2799617  
  26.67941   20.05776   5.624      0.6204458  0.6890545  41.91      
  0.1973941  0.1906992  0.2040891 
1122.4     
  0.209      179.07     1          2          7.85101    5.608      
  2.147      2.07       1.165181   0.2116671  0.2116671  0.2738172  
  23.32094   21.33156   5.584      0.6142339  0.6819261  40.767     
  0.1883336  0.1859644  0.1907027 
1122.6     
  0.209      180.34     1          2          7.813769   5.65       
  2.02       2.045      1.169658   0.2087699  0.2087699  0.2702999  
  20.61027   22.42533   5.545      0.6082892  0.6765404  40.767     
  0.1864543  0.1822059  0.1907027 
1122.8     
  0.209      175.26     1          2          7.799891   5.691      
  2.045      2.299      1.169075   0.2114106  0.2114106  0.270758   
  23.0672    22.84713   5.706      0.617723   0.6831228  39.624     
  0.1798408  0.1808247  0.1788568 
1123       
  0.208      162.56     1          2          7.789942   5.733      
  1.982      2.121      1.16399    0.2181447  0.2181447  0.2747532  
  30.74165   23.1544    6.152      0.6409294  0.7013648  37.846     
  0.171541   0.179841   0.1632409 
1123.2     
  0.208      148.59     1          2          7.748836   6.078      
  2.109      2.261      1.156822   0.2279297  0.2279297  0.2803849  
  46.66255   24.46829   6.73       0.6686537  0.7229772  34.544     
  0.1589552  0.1758332  0.1420772 
1123.4     
  0.209      133.35     1          2          7.656081   6.933      
  1.956      2.197      1.149188   0.2369084  0.2369084  0.2863832  
  68.43468   27.71355   7.499      0.6954784  0.7449512  32.385     
  0.1499238  0.1671148  0.1327328 
1123.6     
  0.209      119.38     1          2          7.515594   7.851      
  2.286      2.286      1.140974   0.2454064  0.2454064  0.2928371  
  98.32858   33.46688   8.377      0.7196354  0.7652967  32.385     
  0.1437293  0.1547258  0.1327328 
1123.8     
  0.214      105.41     1          2          7.349417   9.086      
  2.096      2.54       1.132253   0.2551089  0.2551089  0.2996885  
  148.7281   41.83294   9.487      0.7443196  0.7859226  31.242     
  0.1350898  0.1412518  0.1289276 
