~Version
 VERS              .         2.0                           : CWLS LOG ASCII STANDARD - VERSION 2.0
 WRAP              .         YES                            : ONE LINE PER DEPTH STEP
 DLM               .         SPACE                         : DELIMITING CHARACTER(SPACE TAB OR COMMA)
~Well Information
#_______________________________________________________________________________
#
#PARAMETER_NAME    .UNIT     VALUE                         : DESCRIPTION
#_______________________________________________________________________________
STRT               .м        900                           : First reference value
STOP               .м        1180                          : Last reference value
STEP               .м        0.2                           : Step increment
NULL               .         -9999                         : Missing value
COMP               .                                       : Company
WELL               .         5206                          : Well name
FLD                .         Узень                         : Field
LOC                .                                       : Location
CNTY               .                                       : County
STAT               .                                       : State
CTRY               .                                       : Country
SRVC               .                                       : Service Company
DATE               .         01.01.1983                    : Date
UWI                .                                       : Unique Well ID
Block              .         7                             : 
Cartographic_reference_system .         GCS_WGS_1984                  : ESRI,PE_10_3_1- <?xml version="1.0" encoding="utf-16"?><ILateBoundCoordinateReferenceSystem name="GCS_WGS_1984"><AuthorityCode>EPSG,4326</AuthorityCode></ILateBoundCoordinateReferenceSystem>
Category           .         Нефтяная                      : 
Condition          .         В работе                      : 
EREF               .m        94.5                          : 100.8
Gorizont           .         13                            : 14
HZCS               .GCS_WGS_1984 WGS_1984_EASE-Grid_2.0_Global : ESRI,PE_10_3_1- <?xml version="1.0" encoding="utf-16"?><ILateBoundCoordinateReferenceSystem name="WGS_1984_EASE-Grid_2.0_Global"><AuthorityCode>EPSG,6933</AuthorityCode></ILateBoundCoordinateReferenceSystem>
Interpretator      .         Сагынбаева А.Н.               : 
Kupol              .         основной                      : osnovnoi
LATI               .dega     0.6646091932                  : GCS_WGS_1984
LONG               .dega     0.4366071517                  : GCS_WGS_1984
Mud                .         глинистый                     : 
Mud_density        .         0                             : 
Mud_resistivity    .         0                             : 
NGDU               .         НГДУ-2                        : 
ORIGINALWELLNAME   .         5206                          : 
Spud_date          .         1982                          : 1961
Viscosity          .         40                            : 
X                  .m        42126.6                       : 46154
Y                  .m        84784.53                      : 85761.93
YEAR               .         2019                          : 
~Parameter Information Block
#_______________________________________________________________________________
#
#PARAMETER_NAME    .UNIT     VALUE                         : DESCRIPTION
#_______________________________________________________________________________
SET                .         LQC_KAZNIPI_Petrel            : 
TLFamily_CALI      .         Caliper                       : 
TLFamily_CILD      .         Conductivity                  : 
TLFamily_COLL      .         Net Reservoir Flag            : 
TLFamily_CSAT      .         Fluid Code                    : 
TLFamily_DEPT      .         Measured Depth                : 
TLFamily_GR        .         Russian Gamma Ray             : 
TLFamily_LLS       .         Lateral Log Resistivity       : 
TLFamily_MINV      .         Micro Gradient Resistivity    : 
TLFamily_MNOR      .         Micro Resistivity             : 
TLFamily_NGLD      .         Neutron Gamma                 : 
TLFamily_PHIE      .         Effective Porosity            : 
TLFamily_PHIEN     .         Effective Porosity            : 
TLFamily_PHIT      .         Porosity                      : 
TLFamily_PRMB      .         Permeability                  : 
TLFamily_PRMB_DGR  .         Permeability                  : 
TLFamily_RT        .         Formation Resistivity         : 
TLFamily_SOIL_ARCHIE .         Oil Saturation                : 
TLFamily_SOIL_DW   .         Oil Saturation                : 
TLFamily_SP        .         Spontaneous Potential         : 
TLFamily_VSH_FIN   .         Shale Volume                  : 
TLFamily_VSH_GR    .         Shale Volume                  : 
TLFamily_VSH_SP    .         Shale Volume                  : 
~Curve Information
#_______________________________________________________________________________
#
#LOGNAME           .UNIT     LOG_ID                        : DESCRIPTION
#_______________________________________________________________________________
DEPT               .м                                      : Колонка глубины 
CALI               .м                                      : Каверномер 
CILD               .мСм/м                                  : Индукционный каротаж 
COLL               .unitless                               : Описание 
CSAT               .unitless                               :  
GR                 .uR/h                                   : Гамма каротаж 
LLS                .Ohmm                                   : Боковой каротаж 
MINV               .Ohmm                                   : Микро-градиент зонд 
MNOR               .Ohmm                                   : Микро-потенциал зонд 
NGLD               .у.е.                                   : Показания зонда НГК-60 аппаратуры ДРСТ-3-90 
PHIE               .v/v                                    : Описание 
PHIEN              .v/v                                    :  
PHIT               .v/v                                    : Описание 
PRMB               .mD                                     :  
PRMB_DGR           .mD                                     :  
RT                 .ohmm                                   : УЭС пласта 
SOIL_ARCHIE        .v/v                                    :  
SOIL_DW            .v/v                                    :  
SP                 .мВ                                     : Потенциал самополяризации 
VSH_FIN            .v/v                                    : Описание 
VSH_GR             .v/v                                    : Shale volume 
VSH_SP             .v/v                                    : Shale Volume 
~Ascii
# ...
970.4      
  0.214      275.59     -9999      -9999      5.845812   3.462      
  2.058      1.892      1.14484    0.1085713  0.1085713  0.2897992  
  0.2871851  3.063216   3.629      0.1553569  0.505614   63.373     
  0.5491755  0.4107633  0.6875877 
970.6      
  0.214      276.86     -9999      -9999      5.849516   3.337      
  1.778      1.232      1.136947   0.1146328  0.1146328  0.296001   
  0.3719077  3.047739   3.612      0.1926142  0.5205656  63.373     
  0.5496007  0.4116137  0.6875877 
970.8      
  0.214      284.48     -9999      -9999      5.852517   3.313      
  1.664      1.346      1.129413   0.1204384  0.1204384  0.3019205  
  0.4763965  3.035259   3.515      0.2166754  0.5285972  63.373     
  0.5499458  0.412304   0.6875877 
971        
  0.214      284.48     -9999      -9999      5.859999   3.362      
  2.223      2.032      1.123374   0.1248984  0.1248984  0.3066653  
  0.5762078  3.00436    3.515      0.2410946  0.5393874  63.373     
  0.550809   0.4140302  0.6875877 
971.2000000000001 
  0.214      287.02     -9999      -9999      5.883031   3.337      
  1.817      1.74       1.12001    0.1266568  0.1266568  0.309308   
  0.6210817  2.911207   3.484      0.2471561  0.5421997  63.373     
  0.5534887  0.4193896  0.6875877 
971.4      
  0.22       297.18     -9999      -9999      5.917802   3.289      
  2.223      1.524      1.119961   0.124373   0.124373   0.3093468  
  0.5634413  2.776015   3.365      0.2225545  0.5311107  63.5       
  0.5605265  0.4276124  0.6934407 
971.6      
  0.22       307.34     -9999      -9999      5.947571   3.289      
  1.88       1.41       1.121421   0.1220428  0.1220428  0.3081993  
  0.5101379  2.665275   3.254      0.1971028  0.5187569  63.5       
  0.5641103  0.43478    0.6934407 
971.8      
  0.224      314.96     -9999      -9999      5.965704   3.218      
  1.677      1.232      1.121938   0.120907   0.120907   0.3077935  
  0.486014   2.599993   3.175      0.1811476  0.5107438  63.5       
  0.5663228  0.4392049  0.6934407 
972        
  0.213      313.69     -9999      -9999      5.974883   3.102      
  2.274      1.905      1.121488   0.1208882  0.1208882  0.3081471  
  0.4856246  2.567563   3.188      0.1826056  0.5120727  63.5       
  0.5674512  0.4414617  0.6934407 
972.2000000000001 
  0.218      313.69     -9999      -9999      5.973735   2.991      
  2.033      1.448      1.121286   0.1210935  0.1210935  0.3083057  
  0.4898959  2.571596   3.188      0.1838128  0.5125322  63.5       
  0.5673098  0.4411789  0.6934407 
972.4      
  0.224      322.58     -9999      -9999      5.967664   2.904      
  1.867      1.283      1.120384   0.1230144  0.1230144  0.3090145  
  0.5317197  2.593034   3.1        0.1842793  0.5091909  63.373     
  0.5636367  0.4396858  0.6875877 
972.6      
  0.224      332.74     -9999      -9999      5.976933   2.947      
  1.601      1.626      1.116313   0.1258366  0.1258366  0.3122132  
  0.5997311  2.560371   3.005      0.1884695  0.5088165  63.373     
  0.5647776  0.4419675  0.6875877 
972.8      
  0.227      336.55     -9999      -9999      6.01209    3.035      
  1.931      1.257      1.108217   0.1307519  0.1307519  0.3185743  
  0.7396054  2.440186   2.971      0.2109032  0.5190737  63.373     
  0.5691588  0.4507299  0.6875877 
973        
  0.215      330.2      -9999      -9999      6.056235   3.035      
  1.359      1.08       1.097989   0.1359658  0.1359658  0.3266101  
  0.9237937  2.297231   3.028      0.2440954  0.5377533  63.5       
  0.5777099  0.461979   0.6934407 
973.2000000000001 
  0.211      318.77     -9999      -9999      6.088917   2.926      
  1.55       1.562      1.090095   0.14173    0.14173    0.3328124  
  1.181251   2.196822   3.137      0.2829415  0.5580313  63.373     
  0.5790375  0.4704873  0.6875877 
973.4      
  0.212      307.34     -9999      -9999      6.109804   2.947      
  1.893      1.892      1.090323   0.1406403  0.1406403  0.3326334  
  1.127607   2.134959   3.254      0.2904035  0.5646638  63.373     
  0.5817974  0.4760071  0.6875877 
973.6      
  0.212      299.72     -9999      -9999      6.123829   3.057      
  2.185      2.083      1.101424   0.1313007  0.1313007  0.3239114  
  0.757122   2.094402   3.336      0.2553864  0.5515929  63.373     
  0.5836686  0.4797496  0.6875877 
973.8      
  0.214      300.99     -9999      -9999      6.122787   3.194      
  1.906      1.638      1.118928   0.1175937  0.1175937  0.3101583  
  0.4219667  2.097387   3.322      0.1787186  0.5192475  63.373     
  0.5835292  0.4794707  0.6875877 
974        
  0.221      307.34     -9999      -9999      6.100491   3.337      
  1.766      1.511      1.133048   0.1074787  0.1074787  0.2990644  
  0.2741095  2.162324   3.254      0.1031336  0.4865625  63.373     
  0.5805628  0.473538   0.6875877 
974.2000000000001 
  0.22       312.42     -9999      -9999      6.070972   3.362      
  1.651      1.384      1.135899   0.1065156  0.1065156  0.296824   
  0.2630789  2.251397   3.201      0.08908248 0.4781497  63.373     
  0.576692   0.4657964  0.6875877 
974.4      
  0.212      313.69     -9999      -9999      6.061368   3.241      
  1.639      1.422      1.127059   0.1138728  0.1138728  0.3037701  
  0.3600472  2.281163   3.188      0.1389174  0.4968925  63.373     
  0.5754463  0.463305   0.6875877 
974.6      
  0.212      306.07     -9999      -9999      6.089756   3.125      
  1.842      1.664      1.113381   0.1233976  0.1233976  0.3145163  
  0.5404807  2.1943     3.267      0.2062718  0.5277838  63.373     
  0.5791478  0.470708   0.6875877 
974.8      
  0.217      303.53     -9999      -9999      6.150611   3.013      
  1.956      1.587      1.104034   0.1280568  0.1280568  0.3218602  
  0.6592953  2.019082   3.295      0.2345554  0.5428433  63.373     
  0.587283   0.4869783  0.6875877 
975        
  0.226      308.61     -9999      -9999      6.220098   2.947      
  1.944      1.676      1.104529   0.1244893  0.1244893  0.3214717  
  0.5662411  1.836052   3.24       0.2092643  0.5338878  63.373     
  0.5969166  0.5062454  0.6875877 
975.2000000000001 
  0.218      309.88     -9999      -9999      6.276735   2.969      
  1.994      1.727      1.113759   0.1145532  0.1145532  0.3142197  
  0.370648   1.699211   3.227      0.1482472  0.5117608  63.373     
  0.60505    0.5225122  0.6875877 
975.4      
  0.214      306.07     -9999      -9999      6.315864   3.035      
  1.88       1.575      1.126346   0.1027588  0.1027588  0.3043298  
  0.2241298  1.610676   3.267      0.06910257 0.4853651  63.373     
  0.6108212  0.5340548  0.6875877 
975.6      
  0.214      303.53     -9999      -9999      6.344964   3.125      
  2.096      1.892      1.137634   0.09244641 0.09244641 0.295461   
  0.1443743  1.547837   3.295      0          0.4582509  63.373     
  0.6151958  0.5428039  0.6875877 
975.8      
  0.215      298.45     -9999      -9999      6.366479   3.218      
  2.464      2.095      1.146289   0.08456378 0.08456378 0.2886609  
  0.1031536  1.502959   3.351      0          0.4379155  63.373     
  0.6184762  0.5493647  0.6875877 
976        
  0.211      299.72     -9999      -9999      6.378936   3.265      
  2.096      1.575      1.152887   0.07874693 0.07874693 0.2834768  
  0.08049005 1.477573   3.336      0          0.4162838  63.373     
  0.6203935  0.5531993  0.6875877 
976.2000000000001 
  0.21       302.26     -9999      -9999      6.386469   3.241      
  2.121      1.753      1.157109   0.0750452  0.0750452  0.2801598  
  0.06873488 1.46243    3.308      0          0.399884   63.373     
  0.6215594  0.5555313  0.6875877 
976.4      
  0.211      302.26     -9999      -9999      6.405861   3.218      
  2.236      1.816      1.157296   0.0729342  0.0729342  0.2800126  
  0.06281687 1.424156   3.308      0          0.3941875  63.5       
  0.6275102  0.5615798  0.6934407 
976.6      
  0.211      299.72     -9999      -9999      6.459902   3.218      
  2.274      1.562      1.152928   0.0735271  0.0735271  0.2834443  
  0.06442557 1.322703   3.336      0          0.4032676  63.5       
  0.6361127  0.5787847  0.6934407 
