~Version
 VERS              .         2.0                           : CWLS LOG ASCII STANDARD - VERSION 2.0
 WRAP              .         YES                            : ONE LINE PER DEPTH STEP
 DLM               .         SPACE                         : DELIMITING CHARACTER(SPACE TAB OR COMMA)
~Well Information
#_______________________________________________________________________________
#
#PARAMETER_NAME    .UNIT     VALUE                         : DESCRIPTION
#_______________________________________________________________________________
STRT               .м        900                           : First reference value
STOP               .м        1180                          : Last reference value
STEP               .м        0.2                           : Step increment
NULL               .         -9999                         : Missing value
COMP               .                                       : Company
WELL               .         5206                          : Well name
FLD                .         Узень                         : Field
LOC                .                                       : Location
CNTY               .                                       : County
STAT               .                                       : State
CTRY               .                                       : Country
SRVC               .                                       : Service Company
DATE               .         01.01.1983                    : Date
UWI                .                                       : Unique Well ID
Block              .         7                             : 
Cartographic_reference_system .         GCS_WGS_1984                  : ESRI,PE_10_3_1- <?xml version="1.0" encoding="utf-16"?><ILateBoundCoordinateReferenceSystem name="GCS_WGS_1984"><AuthorityCode>EPSG,4326</AuthorityCode></ILateBoundCoordinateReferenceSystem>
Category           .         Нефтяная                      : 
Condition          .         В работе                      : 
EREF               .m        94.5                          : 100.8
Gorizont           .         13                            : 14
HZCS               .GCS_WGS_1984 WGS_1984_EASE-Grid_2.0_Global : ESRI,PE_10_3_1- <?xml version="1.0" encoding="utf-16"?><ILateBoundCoordinateReferenceSystem name="WGS_1984_EASE-Grid_2.0_Global"><AuthorityCode>EPSG,6933</AuthorityCode></ILateBoundCoordinateReferenceSystem>
Interpretator      .         Сагынбаева А.Н.               : 
Kupol              .         основной                      : osnovnoi
LATI               .dega     0.6646091932                  : GCS_WGS_1984
LONG               .dega     0.4366071517                  : GCS_WGS_1984
Mud                .         глинистый                     : 
Mud_density        .         0                             : 
Mud_resistivity    .         0                             : 
NGDU               .         НГДУ-2                        : 
ORIGINALWELLNAME   .         5206                          : 
Spud_date          .         1982                          : 1961
Viscosity          .         40                            : 
X                  .m        42126.6                       : 46154
Y                  .m        84784.53                      : 85761.93
YEAR               .         2019                          : 
~Parameter Information Block
#_______________________________________________________________________________
#
#PARAMETER_NAME    .UNIT     VALUE                         : DESCRIPTION
#_______________________________________________________________________________
SET                .         LQC_KAZNIPI_Petrel            : 
TLFamily_CALI      .         Caliper                       : 
TLFamily_CILD      .         Conductivity                  : 
TLFamily_COLL      .         Net Reservoir Flag            : 
TLFamily_CSAT      .         Fluid Code                    : 
TLFamily_DEPT      .         Measured Depth                : 
TLFamily_GR        .         Russian Gamma Ray             : 
TLFamily_LLS       .         Lateral Log Resistivity       : 
TLFamily_MINV      .         Micro Gradient Resistivity    : 
TLFamily_MNOR      .         Micro Resistivity             : 
TLFamily_NGLD      .         Neutron Gamma                 : 
TLFamily_PHIE      .         Effective Porosity            : 
TLFamily_PHIEN     .         Effective Porosity            : 
TLFamily_PHIT      .         Porosity                      : 
TLFamily_PRMB      .         Permeability                  : 
TLFamily_PRMB_DGR  .         Permeability                  : 
TLFamily_RT        .         Formation Resistivity         : 
TLFamily_SOIL_ARCHIE .         Oil Saturation                : 
TLFamily_SOIL_DW   .         Oil Saturation                : 
TLFamily_SP        .         Spontaneous Potential         : 
TLFamily_VSH_FIN   .         Shale Volume                  : 
TLFamily_VSH_GR    .         Shale Volume                  : 
TLFamily_VSH_SP    .         Shale Volume                  : 
~Curve Information
#_______________________________________________________________________________
#
#LOGNAME           .UNIT     LOG_ID                        : DESCRIPTION
#_______________________________________________________________________________
DEPT               .м                                      : Колонка глубины 
CALI               .м                                      : Каверномер 
CILD               .мСм/м                                  : Индукционный каротаж 
COLL               .unitless                               : Описание 
CSAT               .unitless                               :  
GR                 .uR/h                                   : Гамма каротаж 
LLS                .Ohmm                                   : Боковой каротаж 
MINV               .Ohmm                                   : Микро-градиент зонд 
MNOR               .Ohmm                                   : Микро-потенциал зонд 
NGLD               .у.е.                                   : Показания зонда НГК-60 аппаратуры ДРСТ-3-90 
PHIE               .v/v                                    : Описание 
PHIEN              .v/v                                    :  
PHIT               .v/v                                    : Описание 
PRMB               .mD                                     :  
PRMB_DGR           .mD                                     :  
RT                 .ohmm                                   : УЭС пласта 
SOIL_ARCHIE        .v/v                                    :  
SOIL_DW            .v/v                                    :  
SP                 .мВ                                     : Потенциал самополяризации 
VSH_FIN            .v/v                                    : Описание 
VSH_GR             .v/v                                    : Shale volume 
VSH_SP             .v/v                                    : Shale Volume 
~Ascii
# ...
1156       
  0.201      218.44     1          2          8.227777   4.036      
  2.109      2.07       1.258749   0.1405978  0.1405978  0.2003007  
  1.125566   12.86224   4.578      0.3952811  0.5001544  32.512     
  0.1809179  0.2286353  0.1332005 
1156.2     
  0.202      215.9      6          6          8.139442   3.977      
  1.944      1.816      1.286932   0.1196524  0.1196524  0.1781573  
  0.4606921  14.48198   4.632      0.3078819  0.4311025  33.401     
  0.1772874  0.2178259  0.136749  
1156.4     
  0.205      209.55     6          6          8.012896   4.125      
  1.677      1.638      1.317908   0.09695036 0.09695036 0.15382    
  0.17495    17.16412   4.772      0.1802292  0.3338696  34.417     
  0.1723323  0.2032249  0.1414397 
1156.6     
  0.205      201.93     6          6          7.868508   4.671      
  3.303      2.184      1.348945   0.0751166  0.0751166  0.1294341  
  0.06894451 20.8362    4.952      0          0.1967754  34.417     
  0.1645984  0.1877572  0.1414397 
1156.8     
  0.208      196.85     6          6          7.737461   5.567      
  3.95       3.632      1.37322    0.05741328 0.05741328 0.1103612  
  0.03240345 24.84488   5.08       0          0.0291139  35.306     
  0.1604481  0.17474    0.1461563 
1157       
  0.207      198.12     6          6          7.657021   6.444      
  3.379      4.254      1.381516   0.0512576  0.0512576  0.1038427  
  0.02492144 27.67859   5.047      0          0          36.195     
  0.1593488  0.1672009  0.1514967 
1157.2     
  0.205      209.55     6          6          7.645647   7.035      
  1.867      2.896      1.367961   0.0618073  0.0618073  0.1144927  
  0.03908223 28.10456   4.772      0          0.04823085 36.449     
  0.1596528  0.1661614  0.1531442 
1157.4     
  0.202      228.6      6          6          7.680309   6.53       
  1.791      1.842      1.334672   0.08784102 0.08784102 0.1406481  
  0.1186279  26.8265    4.374      0.06940044 0.2362498  36.068     
  0.1600216  0.1693495  0.1506937 
1157.6     
  0.202      251.46     6          6          7.711615   6.034      
  1.639      1.918      1.290402   0.12214    0.12214    0.1754308  
  0.5122553  25.72224   3.977      0.2697554  0.3856288  36.068     
  0.1614875  0.1722813  0.1506937 
1157.8     
  0.2        280.67     1          2          7.715191   4.953      
  1.867      1.664      1.2456     0.1581514  0.1581514  0.2106321  
  2.379608   25.599     3.563      0.3860447  0.4760274  35.179     
  0.1590324  0.1726195  0.1454454 
1158       
  0.2        311.15     1          2          7.717337   3.779      
  1.766      1.892      1.208844   0.1873362  0.1873362  0.2395109  
  8.261884   25.52537   3.214      0.4439828  0.5230476  34.798     
  0.1581053  0.1728226  0.1433879 
1158.2     
  0.2        339.09     1          2          7.7634     3.013      
  2.033      1.943      1.185374   0.2050472  0.2050472  0.2579513  
  17.58447   23.99446   2.949      0.4648743  0.5408012  34.798     
  0.1603154  0.1772429  0.1433879 
1158.4     
  0.2        359.41     1          2          7.865828   2.584      
  1.715      1.753      1.176205   0.2105623  0.2105623  0.2651557  
  22.24755   20.91134   2.782      0.4626006  0.5398708  34.798     
  0.1654346  0.1874814  0.1433879 
1158.6     
  0.2        383.54     1          2          7.99013    2.473      
  1.766      1.638      1.177878   0.2070658  0.2070658  0.2638409  
  19.16543   17.69689   2.607      0.4378248  0.5199416  34.798     
  0.172046   0.2007041  0.1433879 
1158.8     
  0.2        407.67     1          2          8.084028   2.437      
  1.588      1.702      1.184171   0.2015562  0.2015562  0.2588968  
  15.1519    15.60061   2.453      0.4077822  0.4939452  33.274     
  0.1737595  0.2113074  0.1362116 
1159       
  0.2        440.69     1          2          8.114488   2.402      
  1.74       1.74       1.189321   0.1985375  0.1985375  0.2548504  
  13.32155   14.97544   2.269      0.3775852  0.4656206  30.353     
  0.1706452  0.2148658  0.1264246 
1159.2     
  0.2        474.98     1          2          8.088926   2.315      
  1.817      1.778      1.190713   0.198147   0.198147   0.2537566  
  13.1015    15.49835   2.105      0.3541756  0.4433472  29.845     
  0.1685139  0.2118756  0.1251522 
1159.4     
  0.2        505.46     1          2          8.051372   2.2        
  1.728      1.74       1.189294   0.2001205  0.2001205  0.2548714  
  14.252     16.2999    1.978      0.3407534  0.4295905  29.464     
  0.1659118  0.2075576  0.124266  
1159.6     
  0.2        532.13     1          2          8.052813   2.137      
  1.753      1.638      1.187601   0.2014238  0.2014238  0.2562017  
  15.06659   16.26839   1.879      0.328483   0.4181094  29.464     
  0.1659938  0.2077217  0.124266  
1159.8     
  0.199      568.96     1          2          8.123068   2.045      
  1.829      1.791      1.187871   0.19972    0.19972    0.2559901  
  14.01061   14.8039    1.758      0.302032   0.3959804  29.845     
  0.1705156  0.215879   0.1251522 
1160       
  0.2        598.17     1          2          8.259554   1.943      
  1.702      1.473      1.192097   0.1932522  0.1932522  0.2526696  
  10.63303   12.325     1.672      0.2646241  0.3672635  30.734     
  0.1800528  0.2326535  0.1274522 
1160.2     
  0.201      623.57     1          2          8.426732   1.874      
  1.69       1.448      1.202351   0.1806395  0.1806395  0.2446131  
  6.209254   9.8469     1.604      0.2047563  0.3228881  32.385     
  0.1938595  0.2549863  0.1327328 
1160.4     
  0.205      646.43     1          2          8.574369   1.819      
  1.766      1.422      1.218846   0.1629001  0.1629001  0.231653   
  2.91382    8.0762     1.547      0.1149404  0.2570682  34.163     
  0.2083422  0.2764848  0.1401997 
1160.6     
  0.205      659.13     1          2          8.675942   1.806      
  1.55       1.435      1.237576   0.1455709  0.1455709  0.2169365  
  1.391506   7.046547   1.517      0.01484048 0.1833238  34.163     
  0.2162594  0.292319   0.1401997 
1160.8     
  0.203      656.59     1          2          8.757899   1.819      
  1.766      1.524      1.252053   0.1294182  0.1294182  0.2055616  
  0.69871    6.312257   1.523      0          0.1172749  36.83      
  0.2307375  0.305754   0.1557211 
1161       
  0.204      643.89     -9999      -9999      8.881825   1.846      
  1.982      1.283      1.258079   0.1169063  0.1169063  0.2008273  
  0.4097753  5.344648   1.553      0          0.07670578 39.878     
  0.2543061  0.3272507  0.1813616 
1161.2     
  0.21       624.84     -9999      -9999      9.086402   1.901      
  1.588      1.054      1.256524   0.1066253  0.1066253  0.2020489  
  0.2643121  4.060912   1.6        0          0.06030169 42.545     
  0.2891625  0.3660942  0.2122309 
1161.4     
  0.214      605.79     -9999      -9999      9.349794   1.943      
  1.347      0.851      1.251639   0.09029477 0.09029477 0.2058869  
  0.1317153  2.851218   1.651      0          0.02588725 46.609     
  0.3502793  0.4229705  0.2775882 
1161.6     
  0.214      588.01     -9999      -9999      9.610512   1.971      
  1.194      0.8        1.247155   0.08309388 0.08309388 0.2094104  
  0.0968854  2.00908    1.701      0          0.02111456 46.609     
  0.3827775  0.4879668  0.2775882 
1161.8     
  0.215      566.42     -9999      -9999      9.811971   2          
  1.118      0.838      1.244461   0.05900358 0.05900358 0.2115269  
  0.03467748 1.532921   1.765      0          0          51.054     
  0.4621917  0.5449545  0.379429  
1162       
  0.212      542.29     -9999      -9999      9.931738   2.015      
  1.067      0.724      1.24348    0.04133554 0.04133554 0.2122979  
  0.01632272 1.305207   1.844      0          0          53.594     
  0.5180677  0.5819402  0.4541952 
1162.2     
  0.214      524.51     -9999      -9999      9.983055   2          
  1.144      0.838      1.244326   0.01687045 0.01687045 0.2116331  
  0.005749627 1.218301   1.907      0          0          57.15      
  0.5901898  0.5985462  0.5818332 
