~Version
 VERS              .         2.0                           : CWLS LOG ASCII STANDARD - VERSION 2.0
 WRAP              .         NO                            : ONE LINE PER DEPTH STEP
 DLM               .         SPACE                         : DELIMITING CHARACTER(SPACE TAB OR COMMA)
~Well Information
#_______________________________________________________________________________
#
#PARAMETER_NAME    .UNIT     VALUE                         : DESCRIPTION
#_______________________________________________________________________________
STRT               .M        902                           : First reference value
STOP               .M        1188.8                        : Last reference value
STEP               .M        0.1                           : Step increment
NULL               .         -9999                         : Missing value
COMP               .                                       : Company
WELL               .         5503                          : Well name
FLD                .         Узень                         : Field
LOC                .                                       : Location
CNTY               .                                       : County
STAT               .                                       : State
CTRY               .                                       : Country
SRVC               .         SCH                           : Service Company
DATE               .         02.10.1989                    : Date
UWI                .                                       : Unique Well ID
Block              .         7                             : 
Cartographic_reference_system .         GCS_WGS_1984                  : ESRI,PE_10_3_1- <?xml version="1.0" encoding="utf-16"?><ILateBoundCoordinateReferenceSystem name="GCS_WGS_1984"><AuthorityCode>EPSG,4326</AuthorityCode></ILateBoundCoordinateReferenceSystem>
Category           .         Нагнетательная                : 
Condition          .         Ликвидированная               : 
DATA               .         02.10.1989                    : 
Date               .         02.10.1989                    : 
EREF               .m        92.4                          : 100.8
Gorizont           .         14                            : 14
HZCS               .GCS_WGS_1984 WGS_1984_EASE-Grid_2.0_Global : ESRI,PE_10_3_1- <?xml version="1.0" encoding="utf-16"?><ILateBoundCoordinateReferenceSystem name="WGS_1984_EASE-Grid_2.0_Global"><AuthorityCode>EPSG,6933</AuthorityCode></ILateBoundCoordinateReferenceSystem>
Interpretator      .         Бердибекулы М.                : 
Kupol              .         Основной                      : osnovnoi
LATI               .dega     0.6631315146                  : GCS_WGS_1984
LONG               .dega     0.4384250267                  : GCS_WGS_1984
METD               .         gz1 gz2 gz4 gz5               : 
Mud                .                                       : 
Mud_density        .                                       : 
Mud_resistivity    .                                       : 
NGDU               .         НГДУ-2                        : 
ORIGINALWELLNAME   .         5503                          : 
Spud_date          .         1989                          : 1961
Viscosity          .                                       : 
X                  .m        42302                         : 46154
Y                  .m        84596.03                      : 85761.93
YEAR               .         2019                          : 
~Parameter Information Block
#_______________________________________________________________________________
#
#PARAMETER_NAME    .UNIT     VALUE                         : DESCRIPTION
#_______________________________________________________________________________
SET                .         LQC_KAZNIPI_Petrel            : 
PBBOTTOM           .M        1188.8                        : Глубина подошвы планшета
PBSCALE            .         1 _ 500                       : Вертикальный масштаб планшета
PBTOP              .M        902                           : Глубина кровли планшета
TLFamily_CALI      .         Caliper                       : 
TLFamily_CILD      .         Conductivity                  : 
TLFamily_COLL      .         Net Reservoir Flag            : 
TLFamily_CSAT      .         Fluid Code                    : 
TLFamily_DEPT      .         Measured Depth                : 
TLFamily_GR        .         Russian Gamma Ray             : 
TLFamily_GZ1_1     .         Gradient 045                  : 
TLFamily_GZ2_1     .         Gradient 105                  : 
TLFamily_GZ3_1     .         Gradient 225                  : 
TLFamily_GZ4_1     .         Gradient 425                  : 
TLFamily_GZ5_1     .         Gradient 850                  : 
TLFamily_LLS       .         Lateral Log Resistivity       : 
TLFamily_MINV      .         Micro Gradient Resistivity    : 
TLFamily_MNOR      .         Micro Resistivity             : 
TLFamily_NGLD      .         Neutron Far                   : 
TLFamily_OGZ3      .         Gradient Inverted 225         : 
TLFamily_PHIE      .         Effective Porosity            : 
TLFamily_PHIEN     .         Effective Porosity            : 
TLFamily_PHIT      .         Porosity                      : 
TLFamily_PRMB      .         Permeability                  : 
TLFamily_PRMB_DGR  .         Permeability                  : 
TLFamily_RT        .         Formation Resistivity         : 
TLFamily_SOIL_ARCHIE .         Oil Saturation                : 
TLFamily_SOIL_DW   .         Oil Saturation                : 
TLFamily_SP        .         Spontaneous Potential         : 
TLFamily_VSH_FIN   .         Shale Volume                  : 
TLFamily_VSH_GR    .         Shale Volume                  : 
TLFamily_VSH_SP    .         Shale Volume                  : 
~Curve Information
#_______________________________________________________________________________
#
#LOGNAME           .UNIT     LOG_ID                        : DESCRIPTION
#_______________________________________________________________________________
DEPT               .M                                      : Колонка глубины 
CALI               .м                                      : Каверномер 
CILD               .мСм/м                                  : Индукционный каротаж 
COLL               .unitless                               : Описание 
CSAT               .unitless                               : Описание 
GR                 .uR/h                                   : Гамма каротаж 
GZ1_1              .Ohmm                                   :  
GZ2_1              .Ohmm                                   :  
GZ3_1              .Ohmm                                   :  
GZ4_1              .Ohmm                                   :  
GZ5_1              .Ohmm                                   :  
LLS                .Ohmm                                   : Боковой каротаж 
MINV               .Ohmm                                   : Микро-градиент зонд 
MNOR               .Ohmm                                   : Микро-потенциал зонд 
NGLD               .у.е.                                   : Показания зонда НГК-60 аппаратуры ДРСТ-3-90 
OGZ3               .Ohmm                                   :  
PHIE               .v/v                                    : Описание 
PHIEN              .v/v                                    :  
PHIT               .v/v                                    : Описание 
PRMB               .mD                                     :  
PRMB_DGR           .mD                                     :  
RT                 .ohmm                                   : УЭС пласта 
SOIL_ARCHIE        .v/v                                    :  
SOIL_DW            .v/v                                    :  
SP                 .мВ                                     : Потенциал самополяризации 
VSH_FIN            .v/v                                    : Описание 
VSH_GR             .v/v                                    : Shale volume 
VSH_SP             .v/v                                    : Shale Volume 
~Ascii
# ...
995.6      0.224      345.816    -9999      -9999      6.525321   1.498      1.933      2.319      2.386      2.325      3.663      1.553      1.607      1.436597   2.978      0.1466139  0.1466139  0.3043098  1.4548     3.665865   2.892      0.2767096  0.5193622  21.978     0.4778661  0.3817175  0.5534716 
995.7000000000001 0.221      349.816    -9999      -9999      6.578792   1.715      2.1        2.387      2.521      2.375      3.51       1.962      1.907      1.427563   3.08       0.1469648  0.1469648  0.3064696  1.476735   3.346954   2.859      0.2743163  0.5191465  21.879     0.483348   0.3961705  0.5500908 
995.8      0.22       354.816    -9999      -9999      6.652249   1.866      2.234      2.471      2.588      2.442      3.275      2.27       2.159      1.414153   3.198      0.1471291  0.1471291  0.3096759  1.487117   2.953578   2.818      0.2700912  0.5189798  21.814     0.4925662  0.4169223  0.5478474 
995.9      0.219      358.816    -9999      -9999      6.742264   2.084      2.352      2.538      2.672      2.526      2.999      2.399      2.319      1.397368   3.113      0.1468523  0.1468523  0.3136892  1.469664   2.53401    2.787      0.2650881  0.5198212  21.79      0.5055666  0.4438393  0.5469598 
996        0.219      362.816    -9999      -9999      6.844316   2.318      2.536      2.622      2.739      2.576      2.741      2.358      2.378      1.378312   3.012      0.1460197  0.1460197  0.3182456  1.418393   2.129949   2.756      0.2575531  0.5204154  21.794     0.5218966  0.4764639  0.546994  
996.1      0.22       366.816    -9999      -9999      6.953124   2.435      2.72       2.689      2.773      2.626      2.551      2.221      2.336      1.358105   2.928      0.1446303  0.1446303  0.3230772  1.336789   1.769854   2.726      0.2474902  0.5205834  21.805     0.5407479  0.5138935  0.5472587 
996.2000000000001 0.221      371.816    -9999      -9999      7.063013   2.569      2.904      2.723      2.79       2.71       2.44       2.04       2.196      1.337801   2.86       0.1426819  0.1426819  0.3279317  1.230194   1.46793    2.69       0.233783   0.5194546  21.821     0.561363   0.5546803  0.5476882 
996.3      0.223      377.816    -9999      -9999      7.168401   2.72       3.088      2.723      2.79       2.66       2.39       1.811      1.969      1.318313   2.759      0.1662684  0.1662684  0.3325914  3.363966   3.171905   2.647      0.3242763  0.5467823  21.861     0.5040092  0.4049565  0.560851  
996.4      0.225      384.816    -9999      -9999      7.264344   2.837      3.206      2.689      2.739      2.609      2.366      1.531      1.695      1.30035    2.641      0.165988   0.165988   0.3368863  3.323987   2.741315   2.599      0.3174461  0.5459249  21.944     0.5178734  0.4298143  0.5635484 
996.5      0.227      390.816    -9999      -9999      7.347109   2.904      3.373      2.672      2.706      2.559      2.342      1.242      1.433      1.284393   2.54       0.1653555  0.1653555  0.3407016  3.235517   2.417133   2.559      0.3101701  0.5448978  22.066     0.5313517  0.4524804  0.5675809 
996.6      0.228      397.816    -9999      -9999      7.414637   3.005      3.474      2.639      2.655      2.542      2.308      1.029      1.234      1.270703   2.422      0.1647437  0.1647437  0.343975   3.152183   2.181247   2.514      0.3021536  0.5429068  22.184     0.543125   0.4718562  0.5715016 
996.7000000000001 0.229      403.816    -9999      -9999      7.4667     2.804      3.524      2.571      2.605      2.509      2.263      0.932      1.113      1.259359   2.32       0.1645554  0.1645554  0.3466873  3.126965   2.015219   2.476      0.2964475  0.5414505  22.244     0.551915   0.4873593  0.5734542 
996.8      0.229      407.816    -9999      -9999      7.504714   2.67       3.557      2.504      2.538      2.459      2.211      0.937      1.057      1.250337   2.236      0.164978   0.164978   0.3488445  3.183833   1.902031   2.452      0.2948014  0.5414285  22.216     0.5571712  0.4989998  0.5723937 
996.9      0.228      411.816    -9999      -9999      7.531186   2.502      3.591      2.487      2.487      2.392      2.159      0.974      1.039      1.243572   2.186      0.1658657  0.1658657  0.3504619  3.306682   1.826986   2.428      0.2948423  0.5414233  22.113     0.5593826  0.5072697  0.5687769 
997        0.228      413.816    -9999      -9999      7.548987   2.402      3.591      2.437      2.386      2.342      2.107      0.992      1.039      1.238993   2.219      0.1668755  0.1668755  0.3515568  3.452214   1.778193   2.417      0.2970642  0.5423253  21.974     0.5596403  0.5129079  0.5639622 
997.1      0.228      413.816    -9999      -9999      7.560648   2.268      3.557      2.471      2.336      2.291      2.063      0.969      1.042      1.236541   2.236      0.1676564  0.1676564  0.352143   3.569123   1.74694    2.417      0.2999166  0.5436078  21.84      0.5590501  0.5166351  0.5593505 
997.2000000000001 0.228      413.816    -9999      -9999      7.56791    2.184      3.49       2.504      2.319      2.275      2.026      0.918      1.042      1.236169   2.27       0.1679828  0.1679828  0.3522319  3.619154   1.727756   2.417      0.3011014  0.5440165  21.737     0.5583307  0.5189699  0.5558051 
997.3      0.228      412.816    -9999      -9999      7.57161    2.084      3.39       2.521      2.302      2.258      2.004      0.861      1.035      1.237803   2.287      0.1678102  0.1678102  0.3518412  3.592613   1.718062   2.422      0.3011535  0.5439957  21.669     0.5576697  0.5201637  0.5534418 
997.4      0.227      410.816    -9999      -9999      7.571928   2.017      3.289      2.555      2.286      2.241      2          0.82       1.016      1.241312   2.304      0.1672341  0.1672341  0.3510023  3.505415   1.717232   2.434      0.3006809  0.5438517  21.624     0.5568734  0.5202662  0.5518494 
997.5      0.227      408.816    -9999      -9999      7.568822   2.017      3.155      2.571      2.286      2.241      2.025      0.802      0.984      1.246462   2.287      0.1664413  0.1664413  0.3497709  3.388874   1.725361   2.446      0.2993996  0.5431553  21.58      0.5555443  0.5192639  0.5502942 
997.6      0.227      406.816    -9999      -9999      7.562503   1.983      3.005      2.605      2.269      2.224      2.085      0.8        0.939      1.252888   2.287      0.1655245  0.1655245  0.3482344  3.258911   1.74202    2.458      0.2976356  0.542066   21.534     0.5536664  0.5172305  0.5486767 
997.7000000000001 0.227      405.816    -9999      -9999      7.553751   1.9        2.871      2.639      2.252      2.208      2.172      0.801      0.892      1.260086   2.27       0.1645379  0.1645379  0.3465133  3.124631   1.76536    2.464      0.2947764  0.5401735  21.49      0.5514408  0.5144271  0.5471292 
997.8      0.227      404.816    -9999      -9999      7.544011   1.883      2.77       2.655      2.235      2.191      2.268      0.791      0.852      1.26744    2.253      0.1634357  0.1634357  0.3447551  2.981155   1.791702   2.47       0.2914453  0.5381037  21.468     0.5494527  0.5113253  0.5463082 
997.9      0.227      403.816    -9999      -9999      7.535247   1.883      2.687      2.655      2.202      2.157      2.345      0.765      0.826      1.274289   2.287      0.1622095  0.1622095  0.3431175  2.829251   1.815738   2.476      0.287594   0.5359744  21.479     0.5482062  0.5085505  0.5465726 
998        0.227      401.816    -9999      -9999      7.529583   1.833      2.62       2.672      2.185      2.141      2.389      0.731      0.812      1.280036   2.304      0.1608809  0.1608809  0.3417433  2.673391   1.831445   2.489      0.2842337  0.5345843  21.525     0.5480679  0.506765   0.5479896 
998.1      0.227      399.816    -9999      -9999      7.528879   1.732      2.569      2.756      2.202      2.141      2.396      0.704      0.807      1.284252   2.337      0.1594916  0.1594916  0.3407354  2.51959    1.833407   2.501      0.2804325  0.5333193  21.6       0.5492236  0.5065435  0.5503685 
