~Version
 VERS              .         2.0                           : CWLS LOG ASCII STANDARD - VERSION 2.0
 WRAP              .         NO                            : ONE LINE PER DEPTH STEP
 DLM               .         SPACE                         : DELIMITING CHARACTER(SPACE TAB OR COMMA)
~Well Information
#_______________________________________________________________________________
#
#PARAMETER_NAME    .UNIT     VALUE                         : DESCRIPTION
#_______________________________________________________________________________
STRT               .M        902                           : First reference value
STOP               .M        1188.8                        : Last reference value
STEP               .M        0.1                           : Step increment
NULL               .         -9999                         : Missing value
COMP               .                                       : Company
WELL               .         5503                          : Well name
FLD                .         Узень                         : Field
LOC                .                                       : Location
CNTY               .                                       : County
STAT               .                                       : State
CTRY               .                                       : Country
SRVC               .         SCH                           : Service Company
DATE               .         02.10.1989                    : Date
UWI                .                                       : Unique Well ID
Block              .         7                             : 
Cartographic_reference_system .         GCS_WGS_1984                  : ESRI,PE_10_3_1- <?xml version="1.0" encoding="utf-16"?><ILateBoundCoordinateReferenceSystem name="GCS_WGS_1984"><AuthorityCode>EPSG,4326</AuthorityCode></ILateBoundCoordinateReferenceSystem>
Category           .         Нагнетательная                : 
Condition          .         Ликвидированная               : 
DATA               .         02.10.1989                    : 
Date               .         02.10.1989                    : 
EREF               .m        92.4                          : 100.8
Gorizont           .         14                            : 14
HZCS               .GCS_WGS_1984 WGS_1984_EASE-Grid_2.0_Global : ESRI,PE_10_3_1- <?xml version="1.0" encoding="utf-16"?><ILateBoundCoordinateReferenceSystem name="WGS_1984_EASE-Grid_2.0_Global"><AuthorityCode>EPSG,6933</AuthorityCode></ILateBoundCoordinateReferenceSystem>
Interpretator      .         Бердибекулы М.                : 
Kupol              .         Основной                      : osnovnoi
LATI               .dega     0.6631315146                  : GCS_WGS_1984
LONG               .dega     0.4384250267                  : GCS_WGS_1984
METD               .         gz1 gz2 gz4 gz5               : 
Mud                .                                       : 
Mud_density        .                                       : 
Mud_resistivity    .                                       : 
NGDU               .         НГДУ-2                        : 
ORIGINALWELLNAME   .         5503                          : 
Spud_date          .         1989                          : 1961
Viscosity          .                                       : 
X                  .m        42302                         : 46154
Y                  .m        84596.03                      : 85761.93
YEAR               .         2019                          : 
~Parameter Information Block
#_______________________________________________________________________________
#
#PARAMETER_NAME    .UNIT     VALUE                         : DESCRIPTION
#_______________________________________________________________________________
SET                .         LQC_KAZNIPI_Petrel            : 
PBBOTTOM           .M        1188.8                        : Глубина подошвы планшета
PBSCALE            .         1 _ 500                       : Вертикальный масштаб планшета
PBTOP              .M        902                           : Глубина кровли планшета
TLFamily_CALI      .         Caliper                       : 
TLFamily_CILD      .         Conductivity                  : 
TLFamily_COLL      .         Net Reservoir Flag            : 
TLFamily_CSAT      .         Fluid Code                    : 
TLFamily_DEPT      .         Measured Depth                : 
TLFamily_GR        .         Russian Gamma Ray             : 
TLFamily_GZ1_1     .         Gradient 045                  : 
TLFamily_GZ2_1     .         Gradient 105                  : 
TLFamily_GZ3_1     .         Gradient 225                  : 
TLFamily_GZ4_1     .         Gradient 425                  : 
TLFamily_GZ5_1     .         Gradient 850                  : 
TLFamily_LLS       .         Lateral Log Resistivity       : 
TLFamily_MINV      .         Micro Gradient Resistivity    : 
TLFamily_MNOR      .         Micro Resistivity             : 
TLFamily_NGLD      .         Neutron Far                   : 
TLFamily_OGZ3      .         Gradient Inverted 225         : 
TLFamily_PHIE      .         Effective Porosity            : 
TLFamily_PHIEN     .         Effective Porosity            : 
TLFamily_PHIT      .         Porosity                      : 
TLFamily_PRMB      .         Permeability                  : 
TLFamily_PRMB_DGR  .         Permeability                  : 
TLFamily_RT        .         Formation Resistivity         : 
TLFamily_SOIL_ARCHIE .         Oil Saturation                : 
TLFamily_SOIL_DW   .         Oil Saturation                : 
TLFamily_SP        .         Spontaneous Potential         : 
TLFamily_VSH_FIN   .         Shale Volume                  : 
TLFamily_VSH_GR    .         Shale Volume                  : 
TLFamily_VSH_SP    .         Shale Volume                  : 
~Curve Information
#_______________________________________________________________________________
#
#LOGNAME           .UNIT     LOG_ID                        : DESCRIPTION
#_______________________________________________________________________________
DEPT               .M                                      : Колонка глубины 
CALI               .м                                      : Каверномер 
CILD               .мСм/м                                  : Индукционный каротаж 
COLL               .unitless                               : Описание 
CSAT               .unitless                               : Описание 
GR                 .uR/h                                   : Гамма каротаж 
GZ1_1              .Ohmm                                   :  
GZ2_1              .Ohmm                                   :  
GZ3_1              .Ohmm                                   :  
GZ4_1              .Ohmm                                   :  
GZ5_1              .Ohmm                                   :  
LLS                .Ohmm                                   : Боковой каротаж 
MINV               .Ohmm                                   : Микро-градиент зонд 
MNOR               .Ohmm                                   : Микро-потенциал зонд 
NGLD               .у.е.                                   : Показания зонда НГК-60 аппаратуры ДРСТ-3-90 
OGZ3               .Ohmm                                   :  
PHIE               .v/v                                    : Описание 
PHIEN              .v/v                                    :  
PHIT               .v/v                                    : Описание 
PRMB               .mD                                     :  
PRMB_DGR           .mD                                     :  
RT                 .ohmm                                   : УЭС пласта 
SOIL_ARCHIE        .v/v                                    :  
SOIL_DW            .v/v                                    :  
SP                 .мВ                                     : Потенциал самополяризации 
VSH_FIN            .v/v                                    : Описание 
VSH_GR             .v/v                                    : Shale volume 
VSH_SP             .v/v                                    : Shale Volume 
~Ascii
# ...
1050.2     0.235      549.816    -9999      -9999      9.654128   1.364      1.665      1.714      1.563      1.806      1.725      0.783      0.934      1.126739   1.595      0.1832467  0.1832467  0.3783967  6.939554   0.9735885  1.819      0.2596368  0.5135713  17.122     0.5913636  0.655935   0.5267922 
1050.3     0.233      552.816    -9999      -9999      9.611287   1.33       1.665      1.697      1.597      1.789      1.709      0.763      0.912      1.128074   1.595      0.1841534  0.1841534  0.3780775  7.213162   1.024247   1.809      0.2609031  0.5128928  17.316     0.5876488  0.6424888  0.5328088 
1050.4     0.231      554.816    -9999      -9999      9.575667   1.33       1.665      1.681      1.597      1.806      1.684      0.743      0.892      1.130253   1.595      0.1843969  0.1843969  0.3775566  7.288462   1.068367   1.802      0.2604089  0.5117782  17.518     0.5853325  0.6315191  0.5391457 
1050.5     0.231      557.816    -9999      -9999      9.549539   1.297      1.665      1.681      1.597      1.839      1.66       0.73       0.878      1.133357   1.612      0.1840038  0.1840038  0.3768144  7.167274   1.101936   1.793      0.2572898  0.5095592  17.702     0.5842747  0.6235917  0.5449578 
1050.6     0.23       559.816    -9999      -9999      9.53355    1.263      1.665      1.697      1.563      1.822      1.646      0.738      0.869      1.137371   1.646      0.1830264  0.1830264  0.3758545  6.874662   1.122995   1.786      0.2524659  0.5068213  17.857     0.5843276  0.61879    0.5498652 
1050.7     0.23       560.816    -9999      -9999      9.526684   1.28       1.598      1.664      1.563      1.822      1.647      0.778      0.863      1.142169   1.663      0.1815116  0.1815116  0.3747075  6.444546   1.132162   1.783      0.2464409  0.5039015  17.992     0.5854421  0.6167392  0.5541452 
1050.8     0.23       561.816    -9999      -9999      9.526419   1.313      1.648      1.613      1.563      1.806      1.655      0.846      0.862      1.147519   1.663      0.1795841  0.1795841  0.3734282  5.935968   1.132517   1.78       0.2388004  0.5004027  18.118     0.5874063  0.6166601  0.5581525 
1050.9     0.23       561.816    -9999      -9999      9.52905    1.38       1.699      1.697      1.546      1.772      1.659      0.921      0.868      1.153119   1.629      0.1775113  0.1775113  0.3720891  5.433741   1.128995   1.78       0.2310648  0.4970731  18.233     0.5896297  0.6174451  0.5618142 
1051       0.23       562.816    -9999      -9999      9.53013    1.464      1.732      1.731      1.462      1.739      1.653      0.983      0.883      1.158627   1.612      0.1756454  0.1756454  0.3707723  5.018066   1.127551   1.777      0.2233405  0.493512   18.328     0.5912938  0.6177677  0.5648198 
1051.1     0.23       562.816    -9999      -9999      9.52502    1.397      1.715      1.748      1.529      1.722      1.64       1.023      0.903      1.163698   1.595      0.1743488  0.1743488  0.3695599  4.74812    1.134395   1.777      0.2183127  0.491053   18.394     0.5915487  0.6162431  0.5668542 
1051.2     0.231      562.816    -9999      -9999      9.509513   1.498      1.682      1.714      1.563      1.688      1.626      1.046      0.925      1.168017   1.595      0.1739017  0.1739017  0.3685272  4.65843    1.155414   1.777      0.2165624  0.4896715  18.431     0.5897744  0.6116404  0.5679083 
1051.3     0.231      561.816    -9999      -9999      9.480483   1.297      1.598      1.681      1.597      1.672      1.615      1.055      0.943      1.17134    1.663      0.1744687  0.1744687  0.3677327  4.772446   1.195819   1.78       0.2193984  0.4900484  18.445     0.5856487  0.6031159  0.5681815 
1051.4     0.232      559.816    -9999      -9999      9.436414   1.33       1.682      1.681      1.613      1.806      1.611      1.059      0.954      1.17353    1.713      0.1761043  0.1761043  0.367209   5.117262   1.259871   1.786      0.2269386  0.4922599  18.44      0.5791051  0.5904018  0.5678085 
1051.5     0.233      555.816    -9999      -9999      9.377739   1.38       1.699      1.714      1.647      1.739      1.617      1.067      0.959      1.174596   1.764      0.1787532  0.1787532  0.3669542  5.729303   1.350508   1.799      0.2395182  0.4967535  18.414     0.5703058  0.5738888  0.5667228 
1051.6     0.234      549.816    -9999      -9999      9.306856   1.397      1.699      1.647      1.63       1.722      1.639      1.093      0.96       1.1747     1.798      0.1822594  0.1822594  0.3669294  6.653397   1.468743   1.819      0.2561449  0.5032154  18.359     0.559606   0.554555   0.564657  
1051.7     0.235      543.816    -9999      -9999      9.227826   1.38       1.682      1.714      1.63       1.705      1.686      1.127      0.96       1.174132   1.831      0.186343   0.186343   0.3670651  7.919217   1.612812   1.839      0.2740972  0.5102298  18.272     0.5476428  0.5337659  0.5615197 
1051.8     0.237      537.816    -9999      -9999      9.145804   1.347      1.632      1.647      1.597      1.688      1.755      1.147      0.959      1.17326    1.882      0.1906674  0.1906674  0.3672735  9.523164   1.777297   1.859      0.2920602  0.5173418  18.153     0.5351699  0.5130135  0.5573263 
1051.9     0.239      532.816    -9999      -9999      9.066281   1.33       1.598      1.63       1.563      1.605      1.825      1.125      0.949      1.172455   1.899      0.1948716  0.1948716  0.3674661  11.39339   1.952771   1.877      0.308515   0.523868   18.01      0.5230135  0.493664   0.5523629 
1052       0.242      530.816    -9999      -9999      8.994267   1.33       1.548      1.597      1.58       1.638      1.865      1.061      0.921      1.172027   1.933      0.1986605  0.1986605  0.3675683  13.39161   2.12658    1.884      0.3212022  0.528392   17.851     0.5118418  0.4767721  0.5469115 
1052.1     0.244      530.816    -9999      -9999      8.933533   1.313      1.498      1.58       1.496      1.605      1.856      0.973      0.877      1.172186   1.949      0.2018821  0.2018821  0.3675303  15.36399   2.285136   1.884      0.3306462  0.5313257  17.675     0.5019644  0.4629759  0.5409528 
1052.2     0.247      531.816    -9999      -9999      8.88607    1.263      1.447      1.546      1.496      1.571      1.811      0.883      0.836      1.173036   1.983      0.2044123  0.2044123  0.3673272  17.11473   2.417228   1.88       0.3372074  0.5329619  17.494     0.4936814  0.4524731  0.5348897 
1052.3     0.249      532.816    -9999      -9999      8.851842   1.23       1.38       1.479      1.496      1.571      1.755      0.811      0.82       1.174591   2.017      0.2062351  0.2062351  0.3669552  18.49832   2.517202   1.877      0.3418193  0.5339348  17.317     0.4870306  0.4450471  0.5290141 
1052.4     0.25       531.816    -9999      -9999      8.828902   1.263      1.531      1.546      1.496      1.588      1.709      0.775      0.841      1.176821   2.051      0.2072838  0.2072838  0.3664221  19.34449   2.586509   1.88       0.3452114  0.5348291  17.176     0.4822372  0.4401385  0.5243359 
1052.5     0.25       529.816    -9999      -9999      8.813889   1.297      1.598      1.58       1.529      1.588      1.679      0.786      0.889      1.179681   2.084      0.2075427  0.2075427  0.3657382  19.55924   2.632898   1.887      0.3470625  0.5353968  17.102     0.4793805  0.4369552  0.5218058 
1052.6     0.248      526.816    -9999      -9999      8.802779   1.347      1.682      1.613      1.546      1.571      1.663      0.828      0.939      1.183141   2.118      0.2070025  0.2070025  0.3649111  19.1138    2.667758   1.898      0.3473614  0.5356323  17.127     0.4785108  0.4346146  0.5224069 
1052.7     0.247      522.816    -9999      -9999      8.791685   1.397      1.715      1.647      1.597      1.554      1.66       0.87       0.968      1.187178   2.152      0.2057665  0.2057665  0.3639456  18.13231   2.703032   1.913      0.3463673  0.5356172  17.258     0.4793306  0.4322897  0.5263716 
