~Version
 VERS              .         2.0                           : CWLS LOG ASCII STANDARD - VERSION 2.0
 WRAP              .         NO                            : ONE LINE PER DEPTH STEP
 DLM               .         SPACE                         : DELIMITING CHARACTER(SPACE TAB OR COMMA)
~Well Information
#_______________________________________________________________________________
#
#PARAMETER_NAME    .UNIT     VALUE                         : DESCRIPTION
#_______________________________________________________________________________
STRT               .M        902                           : First reference value
STOP               .M        1188.8                        : Last reference value
STEP               .M        0.1                           : Step increment
NULL               .         -9999                         : Missing value
COMP               .                                       : Company
WELL               .         5503                          : Well name
FLD                .         Узень                         : Field
LOC                .                                       : Location
CNTY               .                                       : County
STAT               .                                       : State
CTRY               .                                       : Country
SRVC               .         SCH                           : Service Company
DATE               .         02.10.1989                    : Date
UWI                .                                       : Unique Well ID
Block              .         7                             : 
Cartographic_reference_system .         GCS_WGS_1984                  : ESRI,PE_10_3_1- <?xml version="1.0" encoding="utf-16"?><ILateBoundCoordinateReferenceSystem name="GCS_WGS_1984"><AuthorityCode>EPSG,4326</AuthorityCode></ILateBoundCoordinateReferenceSystem>
Category           .         Нагнетательная                : 
Condition          .         Ликвидированная               : 
DATA               .         02.10.1989                    : 
Date               .         02.10.1989                    : 
EREF               .m        92.4                          : 100.8
Gorizont           .         14                            : 14
HZCS               .GCS_WGS_1984 WGS_1984_EASE-Grid_2.0_Global : ESRI,PE_10_3_1- <?xml version="1.0" encoding="utf-16"?><ILateBoundCoordinateReferenceSystem name="WGS_1984_EASE-Grid_2.0_Global"><AuthorityCode>EPSG,6933</AuthorityCode></ILateBoundCoordinateReferenceSystem>
Interpretator      .         Бердибекулы М.                : 
Kupol              .         Основной                      : osnovnoi
LATI               .dega     0.6631315146                  : GCS_WGS_1984
LONG               .dega     0.4384250267                  : GCS_WGS_1984
METD               .         gz1 gz2 gz4 gz5               : 
Mud                .                                       : 
Mud_density        .                                       : 
Mud_resistivity    .                                       : 
NGDU               .         НГДУ-2                        : 
ORIGINALWELLNAME   .         5503                          : 
Spud_date          .         1989                          : 1961
Viscosity          .                                       : 
X                  .m        42302                         : 46154
Y                  .m        84596.03                      : 85761.93
YEAR               .         2019                          : 
~Parameter Information Block
#_______________________________________________________________________________
#
#PARAMETER_NAME    .UNIT     VALUE                         : DESCRIPTION
#_______________________________________________________________________________
SET                .         LQC_KAZNIPI_Petrel            : 
PBBOTTOM           .M        1188.8                        : Глубина подошвы планшета
PBSCALE            .         1 _ 500                       : Вертикальный масштаб планшета
PBTOP              .M        902                           : Глубина кровли планшета
TLFamily_CALI      .         Caliper                       : 
TLFamily_CILD      .         Conductivity                  : 
TLFamily_COLL      .         Net Reservoir Flag            : 
TLFamily_CSAT      .         Fluid Code                    : 
TLFamily_DEPT      .         Measured Depth                : 
TLFamily_GR        .         Russian Gamma Ray             : 
TLFamily_GZ1_1     .         Gradient 045                  : 
TLFamily_GZ2_1     .         Gradient 105                  : 
TLFamily_GZ3_1     .         Gradient 225                  : 
TLFamily_GZ4_1     .         Gradient 425                  : 
TLFamily_GZ5_1     .         Gradient 850                  : 
TLFamily_LLS       .         Lateral Log Resistivity       : 
TLFamily_MINV      .         Micro Gradient Resistivity    : 
TLFamily_MNOR      .         Micro Resistivity             : 
TLFamily_NGLD      .         Neutron Far                   : 
TLFamily_OGZ3      .         Gradient Inverted 225         : 
TLFamily_PHIE      .         Effective Porosity            : 
TLFamily_PHIEN     .         Effective Porosity            : 
TLFamily_PHIT      .         Porosity                      : 
TLFamily_PRMB      .         Permeability                  : 
TLFamily_PRMB_DGR  .         Permeability                  : 
TLFamily_RT        .         Formation Resistivity         : 
TLFamily_SOIL_ARCHIE .         Oil Saturation                : 
TLFamily_SOIL_DW   .         Oil Saturation                : 
TLFamily_SP        .         Spontaneous Potential         : 
TLFamily_VSH_FIN   .         Shale Volume                  : 
TLFamily_VSH_GR    .         Shale Volume                  : 
TLFamily_VSH_SP    .         Shale Volume                  : 
~Curve Information
#_______________________________________________________________________________
#
#LOGNAME           .UNIT     LOG_ID                        : DESCRIPTION
#_______________________________________________________________________________
DEPT               .M                                      : Колонка глубины 
CALI               .м                                      : Каверномер 
CILD               .мСм/м                                  : Индукционный каротаж 
COLL               .unitless                               : Описание 
CSAT               .unitless                               : Описание 
GR                 .uR/h                                   : Гамма каротаж 
GZ1_1              .Ohmm                                   :  
GZ2_1              .Ohmm                                   :  
GZ3_1              .Ohmm                                   :  
GZ4_1              .Ohmm                                   :  
GZ5_1              .Ohmm                                   :  
LLS                .Ohmm                                   : Боковой каротаж 
MINV               .Ohmm                                   : Микро-градиент зонд 
MNOR               .Ohmm                                   : Микро-потенциал зонд 
NGLD               .у.е.                                   : Показания зонда НГК-60 аппаратуры ДРСТ-3-90 
OGZ3               .Ohmm                                   :  
PHIE               .v/v                                    : Описание 
PHIEN              .v/v                                    :  
PHIT               .v/v                                    : Описание 
PRMB               .mD                                     :  
PRMB_DGR           .mD                                     :  
RT                 .ohmm                                   : УЭС пласта 
SOIL_ARCHIE        .v/v                                    :  
SOIL_DW            .v/v                                    :  
SP                 .мВ                                     : Потенциал самополяризации 
VSH_FIN            .v/v                                    : Описание 
VSH_GR             .v/v                                    : Shale volume 
VSH_SP             .v/v                                    : Shale Volume 
~Ascii
# ...
1013.8     0.223      257.816    -9999      -9999      4.51265    2.519      3.323      2.992      2.454      1.973      3.744      2.921      2.773      1.603935   3.518      0.1675752  0.1675752  0.2642992  3.556775   44.98462   3.879      0.4390473  0.5710312  16.302     0.2931031  0.1371238  0.4490823 
1013.9     0.223      254.816    -9999      -9999      4.512247   2.62       3.457      3.059      2.521      1.99       3.88       3.012      2.773      1.600315   3.383      0.1702853  0.1702853  0.2651646  3.992597   45.01889   3.924      0.449817   0.5770816  15.901     0.287513   0.1370812  0.4379449 
1014       0.223      251.816    -9999      -9999      4.52659    2.72       3.557      3.109      2.554      2.007      4.094      3.057      2.718      1.595303   3.198      0.172827   0.172827   0.266363   4.44972    43.81484   3.971      0.4598968  0.5832286  15.546     0.2834426  0.1386071  0.4282782 
1014.1     0.223      250.816    -9999      -9999      4.554654   2.888      3.658      3.16       2.571      2.04       4.374      3.059      2.66       1.588693   3.029      0.1750285  0.1750285  0.2679435  4.887774   41.5514    3.987      0.4668256  0.5876498  15.294     0.2815605  0.1416419  0.4214791 
1014.2     0.223      250.816    -9999      -9999      4.596253   3.055      3.725      3.176      2.571      2.057      4.676      3.036      2.634      1.580073   2.86       0.1768264  0.1768264  0.2700046  5.277313   38.40951   3.987      0.4715503  0.5912226  15.185     0.2823581  0.1462632  0.4184531 
1014.3     0.223      252.816    -9999      -9999      4.652361   3.005      3.825      3.176      2.588      2.09       4.921      3.01       2.643      1.56888    2.911      0.1782814  0.1782814  0.2726808  5.615155   34.54481   3.955      0.4733205  0.5933245  15.229     0.2860588  0.1527359  0.4193816 
1014.4     0.224      257.816    -9999      -9999      4.724968   2.938      3.926      3.227      2.639      2.157      5.021      2.995      2.672      1.554511   2.793      0.1795794  0.1795794  0.2761163  5.93478    30.11504   3.879      0.4718506  0.5936007  15.397     0.2925361  0.161539   0.4235332 
1014.5     0.224      265.816    -9999      -9999      4.816475   2.871      4.009      3.311      2.672      2.208      4.924      3.007      2.719      1.536471   2.759      0.1808592  0.1808592  0.2804299  6.267717   25.33205   3.762      0.4675089  0.5922899  15.655     0.3017293  0.1733599  0.4300986 
1014.6     0.224      275.816    -9999      -9999      4.928796   2.804      4.127      3.412      2.672      2.258      4.638      3.068      2.803      1.514519   2.725      0.1821078  0.1821078  0.2856786  6.61052    20.48669   3.626      0.4614648  0.5904141  15.983     0.3138509  0.1890586  0.4386432 
1014.7     0.224      287.816    -9999      -9999      5.062417   2.77       4.294      3.563      2.756      2.325      4.218      3.194      2.956      1.488793   2.742      0.1831344  0.1831344  0.2918296  6.906393   15.91439   3.474      0.4532169  0.5877666  16.377     0.3293793  0.2095961  0.4491625 
1014.8     0.224      302.816    -9999      -9999      5.215725   2.737      4.512      3.765      2.891      2.409      3.726      3.373      3.173      1.459865   2.776      0.1836535  0.1836535  0.2987462  7.061      11.91097   3.302      0.4414102  0.5835179  16.831     0.3487659  0.2359223  0.4616094 
1014.9     0.223      317.816    -9999      -9999      5.384803   2.871      4.797      4          3.059      2.509      3.217      3.558      3.404      1.428707   2.843      0.1833752  0.1833752  0.3061963  6.977684   8.652867   3.146      0.4278238  0.5793141  17.326     0.3721851  0.2688069  0.4755633 
1015       0.223      332.816    -9999      -9999      5.563722   3.038      5.098      4.252      3.21       2.593      2.737      3.686      3.564      1.396576   2.877      0.1989178  0.1989178  0.3138787  13.53935   9.521822   3.005      0.4553702  0.5895323  17.824     0.3483665  0.2585057  0.4382273 
1015.1     0.223      347.816    -9999      -9999      5.745224   3.206      5.399      4.504001   3.445      2.676      2.334      3.72       3.587      1.364852   2.894      0.1980365  0.1980365  0.3214638  13.03993   6.756709   2.875      0.4417949  0.5855539  18.288     0.374022   0.2973758  0.4506683 
1015.2     0.224      353.817    -9999      -9999      5.921601   3.457      5.617      4.756      3.664      2.727      2.046      3.657      3.461      1.334851   2.877      0.1961815  0.1961815  0.3286372  12.04803   4.841237   2.826      0.4326424  0.5859113  18.702     0.4013807  0.3407404  0.4620211 
1015.3     0.224      359.816    -9999      -9999      6.085583   3.742      5.768      4.975      3.865      2.777      1.895      3.495      3.217      1.307685   2.759      0.1933373  0.1933373  0.3351326  10.67169   3.551014   2.779      0.4208395  0.5849101  19.082     0.4296827  0.3867113  0.4726541 
1015.4     0.225      369.816    -9999      -9999      6.23107    3.959      5.902      5.143      3.849      2.76       1.857      3.202      2.888      1.284184   2.607      0.189568   0.189568   0.3407515  9.086949   2.697301   2.704      0.4032098  0.5801511  19.465     0.4581318  0.4326645  0.4835991 
1015.5     0.226      378.816    -9999      -9999      6.353684   4.026      6.052      5.328      3.933      2.676      1.889      2.748      2.49       1.264881   2.405      0.1851595  0.1851595  0.3453669  7.52943    2.139353   2.64       0.3839676  0.5746486  19.867     0.4854767  0.4756077  0.4953458 
1015.6     0.228      385.816    -9999      -9999      6.451039   3.942      6.103      5.126      3.849      2.609      1.936      2.166      2.041      1.250031   2.253      0.1806317  0.1806317  0.3489176  6.207186   1.779789   2.592      0.3650964  0.5692753  20.264     0.5099574  0.5127201  0.5071948 
1015.7     0.231      392.816    -9999      -9999      6.522791   3.742      5.718      4.874      3.681      2.526      1.97       1.573      1.592      1.239648   2.152      0.1765284  0.1765284  0.3514     5.210657   1.554073   2.546      0.3467965  0.5634331  20.617     0.5299141  0.5419135  0.5179147 
1015.8     0.234      399.816    -9999      -9999      6.570433   3.457      5.734      4.622      3.529      2.459      1.99       1.111      1.219      1.233524   2.051      0.1731841  0.1731841  0.3528645  4.51801    1.420249   2.501      0.3302425  0.5574139  20.905     0.5444862  0.5622101  0.5267622 
1015.9     0.239      406.816    -9999      -9999      6.596923   2.904      4.596      4.302      3.361      2.375      2.011      0.845      0.982      1.231219   1.933      0.1705982  0.1705982  0.3534155  4.046224   1.350891   2.458      0.3158641  0.5514196  21.144     0.5539919  0.5738224  0.5341615 
1016       0.242      413.816    -9999      -9999      6.606136   2.335      3.742      4.101      3.193      2.308      2.05       0.746      0.888      1.232071   1.865      0.1685852  0.1685852  0.3532118  3.713335   1.32757    2.417      0.3032768  0.5454199  21.364     0.5594748  0.5779172  0.5410324 
1016.1     0.245      418.816    -9999      -9999      6.602269   2.084      3.825      3.832      3.008      2.224      2.11       0.735      0.89       1.235215   1.865      0.1670365  0.1670365  0.3524602  3.475992   1.337309   2.388      0.2936645  0.5404553  21.572     0.5618901  0.5761949  0.5475852 
1016.2     0.247      422.816    -9999      -9999      6.589287   1.983      3.658      3.664      2.84       2.141      2.18       0.753      0.923      1.23966    1.899      0.1660153  0.1660153  0.3513972  3.327847   1.37053    2.365      0.2866493  0.5362821  21.746     0.5617635  0.5704506  0.5530764 
1016.3     0.247      424.816    -9999      -9999      6.570548   1.883      3.536      3.58       2.773      2.074      2.24       0.774      0.947      1.24441    1.966      0.1656263  0.1656263  0.3502615  3.273098   1.41994    2.354      0.283625   0.5338506  21.864     0.5595007  0.56226    0.5567414 
