~Version
 VERS              .         2.0                           : CWLS LOG ASCII STANDARD - VERSION 2.0
 WRAP              .         NO                            : ONE LINE PER DEPTH STEP
 DLM               .         SPACE                         : DELIMITING CHARACTER(SPACE TAB OR COMMA)
~Well Information
#_______________________________________________________________________________
#
#PARAMETER_NAME    .UNIT     VALUE                         : DESCRIPTION
#_______________________________________________________________________________
STRT               .M        902                           : First reference value
STOP               .M        1188.8                        : Last reference value
STEP               .M        0.1                           : Step increment
NULL               .         -9999                         : Missing value
COMP               .                                       : Company
WELL               .         5503                          : Well name
FLD                .         Узень                         : Field
LOC                .                                       : Location
CNTY               .                                       : County
STAT               .                                       : State
CTRY               .                                       : Country
SRVC               .         SCH                           : Service Company
DATE               .         02.10.1989                    : Date
UWI                .                                       : Unique Well ID
Block              .         7                             : 
Cartographic_reference_system .         GCS_WGS_1984                  : ESRI,PE_10_3_1- <?xml version="1.0" encoding="utf-16"?><ILateBoundCoordinateReferenceSystem name="GCS_WGS_1984"><AuthorityCode>EPSG,4326</AuthorityCode></ILateBoundCoordinateReferenceSystem>
Category           .         Нагнетательная                : 
Condition          .         Ликвидированная               : 
DATA               .         02.10.1989                    : 
Date               .         02.10.1989                    : 
EREF               .m        92.4                          : 100.8
Gorizont           .         14                            : 14
HZCS               .GCS_WGS_1984 WGS_1984_EASE-Grid_2.0_Global : ESRI,PE_10_3_1- <?xml version="1.0" encoding="utf-16"?><ILateBoundCoordinateReferenceSystem name="WGS_1984_EASE-Grid_2.0_Global"><AuthorityCode>EPSG,6933</AuthorityCode></ILateBoundCoordinateReferenceSystem>
Interpretator      .         Бердибекулы М.                : 
Kupol              .         Основной                      : osnovnoi
LATI               .dega     0.6631315146                  : GCS_WGS_1984
LONG               .dega     0.4384250267                  : GCS_WGS_1984
METD               .         gz1 gz2 gz4 gz5               : 
Mud                .                                       : 
Mud_density        .                                       : 
Mud_resistivity    .                                       : 
NGDU               .         НГДУ-2                        : 
ORIGINALWELLNAME   .         5503                          : 
Spud_date          .         1989                          : 1961
Viscosity          .                                       : 
X                  .m        42302                         : 46154
Y                  .m        84596.03                      : 85761.93
YEAR               .         2019                          : 
~Parameter Information Block
#_______________________________________________________________________________
#
#PARAMETER_NAME    .UNIT     VALUE                         : DESCRIPTION
#_______________________________________________________________________________
SET                .         LQC_KAZNIPI_Petrel            : 
PBBOTTOM           .M        1188.8                        : Глубина подошвы планшета
PBSCALE            .         1 _ 500                       : Вертикальный масштаб планшета
PBTOP              .M        902                           : Глубина кровли планшета
TLFamily_CALI      .         Caliper                       : 
TLFamily_CILD      .         Conductivity                  : 
TLFamily_COLL      .         Net Reservoir Flag            : 
TLFamily_CSAT      .         Fluid Code                    : 
TLFamily_DEPT      .         Measured Depth                : 
TLFamily_GR        .         Russian Gamma Ray             : 
TLFamily_GZ1_1     .         Gradient 045                  : 
TLFamily_GZ2_1     .         Gradient 105                  : 
TLFamily_GZ3_1     .         Gradient 225                  : 
TLFamily_GZ4_1     .         Gradient 425                  : 
TLFamily_GZ5_1     .         Gradient 850                  : 
TLFamily_LLS       .         Lateral Log Resistivity       : 
TLFamily_MINV      .         Micro Gradient Resistivity    : 
TLFamily_MNOR      .         Micro Resistivity             : 
TLFamily_NGLD      .         Neutron Far                   : 
TLFamily_OGZ3      .         Gradient Inverted 225         : 
TLFamily_PHIE      .         Effective Porosity            : 
TLFamily_PHIEN     .         Effective Porosity            : 
TLFamily_PHIT      .         Porosity                      : 
TLFamily_PRMB      .         Permeability                  : 
TLFamily_PRMB_DGR  .         Permeability                  : 
TLFamily_RT        .         Formation Resistivity         : 
TLFamily_SOIL_ARCHIE .         Oil Saturation                : 
TLFamily_SOIL_DW   .         Oil Saturation                : 
TLFamily_SP        .         Spontaneous Potential         : 
TLFamily_VSH_FIN   .         Shale Volume                  : 
TLFamily_VSH_GR    .         Shale Volume                  : 
TLFamily_VSH_SP    .         Shale Volume                  : 
~Curve Information
#_______________________________________________________________________________
#
#LOGNAME           .UNIT     LOG_ID                        : DESCRIPTION
#_______________________________________________________________________________
DEPT               .M                                      : Колонка глубины 
CALI               .м                                      : Каверномер 
CILD               .мСм/м                                  : Индукционный каротаж 
COLL               .unitless                               : Описание 
CSAT               .unitless                               : Описание 
GR                 .uR/h                                   : Гамма каротаж 
GZ1_1              .Ohmm                                   :  
GZ2_1              .Ohmm                                   :  
GZ3_1              .Ohmm                                   :  
GZ4_1              .Ohmm                                   :  
GZ5_1              .Ohmm                                   :  
LLS                .Ohmm                                   : Боковой каротаж 
MINV               .Ohmm                                   : Микро-градиент зонд 
MNOR               .Ohmm                                   : Микро-потенциал зонд 
NGLD               .у.е.                                   : Показания зонда НГК-60 аппаратуры ДРСТ-3-90 
OGZ3               .Ohmm                                   :  
PHIE               .v/v                                    : Описание 
PHIEN              .v/v                                    :  
PHIT               .v/v                                    : Описание 
PRMB               .mD                                     :  
PRMB_DGR           .mD                                     :  
RT                 .ohmm                                   : УЭС пласта 
SOIL_ARCHIE        .v/v                                    :  
SOIL_DW            .v/v                                    :  
SP                 .мВ                                     : Потенциал самополяризации 
VSH_FIN            .v/v                                    : Описание 
VSH_GR             .v/v                                    : Shale volume 
VSH_SP             .v/v                                    : Shale Volume 
~Ascii
# ...
1068.4     0.232      374.816    -9999      -9999      8.861451   2.519      2.854      2.504      2.218      1.722      2.421      1.369      1.548      1.292643   2.523      0.1709046  0.1709046  0.3387291  4.099446   2.488725   2.668      0.3427115  0.5583182  19.519     0.5085591  0.4471194  0.5699988 
1068.5     0.232      374.816    -9999      -9999      8.955287   2.335      2.72       2.454      2.185      1.722      2.411      1.358      1.547      1.290051   2.472      0.1686167  0.1686167  0.3393489  3.718329   2.227029   2.668      0.3349507  0.5565228  19.433     0.5173704  0.467871   0.5668698 
1068.6     0.231      375.816    -9999      -9999      9.046203   2.067      2.553      2.454      2.151      1.722      2.426      1.448      1.569      1.287468   2.405      0.1662178  0.1662178  0.3399664  3.356713   1.999751   2.661      0.3257681  0.5539963  19.358     0.5265111  0.488895   0.5641273 
1068.7     0.23       376.816    -9999      -9999      9.130414   2.151      2.77       2.471      2.134      1.739      2.442      1.589      1.572      1.284749   2.472      0.163872   0.163872   0.3406165  3.037138   1.80998    2.654      0.3165256  0.5515097  19.3       0.5355895  0.5092105  0.5619686 
1068.8     0.23       378.816    -9999      -9999      9.204322   2.234      2.888      2.504      2.134      1.755      2.444      1.7        1.525      1.281777   2.439      0.1618533  0.1618533  0.3413271  2.786597   1.658326   2.64       0.3073903  0.5487809  19.247     0.5438599  0.5277347  0.5599851 
1068.9     0.23       380.816    -9999      -9999      9.264837   2.201      2.971      2.538      2.134      1.722      2.44       1.719      1.44       1.278465   2.371      0.1604083  0.1604083  0.3421189  2.620043   1.543662   2.626      0.3002154  0.5466918  19.19      0.5506383  0.5434029  0.5578738 
1069       0.23       382.816    -9999      -9999      9.309915   2.201      3.055      2.555      2.134      1.705      2.451      1.634      1.356      1.274739   2.287      0.1597426  0.1597426  0.3430099  2.546705   1.463434   2.612      0.2959123  0.5454987  19.12      0.5553556  0.5553756  0.5553356 
1069.1     0.231      386.816    -9999      -9999      9.339121   2.167      2.871      2.521      2.134      1.705      2.479      1.472      1.312      1.27051    2.236      0.1598952  0.1598952  0.3440211  2.56333    1.413693   2.585      0.2930588  0.5441317  19.045     0.5579575  0.5632733  0.5526416 
1069.2     0.233      390.816    -9999      -9999      9.354063   2.084      2.804      2.504      2.134      1.688      2.504      1.288      1.312      1.265683   2.219      0.1607745  0.1607745  0.3451753  2.661286   1.388902   2.559      0.293082   0.5437219  18.978     0.5587903  0.5673572  0.5502235 
1069.3     0.234      396.816    -9999      -9999      9.358559   2.117      2.687      2.42       2.134      1.688      2.489      1.131      1.337      1.260187   2.219      0.1622062  0.1622062  0.3464894  2.828854   1.381529   2.52       0.2934459  0.5428252  18.925     0.5584338  0.5685917  0.548276  
1069.4     0.237      403.816    -9999      -9999      9.358352   2.184      2.821      2.487      2.134      1.722      2.415      1.034      1.364      1.254031   2.219      0.1639264  0.1639264  0.3479612  3.044192   1.381867   2.476      0.2940968  0.541828   18.887     0.5576813  0.5685348  0.5468278 
1069.5     0.239      411.816    -9999      -9999      9.360369   2.1        2.837      2.588      2.134      1.739      2.29       0.994      1.385      1.247363   2.253      0.1656134  0.1656134  0.3495555  3.271291   1.378571   2.428      0.2939067  0.5404204  18.859     0.5574004  0.5690895  0.5457113 
1069.6     0.24       420.816    -9999      -9999      9.371586   2          2.821      2.521      2.134      1.655      2.147      0.982      1.398      1.240489   2.27       0.1669249  0.1669249  0.3511992  3.45949    1.360383   2.376      0.2915805  0.5381537  18.832     0.5584069  0.5721841  0.5446296 
1069.7     0.242      427.816    -9999      -9999      9.397688   2.05       2.821      2.471      2.134      1.655      2.021      0.97       1.404      1.233849   2.202      0.1675078  0.1675078  0.3527867  3.546579   1.318983   2.337      0.2882216  0.5362312  18.802     0.5614511  0.5794506  0.5434515 
1069.8     0.242      434.816    -9999      -9999      9.441849   2.084      2.837      2.387      2.134      1.655      1.929      0.949      1.4        1.22794    2.186      0.1670621  0.1670621  0.3541995  3.479798   1.25179    2.3        0.2812051  0.5332023  18.77      0.5670828  0.5919552  0.5422105 
1069.9     0.243      439.816    -9999      -9999      9.503968   2.084      2.837      2.504      2.151      1.655      1.875      0.925      1.376      1.223209   2.152      0.1653231  0.1653231  0.3553308  3.231048   1.163025   2.274      0.2707442  0.5296117  18.756     0.5757809  0.610003   0.5415587 
1070       0.243      443.816    -9999      -9999      9.580657   2.117      2.888      2.571      2.202      1.655      1.856      0.902      1.323      1.219946   2.152      0.162199   0.162199   0.356111   2.827985   1.062075   2.253      0.2552905  0.5246649  18.781     0.5876122  0.6330444  0.5421799 
1070.1     0.243      445.816    -9999      -9999      9.665947   2.084      2.854      2.605      2.202      1.655      1.865      0.873      1.239      1.218224   2.118      0.1577813  0.1577813  0.3565226  2.342345   0.9600593  2.243      0.2355687  0.5190019  18.867     0.6022462  0.6596938  0.5447987 
1070.2     0.243      446.816    -9999      -9999      9.75262    2.184      2.787      2.622      2.168      1.655      1.894      0.833      1.137      1.217889   2.084      0.1524212  0.1524212  0.3566028  1.863666   0.8664236  2.238      0.2113823  0.5123112  19.017     0.6187322  0.6879248  0.5495396 
1070.3     0.243      446.816    -9999      -9999      9.833744   2.301      3.043      2.588      2.151      1.655      1.935      0.789      1.04       1.218605   2.051      0.1466077  0.1466077  0.3564315  1.454418   0.7870737  2.238      0.1842154  0.5051323  19.224     0.6358295  0.7154421  0.5562168 
1070.4     0.243      447.816    -9999      -9999      9.903961   2.385      3.101      2.538      2.118      1.638      1.975      0.759      0.968      1.219956   2.017      0.1409169  0.1409169  0.3561086  1.140989   0.7242843  2.233      0.154709   0.497094   19.463     0.6520959  0.7401469  0.5640449 
1070.5     0.243      448.816    -9999      -9999      9.960272   2.519      2.787      2.487      2.084      1.605      2.009      0.75       0.932      1.221553   2.034      0.1358517  0.1358517  0.3557267  0.9193075  0.6775694  2.228      0.126406   0.4894919  19.703     0.6662881  0.7605738  0.5720023 
1070.6     0.242      450.816    -9999      -9999      10.00212   2          2.636      2.42       2.017      1.571      2.031      0.76       0.931      1.223134   1.966      0.1317395  0.1317395  0.3553487  0.7714245  0.6448134  2.218      0.1008074  0.4823402  19.915     0.6776035  0.7761195  0.5790877 
1070.7     0.242      452.816    -9999      -9999      10.03087   1.749      2.435      2.37       1.949      1.538      2.044      0.78       0.953      1.224619   1.933      0.1286464  0.1286464  0.3549935  0.6760854  0.6232315  2.208      0.0800579  0.4764432  20.086     0.6859004  0.7869835  0.5848172 
1070.8     0.241      453.816    -9999      -9999      10.04894   1.648      2.318      2.336      1.882      1.504      2.047      0.807      0.99       1.226109   1.933      0.1263372  0.1263372  0.3546374  0.6126733  0.610045   2.204      0.06463444 0.4722694  20.233     0.6918188  0.7938858  0.5897518 
1070.9     0.241      454.816    -9999      -9999      10.05876   1.598      2.251      2.303      1.798      1.471      2.049      0.834      1.034      1.227826   1.966      0.1244594  0.1244594  0.3542269  0.56552    0.6029883  2.199      0.05134465 0.4684874  20.384     0.696265   0.7976664  0.5948637 
