~Version
 VERS              .         2.0                           : CWLS LOG ASCII STANDARD - VERSION 2.0
 WRAP              .         NO                            : ONE LINE PER DEPTH STEP
 DLM               .         SPACE                         : DELIMITING CHARACTER(SPACE TAB OR COMMA)
~Well Information
#_______________________________________________________________________________
#
#PARAMETER_NAME    .UNIT     VALUE                         : DESCRIPTION
#_______________________________________________________________________________
STRT               .M        902                           : First reference value
STOP               .M        1188.8                        : Last reference value
STEP               .M        0.1                           : Step increment
NULL               .         -9999                         : Missing value
COMP               .                                       : Company
WELL               .         5503                          : Well name
FLD                .         Узень                         : Field
LOC                .                                       : Location
CNTY               .                                       : County
STAT               .                                       : State
CTRY               .                                       : Country
SRVC               .         SCH                           : Service Company
DATE               .         02.10.1989                    : Date
UWI                .                                       : Unique Well ID
Block              .         7                             : 
Cartographic_reference_system .         GCS_WGS_1984                  : ESRI,PE_10_3_1- <?xml version="1.0" encoding="utf-16"?><ILateBoundCoordinateReferenceSystem name="GCS_WGS_1984"><AuthorityCode>EPSG,4326</AuthorityCode></ILateBoundCoordinateReferenceSystem>
Category           .         Нагнетательная                : 
Condition          .         Ликвидированная               : 
DATA               .         02.10.1989                    : 
Date               .         02.10.1989                    : 
EREF               .m        92.4                          : 100.8
Gorizont           .         14                            : 14
HZCS               .GCS_WGS_1984 WGS_1984_EASE-Grid_2.0_Global : ESRI,PE_10_3_1- <?xml version="1.0" encoding="utf-16"?><ILateBoundCoordinateReferenceSystem name="WGS_1984_EASE-Grid_2.0_Global"><AuthorityCode>EPSG,6933</AuthorityCode></ILateBoundCoordinateReferenceSystem>
Interpretator      .         Бердибекулы М.                : 
Kupol              .         Основной                      : osnovnoi
LATI               .dega     0.6631315146                  : GCS_WGS_1984
LONG               .dega     0.4384250267                  : GCS_WGS_1984
METD               .         gz1 gz2 gz4 gz5               : 
Mud                .                                       : 
Mud_density        .                                       : 
Mud_resistivity    .                                       : 
NGDU               .         НГДУ-2                        : 
ORIGINALWELLNAME   .         5503                          : 
Spud_date          .         1989                          : 1961
Viscosity          .                                       : 
X                  .m        42302                         : 46154
Y                  .m        84596.03                      : 85761.93
YEAR               .         2019                          : 
~Parameter Information Block
#_______________________________________________________________________________
#
#PARAMETER_NAME    .UNIT     VALUE                         : DESCRIPTION
#_______________________________________________________________________________
SET                .         LQC_KAZNIPI_Petrel            : 
PBBOTTOM           .M        1188.8                        : Глубина подошвы планшета
PBSCALE            .         1 _ 500                       : Вертикальный масштаб планшета
PBTOP              .M        902                           : Глубина кровли планшета
TLFamily_CALI      .         Caliper                       : 
TLFamily_CILD      .         Conductivity                  : 
TLFamily_COLL      .         Net Reservoir Flag            : 
TLFamily_CSAT      .         Fluid Code                    : 
TLFamily_DEPT      .         Measured Depth                : 
TLFamily_GR        .         Russian Gamma Ray             : 
TLFamily_GZ1_1     .         Gradient 045                  : 
TLFamily_GZ2_1     .         Gradient 105                  : 
TLFamily_GZ3_1     .         Gradient 225                  : 
TLFamily_GZ4_1     .         Gradient 425                  : 
TLFamily_GZ5_1     .         Gradient 850                  : 
TLFamily_LLS       .         Lateral Log Resistivity       : 
TLFamily_MINV      .         Micro Gradient Resistivity    : 
TLFamily_MNOR      .         Micro Resistivity             : 
TLFamily_NGLD      .         Neutron Far                   : 
TLFamily_OGZ3      .         Gradient Inverted 225         : 
TLFamily_PHIE      .         Effective Porosity            : 
TLFamily_PHIEN     .         Effective Porosity            : 
TLFamily_PHIT      .         Porosity                      : 
TLFamily_PRMB      .         Permeability                  : 
TLFamily_PRMB_DGR  .         Permeability                  : 
TLFamily_RT        .         Formation Resistivity         : 
TLFamily_SOIL_ARCHIE .         Oil Saturation                : 
TLFamily_SOIL_DW   .         Oil Saturation                : 
TLFamily_SP        .         Spontaneous Potential         : 
TLFamily_VSH_FIN   .         Shale Volume                  : 
TLFamily_VSH_GR    .         Shale Volume                  : 
TLFamily_VSH_SP    .         Shale Volume                  : 
~Curve Information
#_______________________________________________________________________________
#
#LOGNAME           .UNIT     LOG_ID                        : DESCRIPTION
#_______________________________________________________________________________
DEPT               .M                                      : Колонка глубины 
CALI               .м                                      : Каверномер 
CILD               .мСм/м                                  : Индукционный каротаж 
COLL               .unitless                               : Описание 
CSAT               .unitless                               : Описание 
GR                 .uR/h                                   : Гамма каротаж 
GZ1_1              .Ohmm                                   :  
GZ2_1              .Ohmm                                   :  
GZ3_1              .Ohmm                                   :  
GZ4_1              .Ohmm                                   :  
GZ5_1              .Ohmm                                   :  
LLS                .Ohmm                                   : Боковой каротаж 
MINV               .Ohmm                                   : Микро-градиент зонд 
MNOR               .Ohmm                                   : Микро-потенциал зонд 
NGLD               .у.е.                                   : Показания зонда НГК-60 аппаратуры ДРСТ-3-90 
OGZ3               .Ohmm                                   :  
PHIE               .v/v                                    : Описание 
PHIEN              .v/v                                    :  
PHIT               .v/v                                    : Описание 
PRMB               .mD                                     :  
PRMB_DGR           .mD                                     :  
RT                 .ohmm                                   : УЭС пласта 
SOIL_ARCHIE        .v/v                                    :  
SOIL_DW            .v/v                                    :  
SP                 .мВ                                     : Потенциал самополяризации 
VSH_FIN            .v/v                                    : Описание 
VSH_GR             .v/v                                    : Shale volume 
VSH_SP             .v/v                                    : Shale Volume 
~Ascii
# ...
941        0.218      158.816    -9999      -9999      4.123726   -9999      -9999      8.034      -9999      -9999      5.446      4.608      4.291      1.797481   7.212      0.0846618  0.0846618  0.2180222  0.1035858  47.48339   6.297      0.1900775  0.5074994  23.091     0.4041224  0.1341301  0.6055331 
941.1      0.219      159.816    -9999      -9999      4.157269   -9999      -9999      8.252      -9999      -9999      5.678      4.599      3.949      1.782499   6.723      0.08674896 0.08674896 0.2216044  0.1132294  44.29348   6.257      0.2047012  0.5153252  23.227     0.4086528  0.1379935  0.6102847 
941.2000000000001 0.219      160.816    -9999      -9999      4.187143   -9999      -9999      8.42       -9999      -9999      5.938      4.538      3.63       1.770378   6.183      0.0884108  0.0884108  0.2245025  0.121546   41.63338   6.218      0.2154385  0.5211207  23.331     0.4123991  0.1415279  0.6139043 
941.3      0.219      162.816    -9999      -9999      4.213344   -9999      -9999      8.487      -9999      -9999      6.089      4.517      3.477      1.761202   5.643001   0.08966178 0.08966178 0.2266966  0.128207   39.43216   6.142      0.2204954  0.5235769  23.399     0.4152569  0.1447022  0.6162285 
941.4      0.219      166.816    -9999      -9999      4.237891   -9999      -9999      8.319      -9999      -9999      6.094      4.563      3.527      1.754567   5.374      0.09049775 0.09049775 0.2282831  0.1328605  37.4756    5.995      0.2179305  0.5215226  23.441     0.4175313  0.1477407  0.6176101 
941.5      0.219      172.816    -9999      -9999      4.264448   -9999      -9999      8.252      -9999      -9999      6.05       4.625      3.707      1.749702   5.306      0.09098222 0.09098222 0.2294461  0.1356343  35.46805   5.787      0.2085522  0.5155134  23.464     0.4195876  0.1510998  0.6182994 
941.6      0.219      178.816    -9999      -9999      4.297679   -9999      -9999      8.252      -9999      -9999      6.215      4.628      3.873      1.745565   5.272      0.09120174 0.09120174 0.2304355  0.1369101  33.1067    5.592      0.1974052  0.5089177  23.477     0.4219204  0.155411   0.6186235 
941.7000000000001 0.218      185.816    -9999      -9999      4.342463   -9999      -9999      8.37       -9999      -9999      6.836      4.519      3.901      1.740893   5.492      0.09134205 0.09134205 0.2315525  0.1377319  30.17127   5.382      0.1839521  0.5012482  23.479     0.4248803  0.1614161  0.6185455 
941.8      0.218      192.816    -9999      -9999      4.403118   -9999      -9999      8.588      -9999      -9999      7.966      4.32       3.751      1.73428    5.643001   0.09163291 0.09163291 0.2331338  0.1394511  26.60603   5.186      0.1719177  0.4946942  23.466     0.4287905  0.1699211  0.6179192 
941.9      0.218      198.816    -9999      -9999      4.482728   -9999      -9999      8.874      -9999      -9999      9.296      4.095      3.497      1.724318   5.762      0.09229135 0.09229135 0.2355156  0.1434226  22.55793   5.03       0.1651858  0.4915553  23.435     0.4340128  0.1817678  0.6166367 
942        0.218      204.816    -9999      -9999      4.582621   -9999      -9999      9.21       -9999      -9999      10.281     3.944      3.283      1.709836   5.947      0.09345005 0.09345005 0.2389783  0.1506884  18.33822   4.882      0.1625537  0.4909946  23.387     0.4409947  0.1978077  0.6147377 
942.1      0.218      209.816    -9999      -9999      4.70203    -9999      -9999      9.545999   -9999      -9999      10.431     3.941      3.267      1.690177   6.284      0.09505951 0.09505951 0.2436787  0.1613953  14.31666   4.766      0.1655529  0.4943364  23.333     0.450361   0.2188494  0.6126261 
942.2000000000001 0.217      213.816    -9999      -9999      4.837967   -9999      -9999      9.815001   -9999      -9999      9.626      4.101      3.512      1.665455   6.74       0.09694628 0.09694628 0.2495896  0.1749196  10.80054   4.677      0.1724268  0.5008608  23.279     0.4625555  0.2455409  0.6105207 
942.3      0.217      216.816    -9999      -9999      4.985322   -9999      -9999      10.017     -9999      -9999      8.171      4.338      3.938      1.636666   7.178      0.09878694 0.09878694 0.2564732  0.1892046  7.957349   4.612      0.1805086  0.5093655  23.231     0.4778372  0.2781637  0.6086377 
942.4      0.217      219.816    -9999      -9999      5.137208   -9999      -9999      11.823     -9999      -9999      6.577      4.511      4.336      1.605601   7.55       0.1001974  0.1001974  0.2639008  0.2009354  5.807804   4.549      0.1853235  0.5174016  23.192     0.4960711  0.3163316  0.6070835 
942.5      0.217      221.816    -9999      -9999      5.285591   -9999      -9999      12.783     -9999      -9999      5.261      4.477      4.499      1.574575   7.786      0.1008316  0.1008316  0.2713191  0.2064449  4.269814   4.508      0.1863388  0.5248484  23.165     0.5166287  0.3586717  0.6059638 
942.6      0.217      223.816    -9999      -9999      5.422163   -9999      -9999      13.074     -9999      -9999      4.376      4.186      4.324      1.546014   7.971      0.1005311  0.1005311  0.2781481  0.203816   3.216924   4.468      0.1808019  0.5298264  23.15      0.5382333  0.4026328  0.6052765 
942.7000000000001 0.217      224.816    -9999      -9999      5.539403   -9999      -9999      12.762     -9999      -9999      3.868      3.7        3.879      1.52203    7.516      0.09938611 0.09938611 0.2838825  0.194102   2.522772   4.448      0.1708444  0.5330911  23.146     0.55908    0.4446455  0.6049846 
942.8      0.218      225.816    -9999      -9999      5.631649   -9999      -9999      12.077     -9999      -9999      3.619      3.181      3.329      1.504102   7.026999   0.09771472 0.09771472 0.2881692  0.1807473  2.083632   4.428      0.1567242  0.5338447  23.15      0.5771349  0.4807606  0.6049798 
942.9      0.218      226.816    -9999      -9999      5.69594    -9999      -9999      10.101     -9999      -9999      3.539      2.792      2.841      1.492898   6.301001   0.09587972 0.09587972 0.2908482  0.167141   1.82362    4.409      0.1409533  0.5326195  23.166     0.5908135  0.5076518  0.6054057 
943        0.218      228.816    -9999      -9999      5.732418   -9999      -9999      9.949      -9999      -9999      3.572      2.61       2.497      1.48829    5.677001   0.09416721 0.09416721 0.2919499  0.1553686  1.690791   4.37       0.1237168  0.5288083  23.199     0.5993416  0.5235732  0.6064429 
943.1      0.218      229.816    -9999      -9999      5.744119   -9999      -9999      9.664      -9999      -9999      3.672      2.575      2.289      1.489495   5.222      0.09270783 0.09270783 0.2916616  0.145993   1.650266   4.351      0.1098966  0.5249554  23.251     0.6028904  0.5287856  0.6081663 
943.2000000000001 0.218      230.816    -9999      -9999      5.736183   -9999      -9999      9.076      -9999      -9999      3.795      2.563      2.167      1.495298   4.918      0.09152125 0.09152125 0.2902743  0.1387885  1.677644   4.332      0.09800347 0.520322   23.314     0.602282   0.5252448  0.6102914 
943.3      0.218      231.816    -9999      -9999      5.714664   -9999      -9999      8.217999   -9999      -9999      3.908      2.481      2.101      1.504283   4.765999   0.09057242 0.09057242 0.288126   0.1332843  1.754182   4.314      0.08799896 0.5152478  23.374     0.5986472  0.5157632  0.612314  
943.4      0.218      232.816    -9999      -9999      5.6853     -9999      -9999      7.496      -9999      -9999      4.006      2.335      2.084      1.515059   4.682      0.089739   0.089739   0.2855494  0.1286299  1.864293   4.295      0.07872023 0.5097497  23.431     0.5933648  0.5030998  0.6142331 
943.5      0.218      232.816    -9999      -9999      5.652533   -9999      -9999      6.823      -9999      -9999      4.11       2.196      2.117      1.526431   4.918      0.08895046 0.08895046 0.2828304  0.1243759  1.995342   4.295      0.07161108 0.5051607  23.487     0.5875149  0.4893359  0.616121  
