~Version
 VERS              .         2.0                           : CWLS LOG ASCII STANDARD - VERSION 2.0
 WRAP              .         NO                            : ONE LINE PER DEPTH STEP
 DLM               .         SPACE                         : DELIMITING CHARACTER(SPACE TAB OR COMMA)
~Well Information
#_______________________________________________________________________________
#
#PARAMETER_NAME    .UNIT     VALUE                         : DESCRIPTION
#_______________________________________________________________________________
STRT               .M        902                           : First reference value
STOP               .M        1188.8                        : Last reference value
STEP               .M        0.1                           : Step increment
NULL               .         -9999                         : Missing value
COMP               .                                       : Company
WELL               .         5503                          : Well name
FLD                .         Узень                         : Field
LOC                .                                       : Location
CNTY               .                                       : County
STAT               .                                       : State
CTRY               .                                       : Country
SRVC               .         SCH                           : Service Company
DATE               .         02.10.1989                    : Date
UWI                .                                       : Unique Well ID
Block              .         7                             : 
Cartographic_reference_system .         GCS_WGS_1984                  : ESRI,PE_10_3_1- <?xml version="1.0" encoding="utf-16"?><ILateBoundCoordinateReferenceSystem name="GCS_WGS_1984"><AuthorityCode>EPSG,4326</AuthorityCode></ILateBoundCoordinateReferenceSystem>
Category           .         Нагнетательная                : 
Condition          .         Ликвидированная               : 
DATA               .         02.10.1989                    : 
Date               .         02.10.1989                    : 
EREF               .m        92.4                          : 100.8
Gorizont           .         14                            : 14
HZCS               .GCS_WGS_1984 WGS_1984_EASE-Grid_2.0_Global : ESRI,PE_10_3_1- <?xml version="1.0" encoding="utf-16"?><ILateBoundCoordinateReferenceSystem name="WGS_1984_EASE-Grid_2.0_Global"><AuthorityCode>EPSG,6933</AuthorityCode></ILateBoundCoordinateReferenceSystem>
Interpretator      .         Бердибекулы М.                : 
Kupol              .         Основной                      : osnovnoi
LATI               .dega     0.6631315146                  : GCS_WGS_1984
LONG               .dega     0.4384250267                  : GCS_WGS_1984
METD               .         gz1 gz2 gz4 gz5               : 
Mud                .                                       : 
Mud_density        .                                       : 
Mud_resistivity    .                                       : 
NGDU               .         НГДУ-2                        : 
ORIGINALWELLNAME   .         5503                          : 
Spud_date          .         1989                          : 1961
Viscosity          .                                       : 
X                  .m        42302                         : 46154
Y                  .m        84596.03                      : 85761.93
YEAR               .         2019                          : 
~Parameter Information Block
#_______________________________________________________________________________
#
#PARAMETER_NAME    .UNIT     VALUE                         : DESCRIPTION
#_______________________________________________________________________________
SET                .         LQC_KAZNIPI_Petrel            : 
PBBOTTOM           .M        1188.8                        : Глубина подошвы планшета
PBSCALE            .         1 _ 500                       : Вертикальный масштаб планшета
PBTOP              .M        902                           : Глубина кровли планшета
TLFamily_CALI      .         Caliper                       : 
TLFamily_CILD      .         Conductivity                  : 
TLFamily_COLL      .         Net Reservoir Flag            : 
TLFamily_CSAT      .         Fluid Code                    : 
TLFamily_DEPT      .         Measured Depth                : 
TLFamily_GR        .         Russian Gamma Ray             : 
TLFamily_GZ1_1     .         Gradient 045                  : 
TLFamily_GZ2_1     .         Gradient 105                  : 
TLFamily_GZ3_1     .         Gradient 225                  : 
TLFamily_GZ4_1     .         Gradient 425                  : 
TLFamily_GZ5_1     .         Gradient 850                  : 
TLFamily_LLS       .         Lateral Log Resistivity       : 
TLFamily_MINV      .         Micro Gradient Resistivity    : 
TLFamily_MNOR      .         Micro Resistivity             : 
TLFamily_NGLD      .         Neutron Far                   : 
TLFamily_OGZ3      .         Gradient Inverted 225         : 
TLFamily_PHIE      .         Effective Porosity            : 
TLFamily_PHIEN     .         Effective Porosity            : 
TLFamily_PHIT      .         Porosity                      : 
TLFamily_PRMB      .         Permeability                  : 
TLFamily_PRMB_DGR  .         Permeability                  : 
TLFamily_RT        .         Formation Resistivity         : 
TLFamily_SOIL_ARCHIE .         Oil Saturation                : 
TLFamily_SOIL_DW   .         Oil Saturation                : 
TLFamily_SP        .         Spontaneous Potential         : 
TLFamily_VSH_FIN   .         Shale Volume                  : 
TLFamily_VSH_GR    .         Shale Volume                  : 
TLFamily_VSH_SP    .         Shale Volume                  : 
~Curve Information
#_______________________________________________________________________________
#
#LOGNAME           .UNIT     LOG_ID                        : DESCRIPTION
#_______________________________________________________________________________
DEPT               .M                                      : Колонка глубины 
CALI               .м                                      : Каверномер 
CILD               .мСм/м                                  : Индукционный каротаж 
COLL               .unitless                               : Описание 
CSAT               .unitless                               : Описание 
GR                 .uR/h                                   : Гамма каротаж 
GZ1_1              .Ohmm                                   :  
GZ2_1              .Ohmm                                   :  
GZ3_1              .Ohmm                                   :  
GZ4_1              .Ohmm                                   :  
GZ5_1              .Ohmm                                   :  
LLS                .Ohmm                                   : Боковой каротаж 
MINV               .Ohmm                                   : Микро-градиент зонд 
MNOR               .Ohmm                                   : Микро-потенциал зонд 
NGLD               .у.е.                                   : Показания зонда НГК-60 аппаратуры ДРСТ-3-90 
OGZ3               .Ohmm                                   :  
PHIE               .v/v                                    : Описание 
PHIEN              .v/v                                    :  
PHIT               .v/v                                    : Описание 
PRMB               .mD                                     :  
PRMB_DGR           .mD                                     :  
RT                 .ohmm                                   : УЭС пласта 
SOIL_ARCHIE        .v/v                                    :  
SOIL_DW            .v/v                                    :  
SP                 .мВ                                     : Потенциал самополяризации 
VSH_FIN            .v/v                                    : Описание 
VSH_GR             .v/v                                    : Shale volume 
VSH_SP             .v/v                                    : Shale Volume 
~Ascii
# ...
1104.8     0.23       404.816    -9999      -9999      9.143863   2.201      3.44       4.067      2.706      2.224      2.251      2.229      1.522      1.236345   2.067      0.1760035  0.1760035  0.3521898  5.095292   2.00042    2.47       0.33572    0.5568723  21.924     0.5338981  0.4888282  0.5789679 
1104.9     0.23       408.816    -9999      -9999      9.162818   2.1        3.189      3.933      2.655      2.224      2.248      2.27       1.53       1.235405   2.067      0.1752699  0.1752699  0.3524147  4.93835    1.939302   2.446      0.3302374  0.5541641  21.925     0.5368024  0.4950613  0.5785435 
1105       0.229      413.816    -9999      -9999      9.173269   2.05       3.088      3.815      2.639      2.224      2.237      2.356      1.55       1.235578   2.101      0.1746459  0.1746459  0.3523732  4.808667   1.906405   2.417      0.3243831  0.5508506  21.94      0.5385674  0.4985319  0.578603  
1105.1     0.229      416.816    -9999      -9999      9.177353   2.033      2.988      3.681      2.605      2.208      2.228      2.455      1.556      1.236733   2.084      0.1740382  0.1740382  0.3520971  4.685628   1.893703   2.399      0.3199474  0.5483474  21.972     0.5395723  0.4998946  0.57925   
1105.2     0.229      419.816    -9999      -9999      9.178103   2          2.904      3.563      2.571      2.191      2.219      2.517      1.548      1.238706   2.084      0.1735211  0.1735211  0.3516254  4.583413   1.891378   2.382      0.3159034  0.545846   21.986     0.5397101  0.5001454  0.5792748 
1105.3     0.229      422.816    -9999      -9999      9.178982   1.983      2.821      3.462      2.571      2.174      2.217      2.511      1.54       1.241277   2.101      0.1730134  0.1730134  0.3510107  4.485247   1.88866    2.365      0.3118465  0.5432121  21.972     0.5393856  0.5004392  0.5783321 
1105.4     0.229      423.816    -9999      -9999      9.183382   1.983      2.754      3.395      2.605      2.157      2.223      2.44       1.541      1.244175   2.118      0.1723122  0.1723122  0.3503177  4.3531     1.875105   2.36       0.308722   0.5414579  21.944     0.5394107  0.5019132  0.5769081 
1105.5     0.229      424.816    -9999      -9999      9.194083   1.983      2.737      3.294      2.622      2.157      2.232      2.344      1.543      1.247091   2.135      0.1711301  0.1711301  0.3496205  4.139065   1.842544   2.354      0.3037335  0.5390963  21.938     0.5408801  0.5055164  0.5762439 
1105.6     0.229      425.816    -9999      -9999      9.212753   1.967      2.687      3.21       2.639      2.157      2.243      2.258      1.535      1.249721   2.152      0.1694157  0.1694157  0.3489918  3.847232   1.787082   2.348      0.2967594  0.5362135  21.958     0.54417    0.5118647  0.5764753 
1105.7     0.229      425.816    -9999      -9999      9.239561   1.95       2.653      3.126      2.639      2.141      2.249      2.204      1.515      1.2518     2.152      0.1673249  0.1673249  0.3484947  3.519022   1.710353   2.348      0.2891123  0.5336016  21.983     0.5489993  0.5211196  0.576879  
1105.8     0.229      425.816    -9999      -9999      9.273033   1.95       2.636      3.042      2.672      2.124      2.25       2.182      1.496      1.253153   2.152      0.165103   0.165103   0.3481712  3.200859   1.619159   2.348      0.2807871  0.5309556  21.988     0.5547521  0.5329105  0.5765938 
1105.9     0.229      425.816    -9999      -9999      9.31027    1.983      2.62       2.975      2.689      2.107      2.252      2.184      1.494      1.253716   2.152      0.1629127  0.1629127  0.3480364  2.915389   1.523408   2.348      0.2723725  0.5284621  21.973     0.5609809  0.5463415  0.5756204 
1106       0.229      425.816    -9999      -9999      9.347509   1.983      2.603      2.891      2.723      2.09       2.257      2.204      1.507      1.253553   2.169      0.160874   0.160874   0.3480754  2.672608   1.433315   2.348      0.2643481  0.5262464  21.952     0.567277   0.5601117  0.5744423 
1106.1     0.229      425.816    -9999      -9999      9.380915   1.983      2.586      2.824      2.739      2.057      2.268      2.247      1.52       1.252836   2.186      0.1590904  0.1590904  0.3482468  2.476837   1.35704    2.348      0.2571698  0.5243986  21.942     0.5732014  0.5727593  0.5736435 
1106.2     0.229      425.816    -9999      -9999      9.407417   1.933      2.519      2.756      2.773      2.057      2.276      2.317      1.517      1.251819   2.186      0.1576913  0.1576913  0.34849    2.333365   1.299424   2.348      0.2514329  0.5230256  21.947     0.578178   0.5829964  0.5733596 
1106.3     0.228      425.816    -9999      -9999      9.425357   1.916      2.502      2.706      2.79       2.057      2.283      2.409      1.497      1.250786   2.202      0.1567342  0.1567342  0.3487371  2.240041   1.261819   2.348      0.2474535  0.5221475  21.968     0.5818269  0.5900294  0.5736243 
1106.4     0.228      425.816    -9999      -9999      9.43471    1.916      2.469      2.655      2.807      2.124      2.283      2.5        1.475      1.249996   2.219      0.1562235  0.1562235  0.3489259  2.191777   1.242648   2.348      0.2453113  0.5217251  21.997     0.5839466  0.5937296  0.5741635 
1106.5     0.228      425.816    -9999      -9999      9.436866   1.916      2.469      2.605      2.823      2.074      2.277      2.564      1.466      1.249627   2.236      0.1560418  0.1560418  0.3490142  2.174856   1.238269   2.348      0.2445459  0.5215926  22.033     0.5847648  0.594586   0.5749437 
1106.6     0.228      426.816    -9999      -9999      9.434019   1.9        2.452      2.571      2.79       2.057      2.268      2.59       1.478      1.24973    2.253      0.1560804  0.1560804  0.3489895  2.178443   1.244053   2.343      0.2439528  0.5211055  22.068     0.584573   0.5934557  0.5756903 
1106.7     0.228      426.816    -9999      -9999      9.428358   1.883      2.419      2.538      2.773      2.04       2.254      2.579      1.51       1.250224   2.253      0.1562828  0.1562828  0.3488716  2.197328   1.255635   2.343      0.2448056  0.5212364  22.09      0.5836022  0.5912143  0.5759903 
1106.8     0.228      427.816    -9999      -9999      9.421371   2.017      2.385      2.504      2.773      2.04       2.241      2.538      1.553      1.250914   2.253      0.1566648  0.1566648  0.3487065  2.233415   1.27008    2.337      0.2455021  0.5209184  22.087     0.5819448  0.5884593  0.5754302 
1106.9     0.228      427.816    -9999      -9999      9.41345    1.967      2.301      2.454      2.773      2.023      2.231      2.475      1.595      1.251552   2.236      0.157287   0.157287   0.3485538  2.29348    1.286654   2.337      0.2481025  0.5214986  22.054     0.5795965  0.5853521  0.5738409 
1107       0.229      428.816    -9999      -9999      9.40397    2          2.402      2.403      2.773      2.023      2.225      2.397      1.619      1.251911   2.219      0.1582366  0.1582366  0.348468   2.38827    1.306778   2.332      0.2512817  0.5219932  21.992     0.576459   0.5816544  0.5712636 
1107.1     0.229      428.816    -9999      -9999      9.391647   1.967      2.435      2.353      2.756      2.023      2.223      2.317      1.61       1.251847   2.236      0.1596144  0.1596144  0.3484835  2.532821   1.333406   2.332      0.256914   0.523562   21.903     0.5723305  0.5768831  0.5677779 
1107.2     0.229      429.816    -9999      -9999      9.375135   1.933      2.435      2.319      2.739      2.023      2.221      2.251      1.57       1.25134    2.253      0.1614694  0.1614694  0.3486045  2.741346   1.369939   2.327      0.2636134  0.5252256  21.793     0.567076   0.570551   0.563601  
1107.3     0.229      429.816    -9999      -9999      9.353515   1.9        2.435      2.303      2.706      2.023      2.22       2.219      1.518      1.250497   2.287      0.1637287  0.1637287  0.3488061  3.01864    1.419294   2.327      0.2724714  0.5278828  21.679     0.5608405  0.5623646  0.5593165 
