~Version
 VERS              .         2.0                           : CWLS LOG ASCII STANDARD - VERSION 2.0
 WRAP              .         NO                            : ONE LINE PER DEPTH STEP
 DLM               .         SPACE                         : DELIMITING CHARACTER(SPACE TAB OR COMMA)
~Well Information
#_______________________________________________________________________________
#
#PARAMETER_NAME    .UNIT     VALUE                         : DESCRIPTION
#_______________________________________________________________________________
STRT               .M        902                           : First reference value
STOP               .M        1188.8                        : Last reference value
STEP               .M        0.1                           : Step increment
NULL               .         -9999                         : Missing value
COMP               .                                       : Company
WELL               .         5503                          : Well name
FLD                .         Узень                         : Field
LOC                .                                       : Location
CNTY               .                                       : County
STAT               .                                       : State
CTRY               .                                       : Country
SRVC               .         SCH                           : Service Company
DATE               .         02.10.1989                    : Date
UWI                .                                       : Unique Well ID
Block              .         7                             : 
Cartographic_reference_system .         GCS_WGS_1984                  : ESRI,PE_10_3_1- <?xml version="1.0" encoding="utf-16"?><ILateBoundCoordinateReferenceSystem name="GCS_WGS_1984"><AuthorityCode>EPSG,4326</AuthorityCode></ILateBoundCoordinateReferenceSystem>
Category           .         Нагнетательная                : 
Condition          .         Ликвидированная               : 
DATA               .         02.10.1989                    : 
Date               .         02.10.1989                    : 
EREF               .m        92.4                          : 100.8
Gorizont           .         14                            : 14
HZCS               .GCS_WGS_1984 WGS_1984_EASE-Grid_2.0_Global : ESRI,PE_10_3_1- <?xml version="1.0" encoding="utf-16"?><ILateBoundCoordinateReferenceSystem name="WGS_1984_EASE-Grid_2.0_Global"><AuthorityCode>EPSG,6933</AuthorityCode></ILateBoundCoordinateReferenceSystem>
Interpretator      .         Бердибекулы М.                : 
Kupol              .         Основной                      : osnovnoi
LATI               .dega     0.6631315146                  : GCS_WGS_1984
LONG               .dega     0.4384250267                  : GCS_WGS_1984
METD               .         gz1 gz2 gz4 gz5               : 
Mud                .                                       : 
Mud_density        .                                       : 
Mud_resistivity    .                                       : 
NGDU               .         НГДУ-2                        : 
ORIGINALWELLNAME   .         5503                          : 
Spud_date          .         1989                          : 1961
Viscosity          .                                       : 
X                  .m        42302                         : 46154
Y                  .m        84596.03                      : 85761.93
YEAR               .         2019                          : 
~Parameter Information Block
#_______________________________________________________________________________
#
#PARAMETER_NAME    .UNIT     VALUE                         : DESCRIPTION
#_______________________________________________________________________________
SET                .         LQC_KAZNIPI_Petrel            : 
PBBOTTOM           .M        1188.8                        : Глубина подошвы планшета
PBSCALE            .         1 _ 500                       : Вертикальный масштаб планшета
PBTOP              .M        902                           : Глубина кровли планшета
TLFamily_CALI      .         Caliper                       : 
TLFamily_CILD      .         Conductivity                  : 
TLFamily_COLL      .         Net Reservoir Flag            : 
TLFamily_CSAT      .         Fluid Code                    : 
TLFamily_DEPT      .         Measured Depth                : 
TLFamily_GR        .         Russian Gamma Ray             : 
TLFamily_GZ1_1     .         Gradient 045                  : 
TLFamily_GZ2_1     .         Gradient 105                  : 
TLFamily_GZ3_1     .         Gradient 225                  : 
TLFamily_GZ4_1     .         Gradient 425                  : 
TLFamily_GZ5_1     .         Gradient 850                  : 
TLFamily_LLS       .         Lateral Log Resistivity       : 
TLFamily_MINV      .         Micro Gradient Resistivity    : 
TLFamily_MNOR      .         Micro Resistivity             : 
TLFamily_NGLD      .         Neutron Far                   : 
TLFamily_OGZ3      .         Gradient Inverted 225         : 
TLFamily_PHIE      .         Effective Porosity            : 
TLFamily_PHIEN     .         Effective Porosity            : 
TLFamily_PHIT      .         Porosity                      : 
TLFamily_PRMB      .         Permeability                  : 
TLFamily_PRMB_DGR  .         Permeability                  : 
TLFamily_RT        .         Formation Resistivity         : 
TLFamily_SOIL_ARCHIE .         Oil Saturation                : 
TLFamily_SOIL_DW   .         Oil Saturation                : 
TLFamily_SP        .         Spontaneous Potential         : 
TLFamily_VSH_FIN   .         Shale Volume                  : 
TLFamily_VSH_GR    .         Shale Volume                  : 
TLFamily_VSH_SP    .         Shale Volume                  : 
~Curve Information
#_______________________________________________________________________________
#
#LOGNAME           .UNIT     LOG_ID                        : DESCRIPTION
#_______________________________________________________________________________
DEPT               .M                                      : Колонка глубины 
CALI               .м                                      : Каверномер 
CILD               .мСм/м                                  : Индукционный каротаж 
COLL               .unitless                               : Описание 
CSAT               .unitless                               : Описание 
GR                 .uR/h                                   : Гамма каротаж 
GZ1_1              .Ohmm                                   :  
GZ2_1              .Ohmm                                   :  
GZ3_1              .Ohmm                                   :  
GZ4_1              .Ohmm                                   :  
GZ5_1              .Ohmm                                   :  
LLS                .Ohmm                                   : Боковой каротаж 
MINV               .Ohmm                                   : Микро-градиент зонд 
MNOR               .Ohmm                                   : Микро-потенциал зонд 
NGLD               .у.е.                                   : Показания зонда НГК-60 аппаратуры ДРСТ-3-90 
OGZ3               .Ohmm                                   :  
PHIE               .v/v                                    : Описание 
PHIEN              .v/v                                    :  
PHIT               .v/v                                    : Описание 
PRMB               .mD                                     :  
PRMB_DGR           .mD                                     :  
RT                 .ohmm                                   : УЭС пласта 
SOIL_ARCHIE        .v/v                                    :  
SOIL_DW            .v/v                                    :  
SP                 .мВ                                     : Потенциал самополяризации 
VSH_FIN            .v/v                                    : Описание 
VSH_GR             .v/v                                    : Shale volume 
VSH_SP             .v/v                                    : Shale Volume 
~Ascii
# ...
959.2000000000001 0.221      305.816    -9999      -9999      5.984326   3.222      -9999      4.202      4.235      3.832      3.086      1.6        1.948      1.345134   3.552      0.1695693  0.1695693  0.3261784  3.872505   5.928201   3.27       0.3984691  0.5904515  23.409     0.4745732  0.3136923  0.5702323 
959.3      0.221      303.816    -9999      -9999      6.053902   3.273      4.495      4.151      4.252      3.832      2.933      1.422      1.775      1.334118   3.451      0.1700229  0.1700229  0.3288125  3.948163   5.278307   3.291      0.4016673  0.5941868  23.355     0.4811804  0.328924   0.5683926 
959.4      0.221      301.816    -9999      -9999      6.121882   3.122      4.428      4.084001   4.202      3.798      2.761      1.367      1.681      1.32602    3.4        0.1696931  0.1696931  0.3307486  3.893006   4.712183   3.313      0.4025254  0.5966865  23.305     0.4880472  0.3445205  0.5666938 
959.5      0.221      301.816    -9999      -9999      6.18459    2.938      4.311      4.05       4.134      3.798      2.639      1.426      1.669      1.321143   3.4        0.1686411  0.1686411  0.3319148  3.722202   4.243964   3.313      0.3992806  0.5965892  23.262     0.4947687  0.3595622  0.5652362 
959.6      0.221      303.816    -9999      -9999      6.238431   2.787      4.127      3.983      4.05       3.865      2.618      1.509      1.674      1.319496   3.349      0.1669829  0.1669829  0.3323085  3.468062   3.87925    3.291      0.3921911  0.5939952  23.235     0.5009867  0.373      0.5643228 
959.7000000000001 0.221      306.816    -9999      -9999      6.280375   2.703      4.428      3.916      3.933      3.698      2.711      1.5        1.614      1.320775   3.299      0.164917   0.164917   0.3320027  3.17557    3.616988   3.259      0.3827414  0.5898179  23.231     0.5063202  0.3838154  0.5641875 
959.8      0.221      309.816    -9999      -9999      6.308498   2.921      4.679      3.832      3.832      3.648      2.89       1.374      1.497      1.324392   3.248      0.1626738  0.1626738  0.3311379  2.88583    3.451146   3.228      0.3725264  0.5850168  23.256     0.5104975  0.3912423  0.5650331 
959.9      0.221      312.816    -9999      -9999      6.32247    2.754      4.16       3.748      3.681      3.581      3.096      1.192      1.377      1.329565   3.181      0.1605126  0.1605126  0.329901   2.631727   3.371606   3.197      0.3622934  0.5799021  23.306     0.5132981  0.3949851  0.5667277 
960        0.221      312.816    -9999      -9999      6.323781   2.553      3.809      3.647      3.546      3.53       3.243      1.054      1.318      1.335446   3.13       0.1586485  0.1586485  0.3284949  2.430597   3.364239   3.197      0.3557723  0.5769092  23.371     0.514686   0.3953381  0.5689372 
960.1      0.22       311.816    -9999      -9999      6.315609   2.435      3.624      3.529      3.412      3.463      3.274      1.034      1.335      1.341256   3.096      0.1572514  0.1572514  0.3271057  2.290003   3.410436   3.207      0.351741   0.57503    23.431     0.5147099  0.3931426  0.5709833 
960.2000000000001 0.22       309.816    -9999      -9999      6.302256   2.318      3.507      3.445      3.311      3.447      3.184      1.14       1.43       1.346408   3.164      0.1563473  0.1563473  0.3258738  2.203382   3.487287   3.228      0.3504697  0.5744905  23.473     0.5137166  0.3895815  0.5724193 
960.3      0.22       306.816    -9999      -9999      6.288298   2.201      3.44       3.277      3.244      3.43       3.04       1.332      1.59       1.350562   3.366      0.1558823  0.1558823  0.3248807  2.160109   3.569475   3.259      0.3516965  0.5752365  23.486     0.5121166  0.3858934  0.5728645 
960.4      0.221      303.816    -9999      -9999      6.27769    2.067      3.323      3.479      3.193      3.346      2.908      1.529      1.775      1.353627   3.484      0.155676   0.155676   0.3241477  2.141192   3.633229   3.291      0.3539177  0.5765015  23.475     0.5105203  0.3831139  0.5724878 
960.5      0.221      302.816    -9999      -9999      6.273108   2.268      3.641      3.63       3.244      3.38       2.841      1.652      1.912      1.355709   3.619      0.1555487  0.1555487  0.32365    2.129597   3.661125   3.302      0.3544688  0.5766732  23.447     0.509398   0.3819192  0.57153   
960.6      0.221      303.816    -9999      -9999      6.275722   2.62       4.11       3.748      3.294      3.413      2.86       1.657      1.945      1.357018   3.67       0.1552653  0.1552653  0.3233369  2.104013   3.645184   3.291      0.3524295  0.5754173  23.424     0.5093078  0.3826003  0.5707443 
960.7000000000001 0.221      305.816    -9999      -9999      6.285449   2.787      3.959      3.866      3.361      3.463      2.962      1.553      1.866      1.357781   3.687      0.1547064  0.1547064  0.3231546  2.054455   3.586492   3.27       0.3484382  0.5733222  23.417     0.510449   0.3851448  0.5705053 
960.8      0.221      308.816    -9999      -9999      6.301469   2.636      3.758      3.798      3.378      3.48       3.116      1.385      1.733      1.358167   3.653      0.1538486  0.1538486  0.3230623  1.980646   3.491871   3.238      0.3422467  0.5702355  23.428     0.5127687  0.3893726  0.5708808 
960.9      0.221      311.816    -9999      -9999      6.322804   2.569      3.557      3.714      3.361      3.48       3.257      1.212      1.609      1.358258   3.552      0.1529475  0.1529475  0.3230404  1.905977   3.369727   3.207      0.3358819  0.567181   23.418     0.5154329  0.3950751  0.5705394 
961        0.221      313.816    -9999      -9999      6.348659   2.502      3.373      3.613      3.311      3.463      3.328      1.094      1.539      1.358055   3.468      0.1523919  0.1523919  0.323089   1.861338   3.227418   3.187      0.3318145  0.5652658  23.328     0.5172639  0.4020977  0.5674747 
961.1      0.221      313.816    -9999      -9999      6.378458   2.452      3.239      3.546      3.244      3.463      3.297      1.073      1.536      1.357516   3.434      0.1517423  0.1517423  0.3232179  1.810483   3.070834   3.187      0.3293242  0.5646697  23.233     0.519623   0.4103469  0.5642551 
961.2000000000001 0.221      311.816    -9999      -9999      6.411624   2.419      3.189      3.395      3.176      3.447      3.188      1.159      1.59       1.356613   3.518      0.1508563  0.1508563  0.3234338  1.743343   2.905481   3.207      0.3278707  0.5652471  23.16      0.522962   0.4197269  0.5617918 
961.3      0.221      308.816    -9999      -9999      6.447267   2.385      3.105      3.479      3.109      3.447      3.036      1.319      1.67       1.355377   3.4        0.1495467  0.1495467  0.3237294  1.64864    2.737691   3.238      0.3257976  0.5661531  23.144     0.5278264  0.4300466  0.5612532 
961.4      0.221      304.816    -9999      -9999      6.483983   2.385      3.273      3.563      3.092      3.447      2.891      1.499      1.729      1.353907   3.535      0.1479539  0.1479539  0.3240808  1.540364   2.57497    3.281      0.3236805  0.5675563  23.168     0.5337177  0.4409427  0.5620613 
961.5      0.221      300.816    -9999      -9999      6.519847   2.402      3.39       3.613      3.092      3.463      2.789      1.641      1.739      1.352366   3.552      0.1464309  0.1464309  0.3244493  1.443489   2.425371   3.324      0.321715   0.5689958  23.183     0.5394498  0.4518522  0.562567  
961.6      0.221      295.816    -9999      -9999      6.552558   2.519      3.557      3.63       3.16       3.48       2.74       1.689      1.707      1.350932   3.518      0.1454405  0.1454405  0.3247921  1.383784   2.296515   3.38       0.3230221  0.5717759  23.126     0.5434899  0.4620378  0.5606478 
961.7000000000001 0.221      291.816    -9999      -9999      6.57971    2.636      3.758      3.613      3.21       3.497      2.745      1.614      1.654      1.349764   3.451      0.1450362  0.1450362  0.3250713  1.360128   2.194774   3.427      0.3257623  0.5745083  23.004     0.5455611  0.4706665  0.5565591 
