~Version
 VERS              .         2.0                           : CWLS LOG ASCII STANDARD - VERSION 2.0
 WRAP              .         NO                            : ONE LINE PER DEPTH STEP
 DLM               .         SPACE                         : DELIMITING CHARACTER(SPACE TAB OR COMMA)
~Well Information
#_______________________________________________________________________________
#
#PARAMETER_NAME    .UNIT     VALUE                         : DESCRIPTION
#_______________________________________________________________________________
STRT               .M        902                           : First reference value
STOP               .M        1188.8                        : Last reference value
STEP               .M        0.1                           : Step increment
NULL               .         -9999                         : Missing value
COMP               .                                       : Company
WELL               .         5503                          : Well name
FLD                .         Узень                         : Field
LOC                .                                       : Location
CNTY               .                                       : County
STAT               .                                       : State
CTRY               .                                       : Country
SRVC               .         SCH                           : Service Company
DATE               .         02.10.1989                    : Date
UWI                .                                       : Unique Well ID
Block              .         7                             : 
Cartographic_reference_system .         GCS_WGS_1984                  : ESRI,PE_10_3_1- <?xml version="1.0" encoding="utf-16"?><ILateBoundCoordinateReferenceSystem name="GCS_WGS_1984"><AuthorityCode>EPSG,4326</AuthorityCode></ILateBoundCoordinateReferenceSystem>
Category           .         Нагнетательная                : 
Condition          .         Ликвидированная               : 
DATA               .         02.10.1989                    : 
Date               .         02.10.1989                    : 
EREF               .m        92.4                          : 100.8
Gorizont           .         14                            : 14
HZCS               .GCS_WGS_1984 WGS_1984_EASE-Grid_2.0_Global : ESRI,PE_10_3_1- <?xml version="1.0" encoding="utf-16"?><ILateBoundCoordinateReferenceSystem name="WGS_1984_EASE-Grid_2.0_Global"><AuthorityCode>EPSG,6933</AuthorityCode></ILateBoundCoordinateReferenceSystem>
Interpretator      .         Бердибекулы М.                : 
Kupol              .         Основной                      : osnovnoi
LATI               .dega     0.6631315146                  : GCS_WGS_1984
LONG               .dega     0.4384250267                  : GCS_WGS_1984
METD               .         gz1 gz2 gz4 gz5               : 
Mud                .                                       : 
Mud_density        .                                       : 
Mud_resistivity    .                                       : 
NGDU               .         НГДУ-2                        : 
ORIGINALWELLNAME   .         5503                          : 
Spud_date          .         1989                          : 1961
Viscosity          .                                       : 
X                  .m        42302                         : 46154
Y                  .m        84596.03                      : 85761.93
YEAR               .         2019                          : 
~Parameter Information Block
#_______________________________________________________________________________
#
#PARAMETER_NAME    .UNIT     VALUE                         : DESCRIPTION
#_______________________________________________________________________________
SET                .         LQC_KAZNIPI_Petrel            : 
PBBOTTOM           .M        1188.8                        : Глубина подошвы планшета
PBSCALE            .         1 _ 500                       : Вертикальный масштаб планшета
PBTOP              .M        902                           : Глубина кровли планшета
TLFamily_CALI      .         Caliper                       : 
TLFamily_CILD      .         Conductivity                  : 
TLFamily_COLL      .         Net Reservoir Flag            : 
TLFamily_CSAT      .         Fluid Code                    : 
TLFamily_DEPT      .         Measured Depth                : 
TLFamily_GR        .         Russian Gamma Ray             : 
TLFamily_GZ1_1     .         Gradient 045                  : 
TLFamily_GZ2_1     .         Gradient 105                  : 
TLFamily_GZ3_1     .         Gradient 225                  : 
TLFamily_GZ4_1     .         Gradient 425                  : 
TLFamily_GZ5_1     .         Gradient 850                  : 
TLFamily_LLS       .         Lateral Log Resistivity       : 
TLFamily_MINV      .         Micro Gradient Resistivity    : 
TLFamily_MNOR      .         Micro Resistivity             : 
TLFamily_NGLD      .         Neutron Far                   : 
TLFamily_OGZ3      .         Gradient Inverted 225         : 
TLFamily_PHIE      .         Effective Porosity            : 
TLFamily_PHIEN     .         Effective Porosity            : 
TLFamily_PHIT      .         Porosity                      : 
TLFamily_PRMB      .         Permeability                  : 
TLFamily_PRMB_DGR  .         Permeability                  : 
TLFamily_RT        .         Formation Resistivity         : 
TLFamily_SOIL_ARCHIE .         Oil Saturation                : 
TLFamily_SOIL_DW   .         Oil Saturation                : 
TLFamily_SP        .         Spontaneous Potential         : 
TLFamily_VSH_FIN   .         Shale Volume                  : 
TLFamily_VSH_GR    .         Shale Volume                  : 
TLFamily_VSH_SP    .         Shale Volume                  : 
~Curve Information
#_______________________________________________________________________________
#
#LOGNAME           .UNIT     LOG_ID                        : DESCRIPTION
#_______________________________________________________________________________
DEPT               .M                                      : Колонка глубины 
CALI               .м                                      : Каверномер 
CILD               .мСм/м                                  : Индукционный каротаж 
COLL               .unitless                               : Описание 
CSAT               .unitless                               : Описание 
GR                 .uR/h                                   : Гамма каротаж 
GZ1_1              .Ohmm                                   :  
GZ2_1              .Ohmm                                   :  
GZ3_1              .Ohmm                                   :  
GZ4_1              .Ohmm                                   :  
GZ5_1              .Ohmm                                   :  
LLS                .Ohmm                                   : Боковой каротаж 
MINV               .Ohmm                                   : Микро-градиент зонд 
MNOR               .Ohmm                                   : Микро-потенциал зонд 
NGLD               .у.е.                                   : Показания зонда НГК-60 аппаратуры ДРСТ-3-90 
OGZ3               .Ohmm                                   :  
PHIE               .v/v                                    : Описание 
PHIEN              .v/v                                    :  
PHIT               .v/v                                    : Описание 
PRMB               .mD                                     :  
PRMB_DGR           .mD                                     :  
RT                 .ohmm                                   : УЭС пласта 
SOIL_ARCHIE        .v/v                                    :  
SOIL_DW            .v/v                                    :  
SP                 .мВ                                     : Потенциал самополяризации 
VSH_FIN            .v/v                                    : Описание 
VSH_GR             .v/v                                    : Shale volume 
VSH_SP             .v/v                                    : Shale Volume 
~Ascii
# ...
977.4      0.232      319.816    -9999      -9999      6.131811   2.352      3.39       3.025      2.823      2.576      2.884      1.278      1.286      1.320109   3.096      0.1705657  0.1705657  0.332162   4.040625   4.634748   3.127      0.3888402  0.5867695  23.558     0.4896857  0.3468594  0.5675493 
977.5      0.232      318.816    -9999      -9999      6.145263   2.218      3.34       2.992      2.756      2.559      2.888      1.289      1.364      1.323413   3.096      0.1687493  0.1687493  0.3313719  3.739418   4.531854   3.137      0.3840382  0.5851128  23.642     0.4927957  0.3500538  0.5703087 
977.6      0.232      317.816    -9999      -9999      6.160464   2.084      3.273      2.924      2.739      2.526      2.886      1.328      1.443      1.327541   3.13       0.1665172  0.1665172  0.3303851  3.399856   4.418334   3.146      0.3776903  0.5828106  23.749     0.4965693  0.3536988  0.5738682 
977.7000000000001 0.231      315.816    -9999      -9999      6.176384   2.117      3.34       2.992      2.723      2.459      2.886      1.391      1.516      1.332183   3.181      0.1641047  0.1641047  0.329275   3.067428   4.302487   3.166      0.3716013  0.5809227  23.859     0.5005162  0.357557   0.5775501 
977.8      0.231      314.816    -9999      -9999      6.191871   2.134      3.407      3.042      2.756      2.509      2.895      1.478      1.575      1.336882   3.214      0.1618425  0.1618425  0.3281515  2.785311   4.192706   3.176      0.3648987  0.5784619  23.944     0.5039667  0.3613507  0.5803859 
977.9      0.23       314.816    -9999      -9999      6.205825   2.201      3.356      3.076      2.807      2.559      2.929      1.597      1.616      1.341074   3.248      0.1600634  0.1600634  0.3271492  2.581788   4.096197   3.176      0.358755   0.5758746  23.98      0.5063205  0.3648032  0.5815314 
978        0.23       315.816    -9999      -9999      6.217425   2.268      3.356      3.092      2.907      2.593      2.995      1.748      1.63       1.344197   3.265      0.1589892  0.1589892  0.3264025  2.466173   4.017661   3.166      0.3540279  0.5735089  23.959     0.507313   0.3676984  0.5807006 
978.1      0.229      316.816    -9999      -9999      6.226413   2.318      3.323      3.076      2.874      2.593      3.076      1.865      1.615      1.345809   3.299      0.1586748  0.1586748  0.3260171  2.433324   3.957841   3.156      0.3519519  0.5721983  23.891     0.5070978  0.3699576  0.5782461 
978.2000000000001 0.229      316.816    -9999      -9999      6.233362   2.335      3.289      3.059      2.874      2.593      3.132      1.86       1.581      1.345706   3.299      0.1590508  0.1590508  0.3260417  2.472666   3.91221    3.156      0.3532866  0.572605   23.791     0.5060328  0.3717135  0.5747005 
978.3      0.229      316.816    -9999      -9999      6.239838   2.335      3.206      3.042      2.857      2.576      3.127      1.695      1.548      1.343984   3.316      0.1598847  0.1598847  0.3264533  2.56219    3.870156   3.156      0.3562253  0.5737909  23.682     0.5047532  0.3733576  0.5708661 
978.4      0.23       316.816    -9999      -9999      6.248331   2.268      3.122      3.025      2.84       2.559      3.06       1.446      1.54       1.341042   3.282      0.1609081  0.1609081  0.3271568  2.676495   3.815683   3.156      0.3597928  0.575395   23.575     0.5037841  0.3755249  0.5671219 
978.5      0.23       317.816    -9999      -9999      6.261889   2.218      3.038      3.059      2.773      2.559      2.97       1.225      1.572      1.337509   3.248      0.1618331  0.1618331  0.3280016  2.784198   3.730313   3.146      0.3620317  0.576328   23.471     0.5035408  0.3790107  0.5635001 
978.6      0.23       318.816    -9999      -9999      6.28348    2.201      2.921      3.109      2.672      2.542      2.905      1.108      1.63       1.334118   3.198      0.1623629  0.1623629  0.3288124  2.847817   3.598292   3.137      0.3629892  0.5768965  23.368     0.5043925  0.3846285  0.5599319 
978.7000000000001 0.23       321.816    -9999      -9999      6.315246   2.234      3.088      3.16       2.723      2.526      2.894      1.072      1.673      1.331558   3.181      0.1622044  0.1622044  0.3294244  2.828634   3.412501   3.107      0.3595657  0.5751873  23.269     0.5067273  0.3930454  0.5565169 
978.8      0.229      323.816    -9999      -9999      6.357895   2.301      3.206      3.21       2.739      2.526      2.921      1.07       1.663      1.330345   3.181      0.1611008  0.1611008  0.3297146  2.69858    3.178047   3.088      0.3538892  0.5729999  23.186     0.5109509  0.4046367  0.5536519 
978.9      0.229      325.816    -9999      -9999      6.410391   2.368      3.289      3.244      2.739      2.542      2.95       1.093      1.609      1.330734   3.181      0.1589365  0.1589365  0.3296214  2.460641   2.911464   3.069      0.344337   0.5693881  23.129     0.517227   0.4193745  0.5516611 
979        0.23       326.816    -9999      -9999      6.470038   2.452      3.34       3.176      2.773      2.526      2.947      1.197      1.572      1.332715   3.181      0.1557781  0.1557781  0.3291479  2.150537   2.635598   3.06       0.3318537  0.5650639  23.101     0.525363   0.4367723  0.5506356 
979.1      0.23       325.816    -9999      -9999      6.5329     2.419      3.373      3.21       2.689      2.559      2.901      1.426      1.608      1.336067   3.181      0.1518761  0.1518761  0.3283465  1.820837   2.373107   3.069      0.317868   0.5608487  23.095     0.5347588  0.4558894  0.5503391 
979.2000000000001 0.231      322.816    -9999      -9999      6.594401   2.435      3.407      3.227      2.723      2.593      2.821      1.744      1.715      1.340466   3.13       0.1475803  0.1475803  0.3272945  1.516011   2.141616   3.098      0.3036866  0.5572811  23.102     0.5445887  0.4754024  0.5504728 
979.3      0.231      318.816    -9999      -9999      6.649979   2.435      3.457      3.244      2.739      2.593      2.725      2.041      1.83       1.345597   3.096      0.1432534  0.1432534  0.3260678  1.260543   1.951904   3.137      0.2895871  0.5540745  23.117     0.5539831  0.4937536  0.5508714 
979.4      0.231      315.816    -9999      -9999      6.695689   2.435      3.524      3.26       2.79       2.609      2.634      2.204      1.881      1.351219   3.046      0.139151   0.139151   0.3247235  1.058211   1.808541   3.166      0.2745197  0.5501404  23.15      0.5623407  0.5093759  0.5518668 
979.5      0.231      314.816    -9999      -9999      6.728749   2.435      3.591      3.277      2.84       2.609      2.58       2.19       1.845      1.357176   2.978      0.1354385  0.1354385  0.3232992  0.9032488  1.711458   3.176      0.2583285  0.545085   23.215     0.5692749  0.5209822  0.5539277 
979.6      0.231      314.816    -9999      -9999      6.748      2.419      3.641      3.277      2.907      2.593      2.595      2.025      1.743      1.363342   2.928      0.1321944  0.1321944  0.3218248  0.7865373  1.657346   3.176      0.2425014  0.5396901  23.323     0.5746377  0.527862   0.557432  
979.7000000000001 0.233      316.816    -9999      -9999      6.754213   2.452      3.541      3.244      2.975      2.559      2.697      1.773      1.615      1.369536   2.877      0.1295109  0.1295109  0.3203439  0.7014793  1.64025    3.156      0.2265602  0.5333983  23.463     0.5782815  0.5301017  0.5620328 
979.8      0.234      318.816    -9999      -9999      6.750136   2.419      3.457      3.21       2.941      2.576      2.871      1.494      1.486      1.375453   2.81       0.127439   0.127439   0.3189293  0.6421517  1.651449   3.137      0.2133938  0.5279059  23.613     0.5802734  0.528631   0.5670058 
979.9      0.236      319.816    -9999      -9999      6.740126   2.385      3.373      3.143      2.874      2.576      3.063      1.241      1.374      1.380639   2.725      0.1259473  0.1259473  0.3176892  0.6025697  1.67927    3.127      0.204094   0.5239471  23.753     0.5810362  0.5250371  0.5716748 
