~Version
 VERS              .         2.0                           : CWLS LOG ASCII STANDARD - VERSION 2.0
 WRAP              .         NO                            : ONE LINE PER DEPTH STEP
 DLM               .         SPACE                         : DELIMITING CHARACTER(SPACE TAB OR COMMA)
~Well Information
#_______________________________________________________________________________
#
#PARAMETER_NAME    .UNIT     VALUE                         : DESCRIPTION
#_______________________________________________________________________________
STRT               .M        902                           : First reference value
STOP               .M        1188.8                        : Last reference value
STEP               .M        0.1                           : Step increment
NULL               .         -9999                         : Missing value
COMP               .                                       : Company
WELL               .         5503                          : Well name
FLD                .         Узень                         : Field
LOC                .                                       : Location
CNTY               .                                       : County
STAT               .                                       : State
CTRY               .                                       : Country
SRVC               .         SCH                           : Service Company
DATE               .         02.10.1989                    : Date
UWI                .                                       : Unique Well ID
Block              .         7                             : 
Cartographic_reference_system .         GCS_WGS_1984                  : ESRI,PE_10_3_1- <?xml version="1.0" encoding="utf-16"?><ILateBoundCoordinateReferenceSystem name="GCS_WGS_1984"><AuthorityCode>EPSG,4326</AuthorityCode></ILateBoundCoordinateReferenceSystem>
Category           .         Нагнетательная                : 
Condition          .         Ликвидированная               : 
DATA               .         02.10.1989                    : 
Date               .         02.10.1989                    : 
EREF               .m        92.4                          : 100.8
Gorizont           .         14                            : 14
HZCS               .GCS_WGS_1984 WGS_1984_EASE-Grid_2.0_Global : ESRI,PE_10_3_1- <?xml version="1.0" encoding="utf-16"?><ILateBoundCoordinateReferenceSystem name="WGS_1984_EASE-Grid_2.0_Global"><AuthorityCode>EPSG,6933</AuthorityCode></ILateBoundCoordinateReferenceSystem>
Interpretator      .         Бердибекулы М.                : 
Kupol              .         Основной                      : osnovnoi
LATI               .dega     0.6631315146                  : GCS_WGS_1984
LONG               .dega     0.4384250267                  : GCS_WGS_1984
METD               .         gz1 gz2 gz4 gz5               : 
Mud                .                                       : 
Mud_density        .                                       : 
Mud_resistivity    .                                       : 
NGDU               .         НГДУ-2                        : 
ORIGINALWELLNAME   .         5503                          : 
Spud_date          .         1989                          : 1961
Viscosity          .                                       : 
X                  .m        42302                         : 46154
Y                  .m        84596.03                      : 85761.93
YEAR               .         2019                          : 
~Parameter Information Block
#_______________________________________________________________________________
#
#PARAMETER_NAME    .UNIT     VALUE                         : DESCRIPTION
#_______________________________________________________________________________
SET                .         LQC_KAZNIPI_Petrel            : 
PBBOTTOM           .M        1188.8                        : Глубина подошвы планшета
PBSCALE            .         1 _ 500                       : Вертикальный масштаб планшета
PBTOP              .M        902                           : Глубина кровли планшета
TLFamily_CALI      .         Caliper                       : 
TLFamily_CILD      .         Conductivity                  : 
TLFamily_COLL      .         Net Reservoir Flag            : 
TLFamily_CSAT      .         Fluid Code                    : 
TLFamily_DEPT      .         Measured Depth                : 
TLFamily_GR        .         Russian Gamma Ray             : 
TLFamily_GZ1_1     .         Gradient 045                  : 
TLFamily_GZ2_1     .         Gradient 105                  : 
TLFamily_GZ3_1     .         Gradient 225                  : 
TLFamily_GZ4_1     .         Gradient 425                  : 
TLFamily_GZ5_1     .         Gradient 850                  : 
TLFamily_LLS       .         Lateral Log Resistivity       : 
TLFamily_MINV      .         Micro Gradient Resistivity    : 
TLFamily_MNOR      .         Micro Resistivity             : 
TLFamily_NGLD      .         Neutron Far                   : 
TLFamily_OGZ3      .         Gradient Inverted 225         : 
TLFamily_PHIE      .         Effective Porosity            : 
TLFamily_PHIEN     .         Effective Porosity            : 
TLFamily_PHIT      .         Porosity                      : 
TLFamily_PRMB      .         Permeability                  : 
TLFamily_PRMB_DGR  .         Permeability                  : 
TLFamily_RT        .         Formation Resistivity         : 
TLFamily_SOIL_ARCHIE .         Oil Saturation                : 
TLFamily_SOIL_DW   .         Oil Saturation                : 
TLFamily_SP        .         Spontaneous Potential         : 
TLFamily_VSH_FIN   .         Shale Volume                  : 
TLFamily_VSH_GR    .         Shale Volume                  : 
TLFamily_VSH_SP    .         Shale Volume                  : 
~Curve Information
#_______________________________________________________________________________
#
#LOGNAME           .UNIT     LOG_ID                        : DESCRIPTION
#_______________________________________________________________________________
DEPT               .M                                      : Колонка глубины 
CALI               .м                                      : Каверномер 
CILD               .мСм/м                                  : Индукционный каротаж 
COLL               .unitless                               : Описание 
CSAT               .unitless                               : Описание 
GR                 .uR/h                                   : Гамма каротаж 
GZ1_1              .Ohmm                                   :  
GZ2_1              .Ohmm                                   :  
GZ3_1              .Ohmm                                   :  
GZ4_1              .Ohmm                                   :  
GZ5_1              .Ohmm                                   :  
LLS                .Ohmm                                   : Боковой каротаж 
MINV               .Ohmm                                   : Микро-градиент зонд 
MNOR               .Ohmm                                   : Микро-потенциал зонд 
NGLD               .у.е.                                   : Показания зонда НГК-60 аппаратуры ДРСТ-3-90 
OGZ3               .Ohmm                                   :  
PHIE               .v/v                                    : Описание 
PHIEN              .v/v                                    :  
PHIT               .v/v                                    : Описание 
PRMB               .mD                                     :  
PRMB_DGR           .mD                                     :  
RT                 .ohmm                                   : УЭС пласта 
SOIL_ARCHIE        .v/v                                    :  
SOIL_DW            .v/v                                    :  
SP                 .мВ                                     : Потенциал самополяризации 
VSH_FIN            .v/v                                    : Описание 
VSH_GR             .v/v                                    : Shale volume 
VSH_SP             .v/v                                    : Shale Volume 
~Ascii
# ...
1032       0.23       368.816    -9999      -9999      6.637331   2.871      4.21       4.286      3.496      2.425      2.309      0.818      0.913      1.27201    2.557      0.1834693  0.1834693  0.3436625  7.005735   2.575316   2.711      0.3867128  0.5774778  18.381     0.485434   0.4409185  0.5299495 
1032.1     0.229      365.816    -9999      -9999      6.626494   2.569      4.092999   4.017      3.512      2.224      2.616      1.011      0.914      1.283674   2.692      0.1802566  0.1802566  0.3408735  6.108693   2.624242   2.734      0.3796681  0.5742404  18.519     0.4867177  0.4375431  0.5358922 
1032.2     0.228      359.816    -9999      -9999      6.602645   2.268      4.026      3.781      3.294      2.04       2.966      1.301      0.966      1.297283   2.742      0.1772018  0.1772018  0.3376197  5.362467   2.735211   2.779      0.3751694  0.572386   18.661     0.4861149  0.4302057  0.5420241 
1032.3     0.228      351.816    -9999      -9999      6.57242    2.1        3.942      3.613      3.227      1.923      3.248      1.548      1.027      1.311508   2.827      0.1742622  0.1742622  0.3342184  4.730605   2.882622   2.842      0.3726338  0.5717523  18.807     0.4847159  0.4210828  0.5483491 
1032.4     0.229      344.816    -9999      -9999      6.541859   1.983      3.792      3.412      3.16       1.873      3.369      1.586      1.052      1.325189   2.911      0.1714539  0.1714539  0.3309474  4.196622   3.039744   2.9        0.3696973  0.5708005  18.948     0.4833137  0.4120555  0.5545719 
1032.5     0.229      339.816    -9999      -9999      6.516095   1.883      3.34       3.21       3.059      1.822      3.313      1.436      1.04       1.337433   3.029      0.1687702  0.1687702  0.3280197  3.742756   3.178839   2.943      0.3653754  0.5689965  19.08      0.4825744  0.4045956  0.5605532 
1032.6     0.23       339.816    -9999      -9999      6.498909   1.766      2.904      3.025      2.907      1.739      3.126      1.26       1.065      1.347715   3.113      0.1661748  0.1661748  0.3255615  3.350564   3.275143   2.943      0.3567512  0.5644013  19.203     0.48299    0.3996948  0.5662851 
1032.7     0.23       341.816    -9999      -9999      6.492175   1.615      2.703      2.857      2.723      1.789      2.894      1.312      1.237      1.355922   3.198      0.1636177  0.1636177  0.3235991  3.004378   3.313673   2.926      0.3462294  0.5588815  19.318     0.4847923  0.3977904  0.5717941 
1032.8     0.229      345.816    -9999      -9999      6.495245   1.447      2.285      2.689      2.571      1.822      2.684      1.643      1.593      1.362344   3.299      0.1610454  0.1610454  0.3220637  2.692209   3.296055   2.892      0.3334983  0.5522738  19.429     0.4879342  0.3986573  0.5772111 
1032.9     0.227      348.816    -9999      -9999      6.504639   1.565      2.402      2.857      2.487      1.839      2.539      2.138      2.03       1.367593   3.434      0.158803   0.158803   0.3208086  2.446667   3.242715   2.867      0.3225545  0.5468099  19.531     0.490926   0.4013221  0.58053   
1033       0.226      349.816    -9999      -9999      6.514333   1.699      2.502      3.008      2.554      1.873      2.476      2.551      2.371      1.372466   3.721      0.1567284  0.1567284  0.3196435  2.239487   3.18858    2.859      0.313852   0.5428596  19.616     0.493682   0.4040904  0.5832735 
1033.1     0.225      348.816    -9999      -9999      6.51673    1.866      2.804      3.193      2.639      1.906      2.496      2.75       2.485      1.377791   4.041      0.1550598  0.1550598  0.3183701  2.085651   3.175335   2.867      0.3083331  0.5404944  19.671     0.4948796  0.4047779  0.5849813 
1033.2     0.224      344.816    -9999      -9999      6.50419    2          2.938      3.345      2.773      1.94       2.599      2.692      2.376      1.384289   4.227      0.1540513  0.1540513  0.3168165  1.997846   3.245243   2.9        0.3081169  0.5405894  19.685     0.4932279  0.4011944  0.5852615 
1033.3     0.223      338.816    -9999      -9999      6.470604   2.218      3.038      3.412      2.874      1.956      2.768      2.43       2.128      1.392473   4.108      0.1538536  0.1538536  0.3148597  1.981069   3.44016    2.951      0.3129859  0.5426052  19.656     0.4878973  0.3917519  0.5840426 
1033.4     0.223      331.816    -9999      -9999      6.412574   2.435      3.189      3.529      2.941      1.956      2.973      2.024      1.841      1.402608   3.99       0.1544662  0.1544662  0.3124364  2.033515   3.80492    3.014      0.3221129  0.5459388  19.587     0.4786975  0.3759583  0.5814368 
1033.5     0.223      324.816    -9999      -9999      6.329826   2.553      3.088      3.429      2.991      1.956      3.156      1.571      1.573      1.414708   3.754      0.1556508  0.1556508  0.3095434  2.138894   4.392941   3.079      0.3333172  0.5494998  19.498     0.4663412  0.3545322  0.5781502 
1033.6     0.223      318.816    -9999      -9999      6.224855   2.603      2.971      3.328      2.823      1.956      3.265      1.183      1.355      1.428576   3.602      0.1570822  0.1570822  0.3062274  2.27353    5.271402   3.137      0.3443779  0.5523049  19.407     0.4519553  0.3290998  0.5748108 
1033.7     0.223      312.816    -9999      -9999      6.102071   2.586      2.871      3.193      2.706      1.956      3.283      0.932      1.209      1.443874   3.535      0.1584331  0.1584331  0.3025697  2.408371   6.524271   3.197      0.3550095  0.55473    19.328     0.4367777  0.3016571  0.5718983 
1033.8     0.223      307.816    -9999      -9999      5.966816   2.435      2.787      3.042      2.622      1.973      3.259      0.828      1.144      1.460199   3.501      0.1595436  0.1595436  0.2986665  2.52518    8.251698   3.249      0.3637568  0.5560001  19.252     0.4215846  0.2740684  0.5691008 
1033.9     0.223      303.816    -9999      -9999      5.824584   2.268      2.703      2.924      2.554      1.94       3.269      0.841      1.161      1.477171   3.602      0.1603285  0.1603285  0.2946084  2.611143   10.56373   3.291      0.3702775  0.5560036  19.168     0.4069088  0.2477739  0.5660437 
1034       0.223      300.816    -9999      -9999      5.680553   2.033      2.77       2.824      2.504      1.873      3.376      0.968      1.254      1.494506   3.687      0.1606665  0.1606665  0.2904637  2.649057   13.56588   3.324      0.3743676  0.5547615  19.082     0.393325   0.2237164  0.5629335 
1034.1     0.223      295.816    -9999      -9999      5.539397   1.967      2.854      2.773      2.47       1.94       3.594      1.215      1.404      1.512037   3.805      0.1604128  0.1604128  0.2862719  2.620548   17.33445   3.38       0.3783983  0.554279   19.012     0.3813913  0.2024072  0.5603754 
1034.2     0.223      290.816    -9999      -9999      5.405214   1.9        2.955      2.689      2.437      1.973      3.913      1.546      1.577      1.529693   3.923      0.1594329  0.1594329  0.2820503  2.513288   21.88333   3.439      0.3801265  0.5530471  18.98      0.371568   0.1840353  0.5591007 
1034.3     0.223      284.816    -9999      -9999      5.281468   2.017      3.088      2.807      2.487      2.007      4.306      1.832      1.708      1.547405   4.024      0.1577488  0.1577488  0.2778153  2.339101   27.12964   3.511      0.3804205  0.5517101  18.986     0.363838   0.1685742  0.5591018 
1034.4     0.223      277.816    -9999      -9999      5.170919   2.151      3.189      2.857      2.554      2.057      4.73       1.949      1.783      1.564978   4.125      0.155528   0.155528   0.2736138  2.127721   32.87172   3.6        0.3800478  0.5506764  19.013     0.3578356  0.1558637  0.5598075 
1034.5     0.223      270.816    -9999      -9999      5.075588   2.301      3.273      2.891      2.588      2.107      5.069      1.901      1.845      1.581966   4.159      0.1529807  0.1529807  0.2695519  1.908678   38.79023   3.693      0.3785494  0.5494077  19.049     0.353246   0.1456753  0.5608166 
