~Version
 VERS              .         2.0                           : CWLS LOG ASCII STANDARD - VERSION 2.0
 WRAP              .         NO                            : ONE LINE PER DEPTH STEP
 DLM               .         SPACE                         : DELIMITING CHARACTER(SPACE TAB OR COMMA)
~Well Information
#_______________________________________________________________________________
#
#PARAMETER_NAME    .UNIT     VALUE                         : DESCRIPTION
#_______________________________________________________________________________
STRT               .M        902                           : First reference value
STOP               .M        1188.8                        : Last reference value
STEP               .M        0.1                           : Step increment
NULL               .         -9999                         : Missing value
COMP               .                                       : Company
WELL               .         5503                          : Well name
FLD                .         Узень                         : Field
LOC                .                                       : Location
CNTY               .                                       : County
STAT               .                                       : State
CTRY               .                                       : Country
SRVC               .         SCH                           : Service Company
DATE               .         02.10.1989                    : Date
UWI                .                                       : Unique Well ID
Block              .         7                             : 
Cartographic_reference_system .         GCS_WGS_1984                  : ESRI,PE_10_3_1- <?xml version="1.0" encoding="utf-16"?><ILateBoundCoordinateReferenceSystem name="GCS_WGS_1984"><AuthorityCode>EPSG,4326</AuthorityCode></ILateBoundCoordinateReferenceSystem>
Category           .         Нагнетательная                : 
Condition          .         Ликвидированная               : 
DATA               .         02.10.1989                    : 
Date               .         02.10.1989                    : 
EREF               .m        92.4                          : 100.8
Gorizont           .         14                            : 14
HZCS               .GCS_WGS_1984 WGS_1984_EASE-Grid_2.0_Global : ESRI,PE_10_3_1- <?xml version="1.0" encoding="utf-16"?><ILateBoundCoordinateReferenceSystem name="WGS_1984_EASE-Grid_2.0_Global"><AuthorityCode>EPSG,6933</AuthorityCode></ILateBoundCoordinateReferenceSystem>
Interpretator      .         Бердибекулы М.                : 
Kupol              .         Основной                      : osnovnoi
LATI               .dega     0.6631315146                  : GCS_WGS_1984
LONG               .dega     0.4384250267                  : GCS_WGS_1984
METD               .         gz1 gz2 gz4 gz5               : 
Mud                .                                       : 
Mud_density        .                                       : 
Mud_resistivity    .                                       : 
NGDU               .         НГДУ-2                        : 
ORIGINALWELLNAME   .         5503                          : 
Spud_date          .         1989                          : 1961
Viscosity          .                                       : 
X                  .m        42302                         : 46154
Y                  .m        84596.03                      : 85761.93
YEAR               .         2019                          : 
~Parameter Information Block
#_______________________________________________________________________________
#
#PARAMETER_NAME    .UNIT     VALUE                         : DESCRIPTION
#_______________________________________________________________________________
SET                .         LQC_KAZNIPI_Petrel            : 
PBBOTTOM           .M        1188.8                        : Глубина подошвы планшета
PBSCALE            .         1 _ 500                       : Вертикальный масштаб планшета
PBTOP              .M        902                           : Глубина кровли планшета
TLFamily_CALI      .         Caliper                       : 
TLFamily_CILD      .         Conductivity                  : 
TLFamily_COLL      .         Net Reservoir Flag            : 
TLFamily_CSAT      .         Fluid Code                    : 
TLFamily_DEPT      .         Measured Depth                : 
TLFamily_GR        .         Russian Gamma Ray             : 
TLFamily_GZ1_1     .         Gradient 045                  : 
TLFamily_GZ2_1     .         Gradient 105                  : 
TLFamily_GZ3_1     .         Gradient 225                  : 
TLFamily_GZ4_1     .         Gradient 425                  : 
TLFamily_GZ5_1     .         Gradient 850                  : 
TLFamily_LLS       .         Lateral Log Resistivity       : 
TLFamily_MINV      .         Micro Gradient Resistivity    : 
TLFamily_MNOR      .         Micro Resistivity             : 
TLFamily_NGLD      .         Neutron Far                   : 
TLFamily_OGZ3      .         Gradient Inverted 225         : 
TLFamily_PHIE      .         Effective Porosity            : 
TLFamily_PHIEN     .         Effective Porosity            : 
TLFamily_PHIT      .         Porosity                      : 
TLFamily_PRMB      .         Permeability                  : 
TLFamily_PRMB_DGR  .         Permeability                  : 
TLFamily_RT        .         Formation Resistivity         : 
TLFamily_SOIL_ARCHIE .         Oil Saturation                : 
TLFamily_SOIL_DW   .         Oil Saturation                : 
TLFamily_SP        .         Spontaneous Potential         : 
TLFamily_VSH_FIN   .         Shale Volume                  : 
TLFamily_VSH_GR    .         Shale Volume                  : 
TLFamily_VSH_SP    .         Shale Volume                  : 
~Curve Information
#_______________________________________________________________________________
#
#LOGNAME           .UNIT     LOG_ID                        : DESCRIPTION
#_______________________________________________________________________________
DEPT               .M                                      : Колонка глубины 
CALI               .м                                      : Каверномер 
CILD               .мСм/м                                  : Индукционный каротаж 
COLL               .unitless                               : Описание 
CSAT               .unitless                               : Описание 
GR                 .uR/h                                   : Гамма каротаж 
GZ1_1              .Ohmm                                   :  
GZ2_1              .Ohmm                                   :  
GZ3_1              .Ohmm                                   :  
GZ4_1              .Ohmm                                   :  
GZ5_1              .Ohmm                                   :  
LLS                .Ohmm                                   : Боковой каротаж 
MINV               .Ohmm                                   : Микро-градиент зонд 
MNOR               .Ohmm                                   : Микро-потенциал зонд 
NGLD               .у.е.                                   : Показания зонда НГК-60 аппаратуры ДРСТ-3-90 
OGZ3               .Ohmm                                   :  
PHIE               .v/v                                    : Описание 
PHIEN              .v/v                                    :  
PHIT               .v/v                                    : Описание 
PRMB               .mD                                     :  
PRMB_DGR           .mD                                     :  
RT                 .ohmm                                   : УЭС пласта 
SOIL_ARCHIE        .v/v                                    :  
SOIL_DW            .v/v                                    :  
SP                 .мВ                                     : Потенциал самополяризации 
VSH_FIN            .v/v                                    : Описание 
VSH_GR             .v/v                                    : Shale volume 
VSH_SP             .v/v                                    : Shale Volume 
~Ascii
# ...
1086.6     0.223      325.816    -9999      -9999      7.870223   3.172      4.512      4.37       3.445      2.961      3.019      2.44       1.961      1.364541   2.843      0.1735684  0.1735684  0.3215382  4.592671   4.402246   3.069      0.3927472  0.5773917  20.397     0.4483933  0.354226   0.5425607 
1086.7     0.223      332.816    -9999      -9999      7.980038   2.938      4.244      4.302      3.378      2.978      2.964      2.495      1.961      1.350978   2.793      0.1738055  0.1738055  0.3247811  4.639347   3.811984   3.005      0.3874408  0.5757449  20.281     0.4575018  0.3756737  0.5393299 
1086.8     0.223      340.816    -9999      -9999      8.094334   2.804      4.043      4.218      3.294      2.978      2.935      2.539      2.076      1.336149   2.759      0.1739703  0.1739703  0.3283267  4.672083   3.281528   2.934      0.3810402  0.5736349  20.165     0.4677465  0.399377   0.5361159 
1086.9     0.223      349.816    -9999      -9999      8.211653   2.687      4.143      4.151      3.277      2.944      2.908      2.523      2.191      1.320463   2.81       0.1739931  0.1739931  0.3320773  4.676629   2.813714   2.859      0.3735445  0.5710881  20.046     0.4790429  0.4252635  0.5328223 
1087       0.222      359.816    -9999      -9999      8.329384   2.72       4.21       4.05       3.26       2.911      2.836      2.419      2.205      1.304507   2.843      0.173763   0.173763   0.3358923  4.630951   2.41129    2.779      0.3644134  0.5677676  19.931     0.4913011  0.4529277  0.5296744 
1087.1     0.221      368.816    -9999      -9999      8.44383    2.77       4.276999   4.151      3.311      2.861      2.704      2.259      2.13       1.289019   2.877      0.1731929  0.1731929  0.3395955  4.519704   2.075341   2.711      0.3551381  0.5647602  19.829     0.5042503  0.481544   0.5269568 
1087.2     0.221      377.816    -9999      -9999      8.550637   2.804      4.344      4.252      3.328      2.844      2.535      2.121      2.041      1.274808   2.911      0.1722729  0.1722729  0.3429934  4.345802   1.804172   2.647      0.3448358  0.5613173  19.744     0.5173349  0.5098792  0.5247907 
1087.3     0.22       384.816    -9999      -9999      8.645494   2.687      4.11       4.151      3.328      2.81       2.375      2.071      2.009      1.262634   2.928      0.1711001  0.1711001  0.3459042  4.13377    1.593201   2.599      0.335242   0.5584261  19.67      0.5297096  0.5364389  0.5229803 
1087.4     0.22       391.816    -9999      -9999      8.724909   2.636      4.143      4.067      3.311      2.76       2.255      2.109      2.015      1.253079   2.911      0.1698437  0.1698437  0.3481888  3.918103   1.435675   2.552      0.3252072  0.5549318  19.595     0.5404398  0.5597357  0.5211439 
1087.5     0.221      397.816    -9999      -9999      8.786839   2.77       4.276999   3.95       3.26       2.66       2.181      2.174      1.999      1.246424   2.827      0.168743   0.168743   0.3497799  3.73841    1.32372    2.514      0.3165806  0.5517321  19.497     0.5485969  0.5786031  0.5185906 
1087.6     0.221      402.816    -9999      -9999      8.830972   2.837      3.993      3.815      3.193      2.559      2.145      2.199      1.913      1.242591   2.708      0.1679667  0.1679667  0.3506965  3.616673   1.249305   2.483      0.3098239  0.5488814  19.366     0.5537266  0.5924355  0.5150176 
1087.7     0.222      408.816    -9999      -9999      8.858587   2.67       3.675      3.664      3.075      2.442      2.131      2.168      1.777      1.241152   2.506      0.1675892  0.1675892  0.3510405  3.558903   1.204885   2.446      0.3035806  0.5453694  19.206     0.5559133  0.6012586  0.5105679 
1087.8     0.223      413.816    -9999      -9999      8.872087   2.62       3.34       3.429      2.924      2.291      2.124      2.109      1.644      1.241431   2.337      0.1675366  0.1675366  0.3509739  3.550925   1.183748   2.417      0.2994804  0.5425417  19.045     0.5558707  0.6056196  0.5061217 
1087.9     0.223      419.816    -9999      -9999      8.87434    2.419      3.189      3.16       2.706      2.191      2.115      2.052      1.558      1.242649   2.152      0.1677318  0.1677318  0.3506826  3.580621   1.180258   2.382      0.2953841  0.5391601  18.908     0.5543963  0.6063504  0.5024422 
1088       0.224      423.816    -9999      -9999      8.868054   2.318      3.105      2.958      2.504      2.107      2.101      2.003      1.524      1.244099   1.916      0.168124   0.168124   0.350336   3.64102    1.190024   2.36       0.2937475  0.5371449  18.811     0.5521573  0.6043135  0.5000012 
1088.1     0.224      427.816    -9999      -9999      8.855327   2.184      3.021      2.756      2.319      1.973      2.086      1.958      1.525      1.245282   1.949      0.1687644  0.1687644  0.3500531  3.741831   1.210046   2.337      0.2928396  0.5353135  18.745     0.5493599  0.6002101  0.4985097 
1088.2     0.225      430.816    -9999      -9999      8.837445   2.084      2.904      2.622      2.202      1.856      2.075      1.914      1.533      1.245982   1.899      0.1697261  0.1697261  0.3498858  3.89849    1.238748   2.321      0.2940584  0.5345863  18.691     0.5459386  0.5944921  0.497385  
1088.3     0.225      430.816    -9999      -9999      8.814922   1.95       2.821      2.555      2.118      1.755      2.072      1.876      1.532      1.246266   1.831      0.1710238  0.1710238  0.3498178  4.120352   1.27587    2.321      0.2987263  0.5358828  18.636     0.5417999  0.5873674  0.4962324 
1088.4     0.225      429.816    -9999      -9999      8.787716   1.866      2.754      2.504      2.017      1.672      2.075      1.845      1.517      1.246408   1.798      0.1725859  0.1725859  0.3497838  4.404204   1.322198   2.327      0.3050999  0.5380641  18.58      0.5369635  0.5788749  0.4950522 
1088.5     0.225      426.816    -9999      -9999      8.755529   1.849      2.703      2.487      1.983      1.605      2.083      1.822      1.493      1.246772   1.798      0.1742354  0.1742354  0.3496968  4.725209   1.379184   2.343      0.3130458  0.5412504  18.542     0.531701   0.5689863  0.4944157 
1088.6     0.225      421.816    -9999      -9999      8.71817    1.849      2.67       2.454      1.949      1.571      2.103      1.81       1.473      1.247694   1.798      0.1758052  0.1758052  0.3494765  5.05239    1.448414   2.371      0.3221803  0.5453608  18.539     0.5262765  0.5577201  0.4948329 
1088.7     0.225      414.816    -9999      -9999      8.67589    1.833      2.62       2.42       1.949      1.554      2.15       1.81       1.464      1.249393   1.814      0.1772203  0.1772203  0.3490702  5.366704   1.530964   2.411      0.3321603  0.550217   18.57      0.5207573  0.5452388  0.4962758 
1088.8     0.224      408.816    -9999      -9999      8.629642   1.732      2.452      2.387      1.983      1.554      2.244      1.815      1.464      1.251933   1.848      0.1785041  0.1785041  0.3484628  5.668753   1.626657   2.446      0.3408189  0.554213   18.615     0.5150263  0.5319059  0.4981465 
1088.9     0.224      401.816    -9999      -9999      8.581203   1.615      2.352      2.42       2.017      1.504      2.381      1.822      1.457      1.25525    1.916      0.1797381  0.1797381  0.3476697  5.975081   1.733305   2.489      0.3500988  0.5586407  18.642     0.5088837  0.5182908  0.4994767 
1089       0.223      396.816    -9999      -9999      8.533013   1.682      2.268      2.42       2.067      1.554      2.529      1.844      1.429      1.259202   2          0.1809066  0.1809066  0.3467248  6.280409   1.846343   2.52       0.3574993  0.5617347  18.638     0.5024794  0.5050914  0.4998673 
1089.1     0.223      392.816    -9999      -9999      8.487812   1.699      2.234      2.42       2.118      1.638      2.636      1.898      1.39       1.263634   2.051      0.1818501  0.1818501  0.3456652  6.538267   1.95906    2.546      0.3634768  0.564043   18.619     0.4964093  0.4930163  0.4998023 
