~Version
 VERS              .         2.0                           : CWLS LOG ASCII STANDARD - VERSION 2.0
 WRAP              .         NO                            : ONE LINE PER DEPTH STEP
 DLM               .         SPACE                         : DELIMITING CHARACTER(SPACE TAB OR COMMA)
~Well Information
#_______________________________________________________________________________
#
#PARAMETER_NAME    .UNIT     VALUE                         : DESCRIPTION
#_______________________________________________________________________________
STRT               .M        902                           : First reference value
STOP               .M        1188.8                        : Last reference value
STEP               .M        0.1                           : Step increment
NULL               .         -9999                         : Missing value
COMP               .                                       : Company
WELL               .         5503                          : Well name
FLD                .         Узень                         : Field
LOC                .                                       : Location
CNTY               .                                       : County
STAT               .                                       : State
CTRY               .                                       : Country
SRVC               .         SCH                           : Service Company
DATE               .         02.10.1989                    : Date
UWI                .                                       : Unique Well ID
Block              .         7                             : 
Cartographic_reference_system .         GCS_WGS_1984                  : ESRI,PE_10_3_1- <?xml version="1.0" encoding="utf-16"?><ILateBoundCoordinateReferenceSystem name="GCS_WGS_1984"><AuthorityCode>EPSG,4326</AuthorityCode></ILateBoundCoordinateReferenceSystem>
Category           .         Нагнетательная                : 
Condition          .         Ликвидированная               : 
DATA               .         02.10.1989                    : 
Date               .         02.10.1989                    : 
EREF               .m        92.4                          : 100.8
Gorizont           .         14                            : 14
HZCS               .GCS_WGS_1984 WGS_1984_EASE-Grid_2.0_Global : ESRI,PE_10_3_1- <?xml version="1.0" encoding="utf-16"?><ILateBoundCoordinateReferenceSystem name="WGS_1984_EASE-Grid_2.0_Global"><AuthorityCode>EPSG,6933</AuthorityCode></ILateBoundCoordinateReferenceSystem>
Interpretator      .         Бердибекулы М.                : 
Kupol              .         Основной                      : osnovnoi
LATI               .dega     0.6631315146                  : GCS_WGS_1984
LONG               .dega     0.4384250267                  : GCS_WGS_1984
METD               .         gz1 gz2 gz4 gz5               : 
Mud                .                                       : 
Mud_density        .                                       : 
Mud_resistivity    .                                       : 
NGDU               .         НГДУ-2                        : 
ORIGINALWELLNAME   .         5503                          : 
Spud_date          .         1989                          : 1961
Viscosity          .                                       : 
X                  .m        42302                         : 46154
Y                  .m        84596.03                      : 85761.93
YEAR               .         2019                          : 
~Parameter Information Block
#_______________________________________________________________________________
#
#PARAMETER_NAME    .UNIT     VALUE                         : DESCRIPTION
#_______________________________________________________________________________
SET                .         LQC_KAZNIPI_Petrel            : 
PBBOTTOM           .M        1188.8                        : Глубина подошвы планшета
PBSCALE            .         1 _ 500                       : Вертикальный масштаб планшета
PBTOP              .M        902                           : Глубина кровли планшета
TLFamily_CALI      .         Caliper                       : 
TLFamily_CILD      .         Conductivity                  : 
TLFamily_COLL      .         Net Reservoir Flag            : 
TLFamily_CSAT      .         Fluid Code                    : 
TLFamily_DEPT      .         Measured Depth                : 
TLFamily_GR        .         Russian Gamma Ray             : 
TLFamily_GZ1_1     .         Gradient 045                  : 
TLFamily_GZ2_1     .         Gradient 105                  : 
TLFamily_GZ3_1     .         Gradient 225                  : 
TLFamily_GZ4_1     .         Gradient 425                  : 
TLFamily_GZ5_1     .         Gradient 850                  : 
TLFamily_LLS       .         Lateral Log Resistivity       : 
TLFamily_MINV      .         Micro Gradient Resistivity    : 
TLFamily_MNOR      .         Micro Resistivity             : 
TLFamily_NGLD      .         Neutron Far                   : 
TLFamily_OGZ3      .         Gradient Inverted 225         : 
TLFamily_PHIE      .         Effective Porosity            : 
TLFamily_PHIEN     .         Effective Porosity            : 
TLFamily_PHIT      .         Porosity                      : 
TLFamily_PRMB      .         Permeability                  : 
TLFamily_PRMB_DGR  .         Permeability                  : 
TLFamily_RT        .         Formation Resistivity         : 
TLFamily_SOIL_ARCHIE .         Oil Saturation                : 
TLFamily_SOIL_DW   .         Oil Saturation                : 
TLFamily_SP        .         Spontaneous Potential         : 
TLFamily_VSH_FIN   .         Shale Volume                  : 
TLFamily_VSH_GR    .         Shale Volume                  : 
TLFamily_VSH_SP    .         Shale Volume                  : 
~Curve Information
#_______________________________________________________________________________
#
#LOGNAME           .UNIT     LOG_ID                        : DESCRIPTION
#_______________________________________________________________________________
DEPT               .M                                      : Колонка глубины 
CALI               .м                                      : Каверномер 
CILD               .мСм/м                                  : Индукционный каротаж 
COLL               .unitless                               : Описание 
CSAT               .unitless                               : Описание 
GR                 .uR/h                                   : Гамма каротаж 
GZ1_1              .Ohmm                                   :  
GZ2_1              .Ohmm                                   :  
GZ3_1              .Ohmm                                   :  
GZ4_1              .Ohmm                                   :  
GZ5_1              .Ohmm                                   :  
LLS                .Ohmm                                   : Боковой каротаж 
MINV               .Ohmm                                   : Микро-градиент зонд 
MNOR               .Ohmm                                   : Микро-потенциал зонд 
NGLD               .у.е.                                   : Показания зонда НГК-60 аппаратуры ДРСТ-3-90 
OGZ3               .Ohmm                                   :  
PHIE               .v/v                                    : Описание 
PHIEN              .v/v                                    :  
PHIT               .v/v                                    : Описание 
PRMB               .mD                                     :  
PRMB_DGR           .mD                                     :  
RT                 .ohmm                                   : УЭС пласта 
SOIL_ARCHIE        .v/v                                    :  
SOIL_DW            .v/v                                    :  
SP                 .мВ                                     : Потенциал самополяризации 
VSH_FIN            .v/v                                    : Описание 
VSH_GR             .v/v                                    : Shale volume 
VSH_SP             .v/v                                    : Shale Volume 
~Ascii
# ...
904.6      0.27       282.816    -9999      -9999      9.215717   -9999      -9999      4.958      -9999      -9999      3.092      0.831      0.924      1.286667   4.564      -9999      -9999      -9999      -9999      -9999      3.536      -9999      -9999      17.497     -9999      0.5382687  0.1525736 
904.7000000000001 0.266      289.816    -9999      -9999      9.192337   -9999      -9999      5.025      -9999      -9999      2.962      0.754      0.888      1.296293   4.749      -9999      -9999      -9999      -9999      -9999      3.45       -9999      -9999      17.512     -9999      0.5272297  0.1526519 
904.8      0.264      291.816    -9999      -9999      9.163575   -9999      -9999      4.857      -9999      -9999      2.888      0.686      0.844      1.307506   4.969      -9999      -9999      -9999      -9999      -9999      3.427      -9999      -9999      17.49      -9999      0.5061645  0.1525371 
904.9      0.263      292.816    -9999      -9999      9.129707   -9999      -9999      4.739      -9999      -9999      2.876      0.639      0.796      1.320166   4.935      -9999      -9999      -9999      -9999      -9999      3.415      -9999      -9999      17.45      -9999      0.4836725  0.152329  
905        0.264      291.816    -9999      -9999      9.090849   -9999      -9999      4.622      -9999      -9999      2.969      0.612      0.754      1.334145   4.834001   -9999      -9999      -9999      -9999      -9999      3.427      -9999      -9999      17.408     -9999      0.4674617  0.1521115 
905.1      0.267      290.816    -9999      -9999      9.046484   -9999      -9999      4.504001   -9999      -9999      3.112      0.602      0.736      1.349395   4.733      -9999      -9999      -9999      -9999      -9999      3.439      -9999      -9999      17.367     -9999      0.457569   0.1519001 
905.2000000000001 0.271      289.816    -9999      -9999      8.995112   -9999      -9999      4.37       -9999      -9999      3.18       0.607      0.757      1.365974   4.647999   -9999      -9999      -9999      -9999      -9999      3.45       -9999      -9999      17.326     -9999      0.4514924  0.1516897 
905.3      0.274      289.816    -9999      -9999      8.9342     -9999      -9999      4.252      -9999      -9999      3.189      0.626      0.819      1.384058   4.631      -9999      -9999      -9999      -9999      -9999      3.45       -9999      -9999      17.295     -9999      0.4454969  0.1515311 
905.4      0.276      291.316    -9999      -9999      8.860482   -9999      -9999      4.118      -9999      -9999      3.136      0.658      0.905      1.403906   4.631      -9999      -9999      -9999      -9999      -9999      3.433      -9999      -9999      17.28      -9999      0.4349044  0.1514546 
905.5      0.276      293.816    -9999      -9999      8.770505   -9999      -9999      4.118      -9999      -9999      3.056      0.701      0.986      1.42581    4.581      -9999      -9999      -9999      -9999      -9999      3.403      -9999      -9999      17.281     -9999      0.4166915  0.1514597 
905.6      0.273      294.816    -9999      -9999      8.661233   -9999      -9999      4.151      -9999      -9999      2.989      0.749      1.039      1.450049   4.783      -9999      -9999      -9999      -9999      -9999      3.392      -9999      -9999      17.285     -9999      0.3902703  0.1514801 
905.7000000000001 0.268      292.816    -9999      -9999      8.530461   -9999      -9999      4.168      -9999      -9999      2.969      0.788      1.057      1.476847   5.087      -9999      -9999      -9999      -9999      -9999      3.415      -9999      -9999      17.284     -9999      0.3573108  0.151475  
905.8      0.263      288.816    -9999      -9999      8.377074   -9999      -9999      4.202      -9999      -9999      3.009      0.807      1.046      1.506359   5.407      -9999      -9999      -9999      -9999      -9999      3.462      -9999      -9999      17.27      -9999      0.3206399  0.1514037 
905.9      0.259      280.816    -9999      -9999      8.201026   -9999      -9999      4.218      -9999      -9999      3.107      0.799      1.017      1.538684   5.795      -9999      -9999      -9999      -9999      -9999      3.561      -9999      -9999      17.247     -9999      0.2831535  0.1512867 
906        0.257      271.816    -9999      -9999      8.003237   -9999      -9999      4.269      -9999      -9999      3.245      0.773      0.985      1.573889   6.166      0.07898868 0.07898868 0.2714831  0.08132424 2.425594   3.679      0          0.4283232  17.214     0.5833164  0.4518352  0.6327323 
906.1      0.258      258.316    6          6          7.785443   -9999      -9999      4.319      -9999      -9999      3.4        0.748      0.971      1.612038   6.588      0.07849716 0.07849716 0.2623616  0.07963717 3.244716   3.871      0          0.4286147  17.173     0.557165   0.4012209  0.6299258 
906.2000000000001 0.26       245.816    6          6          7.550068   -9999      -9999      4.319      -9999      -9999      3.675      0.75       0.99       1.653203   7.026999   0.07690307 0.07690307 0.2525192  0.07440282 4.44361    4.068      0          0.4243109  17.133     0.5321702  0.3528759  0.6271978 
906.3      0.262      237.816    6          6          7.300127   -9999      -9999      4.084001   -9999      -9999      4.05       0.798      1.055      1.697443   7.33       0.07387482 0.07387482 0.2419413  0.06538814 6.205061   4.205      0          0.4095281  17.114     0.5092922  0.3078998  0.6259056 
906.4      0.262      228.816    6          6          7.039152   -9999      -9999      3.832      -9999      -9999      4.374      0.9        1.16       1.744763   7.617      0.06917996 0.06917996 0.2306271  0.05352279 8.793414   4.37       0          0.3887509  17.132     0.4892339  0.2670442  0.6271298 
906.5      0.26       218.816    6          6          6.771162   -9999      -9999      3.58       -9999      -9999      4.69       1.047      1.285      1.795024   7.971      0.06280249 0.06280249 0.2186098  0.04077675 12.5788    4.57       0          0.3603474  17.184     0.4721434  0.2307251  0.6306778 
906.6      0.256      208.816    6          6          6.500565   -9999      -9999      3.429      -9999      -9999      4.956      1.243      1.411      1.847849   8.427      0.05496788 0.05496788 0.2059794  0.02919419 18.05648   4.789      0          0.3207969  17.247     0.4576107  0.1990623  0.6349987 
906.7000000000001 0.251      198.816    6          6          6.232057   -9999      -9999      3.328      -9999      -9999      5.229      1.493      1.548      1.902539   8.933      0.04613468 0.04613468 0.192903   0.02003015 25.84727   5.03       0          0.2676172  17.281     0.4447523  0.1719405  0.637341  
906.8      0.247      185.816    6          6          5.97045    -9999      -9999      3.244      -9999      -9999      5.72       1.783      1.713      1.958023   9.439      0.03681193 0.03681193 0.1796367  0.01345873 36.66003   5.382      0          0.2039021  17.256     0.4328025  0.149074   0.6356181 
906.9      0.245      172.816    6          6          5.720492   -9999      -9999      3.429      -9999      -9999      6.678      2.038      1.901      2.012874   10.181     0.0274852  0.0274852  0.1665219  0.009041712 51.19328   5.787      0          0.1210258  17.16      0.4213234  0.1300725  0.6290381 
907        0.243      159.816    6          6          5.486649   -9999      -9999      3.529      -9999      -9999      8.24       2.164      2.053      2.065386   10.253     0.01852068 0.01852068 0.1539662  0.006168875 69.96538   6.257      0          0.01305523 17.009     0.410441   0.1144951  0.6188044 
907.1      0.242      148.816    6          6          5.272882   -9999      -9999      3.613      -9999      -9999      10.284     2.114      2.136      2.113706   10.337     0.01037438 0.01037438 0.1424129  0.004358297 93.09061   6.72       0          0          16.811     0.4001166  0.101893   0.6055985 
