~Version
 VERS              .         2.0                           : CWLS LOG ASCII STANDARD - VERSION 2.0
 WRAP              .         NO                            : ONE LINE PER DEPTH STEP
 DLM               .         SPACE                         : DELIMITING CHARACTER(SPACE TAB OR COMMA)
~Well Information
#_______________________________________________________________________________
#
#PARAMETER_NAME    .UNIT     VALUE                         : DESCRIPTION
#_______________________________________________________________________________
STRT               .M        902                           : First reference value
STOP               .M        1188.8                        : Last reference value
STEP               .M        0.1                           : Step increment
NULL               .         -9999                         : Missing value
COMP               .                                       : Company
WELL               .         5503                          : Well name
FLD                .         Узень                         : Field
LOC                .                                       : Location
CNTY               .                                       : County
STAT               .                                       : State
CTRY               .                                       : Country
SRVC               .         SCH                           : Service Company
DATE               .         02.10.1989                    : Date
UWI                .                                       : Unique Well ID
Block              .         7                             : 
Cartographic_reference_system .         GCS_WGS_1984                  : ESRI,PE_10_3_1- <?xml version="1.0" encoding="utf-16"?><ILateBoundCoordinateReferenceSystem name="GCS_WGS_1984"><AuthorityCode>EPSG,4326</AuthorityCode></ILateBoundCoordinateReferenceSystem>
Category           .         Нагнетательная                : 
Condition          .         Ликвидированная               : 
DATA               .         02.10.1989                    : 
Date               .         02.10.1989                    : 
EREF               .m        92.4                          : 100.8
Gorizont           .         14                            : 14
HZCS               .GCS_WGS_1984 WGS_1984_EASE-Grid_2.0_Global : ESRI,PE_10_3_1- <?xml version="1.0" encoding="utf-16"?><ILateBoundCoordinateReferenceSystem name="WGS_1984_EASE-Grid_2.0_Global"><AuthorityCode>EPSG,6933</AuthorityCode></ILateBoundCoordinateReferenceSystem>
Interpretator      .         Бердибекулы М.                : 
Kupol              .         Основной                      : osnovnoi
LATI               .dega     0.6631315146                  : GCS_WGS_1984
LONG               .dega     0.4384250267                  : GCS_WGS_1984
METD               .         gz1 gz2 gz4 gz5               : 
Mud                .                                       : 
Mud_density        .                                       : 
Mud_resistivity    .                                       : 
NGDU               .         НГДУ-2                        : 
ORIGINALWELLNAME   .         5503                          : 
Spud_date          .         1989                          : 1961
Viscosity          .                                       : 
X                  .m        42302                         : 46154
Y                  .m        84596.03                      : 85761.93
YEAR               .         2019                          : 
~Parameter Information Block
#_______________________________________________________________________________
#
#PARAMETER_NAME    .UNIT     VALUE                         : DESCRIPTION
#_______________________________________________________________________________
SET                .         LQC_KAZNIPI_Petrel            : 
PBBOTTOM           .M        1188.8                        : Глубина подошвы планшета
PBSCALE            .         1 _ 500                       : Вертикальный масштаб планшета
PBTOP              .M        902                           : Глубина кровли планшета
TLFamily_CALI      .         Caliper                       : 
TLFamily_CILD      .         Conductivity                  : 
TLFamily_COLL      .         Net Reservoir Flag            : 
TLFamily_CSAT      .         Fluid Code                    : 
TLFamily_DEPT      .         Measured Depth                : 
TLFamily_GR        .         Russian Gamma Ray             : 
TLFamily_GZ1_1     .         Gradient 045                  : 
TLFamily_GZ2_1     .         Gradient 105                  : 
TLFamily_GZ3_1     .         Gradient 225                  : 
TLFamily_GZ4_1     .         Gradient 425                  : 
TLFamily_GZ5_1     .         Gradient 850                  : 
TLFamily_LLS       .         Lateral Log Resistivity       : 
TLFamily_MINV      .         Micro Gradient Resistivity    : 
TLFamily_MNOR      .         Micro Resistivity             : 
TLFamily_NGLD      .         Neutron Far                   : 
TLFamily_OGZ3      .         Gradient Inverted 225         : 
TLFamily_PHIE      .         Effective Porosity            : 
TLFamily_PHIEN     .         Effective Porosity            : 
TLFamily_PHIT      .         Porosity                      : 
TLFamily_PRMB      .         Permeability                  : 
TLFamily_PRMB_DGR  .         Permeability                  : 
TLFamily_RT        .         Formation Resistivity         : 
TLFamily_SOIL_ARCHIE .         Oil Saturation                : 
TLFamily_SOIL_DW   .         Oil Saturation                : 
TLFamily_SP        .         Spontaneous Potential         : 
TLFamily_VSH_FIN   .         Shale Volume                  : 
TLFamily_VSH_GR    .         Shale Volume                  : 
TLFamily_VSH_SP    .         Shale Volume                  : 
~Curve Information
#_______________________________________________________________________________
#
#LOGNAME           .UNIT     LOG_ID                        : DESCRIPTION
#_______________________________________________________________________________
DEPT               .M                                      : Колонка глубины 
CALI               .м                                      : Каверномер 
CILD               .мСм/м                                  : Индукционный каротаж 
COLL               .unitless                               : Описание 
CSAT               .unitless                               : Описание 
GR                 .uR/h                                   : Гамма каротаж 
GZ1_1              .Ohmm                                   :  
GZ2_1              .Ohmm                                   :  
GZ3_1              .Ohmm                                   :  
GZ4_1              .Ohmm                                   :  
GZ5_1              .Ohmm                                   :  
LLS                .Ohmm                                   : Боковой каротаж 
MINV               .Ohmm                                   : Микро-градиент зонд 
MNOR               .Ohmm                                   : Микро-потенциал зонд 
NGLD               .у.е.                                   : Показания зонда НГК-60 аппаратуры ДРСТ-3-90 
OGZ3               .Ohmm                                   :  
PHIE               .v/v                                    : Описание 
PHIEN              .v/v                                    :  
PHIT               .v/v                                    : Описание 
PRMB               .mD                                     :  
PRMB_DGR           .mD                                     :  
RT                 .ohmm                                   : УЭС пласта 
SOIL_ARCHIE        .v/v                                    :  
SOIL_DW            .v/v                                    :  
SP                 .мВ                                     : Потенциал самополяризации 
VSH_FIN            .v/v                                    : Описание 
VSH_GR             .v/v                                    : Shale volume 
VSH_SP             .v/v                                    : Shale Volume 
~Ascii
# ...
1123       0.214      257.816    1          2          9.33519    1.548      1.95       2.639      1.059      0.248      4.356      1.797      1.783      1.502908   6.031      0.2003796  0.2003796  0.2884547  14.41032   7.053118   3.879      0.5199326  0.6213148  8.986      0.2668943  0.2922078  0.2415807 
1123.1     0.213      244.816    1          2          9.226483   1.799      2.033      2.79       1.445      0.248      4.764      1.787      1.9        1.506717   6.672      0.2042449  0.2042449  0.287544   16.99298   7.920307   4.085      0.5391816  0.633197   7.821      0.2524213  0.2786942  0.2261485 
1123.2     0.212      231.816    1          2          9.134744   1.782      2.1        2.924      1.832      0.265      5.122      1.78       2.011      1.50966    7.33       0.207263   0.207263   0.2868404  19.3273    8.734591   4.314      0.5565288  0.6447119  6.862      0.2411436  0.2677771  0.2145102 
1123.3     0.212      220.816    1          2          9.062837   2.033      2.301      3.076      2.202      0.299      5.406      1.783      2.115      1.511532   8.039001   0.2095623  0.2095623  0.2863927  21.31869   9.430944   4.529      0.5706807  0.6545129  6.118      0.2328195  0.25952    0.206119  
1123.4     0.212      209.816    1          2          9.011373   2.234      2.318      3.193      2.588      0.315      5.607      1.798      2.205      1.512267   8.477      0.2113135  0.2113135  0.2862169  22.97191   9.963158   4.766      0.5838616  0.6642531  5.561      0.22698    0.2537671  0.2001929 
1123.5     0.212      201.816    1          2          8.979351   2.452      2.703      3.328      3.008      0.315      5.735      1.819      2.272      1.511965   8.865      0.2126668  0.2126668  0.2862892  24.33682   10.30936   4.955      0.5936527  0.6716394  5.143      0.2230979  0.2502522  0.1959437 
1123.6     0.212      193.816    1          2          8.964977   2.636      2.971      3.429      3.428      0.332      5.809      1.833      2.305      1.510858   9.321      0.2136875  0.2136875  0.2865537  25.41964   10.46865   5.16       0.602969   0.6790416  4.835      0.2208068  0.2486902  0.1929233 
1123.7     0.213      187.816    1          2          8.966375   2.821      3.222      3.479      3.815      0.332      5.84       1.834      2.311      1.509238   9.591      0.2144006  0.2144006  0.2869413  26.20464   10.45305   5.324      0.6098894  0.6847103  4.612      0.2198202  0.2488417  0.1907986 
1123.8     0.214      182.816    1          2          8.98194    3.005      3.641      3.529      4.218      0.349      5.831      1.83       2.309      1.507369   9.287      0.2147933  0.2147933  0.287388   26.64713   10.28092   5.47       0.615424   0.6894654  4.465      0.2199841  0.2505346  0.1894337 
1123.9     0.214      178.816    1          2          9.010315   3.189      3.959      3.563      4.469999   0.349      5.768      1.836      2.318      1.505437   9.017      0.214863   0.214863   0.2878501  26.72649   9.974403   5.592      0.6194919  0.6932009  4.383      0.2211731  0.2536502  0.1886959 
1124       0.215      175.816    1          2          9.050099   3.373      4.311      3.58       4.638      0.366      5.655      1.865      2.345      1.503517   8.747      0.2146015  0.2146015  0.288309   26.43013   9.55996    5.688      0.6221187  0.6959299  4.372      0.2233561  0.2580841  0.188628  
1124.1     0.215      173.816    1          2          9.099482   3.541      4.746      3.63       4.807      0.366      5.52       1.909      2.383      1.501598   8.477      0.2140353  0.2140353  0.2887678  25.79949   9.069402   5.753      0.6232622  0.6976012  4.432      0.2264621  0.2636956  0.1892286 
1124.2     0.215      170.816    1          2          9.156044   3.775      5.115      3.647      4.941      0.366      5.42       1.949      2.416      1.499624   8.224      0.2132108  0.2132108  0.2892399  24.90799   8.538362   5.854      0.6250682  0.7000268  4.563      0.2303915  0.2702731  0.1905099 
1124.3     0.215      168.816    1          2          9.216779   3.758      5.5        3.63       4.991      0.366      5.409      1.968      2.432      1.497537   8.005      0.2121991  0.2121991  0.2897388  23.8561    8.002726   5.924      0.625606   0.7015161  4.757      0.234969   0.2775185  0.1924194 
1124.4     0.215      167.816    1          2          9.278366   3.959      5.785      3.563      4.941      0.366      5.509      1.962      2.429      1.495325   7.835999   0.2110752  0.2110752  0.2902679  22.73963   7.493867   5.959      0.6249088  0.7020565  5.004      0.2399777  0.2850641  0.1948912 
1124.5     0.215      166.816    1          2          9.337603   3.859      5.969      3.63       4.891      0.366      5.606      1.947      2.417      1.493037   7.735      0.2099064  0.2099064  0.2908149  21.63387   7.034989   5.995      0.6241542  0.702597   5.292      0.2451773  0.2925151  0.1978394 
1124.6     0.216      166.816    1          2          9.391901   3.742      6.186      3.664      4.84       0.366      5.705      1.945      2.413      1.490793   7.668      0.2087259  0.2087259  0.2913515  20.57156   6.639088   5.995      0.6223034  0.7022247  5.616      0.2503807  0.2995159  0.2012454 
1124.7     0.216      165.816    1          2          9.439712   3.708      6.337      3.697      4.756      0.382      5.78       1.968      2.427      1.488756   7.651      0.2075565  0.2075565  0.2918385  19.5708    6.308976   6.031      0.6215156  0.7027169  5.961      0.2553998  0.3058188  0.2049807 
1124.8     0.217      164.816    1          2          9.480767   3.725      6.505      3.815      4.689      0.382      5.8        1.998      2.456      1.487091   7.633999   0.2063938  0.2063938  0.2922366  18.62396   6.038637   6.067      0.62072    0.7031505  6.314      0.2601295  0.311337   0.2089221 
1124.9     0.217      164.816    8          2          9.516084   3.758      6.639      4.017      4.588      0.382      5.771      2.007      2.483      1.485918   7.668      0.2051976  0.2051976  0.2925171  17.69768   5.815374   6.067      0.6187951  0.7026067  6.672      0.2646043  0.3161634  0.2130453 
1125       0.218      165.816    8          2          9.547664   3.775      6.772999   4.252      4.689      0.382      5.751      1.979      2.493      1.485285   7.633999   0.2038536  0.2038536  0.2926683  16.7117    5.622735   6.031      0.6155347  0.7010037  7.066      0.2691355  0.3205424  0.2177286 
1125.1     0.218      166.816    8          2          9.57798    3.825      6.940001   4.504001   4.773      0.382      5.806      1.926      2.478      1.485175   7.701      0.2021891  0.2021891  0.2926946  15.56649   5.443808   5.995      0.6116902  0.6991113  7.552      0.2742591  0.3248033  0.2237149 
1125.2     0.218      169.816    8          2          9.609313   3.909      7.074      4.874      4.84       0.382      5.928      1.876      2.448      1.485534   7.752      0.2000452  0.2000452  0.2926088  14.2063    5.264864   5.889      0.6047734  0.6950323  8.174      0.2804956  0.3292666  0.2317245 
1125.3     0.218      172.816    8          2          9.643108   3.959      7.208      5.21       4.84       0.399      6.008      1.843      2.413      1.486311   7.819      0.1974097  0.1974097  0.292423   12.69594   5.078444   5.787      0.5968902  0.6905657  8.907      0.2879191  0.3341495  0.2416888 
1125.4     0.218      175.816    8          2          9.679544   3.993      7.292      5.58       4.84       0.416      5.926      1.823      2.384      1.48747    7.936999   0.1945034  0.1945034  0.2921459  11.21588   4.884844   5.688      0.5883293  0.6858122  9.642      0.2958864  0.339495   0.2522778 
1125.5     0.218      178.816    8          2          9.717477   4.043      7.375      5.966001   4.823      0.416      5.638      1.809      2.37       1.488976   8.072      0.191694   0.191694   0.2917859  9.949364   4.691133   5.592      0.5797358  0.6810101  10.247     0.3033088  0.3451509  0.2614666 
