~Version
 VERS              .         2.0                           : CWLS LOG ASCII STANDARD - VERSION 2.0
 WRAP              .         NO                            : ONE LINE PER DEPTH STEP
 DLM               .         SPACE                         : DELIMITING CHARACTER(SPACE TAB OR COMMA)
~Well Information
#_______________________________________________________________________________
#
#PARAMETER_NAME    .UNIT     VALUE                         : DESCRIPTION
#_______________________________________________________________________________
STRT               .M        902                           : First reference value
STOP               .M        1188.8                        : Last reference value
STEP               .M        0.1                           : Step increment
NULL               .         -9999                         : Missing value
COMP               .                                       : Company
WELL               .         5503                          : Well name
FLD                .         Узень                         : Field
LOC                .                                       : Location
CNTY               .                                       : County
STAT               .                                       : State
CTRY               .                                       : Country
SRVC               .         SCH                           : Service Company
DATE               .         02.10.1989                    : Date
UWI                .                                       : Unique Well ID
Block              .         7                             : 
Cartographic_reference_system .         GCS_WGS_1984                  : ESRI,PE_10_3_1- <?xml version="1.0" encoding="utf-16"?><ILateBoundCoordinateReferenceSystem name="GCS_WGS_1984"><AuthorityCode>EPSG,4326</AuthorityCode></ILateBoundCoordinateReferenceSystem>
Category           .         Нагнетательная                : 
Condition          .         Ликвидированная               : 
DATA               .         02.10.1989                    : 
Date               .         02.10.1989                    : 
EREF               .m        92.4                          : 100.8
Gorizont           .         14                            : 14
HZCS               .GCS_WGS_1984 WGS_1984_EASE-Grid_2.0_Global : ESRI,PE_10_3_1- <?xml version="1.0" encoding="utf-16"?><ILateBoundCoordinateReferenceSystem name="WGS_1984_EASE-Grid_2.0_Global"><AuthorityCode>EPSG,6933</AuthorityCode></ILateBoundCoordinateReferenceSystem>
Interpretator      .         Бердибекулы М.                : 
Kupol              .         Основной                      : osnovnoi
LATI               .dega     0.6631315146                  : GCS_WGS_1984
LONG               .dega     0.4384250267                  : GCS_WGS_1984
METD               .         gz1 gz2 gz4 gz5               : 
Mud                .                                       : 
Mud_density        .                                       : 
Mud_resistivity    .                                       : 
NGDU               .         НГДУ-2                        : 
ORIGINALWELLNAME   .         5503                          : 
Spud_date          .         1989                          : 1961
Viscosity          .                                       : 
X                  .m        42302                         : 46154
Y                  .m        84596.03                      : 85761.93
YEAR               .         2019                          : 
~Parameter Information Block
#_______________________________________________________________________________
#
#PARAMETER_NAME    .UNIT     VALUE                         : DESCRIPTION
#_______________________________________________________________________________
SET                .         LQC_KAZNIPI_Petrel            : 
PBBOTTOM           .M        1188.8                        : Глубина подошвы планшета
PBSCALE            .         1 _ 500                       : Вертикальный масштаб планшета
PBTOP              .M        902                           : Глубина кровли планшета
TLFamily_CALI      .         Caliper                       : 
TLFamily_CILD      .         Conductivity                  : 
TLFamily_COLL      .         Net Reservoir Flag            : 
TLFamily_CSAT      .         Fluid Code                    : 
TLFamily_DEPT      .         Measured Depth                : 
TLFamily_GR        .         Russian Gamma Ray             : 
TLFamily_GZ1_1     .         Gradient 045                  : 
TLFamily_GZ2_1     .         Gradient 105                  : 
TLFamily_GZ3_1     .         Gradient 225                  : 
TLFamily_GZ4_1     .         Gradient 425                  : 
TLFamily_GZ5_1     .         Gradient 850                  : 
TLFamily_LLS       .         Lateral Log Resistivity       : 
TLFamily_MINV      .         Micro Gradient Resistivity    : 
TLFamily_MNOR      .         Micro Resistivity             : 
TLFamily_NGLD      .         Neutron Far                   : 
TLFamily_OGZ3      .         Gradient Inverted 225         : 
TLFamily_PHIE      .         Effective Porosity            : 
TLFamily_PHIEN     .         Effective Porosity            : 
TLFamily_PHIT      .         Porosity                      : 
TLFamily_PRMB      .         Permeability                  : 
TLFamily_PRMB_DGR  .         Permeability                  : 
TLFamily_RT        .         Formation Resistivity         : 
TLFamily_SOIL_ARCHIE .         Oil Saturation                : 
TLFamily_SOIL_DW   .         Oil Saturation                : 
TLFamily_SP        .         Spontaneous Potential         : 
TLFamily_VSH_FIN   .         Shale Volume                  : 
TLFamily_VSH_GR    .         Shale Volume                  : 
TLFamily_VSH_SP    .         Shale Volume                  : 
~Curve Information
#_______________________________________________________________________________
#
#LOGNAME           .UNIT     LOG_ID                        : DESCRIPTION
#_______________________________________________________________________________
DEPT               .M                                      : Колонка глубины 
CALI               .м                                      : Каверномер 
CILD               .мСм/м                                  : Индукционный каротаж 
COLL               .unitless                               : Описание 
CSAT               .unitless                               : Описание 
GR                 .uR/h                                   : Гамма каротаж 
GZ1_1              .Ohmm                                   :  
GZ2_1              .Ohmm                                   :  
GZ3_1              .Ohmm                                   :  
GZ4_1              .Ohmm                                   :  
GZ5_1              .Ohmm                                   :  
LLS                .Ohmm                                   : Боковой каротаж 
MINV               .Ohmm                                   : Микро-градиент зонд 
MNOR               .Ohmm                                   : Микро-потенциал зонд 
NGLD               .у.е.                                   : Показания зонда НГК-60 аппаратуры ДРСТ-3-90 
OGZ3               .Ohmm                                   :  
PHIE               .v/v                                    : Описание 
PHIEN              .v/v                                    :  
PHIT               .v/v                                    : Описание 
PRMB               .mD                                     :  
PRMB_DGR           .mD                                     :  
RT                 .ohmm                                   : УЭС пласта 
SOIL_ARCHIE        .v/v                                    :  
SOIL_DW            .v/v                                    :  
SP                 .мВ                                     : Потенциал самополяризации 
VSH_FIN            .v/v                                    : Описание 
VSH_GR             .v/v                                    : Shale volume 
VSH_SP             .v/v                                    : Shale Volume 
~Ascii
# ...
1159.4     0.216      262.816    1          2          10.02356   2.737      4.428      4.588      3.781      2.409      3.254      1.658      1.709      1.376904   2.843      0.204213   0.204213   0.3185822  16.96986   3.384379   3.805      0.5235035  0.6422647  11.344     0.3465735  0.3943757  0.2987713 
1159.5     0.217      265.816    1          2          9.997563   2.703      4.395      4.639      3.765      2.358      3.212      1.647      1.717      1.380753   2.742      0.2034373  0.2034373  0.317662   16.41761   3.479533   3.762      0.5193648  0.6390504  11.619     0.3461356  0.3899357  0.3023356 
1159.6     0.218      269.816    1          2          9.961394   2.653      4.395      4.655      3.933      2.375      3.138      1.641      1.747      1.386624   2.658      0.2025382  0.2025382  0.3162581  15.79998   3.616406   3.706      0.5140995  0.6347192  11.863     0.3446059  0.3838406  0.3053711 
1159.7     0.218      273.816    1          2          9.91429    2.77       4.395      4.655      4.017      2.375      3.049      1.635      1.771      1.394225   2.59       0.2015841  0.2015841  0.3144408  15.17      3.802763   3.652      0.508725   0.6300578  12.08      0.3419897  0.3760454  0.307934  
1159.8     0.219      277.816    1          2          9.857044   2.871      4.378      4.655      4.067      2.358      3.006      1.626      1.769      1.402999   2.54       0.2006406  0.2006406  0.3123429  14.57163   4.042219   3.6        0.5033824  0.625197   12.28      0.3384918  0.3667845  0.310199  
1159.9     0.219      280.816    1          2          9.792295   2.904      4.311      4.655      4.117      2.308      2.965      1.616      1.746      1.412203   2.489      0.1997778  0.1997778  0.3101424  14.04516   4.331285   3.561      0.4989604  0.6209007  12.47      0.3344382  0.3565844  0.312292  
1160       0.219      283.816    1          2          9.724329   2.871      4.21       4.639      4.117      2.358      2.897      1.611      1.725      1.421018   2.439      0.1990542  0.1990542  0.3080346  13.61836   4.65697    3.523      0.4948377  0.6167498  12.655     0.3302436  0.3461826  0.3143046 
1160.1     0.22       286.816    1          2          9.658487   2.854      4.143      4.555      4.067      2.325      2.848      1.598      1.724      1.428684   2.405      0.1987786  0.1987786  0.3062017  13.45921   4.995811   3.487      0.4917841  0.6131905  12.753     0.3255245  0.3363954  0.3146537 
1160.2     0.221      288.816    1          2          9.600368   2.854      4.06       4.487      4.017      2.291      2.825      1.565      1.733      1.434609   2.354      0.1986885  0.1986885  0.3047849  13.40759   5.315345   3.462      0.4898638  0.6106539  12.852     0.3215043  0.3279862  0.3150224 
1160.3     0.222      290.816    1          2          9.555034   2.821      3.993      4.403      3.966      2.241      2.845      1.514      1.735      1.438424   2.27       0.1985408  0.1985408  0.3038728  13.32343   5.578703   3.439      0.4879342  0.6085403  13.024     0.3191878  0.3215731  0.3168026 
1160.4     0.223      292.816    1          2          9.52642    2.737      3.909      4.319      3.865      2.208      2.922      1.472      1.717      1.439991   2.219      0.1985568  0.1985568  0.3034982  13.33253   5.751609   3.415      0.4862847  0.6068923  13.187     0.3180042  0.31759    0.3184184 
1160.5     0.225      293.816    1          2          9.516992   2.653      3.825      4.252      3.781      2.191      3.063      1.456      1.691      1.439348   2.202      0.1987024  0.1987024  0.3036519  13.41557   5.809746   3.403      0.4857638  0.6064354  13.336     0.3180288  0.3162884  0.3197692 
1160.6     0.226      295.816    1          2          9.527724   2.502      3.775      4.202      3.731      2.157      3.25       1.469      1.677      1.436638   2.202      0.1989143  0.1989143  0.3042999  13.53736   5.743611   3.38       0.4846033  0.6057687  13.475     0.3193501  0.3177705  0.3209297 
1160.7     0.227      298.816    1          2          9.558349   2.469      3.691      4.168      3.664      2.141      3.449      1.497      1.682      1.432043   2.186      0.1991037  0.1991037  0.3053986  13.64716   5.559012   3.347      0.4826539  0.6048296  13.618     0.3221057  0.3220378  0.3221737 
1160.8     0.228      302.816    1          2          9.607758   2.419      3.658      4.084001   3.596      2.141      3.603      1.529      1.701      1.425763   2.202      0.1990792  0.1990792  0.3069     13.63288   5.273606   3.302      0.4793014  0.6032833  13.811     0.3267297  0.3290436  0.3244157 
1160.9     0.228      309.816    1          2          9.674472   2.402      3.658      4.235      3.563      2.157      3.639      1.557      1.727      1.418046   2.219      0.1985658  0.1985658  0.3087451  13.33759   4.911349   3.228      0.4725486  0.5997701  14.12      0.3338769  0.3387457  0.3290081 
1161       0.228      314.762    1          2          9.756991   2.385      3.708      4.336      3.58       2.191      3.496      1.589      1.759      1.409231   2.253      0.1971946  0.1971946  0.3108528  12.58001   4.497505   3.177      0.4653755  0.5970728  14.624     0.3444186  0.351143   0.3376943 
1161.1     0.227      319.816    1          2          9.853925   2.452      3.842      4.471      3.664      2.241      3.169      1.667      1.808      1.399789   2.287      0.194621   0.194621   0.3131104  11.27225   4.055692   3.127      0.4551826  0.5934654  15.37      0.3590587  0.3662865  0.3518308 
1161.2     0.226      332.816    1          2          9.963852   2.62       4.076      4.605      3.798      2.392      2.734      1.858      1.882      1.390321   2.304      0.1906371  0.1906371  0.3153743  9.510868   3.606937   3.005      0.434823   0.5836367  16.342     0.3779916  0.3842517  0.3717315 
1161.3     0.225      346.816    1          2          10.08491   2.854      4.328      4.705999   4          2.325      2.306      2.186      1.987      1.381495   2.337      0.1851878  0.1851878  0.3174845  7.538499   3.169973   2.883      0.4089817  0.5716921  17.477     0.4008992  0.4050573  0.3967411 
1161.4     0.224      363.816    -9999      -9999      10.21436   3.088      4.545      4.891      4.168      2.275      1.982      2.566      2.098      1.373947   2.388      0.1784499  0.1784499  0.3192892  5.655662   2.761115   2.749      0.3758063  0.5564188  18.674     0.4267856  0.4285531  0.4250182 
1161.5     0.224      380.816    -9999      -9999      10.34828   3.239      4.663      4.655      4.235      2.224      1.788      2.816      2.169      1.368165   2.236      0.1707323  0.1707323  0.3206716  4.069437   2.393552   2.626      0.3372172  0.5394285  19.843     0.4543617  0.4542953  0.4544281 
1161.6     0.223      397.816    -9999      -9999      10.48166   3.306      4.11       4.387      4.134      2.124      1.691      2.78       2.133      1.364403   2.034      0.1624678  0.1624678  0.3215713  2.860593   2.076128   2.514      0.2936471  0.520964   20.913     0.4821317  0.4814694  0.482794  
1161.7     0.223      414.816    -9999      -9999      10.60889   2.955      3.825      4.017      3.933      2.04       1.646      2.463      1.968      1.36265    1.831      0.1541158  0.1541158  0.3219903  2.003352   1.812639   2.411      0.2457599  0.5012552  21.846     0.5087106  0.5089054  0.5085159 
1161.8     0.222      430.816    -9999      -9999      10.72466   2.703      3.507      3.58       3.546      1.923      1.629      2.027      1.711      1.362661   1.663      0.1461746  0.1461746  0.3219878  1.427799   1.602055   2.321      0.1959684  0.4814076  22.619     0.5327671  0.5352264  0.5303078 
1161.9     0.222      445.816    -9999      -9999      10.82477   2.469      3.206      3.26       3.126      1.789      1.627      1.66       1.45       1.364033   1.359      0.1387134  0.1387134  0.3216596  1.038642   1.43978    2.243      0.1448207  0.4617095  23.221     0.5543826  0.5590834  0.5496818 
