~Version
 VERS              .         2.0                           : CWLS LOG ASCII STANDARD - VERSION 2.0
 WRAP              .         NO                            : ONE LINE PER DEPTH STEP
 DLM               .         SPACE                         : DELIMITING CHARACTER(SPACE TAB OR COMMA)
~Well Information
#_______________________________________________________________________________
#
#PARAMETER_NAME    .UNIT     VALUE                         : DESCRIPTION
#_______________________________________________________________________________
STRT               .M        902                           : First reference value
STOP               .M        1188.8                        : Last reference value
STEP               .M        0.1                           : Step increment
NULL               .         -9999                         : Missing value
COMP               .                                       : Company
WELL               .         5503                          : Well name
FLD                .         Узень                         : Field
LOC                .                                       : Location
CNTY               .                                       : County
STAT               .                                       : State
CTRY               .                                       : Country
SRVC               .         SCH                           : Service Company
DATE               .         02.10.1989                    : Date
UWI                .                                       : Unique Well ID
Block              .         7                             : 
Cartographic_reference_system .         GCS_WGS_1984                  : ESRI,PE_10_3_1- <?xml version="1.0" encoding="utf-16"?><ILateBoundCoordinateReferenceSystem name="GCS_WGS_1984"><AuthorityCode>EPSG,4326</AuthorityCode></ILateBoundCoordinateReferenceSystem>
Category           .         Нагнетательная                : 
Condition          .         Ликвидированная               : 
DATA               .         02.10.1989                    : 
Date               .         02.10.1989                    : 
EREF               .m        92.4                          : 100.8
Gorizont           .         14                            : 14
HZCS               .GCS_WGS_1984 WGS_1984_EASE-Grid_2.0_Global : ESRI,PE_10_3_1- <?xml version="1.0" encoding="utf-16"?><ILateBoundCoordinateReferenceSystem name="WGS_1984_EASE-Grid_2.0_Global"><AuthorityCode>EPSG,6933</AuthorityCode></ILateBoundCoordinateReferenceSystem>
Interpretator      .         Бердибекулы М.                : 
Kupol              .         Основной                      : osnovnoi
LATI               .dega     0.6631315146                  : GCS_WGS_1984
LONG               .dega     0.4384250267                  : GCS_WGS_1984
METD               .         gz1 gz2 gz4 gz5               : 
Mud                .                                       : 
Mud_density        .                                       : 
Mud_resistivity    .                                       : 
NGDU               .         НГДУ-2                        : 
ORIGINALWELLNAME   .         5503                          : 
Spud_date          .         1989                          : 1961
Viscosity          .                                       : 
X                  .m        42302                         : 46154
Y                  .m        84596.03                      : 85761.93
YEAR               .         2019                          : 
~Parameter Information Block
#_______________________________________________________________________________
#
#PARAMETER_NAME    .UNIT     VALUE                         : DESCRIPTION
#_______________________________________________________________________________
SET                .         LQC_KAZNIPI_Petrel            : 
PBBOTTOM           .M        1188.8                        : Глубина подошвы планшета
PBSCALE            .         1 _ 500                       : Вертикальный масштаб планшета
PBTOP              .M        902                           : Глубина кровли планшета
TLFamily_CALI      .         Caliper                       : 
TLFamily_CILD      .         Conductivity                  : 
TLFamily_COLL      .         Net Reservoir Flag            : 
TLFamily_CSAT      .         Fluid Code                    : 
TLFamily_DEPT      .         Measured Depth                : 
TLFamily_GR        .         Russian Gamma Ray             : 
TLFamily_GZ1_1     .         Gradient 045                  : 
TLFamily_GZ2_1     .         Gradient 105                  : 
TLFamily_GZ3_1     .         Gradient 225                  : 
TLFamily_GZ4_1     .         Gradient 425                  : 
TLFamily_GZ5_1     .         Gradient 850                  : 
TLFamily_LLS       .         Lateral Log Resistivity       : 
TLFamily_MINV      .         Micro Gradient Resistivity    : 
TLFamily_MNOR      .         Micro Resistivity             : 
TLFamily_NGLD      .         Neutron Far                   : 
TLFamily_OGZ3      .         Gradient Inverted 225         : 
TLFamily_PHIE      .         Effective Porosity            : 
TLFamily_PHIEN     .         Effective Porosity            : 
TLFamily_PHIT      .         Porosity                      : 
TLFamily_PRMB      .         Permeability                  : 
TLFamily_PRMB_DGR  .         Permeability                  : 
TLFamily_RT        .         Formation Resistivity         : 
TLFamily_SOIL_ARCHIE .         Oil Saturation                : 
TLFamily_SOIL_DW   .         Oil Saturation                : 
TLFamily_SP        .         Spontaneous Potential         : 
TLFamily_VSH_FIN   .         Shale Volume                  : 
TLFamily_VSH_GR    .         Shale Volume                  : 
TLFamily_VSH_SP    .         Shale Volume                  : 
~Curve Information
#_______________________________________________________________________________
#
#LOGNAME           .UNIT     LOG_ID                        : DESCRIPTION
#_______________________________________________________________________________
DEPT               .M                                      : Колонка глубины 
CALI               .м                                      : Каверномер 
CILD               .мСм/м                                  : Индукционный каротаж 
COLL               .unitless                               : Описание 
CSAT               .unitless                               : Описание 
GR                 .uR/h                                   : Гамма каротаж 
GZ1_1              .Ohmm                                   :  
GZ2_1              .Ohmm                                   :  
GZ3_1              .Ohmm                                   :  
GZ4_1              .Ohmm                                   :  
GZ5_1              .Ohmm                                   :  
LLS                .Ohmm                                   : Боковой каротаж 
MINV               .Ohmm                                   : Микро-градиент зонд 
MNOR               .Ohmm                                   : Микро-потенциал зонд 
NGLD               .у.е.                                   : Показания зонда НГК-60 аппаратуры ДРСТ-3-90 
OGZ3               .Ohmm                                   :  
PHIE               .v/v                                    : Описание 
PHIEN              .v/v                                    :  
PHIT               .v/v                                    : Описание 
PRMB               .mD                                     :  
PRMB_DGR           .mD                                     :  
RT                 .ohmm                                   : УЭС пласта 
SOIL_ARCHIE        .v/v                                    :  
SOIL_DW            .v/v                                    :  
SP                 .мВ                                     : Потенциал самополяризации 
VSH_FIN            .v/v                                    : Описание 
VSH_GR             .v/v                                    : Shale volume 
VSH_SP             .v/v                                    : Shale Volume 
~Ascii
# ...
922.8      0.21       478.816    1          3          2.268702   -9999      -9999      2.034      -9999      -9999      2.118      1.443      1.446      1.574734   1.798      0.2230343  0.2230343  0.2712811  37.86991   5150.625   2.088      0.4151913  0.4884109  3.717      0.1462023  0.02       0.134571  
922.9      0.21       479.816    1          3          2.272541   -9999      -9999      2          -9999      -9999      2.132      1.484      1.475      1.583525   1.798      0.2211376  0.2211376  0.2691793  34.92715   5124.278   2.084      0.4102948  0.4837555  3.656      0.1455808  0.02       0.1340927 
923        0.21       481.816    1          3          2.279702   -9999      -9999      1.983      -9999      -9999      2.151      1.526      1.502      1.593173   1.798      0.2189604  0.2189604  0.2668724  31.82991   5075.491   2.075      0.4039817  0.477881   3.623      0.145188   0.02       0.1337938 
923.1      0.21       482.816    1          3          2.290604   -9999      -9999      1.95       -9999      -9999      2.174      1.558      1.518      1.602855   1.798      0.2166799  0.2166799  0.2645574  28.87983   5002.103   2.071      0.3979771  0.4724123  3.624      0.1450836  0.0200275  0.1337044 
923.2000000000001 0.21       483.816    1          3          2.305405   -9999      -9999      1.916      -9999      -9999      2.185      1.566      1.52       1.611702   1.831      0.2145102  0.2145102  0.2624419  26.32735   4904.171   2.067      0.3921259  0.4671873  3.65       0.1452478  0.02018986 0.1337672 
923.3      0.21       484.816    1          3          2.323947   -9999      -9999      1.882      -9999      -9999      2.172      1.542      1.516      1.618926   1.831      0.2127111  0.2127111  0.2607148  24.3828    4784.183   2.063      0.3870936  0.4627253  3.68       0.1454657  0.02039511 0.1338546 
923.4      0.21       485.816    1          3          2.345746   -9999      -9999      1.866      -9999      -9999      2.13       1.491      1.515      1.623915   1.831      0.2114691  0.2114691  0.2595218  23.12483   4646.873   2.058      0.3832577  0.4593107  3.699      0.1456144  0.02063907 0.1338749 
923.5      0.21       485.816    1          3          2.370064   -9999      -9999      1.798      -9999      -9999      2.078      1.438      1.526      1.626323   1.814      0.210871   0.210871   0.2589461  22.54238   4498.34    2.058      0.3817343  0.4579686  3.706      0.1456822  0.02091468 0.1338218 
923.6      0.21       486.816    1          3          2.396023   -9999      -9999      1.916      -9999      -9999      2.041      1.408      1.549      1.626098   1.798      0.2108881  0.2108881  0.259      22.55886   4345.013   2.054      0.3812134  0.4575249  3.717      0.1457936  0.02121295 0.1337932 
923.7000000000001 0.21       487.816    1          3          2.422775   -9999      -9999      1.832      -9999      -9999      2.044      1.421      1.576      1.623479   1.798      0.2114195  0.2114195  0.2596262  23.07596   4192.474   2.05       0.3820031  0.4583289  3.749      0.146081   0.02152478 0.133893  
923.8      0.21       488.816    1          3          2.449611   -9999      -9999      1.815      -9999      -9999      2.076      1.462      1.59       1.618948   1.798      0.2123536  0.2123536  0.2607095  24.01389   4044.833   2.046      0.3838071  0.4601084  3.801      0.146533   0.0218422  0.1341165 
923.9      0.21       489.816    1          3          2.476032   -9999      -9999      1.832      -9999      -9999      2.116      1.496      1.578      1.613148   1.798      0.2135669  0.2135669  0.2620962  25.28922   3904.559   2.042      0.3862938  0.4625281  3.862      0.1470585  0.02215927 0.1343983 
924        0.21       491.816    1          3          2.501715   -9999      -9999      1.748      -9999      -9999      2.14       1.487      1.536      1.606778   1.781      0.2149357  0.2149357  0.2636193  26.80949   3772.864   2.033      0.3884327  0.4645863  3.916      0.147526   0.02247192 0.1346391 
924.1      0.21       492.816    1          3          2.526429   -9999      -9999      1.681      -9999      -9999      2.144      1.428      1.474      1.600487   1.713      0.2163189  0.2163189  0.2651235  28.43865   3650.335   2.029      0.3912777  0.4672627  3.958      0.1478928  0.02277692 0.1348058 
924.2000000000001 0.21       492.816    1          3          2.54993    -9999      -9999      1.664      -9999      -9999      2.138      1.345      1.41       1.594776   1.696      0.217584   0.217584   0.2664891  30.01526   3537.512   2.029      0.3943615  0.4701478  3.993      0.1481973  0.02307079 0.1349289 
924.3      0.211      492.816    1          3          2.571889   -9999      -9999      1.664      -9999      -9999      2.134      1.274      1.366      1.589935   1.629      0.2186624  0.2186624  0.2676466  31.428     3435.245   2.029      0.3969638  0.4725751  4.021      0.1484368  0.02334881 0.1350076 
924.4      0.211      491.816    1          3          2.591911   -9999      -9999      1.664      -9999      -9999      2.138      1.241      1.351      1.58603    1.696      0.2195449  0.2195449  0.2685803  32.63336   3344.579   2.033      0.3996305  0.4750468  4.04       0.1485921  0.02360522 0.1350289 
924.5      0.211      491.816    1          3          2.609643   -9999      -9999      1.664      -9999      -9999      2.143      1.248      1.361      1.58294    1.713      0.2202611  0.2202611  0.2693191  33.6456    3266.283   2.033      0.4013312  0.4765995  4.05       0.1486604  0.02383465 0.1349925 
924.6      0.211      490.816    1          3          2.624963   -9999      -9999      1.681      -9999      -9999      2.14       1.283      1.387      1.580441   1.73       0.2208382  0.2208382  0.2699166  34.48402   3200.115   2.037      0.4032447  0.4783595  4.061      0.1487222  0.02403467 0.1349625 
924.7000000000001 0.211      490.816    1          3          2.638137   -9999      -9999      1.714      -9999      -9999      2.126      1.329      1.419      1.578306   1.764      0.221322   0.221322   0.2704271  35.20297   3144.289   2.037      0.404381   0.47941    4.076      0.1488033  0.02420801 0.1349581 
924.8      0.211      490.816    1          3          2.6499     -9999      -9999      1.765      -9999      -9999      2.11       1.374      1.453      1.576387   1.663      0.2217596  0.2217596  0.2708858  35.86604   3095.266   2.037      0.4054047  0.480353   4.09       0.1488674  0.02436384 0.1349474 
924.9      0.211      490.816    1          3          2.661371   -9999      -9999      1.815      -9999      -9999      2.1        1.413      1.488      1.574674   1.73       0.2222105  0.2222105  0.2712955  36.5625    3048.195   2.037      0.4064557  0.4812517  4.081      0.1487426  0.02451678 0.1347901 
925        0.211      489.816    1          3          2.673798   -9999      -9999      1.849      -9999      -9999      2.098      1.448      1.524      1.573284   1.764      0.2226673  0.2226673  0.2716277  37.28172   2998.009   2.042      0.4081975  0.4827022  4.04       0.1483651  0.02468354 0.1344326 
925.1      0.211      488.816    1          3          2.688202   -9999      -9999      1.849      -9999      -9999      2.096      1.481      1.556      1.572431   1.764      0.2230465  0.2230465  0.2718316  37.8896    2940.869   2.046      0.4096164  0.4838033  3.978      0.1478338  0.02487825 0.1339508 
925.2000000000001 0.211      487.816    1          3          2.705022   -9999      -9999      1.782      -9999      -9999      2.087      1.509      1.581      1.572349   1.713      0.2232107  0.2232107  0.2718513  38.15594   2875.525   2.05       0.4105352  0.484489   3.925      0.1473957  0.02510757 0.1335326 
925.3      0.211      485.816    1          3          2.72394    -9999      -9999      1.765      -9999      -9999      2.072      1.523      1.595      1.573226   1.696      0.2230604  0.2230604  0.2716416  37.91215   2803.763   2.058      0.4112664  0.4851162  3.902      0.1472158  0.02536801 0.1333003 
