~Version
 VERS              .         2.0                           : CWLS LOG ASCII STANDARD - VERSION 2.0
 WRAP              .         NO                            : ONE LINE PER DEPTH STEP
 DLM               .         SPACE                         : DELIMITING CHARACTER(SPACE TAB OR COMMA)
~Well Information
#_______________________________________________________________________________
#
#PARAMETER_NAME    .UNIT     VALUE                         : DESCRIPTION
#_______________________________________________________________________________
STRT               .M        902                           : First reference value
STOP               .M        1188.8                        : Last reference value
STEP               .M        0.1                           : Step increment
NULL               .         -9999                         : Missing value
COMP               .                                       : Company
WELL               .         5503                          : Well name
FLD                .         Узень                         : Field
LOC                .                                       : Location
CNTY               .                                       : County
STAT               .                                       : State
CTRY               .                                       : Country
SRVC               .         SCH                           : Service Company
DATE               .         02.10.1989                    : Date
UWI                .                                       : Unique Well ID
Block              .         7                             : 
Cartographic_reference_system .         GCS_WGS_1984                  : ESRI,PE_10_3_1- <?xml version="1.0" encoding="utf-16"?><ILateBoundCoordinateReferenceSystem name="GCS_WGS_1984"><AuthorityCode>EPSG,4326</AuthorityCode></ILateBoundCoordinateReferenceSystem>
Category           .         Нагнетательная                : 
Condition          .         Ликвидированная               : 
DATA               .         02.10.1989                    : 
Date               .         02.10.1989                    : 
EREF               .m        92.4                          : 100.8
Gorizont           .         14                            : 14
HZCS               .GCS_WGS_1984 WGS_1984_EASE-Grid_2.0_Global : ESRI,PE_10_3_1- <?xml version="1.0" encoding="utf-16"?><ILateBoundCoordinateReferenceSystem name="WGS_1984_EASE-Grid_2.0_Global"><AuthorityCode>EPSG,6933</AuthorityCode></ILateBoundCoordinateReferenceSystem>
Interpretator      .         Бердибекулы М.                : 
Kupol              .         Основной                      : osnovnoi
LATI               .dega     0.6631315146                  : GCS_WGS_1984
LONG               .dega     0.4384250267                  : GCS_WGS_1984
METD               .         gz1 gz2 gz4 gz5               : 
Mud                .                                       : 
Mud_density        .                                       : 
Mud_resistivity    .                                       : 
NGDU               .         НГДУ-2                        : 
ORIGINALWELLNAME   .         5503                          : 
Spud_date          .         1989                          : 1961
Viscosity          .                                       : 
X                  .m        42302                         : 46154
Y                  .m        84596.03                      : 85761.93
YEAR               .         2019                          : 
~Parameter Information Block
#_______________________________________________________________________________
#
#PARAMETER_NAME    .UNIT     VALUE                         : DESCRIPTION
#_______________________________________________________________________________
SET                .         LQC_KAZNIPI_Petrel            : 
PBBOTTOM           .M        1188.8                        : Глубина подошвы планшета
PBSCALE            .         1 _ 500                       : Вертикальный масштаб планшета
PBTOP              .M        902                           : Глубина кровли планшета
TLFamily_CALI      .         Caliper                       : 
TLFamily_CILD      .         Conductivity                  : 
TLFamily_COLL      .         Net Reservoir Flag            : 
TLFamily_CSAT      .         Fluid Code                    : 
TLFamily_DEPT      .         Measured Depth                : 
TLFamily_GR        .         Russian Gamma Ray             : 
TLFamily_GZ1_1     .         Gradient 045                  : 
TLFamily_GZ2_1     .         Gradient 105                  : 
TLFamily_GZ3_1     .         Gradient 225                  : 
TLFamily_GZ4_1     .         Gradient 425                  : 
TLFamily_GZ5_1     .         Gradient 850                  : 
TLFamily_LLS       .         Lateral Log Resistivity       : 
TLFamily_MINV      .         Micro Gradient Resistivity    : 
TLFamily_MNOR      .         Micro Resistivity             : 
TLFamily_NGLD      .         Neutron Far                   : 
TLFamily_OGZ3      .         Gradient Inverted 225         : 
TLFamily_PHIE      .         Effective Porosity            : 
TLFamily_PHIEN     .         Effective Porosity            : 
TLFamily_PHIT      .         Porosity                      : 
TLFamily_PRMB      .         Permeability                  : 
TLFamily_PRMB_DGR  .         Permeability                  : 
TLFamily_RT        .         Formation Resistivity         : 
TLFamily_SOIL_ARCHIE .         Oil Saturation                : 
TLFamily_SOIL_DW   .         Oil Saturation                : 
TLFamily_SP        .         Spontaneous Potential         : 
TLFamily_VSH_FIN   .         Shale Volume                  : 
TLFamily_VSH_GR    .         Shale Volume                  : 
TLFamily_VSH_SP    .         Shale Volume                  : 
~Curve Information
#_______________________________________________________________________________
#
#LOGNAME           .UNIT     LOG_ID                        : DESCRIPTION
#_______________________________________________________________________________
DEPT               .M                                      : Колонка глубины 
CALI               .м                                      : Каверномер 
CILD               .мСм/м                                  : Индукционный каротаж 
COLL               .unitless                               : Описание 
CSAT               .unitless                               : Описание 
GR                 .uR/h                                   : Гамма каротаж 
GZ1_1              .Ohmm                                   :  
GZ2_1              .Ohmm                                   :  
GZ3_1              .Ohmm                                   :  
GZ4_1              .Ohmm                                   :  
GZ5_1              .Ohmm                                   :  
LLS                .Ohmm                                   : Боковой каротаж 
MINV               .Ohmm                                   : Микро-градиент зонд 
MNOR               .Ohmm                                   : Микро-потенциал зонд 
NGLD               .у.е.                                   : Показания зонда НГК-60 аппаратуры ДРСТ-3-90 
OGZ3               .Ohmm                                   :  
PHIE               .v/v                                    : Описание 
PHIEN              .v/v                                    :  
PHIT               .v/v                                    : Описание 
PRMB               .mD                                     :  
PRMB_DGR           .mD                                     :  
RT                 .ohmm                                   : УЭС пласта 
SOIL_ARCHIE        .v/v                                    :  
SOIL_DW            .v/v                                    :  
SP                 .мВ                                     : Потенциал самополяризации 
VSH_FIN            .v/v                                    : Описание 
VSH_GR             .v/v                                    : Shale volume 
VSH_SP             .v/v                                    : Shale Volume 
~Ascii
# ...
1141.2     0.209      188.816    1          2          8.845157   4.562      9.414      10.017     7.849      5.222      6.975      1.52       2.111      1.493123   4.918      0.2018891  0.2018891  0.2907943  15.36856   11.89599   5.296      0.5878969  0.6784428  12.098     0.2694099  0.2360436  0.3027762 
1141.3     0.209      197.816    1          2          8.934272   4.478      9.33       9.864999   7.748      5.272      6.29       1.572      2.178      1.496428   4.581      0.1990076  0.1990076  0.2900042  13.59135   10.81723   5.055      0.5734844  0.6683874  12.274     0.2757471  0.2453862  0.3061079 
1141.4     0.209      207.816    1          2          9.04448    4.378      9.33       9.731      7.679999   5.322      5.684      1.662      2.272      1.498509   4.276999   0.1955618  0.1955618  0.2895064  11.73376   9.617432   4.812      0.5568182  0.6573302  12.578     0.2846807  0.2574532  0.3119081 
1141.5     0.21       219.816    1          2          9.171527   4.311      8.828001   9.596999   7.679999   5.356      5.214      1.772      2.384      1.49952    4.125      0.1914971  0.1914971  0.2892647  9.866179   8.398503   4.549      0.5365732  0.6443534  13.015     0.2962655  0.272102   0.3204291 
1141.6     0.21       233.816    1          2          9.309958   4.261      9.246      9.765      7.748      5.389      4.874      1.855      2.484      1.499652   3.974      0.1868791  0.1868791  0.2892333  8.102365   7.245528   4.277      0.5127186  0.6295374  13.556     0.3101644  0.289014   0.3313149 
1141.7     0.21       258.316    1          2          9.453873   4.596      9.916      9.916      7.933001   5.456      4.576      1.875      2.53       1.499076   3.889      0.1818396  0.1818396  0.289371   6.535355   6.21439    3.871      0.4770664  0.606376   14.163     0.3258525  0.307711   0.3439939 
1141.8     0.21       283.816    1          2          9.597548   4.88       10.335     10.084     8.217999   5.523      4.237      1.824      2.496      1.497903   3.839      0.1764753  0.1764753  0.2896514  5.198878   5.331351   3.523      0.4389899  0.5826352  14.822     0.3429578  0.3275837  0.3583319 
1141.9     0.21       300.816    -9999      -9999      9.735946   5.081      10.67      12.017     8.454      5.590001   3.824      1.749      2.416      1.496154   3.771      0.170877   0.170877   0.2900695  4.094626   4.599617   3.324      0.4070554  0.5651287  15.531     0.3611894  0.3479388  0.37444   
1142       0.21       316.816    -9999      -9999      9.865013   5.316      11.088     12.689     8.672001   5.624      3.386      1.696      2.334      1.493782   3.687      0.1651345  0.1651345  0.2906367  3.205158   4.008003   3.156      0.3740873  0.548142   16.293     0.3803097  0.3680599  0.3925595 
1142.1     0.21       332.816    -9999      -9999      9.981848   5.584001   11.591     12.857     8.823001   5.607      2.993      1.67       2.28       1.490725   3.569      0.1594118  0.1594118  0.2913677  2.51103    3.538358   3.005      0.3395406  0.5311671  17.091     0.3998661  0.3872756  0.4124567 
1142.2     0.21       347.816    -9999      -9999      10.08473   6.052      12.009     12.941     8.958      5.54       2.68       1.636      2.229      1.486998   3.451      0.153865   0.153865   0.2922589  1.982038   3.170572   2.875      0.3045677  0.5149131  17.904     0.4193752  0.405026   0.4337244 
1142.3     0.21       361.816    -9999      -9999      10.17307   6.002      12.596     12.941     9.059      5.423      2.446      1.566      2.158      1.482761   3.349      0.1486459  0.1486459  0.293272   1.586505   2.885438   2.764      0.2699845  0.4996754  18.702     0.4382607  0.4209149  0.4556064 
1142.4     0.21       373.816    -9999      -9999      10.24728   6.085999   12.177     12.773     9.143      5.272      2.266      1.473      2.062      1.47835    3.248      0.1438374  0.1438374  0.2943264  1.292338   2.665833   2.675      0.2371476  0.4860962  19.459     0.4560273  0.4347427  0.4773118 
1142.5     0.21       383.816    -9999      -9999      10.3086    5.868001   11.758     12.521     8.941      5.121      2.119      1.397      1.973      1.474239   3.113      0.1395227  0.1395227  0.2953094  1.07512    2.497039   2.605      0.206833   0.4742494  20.14      0.472081   0.4465109  0.497651  
1142.6     0.209      390.816    -9999      -9999      10.35886   5.482999   11.507     12.101     8.739      4.904      1.995      1.368      1.915      1.47093    2.978      0.1357574  0.1357574  0.2961007  0.9156196  2.366689   2.559      0.1808875  0.4649247  20.713     0.4858888  0.456394   0.5153836 
1142.7     0.209      394.816    -9999      -9999      10.40013   5.249      10.688     11.849     8.42       4.636      1.895      1.393      1.891      1.468841   2.877      0.1326561  0.1326561  0.2966     0.8021786  2.264766   2.533      0.1602191  0.4580714  21.138     0.4967998  0.4646717  0.5289279 
1142.8     0.209      395.816    -9999      -9999      10.43429   5.131      9.868      11.429     8.084      4.401      1.825      1.448      1.88       1.468205   2.776      0.130424   0.130424   0.2967521  0.7293346  2.183721   2.526      0.1466078  0.4540476  21.367     0.5040247  0.4716378  0.5364116 
1142.9     0.209      393.816    -9999      -9999      10.46262   4.981      9.049001   10.714     7.58       4.117      1.791      1.499      1.852      1.469026   2.641      0.1291452  0.1291452  0.2965558  0.6906223  2.11872    2.539      0.1413236  0.4532199  21.385     0.5073048  0.4774934  0.5371163 
1143       0.209      388.816    -9999      -9999      10.48543   4.813001   8.228999   10         7.159      3.865      1.798      1.522      1.795      1.471091   2.54       0.1287756  0.1287756  0.2960622  0.6798201  2.067779   2.572      0.144378   0.4555904  21.21      0.5069291  0.4822623  0.5315959 
1143.1     0.209      382.816    -9999      -9999      10.50204   4.612      7.960999   9.563      6.655      3.631      1.845      1.517      1.714      1.474025   2.405      0.1287178  0.1287178  0.2953607  0.6781458  2.031468   2.612      0.1502196  0.4588788  20.872     0.5049787  0.4857637  0.5241936 
1143.2     0.209      376.816    -9999      -9999      10.51105   3.993      7.475999   8.773      6.151      3.38       1.935      1.508      1.629      1.477375   2.219      0.1294564  0.1294564  0.2945596  0.6998495  2.01203    2.654      0.16075    0.463405   20.408     0.5003128  0.4876745  0.5129511 
1143.3     0.209      371.816    -9999      -9999      10.51103   4.026      6.672      8          5.647      3.095      2.001      1.514      1.557      1.480676   2.084      0.1309692  0.1309692  0.2937703  0.7464918  2.012075   2.69       0.1744354  0.4684201  19.848     0.4933368  0.4876701  0.4990035 
1143.4     0.208      366.816    -9999      -9999      10.50128   3.423      6.069      7.193      5.193      2.844      2.071      1.536      1.501      1.483514   2          0.1333006  0.1333006  0.2930918  0.8245346  2.033122   2.726      0.1920814  0.4746635  19.201     0.4842157  0.4856023  0.4828292 
1143.5     0.208      362.816    -9999      -9999      10.48247   3.055      5.433      6.403      4.807      2.643      2.256      1.557      1.454      1.485569   1.933      0.1364576  0.1364576  0.2926005  0.943373   2.07433    2.756      0.2124405  0.4815777  18.468     0.4731603  0.4816398  0.4646808 
1143.6     0.208      361.401    -9999      -9999      10.45691   2.569      4.813001   5.613      4.319      2.442      2.48       1.561      1.406      1.486645   1.885      0.1403635  0.1403635  0.2923432  1.114372   2.131655   2.767      0.2329976  0.4878396  17.648     0.4605445  0.4763082  0.4447807 
1143.7     0.208      359.816    -9999      -9999      10.42829   2.352      4.244      5.092      3.916      2.241      2.714      1.544      1.352      1.486694   1.856      0.1447448  0.1447448  0.2923315  1.343331   2.197751   2.779      0.254773   0.4949012  16.766     0.4472325  0.4704061  0.4240589 
