~Version
 VERS              .         2.0                           : CWLS LOG ASCII STANDARD - VERSION 2.0
 WRAP              .         NO                            : ONE LINE PER DEPTH STEP
 DLM               .         SPACE                         : DELIMITING CHARACTER(SPACE TAB OR COMMA)
~Well Information
#_______________________________________________________________________________
#
#PARAMETER_NAME    .UNIT     VALUE                         : DESCRIPTION
#_______________________________________________________________________________
STRT               .M        902                           : First reference value
STOP               .M        1188.8                        : Last reference value
STEP               .M        0.1                           : Step increment
NULL               .         -9999                         : Missing value
COMP               .                                       : Company
WELL               .         5503                          : Well name
FLD                .         Узень                         : Field
LOC                .                                       : Location
CNTY               .                                       : County
STAT               .                                       : State
CTRY               .                                       : Country
SRVC               .         SCH                           : Service Company
DATE               .         02.10.1989                    : Date
UWI                .                                       : Unique Well ID
Block              .         7                             : 
Cartographic_reference_system .         GCS_WGS_1984                  : ESRI,PE_10_3_1- <?xml version="1.0" encoding="utf-16"?><ILateBoundCoordinateReferenceSystem name="GCS_WGS_1984"><AuthorityCode>EPSG,4326</AuthorityCode></ILateBoundCoordinateReferenceSystem>
Category           .         Нагнетательная                : 
Condition          .         Ликвидированная               : 
DATA               .         02.10.1989                    : 
Date               .         02.10.1989                    : 
EREF               .m        92.4                          : 100.8
Gorizont           .         14                            : 14
HZCS               .GCS_WGS_1984 WGS_1984_EASE-Grid_2.0_Global : ESRI,PE_10_3_1- <?xml version="1.0" encoding="utf-16"?><ILateBoundCoordinateReferenceSystem name="WGS_1984_EASE-Grid_2.0_Global"><AuthorityCode>EPSG,6933</AuthorityCode></ILateBoundCoordinateReferenceSystem>
Interpretator      .         Бердибекулы М.                : 
Kupol              .         Основной                      : osnovnoi
LATI               .dega     0.6631315146                  : GCS_WGS_1984
LONG               .dega     0.4384250267                  : GCS_WGS_1984
METD               .         gz1 gz2 gz4 gz5               : 
Mud                .                                       : 
Mud_density        .                                       : 
Mud_resistivity    .                                       : 
NGDU               .         НГДУ-2                        : 
ORIGINALWELLNAME   .         5503                          : 
Spud_date          .         1989                          : 1961
Viscosity          .                                       : 
X                  .m        42302                         : 46154
Y                  .m        84596.03                      : 85761.93
YEAR               .         2019                          : 
~Parameter Information Block
#_______________________________________________________________________________
#
#PARAMETER_NAME    .UNIT     VALUE                         : DESCRIPTION
#_______________________________________________________________________________
SET                .         LQC_KAZNIPI_Petrel            : 
PBBOTTOM           .M        1188.8                        : Глубина подошвы планшета
PBSCALE            .         1 _ 500                       : Вертикальный масштаб планшета
PBTOP              .M        902                           : Глубина кровли планшета
TLFamily_CALI      .         Caliper                       : 
TLFamily_CILD      .         Conductivity                  : 
TLFamily_COLL      .         Net Reservoir Flag            : 
TLFamily_CSAT      .         Fluid Code                    : 
TLFamily_DEPT      .         Measured Depth                : 
TLFamily_GR        .         Russian Gamma Ray             : 
TLFamily_GZ1_1     .         Gradient 045                  : 
TLFamily_GZ2_1     .         Gradient 105                  : 
TLFamily_GZ3_1     .         Gradient 225                  : 
TLFamily_GZ4_1     .         Gradient 425                  : 
TLFamily_GZ5_1     .         Gradient 850                  : 
TLFamily_LLS       .         Lateral Log Resistivity       : 
TLFamily_MINV      .         Micro Gradient Resistivity    : 
TLFamily_MNOR      .         Micro Resistivity             : 
TLFamily_NGLD      .         Neutron Far                   : 
TLFamily_OGZ3      .         Gradient Inverted 225         : 
TLFamily_PHIE      .         Effective Porosity            : 
TLFamily_PHIEN     .         Effective Porosity            : 
TLFamily_PHIT      .         Porosity                      : 
TLFamily_PRMB      .         Permeability                  : 
TLFamily_PRMB_DGR  .         Permeability                  : 
TLFamily_RT        .         Formation Resistivity         : 
TLFamily_SOIL_ARCHIE .         Oil Saturation                : 
TLFamily_SOIL_DW   .         Oil Saturation                : 
TLFamily_SP        .         Spontaneous Potential         : 
TLFamily_VSH_FIN   .         Shale Volume                  : 
TLFamily_VSH_GR    .         Shale Volume                  : 
TLFamily_VSH_SP    .         Shale Volume                  : 
~Curve Information
#_______________________________________________________________________________
#
#LOGNAME           .UNIT     LOG_ID                        : DESCRIPTION
#_______________________________________________________________________________
DEPT               .M                                      : Колонка глубины 
CALI               .м                                      : Каверномер 
CILD               .мСм/м                                  : Индукционный каротаж 
COLL               .unitless                               : Описание 
CSAT               .unitless                               : Описание 
GR                 .uR/h                                   : Гамма каротаж 
GZ1_1              .Ohmm                                   :  
GZ2_1              .Ohmm                                   :  
GZ3_1              .Ohmm                                   :  
GZ4_1              .Ohmm                                   :  
GZ5_1              .Ohmm                                   :  
LLS                .Ohmm                                   : Боковой каротаж 
MINV               .Ohmm                                   : Микро-градиент зонд 
MNOR               .Ohmm                                   : Микро-потенциал зонд 
NGLD               .у.е.                                   : Показания зонда НГК-60 аппаратуры ДРСТ-3-90 
OGZ3               .Ohmm                                   :  
PHIE               .v/v                                    : Описание 
PHIEN              .v/v                                    :  
PHIT               .v/v                                    : Описание 
PRMB               .mD                                     :  
PRMB_DGR           .mD                                     :  
RT                 .ohmm                                   : УЭС пласта 
SOIL_ARCHIE        .v/v                                    :  
SOIL_DW            .v/v                                    :  
SP                 .мВ                                     : Потенциал самополяризации 
VSH_FIN            .v/v                                    : Описание 
VSH_GR             .v/v                                    : Shale volume 
VSH_SP             .v/v                                    : Shale Volume 
~Ascii
# ...
1177.6     0.213      391.816    -9999      -9999      -9999      1.481      1.632      1.277      -9999      0.968      1.805      0.995      1.07       1.598545   2.253      1          1          0.2655878  9323613800000000.0000000 -9999      2.552      0.8579321  0.5718376  22.054     -4999.25   -9999      0.5014045 
1177.7     0.213      366.816    6          6          -9999      1.464      1.632      1.261      -9999      0.935      1.954      1.027      1.095      1.636934   2.186      1          1          0.2564091  9323613800000000.0000000 -9999      2.726      0.862262   0.5708979  21.695     -4999.255  -9999      0.4905725 
1177.8     0.213      344.816    6          6          -9999      1.447      1.581      1.244      -9999      0.935      2.239      1.069      1.133      1.676312   2.152      1          1          0.2469938  9323613800000000.0000000 -9999      2.9        0.8662038  0.5681112  21.215     -4999.262  -9999      0.47642   
1177.9     0.213      325.816    6          6          -9999      1.431      1.548      1.227      -9999      0.968      2.794      1.128      1.184      1.715355   2.135      1          1          0.2376586  9323613800000000.0000000 -9999      3.069      0.8697132  0.5636801  20.545     -4999.271  -9999      0.4572887 
1178       0.213      309.816    6          6          -9999      1.514      1.498      1.227      -9999      0.985      3.743      1.216      1.252      1.752365   2.135      1          1          0.2288094  9323613800000000.0000000 -9999      3.228      0.8727651  0.5581078  19.645     -4999.284  -9999      0.4327101 
1178.1     0.213      296.816    6          6          -9999      1.447      1.447      1.193      -9999      1.052      5.098      1.324      1.344      1.785365   2.135      1          1          0.2209191  9323613800000000.0000000 -9999      3.369      0.8752923  0.5520051  18.552     -4999.298  -9999      0.4045422 
1178.2     0.213      285.816    6          6          -9999      1.38       1.38       1.193      -9999      1.102      6.62       1.444      1.453      1.812295   2.152      1          1          0.2144802  9323613800000000.0000000 -9999      3.499      0.8774884  0.5472089  17.371     -4999.312  -9999      0.3761128 
1178.3     0.213      274.316    6          6          -9999      1.33       1.297      1.176      -9999      1.186      7.912      1.575      1.581      1.831267   2.169      1          1          0.209944   9323613800000000.0000000 -9999      3.645      0.8798161  0.5467846  16.233     -4999.325  -9999      0.3506197 
1178.4     0.214      271.296    6          6          -9999      -9999      1.28       1.109      -9999      1.32       8.589      1.742      1.754      1.840816   2.169      1          1          0.2076608  9323613800000000.0000000 -9999      3.686      0.8804453  0.5443569  15.225     -4999.335  -9999      0.3295408 
1178.5     0.214      270.816    6          6          -9999      -9999      1.364      1.244      -9999      1.454      8.543      1.981      2.018      1.840147   2.219      1          1          0.2078208  9323613800000000.0000000 -9999      3.693      0.8805517  0.5451394  14.376     -4999.344  -9999      0.3128447 
1178.6     0.214      273.816    6          6          -9999      -9999      1.431      1.395      -9999      1.906      8.006      2.306      2.402      1.829263   2.253      1          1          0.2104232  9323613800000000.0000000 -9999      3.652      0.8799243  0.5482502  13.675     -4999.35   -9999      0.2997664 
1178.7     0.214      280.816    6          6          -9999      -9999      1.481      1.664      -9999      2.342      7.428      2.677      2.872      1.808988   2.236      1          1          0.215271   9323613800000000.0000000 -9999      3.561      0.878494   0.5528169  13.088     -4999.355  -9999      0.2892944 
1178.8     0.214      290.816    6          6          -9999      -9999      1.464      2.134      -9999      2.794      7.161      2.987      3.317      1.780865   2.219      1          1          0.2219952  9323613800000000.0000000 -9999      3.439      0.8764899  0.5587372  12.554     -4999.36   -9999      0.2801391 
1178.9     0.214      300.816    6          6          -9999      -9999      1.447      2.353      -9999      3.229      7.181      3.131      3.602      1.746967   2.219      1          1          0.2301002  9323613800000000.0000000 -9999      3.324      0.8745028  0.5669785  11.984     -4999.365  -9999      0.2707483 
1179       0.214      310.816    6          6          -9999      -9999      -9999      2.689      -9999      3.681      7.157      3.062      3.657      1.709661   2.202      1          1          0.23902    9323613800000000.0000000 -9999      3.217      0.8725611  0.5762622  11.282     -4999.37   -9999      0.2597121 
1179.1     0.214      318.816    6          6          -9999      -9999      -9999      2.992      -9999      4.066      6.721      2.841      3.516      1.671371   2.202      1          1          0.2481753  9323613800000000.0000000 -9999      3.137      0.8710462  0.5867231  10.414     -4999.376  -9999      0.246851  
1179.2     0.213      326.816    6          6          -9999      -9999      -9999      3.546      -9999      4.468      5.849      2.57       3.289      1.634362   2.236      1          1          0.2570241  9323613800000000.0000000 -9999      3.06       0.8695335  0.5959619  9.414      -4999.383  -9999      0.2330722 
1179.3     0.213      332.816    -9999      -9999      -9999      -9999      -9999      3.664      -9999      4.803      4.779      2.324      3.062      1.600576   2.236      1          1          0.2651023  9323613800000000.0000000 -9999      3.005      0.8684183  0.6047051  8.38       -4999.39   -9999      0.2199461 
1179.4     0.212      335.864    -9999      -9999      -9999      -9999      -9999      3.681      -9999      4.904      3.839      2.122      2.856      1.571506   2.219      1          1          0.2720529  9323613800000000.0000000 -9999      2.977      0.867839   0.6129972  7.405      -4999.396  -9999      0.2085671 
1179.5     0.212      338.816    -9999      -9999      -9999      -9999      -9999      3.664      -9999      4.971      3.176      1.952      2.645      1.548123   2.202      1          1          0.2776438  9323613800000000.0000000 -9999      2.951      0.8672939  0.6191233  6.554      -4999.4    -9999      0.1993922 
1179.6     0.211      343.816    -9999      -9999      -9999      -9999      -9999      3.63       -9999      4.837      2.788      1.802      2.423      1.530852   2.202      1          1          0.2817732  9323613800000000.0000000 -9999      2.909      0.8663982  0.6220055  5.852      -4999.404  -9999      0.1923334 
1179.7     0.211      348.816    -9999      -9999      -9999      -9999      -9999      3.681      -9999      4.535      2.586      1.671      2.209      1.519607   2.219      1          1          0.2844621  9323613800000000.0000000 -9999      2.867      0.8654833  0.6228459  5.31       -4999.406  -9999      0.1871876 
1179.8     0.21       353.816    -9999      -9999      -9999      -9999      -9999      3.765      -9999      4.166999   2.491      1.558      2.028      1.513861   2.236      1          1          0.2858359  9323613800000000.0000000 -9999      2.826      0.864571   0.6219457  4.907      -4999.408  -9999      0.1835282 
1179.9     0.21       356.816    -9999      -9999      -9999      -9999      -9999      3.546      -9999      3.832      2.447      1.467      1.889      1.51069    2.253      1          1          0.286594   9323613800000000.0000000 -9999      2.803      0.8640506  0.621402   4.612      -4999.41   -9999      0.1809378 
1180       0.21       358.816    -9999      -9999      -9999      -9999      -9999      3.176      -9999      3.463      2.429      1.404      1.789      -9999      2.219      -9999      -9999      -9999      -9999      -9999      2.787      -9999      -9999      4.39       -4999.411  -9999      0.1790368 
