~Version
 VERS              .         2.0                           : CWLS LOG ASCII STANDARD - VERSION 2.0
 WRAP              .         NO                            : ONE LINE PER DEPTH STEP
 DLM               .         SPACE                         : DELIMITING CHARACTER(SPACE TAB OR COMMA)
~Well Information
#_______________________________________________________________________________
#
#PARAMETER_NAME    .UNIT     VALUE                         : DESCRIPTION
#_______________________________________________________________________________
STRT               .м        2.45                          : First reference value
STOP               .м        1177.25                       : Last reference value
STEP               .м        0.2                           : Step increment
NULL               .         -9999                         : Missing value
COMP               .                                       : Company
WELL               .         6941                          : Well name
FLD                .         Узень                         : Field
LOC                .                                       : Location
CNTY               .                                       : County
STAT               .                                       : State
CTRY               .                                       : Country
SRVC               .                                       : Service Company
DATE               .         10.2.2016                     : Date
UWI                .                                       : Unique Well ID
Block              .         7                             : 
Category           .         Нефтяная                      : 
Condition          .         В работе                      : 
Date               .         27.02.2016                    : 
EREF               .m        91.6                          : 100.8
GRP                .                                       : Group name
Gor                .         14                            : 
Gorizont           .         14                            : 14
ISS                .                                       : Well surveys
Interpretator      .         Кайсанов Е.К                  : 
Kupol              .         Основной                      : osnovnoi
Mud                .         полимерный                    : 
Mud_density        .         1,34                          : 
Mud_resistivity    .         0,49                          : 
NGDU               .         НГДУ-2                        : 
ORIGINALWELLNAME   .         6941                          : 
Spud_date          .         2016                          : 1961
TIME               .         11_07                         : LOG TIME
Viscosity          .         40                            : 
X                  .m        42034.23                      : 46154
Y                  .m        84394.33                      : 85761.93
YEAR               .         2019                          : 
group              .         2016                          : 
Сдали_за_3_кв_2019 .         3                             : 
~Parameter Information Block
#_______________________________________________________________________________
#
#PARAMETER_NAME    .UNIT     VALUE                         : DESCRIPTION
#_______________________________________________________________________________
SET                .         LQC_KAZNIPI_Petrel            : 
TLFamily_CALI      .         Caliper                       : 
TLFamily_COLL      .         Net Reservoir Flag            : 
TLFamily_CSAT      .         Fluid Code                    : 
TLFamily_DEPT      .         Measured Depth                : 
TLFamily_DT        .         Compressional Slowness        : 
TLFamily_GR        .         Russian Gamma Ray             : 
TLFamily_GZ3       .         Gradient 225                  : 
TLFamily_IK1       .         Resistivity 05                : 
TLFamily_IK2       .         Resistivity 07                : 
TLFamily_IK3       .         Resistivity 10                : 
TLFamily_IK4       .         Resistivity 14                : 
TLFamily_IK5       .         Resistivity 20                : 
TLFamily_LLS       .         Lateral Log Resistivity       : 
TLFamily_MBK       .         Micro Lateral Log Resistivity : 
TLFamily_MINV      .         Micro Gradient Resistivity    : 
TLFamily_MNOR      .         Micro Resistivity             : 
TLFamily_NNKTB_1   .         Neutron Far                   : 
TLFamily_NNKTM_1   .         Neutron Near                  : 
TLFamily_NPHI      .         Neutron Porosity              : 
TLFamily_OGZ3      .         Gradient Inverted 225         : 
TLFamily_PHIE      .         Effective Porosity            : 
TLFamily_PHIED     .         Effective Porosity            : 
TLFamily_PHIEN     .         Effective Porosity            : 
TLFamily_PHIES     .         Effective Porosity            : 
TLFamily_PHIT      .         Porosity                      : 
TLFamily_PRMB      .         Permeability                  : 
TLFamily_PRMB_DGR  .         Permeability                  : 
TLFamily_RHOB      .         Bulk Density                  : 
TLFamily_RT        .         Formation Resistivity         : 
TLFamily_SOIL_ARCHIE .         Oil Saturation                : 
TLFamily_SOIL_DW   .         Oil Saturation                : 
TLFamily_SP        .         Spontaneous Potential         : 
TLFamily_VSH_FIN   .         Shale Volume                  : 
TLFamily_VSH_GR    .         Shale Volume                  : 
TLFamily_VSH_SP    .         Shale Volume                  : 
~Curve Information
#_______________________________________________________________________________
#
#LOGNAME           .UNIT     LOG_ID                        : DESCRIPTION
#_______________________________________________________________________________
DEPT               .м                                      : Колонка глубины 
CALI               .м                                      : Каверномер 
COLL               .unitless                               :  
CSAT               .unitless                               :  
DT                 .мкс/м                                  : Интервальное время пробега продольной волны 
GR                 .uR/h                                   : Гамма каротаж 
GZ3                .Ohmm                                   : Градиент-зонд  длиной 2.25м 
IK1                .OHMM                                   : И0.10И0.40 
IK2                .OHMM                                   : И0.14И0.56 
IK3                .OHMM                                   : И0.20И0.8 
IK4                .OHMM                                   : И0.28И1.12 
IK5                .OHMM                                   : И0.40И1.60 
LLS                .Ohmm                                   : Боковой каротаж 
MBK                .Ohmm                                   : Микробоковой каротаж 
MINV               .Ohmm                                   : Микро-градиент зонд 
MNOR               .Ohmm                                   : Микро-потенциал зонд 
NNKTB_1            .у.е.                                   : Показания большого зонда 2ННКт аппаратуры СРК 
NNKTM_1            .у.е.                                   : Показания малого зонда 2ННКт аппаратуры СРК 
NPHI               .v/v                                    : Кп 
OGZ3               .Ohmm                                   : Обращенный градиент-зонд 
PHIE               .v/v                                    : Описание 
PHIED              .v/v                                    :  
PHIEN              .v/v                                    :  
PHIES              .v/v                                    :  
PHIT               .v/v                                    : Описание 
PRMB               .mD                                     :  
PRMB_DGR           .mD                                     :  
RHOB               .г/см3                                  : Плотность по ГГКп 
RT                 .ohmm                                   : Удельное электрическое сопротивление 
SOIL_ARCHIE        .v/v                                    :  
SOIL_DW            .v/v                                    :  
SP                 .мВ                                     : Потенциал самополяризации 
VSH_FIN            .v/v                                    : Описание 
VSH_GR             .v/v                                    : Shale volume 
VSH_SP             .v/v                                    : Shale Volume 
~Ascii
# ...
1076.65    0.226      -9999      -9999      320.347    5.836268   2.26       2.577013775670676 2.321034252224063 2.331094163691656 2.24205263096093 2.153694500155318 2.1        1.655      3.1        2.855      2.51       1.54       -9999      2.63       0.1520007  0.1344214  -9999      0.1695801  0.2136543  1.830544   4.192777   2.3        2.155      0.1953384  0.3207739  476.64     0.3932874  0.3613482  0.4252265 
1076.85    0.225      -9999      -9999      335.072    5.86183    2.06       1.968755952372113 1.834175564116058 1.79955550067241 1.809005251512691 1.84445113787283 1.945      1.43       2.21       2.285      2.43       1.53       -9999      2.57       0.1600075  0.1345539  -9999      0.1854612  0.2215674  2.575644   4.045547   2.3        1.845      0.1723479  0.2965079  476.2      0.3926893  0.3666613  0.4187172 
1077.05    0.226      -9999      -9999      331.407    5.94471    1.88       1.834938691073901 1.814938015470501 1.784152459853137 1.764652940382329 1.784936973677222 2          1.47       2.345      2.17       2.3        1.49       -9999      2.63       0.1591279  0.1388975  -9999      0.1793584  0.2218513  2.48081    3.602818   2.29       1.785      0.155362   0.2836881  475.98     0.4001115  0.3844312  0.4157919 
1077.25    0.227      -9999      -9999      315.534    5.999031   1.94       2.215581187860197 2.158518010117127 2.106584914025542 2.068042552753691 2.018415219918835 2.275      1.91       2.645      2.845      2.22       1.48       -9999      2.88       0.1462603  0.1336773  -9999      0.1588432  0.2105587  1.433022   3.339272   2.295      2.02       0.1422527  0.2810872  476.44     0.4101588  0.3965424  0.4237752 
1077.45    0.226      -9999      -9999      295.823    5.963279   2.31       2.767417568781408 2.542911716910361 2.541416927621283 2.447529366524536 2.408318915758459 2.65       2.685      2.66       3.01       2.24       1.49       -9999      3.28       0.1286705  0.125605   -9999      0.1317359  0.1944437  0.6767801  3.510468   2.305      2.41       0.1172266  0.2729844  478.01     0.4195662  0.388529   0.4506035 
1077.65    0.229      -9999      -9999      279.585    5.852352   2.76       3.695118401351057 3.271926038284395 3.043517701608012 2.923456857899781 2.743683655234521 2.985      3.555      3.27       3.72       2.3        1.51       -9999      3.42       0.1118901  0.1175001  -9999      0.1062801  0.1791611  0.3308527  4.099524   2.315      2.745      0.06205008 0.2431393  480.37     0.4291208  0.3646823  0.4935593 
1077.85    0.226      -9999      -9999      275.75     5.727074   2.93       3.620773398046733 3.277010833061448 3.028943710272791 3.039934209814462 2.954894245146459 3.06       3.145      3.455      3.705      2.36       1.53       -9999      3.36       0.1101128  0.1218932  -9999      0.09833241 0.1785123  0.3067003  4.884475   2.305      2.955      0.08121753 0.2642191  482.38     0.4363197  0.3395055  0.5331339 
1078.05    0.226      -9999      -9999      275.999    5.632106   2.95       3.527959750337297 3.302635311383926 3.202155524018157 3.054504869860252 3.009933554083877 3.05       3.235      3.485      3.895      2.5        1.54       -9999      3.34       0.1161946  0.133792   -9999      0.0985973  0.1846488  0.397525   5.5782     2.285      3.01       0.1308011  0.3008444  483.26     0.4366685  0.321585   0.5517521 
1078.25    0.227      -9999      -9999      276.375    5.578208   3.01       4.350344813919926 4.091100096551049 3.871485503007857 3.399632333061915 3.144900634360329 3.165      3.83       3.715      4.51       2.69       1.54       -9999      3.28       0.1109047  0.1256691  -9999      0.09614024 0.1808694  0.3172357  6.014888   2.295      3.145      0.1132475  0.2944003  484.6      0.4463039  0.3118384  0.5807695 
1078.45    0.227      -9999      -9999      293.572    5.569578   3.03       3.651739311615768 3.357662877657612 3.35454915003492 3.089465973271109 2.947948439169179 2.815      2.8        4.675      4.56       2.75       1.58       -9999      3.06       0.1301257  0.1420724  -9999      0.118179   0.2011947  0.7201148  6.087924   2.265      2.95       0.2049549  0.3589991  485.28     0.4533485  0.3103053  0.5963916 
1078.65    0.227      -9999      -9999      314.135    5.614312   2.88       2.624995238090908 2.539822828466652 2.559687480924094 2.554407954888835 2.529031435154414 2.36       2.015      2.555      2.745      2.66       1.59       -9999      2.74       0.1450152  0.1473494  -9999      0.142681   0.2165874  1.358911   5.718746   2.255      2.53       0.2224763  0.3660213  485.17     0.456558   0.318334   0.5947821 
1078.85    0.227      -9999      -9999      317.627    5.696535   2.65       2.448346380723324 2.418987391451384 2.414125100321173 2.42997942378122 2.344866733953183 2.315      2.29       2.665      2.755      2.55       1.52       -9999      2.55       0.1377584  0.1309106  -9999      0.1446062  0.2103699  0.9971907  5.097594   2.28       2.345      0.157428   0.315863   485.04     0.4631874  0.3336363  0.5927384 
1079.05    0.226      -9999      -9999      313.762    5.768196   2.53       2.344738791422192 2.314735406045365 2.369662423215594 2.429979423781198 2.354952228814844 2.3        2.27       2.625      2.59       2.48       1.49       -9999      2.49       0.135182   0.1323683  -9999      0.1379956  0.2088804  0.8934218  4.611516   2.275      2.355      0.1451675  0.3091533  485        0.4701211  0.3475718  0.5926702 
1079.25    0.227      -9999      -9999      309.172    5.785711   2.49       2.529505880601981 2.444585854495604 2.504755477087534 2.499919998719959 2.454750496486354 2.365      2.425      2.66       3          2.49       1.5        -9999      2.65       0.1320366  0.1337593  -9999      0.130314   0.2068694  0.7812625  4.499936   2.27       2.455      0.1443212  0.3129424  485.46     0.4773569  0.3510655  0.6036482 
1079.45    0.224      -9999      -9999      305.968    5.74194    2.58       2.699981481417975 2.584879107424562 2.504396134799765 2.534876722840778 2.52       2.405      2.52       3.08       3.175      2.43       1.51       -9999      2.78       0.137345   0.1467769  -9999      0.1279132  0.2114408  0.9797629  4.783984   2.25       2.52       0.1832752  0.3412278  485.39     0.4726558  0.3423997  0.6029119 
1079.65    0.224      -9999      -9999      300.769    5.659334   2.67       2.432735086276111 2.304734258000178 2.294733099948583 2.399812492675141 2.494994989974941 2.405      2.215      3.01       2.92       2.45       1.51       -9999      2.82       0.137492   0.151329   -9999      0.123655   0.2104853  0.9859235  5.369801   2.245      2.495      0.1802091  0.336441   485.43     0.4656235  0.3266238  0.6046233 
1079.85    0.225      -9999      -9999      291.904    5.5697     2.9        2.593048399085093 2.576858552578624 2.524935642743823 2.498719672151938 2.594609797252656 2.525      2.61       2.87       3.37       2.57       1.53       -9999      2.86       0.1139959  0.1138483  -9999      0.1141435  0.1859693  0.3619415  6.08688    2.31       2.595      0.05249928 0.2444228  485.54     0.4591174  0.310327   0.6079078 
1080.05    0.225      -9999      -9999      288.776    5.505034   3.03       3.119935896777368 3.024301572264247 2.909725072923557 2.754959164851632 2.729981684920249 2.63       2.61       2.87       3.37       2.64       1.55       -9999      2.88       0.1173076  0.1236114  -9999      0.1110038  0.1887283  0.4168497  6.662968   2.295      2.73       0.09757343 0.2781586  485.69     0.4555916  0.2990771  0.6121063 
1080.25    0.226      -9999      -9999      295.538    5.494066   3.07       2.713669102893718 2.549039034616771 2.579302231224561 2.579689903845034 2.644768420864103 2.54       2.48       2.845      2.97       2.6        1.57       -9999      2.85       0.1308697  0.1416152  -9999      0.1201242  0.2022623  0.7433304  6.765959   2.265      2.645      0.1673228  0.3267343  485.72     0.4554123  0.2972097  0.613615  
1080.45    0.225      -9999      -9999      300.574    5.554553   3.06       2.763367510846142 2.65205580635099 2.599057521487357 2.569824896758532 2.549980392081476 2.47       2.645      3.02       3.105      2.57       1.56       -9999      2.8        0.1283543  0.1315839  -9999      0.1251248  0.2004894  0.6677153  6.217188   2.28       2.55       0.1384667  0.3052653  485.64     0.4601486  0.3076545  0.6126428 
