~Version
 VERS              .         2.0                           : CWLS LOG ASCII STANDARD - VERSION 2.0
 WRAP              .         NO                            : ONE LINE PER DEPTH STEP
 DLM               .         SPACE                         : DELIMITING CHARACTER(SPACE TAB OR COMMA)
~Well Information
#_______________________________________________________________________________
#
#PARAMETER_NAME    .UNIT     VALUE                         : DESCRIPTION
#_______________________________________________________________________________
STRT               .м        2.45                          : First reference value
STOP               .м        1177.25                       : Last reference value
STEP               .м        0.2                           : Step increment
NULL               .         -9999                         : Missing value
COMP               .                                       : Company
WELL               .         6941                          : Well name
FLD                .         Узень                         : Field
LOC                .                                       : Location
CNTY               .                                       : County
STAT               .                                       : State
CTRY               .                                       : Country
SRVC               .                                       : Service Company
DATE               .         10.2.2016                     : Date
UWI                .                                       : Unique Well ID
Block              .         7                             : 
Category           .         Нефтяная                      : 
Condition          .         В работе                      : 
Date               .         27.02.2016                    : 
EREF               .m        91.6                          : 100.8
GRP                .                                       : Group name
Gor                .         14                            : 
Gorizont           .         14                            : 14
ISS                .                                       : Well surveys
Interpretator      .         Кайсанов Е.К                  : 
Kupol              .         Основной                      : osnovnoi
Mud                .         полимерный                    : 
Mud_density        .         1,34                          : 
Mud_resistivity    .         0,49                          : 
NGDU               .         НГДУ-2                        : 
ORIGINALWELLNAME   .         6941                          : 
Spud_date          .         2016                          : 1961
TIME               .         11_07                         : LOG TIME
Viscosity          .         40                            : 
X                  .m        42034.23                      : 46154
Y                  .m        84394.33                      : 85761.93
YEAR               .         2019                          : 
group              .         2016                          : 
Сдали_за_3_кв_2019 .         3                             : 
~Parameter Information Block
#_______________________________________________________________________________
#
#PARAMETER_NAME    .UNIT     VALUE                         : DESCRIPTION
#_______________________________________________________________________________
SET                .         LQC_KAZNIPI_Petrel            : 
TLFamily_CALI      .         Caliper                       : 
TLFamily_COLL      .         Net Reservoir Flag            : 
TLFamily_CSAT      .         Fluid Code                    : 
TLFamily_DEPT      .         Measured Depth                : 
TLFamily_DT        .         Compressional Slowness        : 
TLFamily_GR        .         Russian Gamma Ray             : 
TLFamily_GZ3       .         Gradient 225                  : 
TLFamily_IK1       .         Resistivity 05                : 
TLFamily_IK2       .         Resistivity 07                : 
TLFamily_IK3       .         Resistivity 10                : 
TLFamily_IK4       .         Resistivity 14                : 
TLFamily_IK5       .         Resistivity 20                : 
TLFamily_LLS       .         Lateral Log Resistivity       : 
TLFamily_MBK       .         Micro Lateral Log Resistivity : 
TLFamily_MINV      .         Micro Gradient Resistivity    : 
TLFamily_MNOR      .         Micro Resistivity             : 
TLFamily_NNKTB_1   .         Neutron Far                   : 
TLFamily_NNKTM_1   .         Neutron Near                  : 
TLFamily_NPHI      .         Neutron Porosity              : 
TLFamily_OGZ3      .         Gradient Inverted 225         : 
TLFamily_PHIE      .         Effective Porosity            : 
TLFamily_PHIED     .         Effective Porosity            : 
TLFamily_PHIEN     .         Effective Porosity            : 
TLFamily_PHIES     .         Effective Porosity            : 
TLFamily_PHIT      .         Porosity                      : 
TLFamily_PRMB      .         Permeability                  : 
TLFamily_PRMB_DGR  .         Permeability                  : 
TLFamily_RHOB      .         Bulk Density                  : 
TLFamily_RT        .         Formation Resistivity         : 
TLFamily_SOIL_ARCHIE .         Oil Saturation                : 
TLFamily_SOIL_DW   .         Oil Saturation                : 
TLFamily_SP        .         Spontaneous Potential         : 
TLFamily_VSH_FIN   .         Shale Volume                  : 
TLFamily_VSH_GR    .         Shale Volume                  : 
TLFamily_VSH_SP    .         Shale Volume                  : 
~Curve Information
#_______________________________________________________________________________
#
#LOGNAME           .UNIT     LOG_ID                        : DESCRIPTION
#_______________________________________________________________________________
DEPT               .м                                      : Колонка глубины 
CALI               .м                                      : Каверномер 
COLL               .unitless                               :  
CSAT               .unitless                               :  
DT                 .мкс/м                                  : Интервальное время пробега продольной волны 
GR                 .uR/h                                   : Гамма каротаж 
GZ3                .Ohmm                                   : Градиент-зонд  длиной 2.25м 
IK1                .OHMM                                   : И0.10И0.40 
IK2                .OHMM                                   : И0.14И0.56 
IK3                .OHMM                                   : И0.20И0.8 
IK4                .OHMM                                   : И0.28И1.12 
IK5                .OHMM                                   : И0.40И1.60 
LLS                .Ohmm                                   : Боковой каротаж 
MBK                .Ohmm                                   : Микробоковой каротаж 
MINV               .Ohmm                                   : Микро-градиент зонд 
MNOR               .Ohmm                                   : Микро-потенциал зонд 
NNKTB_1            .у.е.                                   : Показания большого зонда 2ННКт аппаратуры СРК 
NNKTM_1            .у.е.                                   : Показания малого зонда 2ННКт аппаратуры СРК 
NPHI               .v/v                                    : Кп 
OGZ3               .Ohmm                                   : Обращенный градиент-зонд 
PHIE               .v/v                                    : Описание 
PHIED              .v/v                                    :  
PHIEN              .v/v                                    :  
PHIES              .v/v                                    :  
PHIT               .v/v                                    : Описание 
PRMB               .mD                                     :  
PRMB_DGR           .mD                                     :  
RHOB               .г/см3                                  : Плотность по ГГКп 
RT                 .ohmm                                   : Удельное электрическое сопротивление 
SOIL_ARCHIE        .v/v                                    :  
SOIL_DW            .v/v                                    :  
SP                 .мВ                                     : Потенциал самополяризации 
VSH_FIN            .v/v                                    : Описание 
VSH_GR             .v/v                                    : Shale volume 
VSH_SP             .v/v                                    : Shale Volume 
~Ascii
# ...
1168.65    0.249      -9999      -9999      335.002    7.448837   1.83       1.844667991807819 1.76997175118703 1.76997175118703 1.769887002042831 1.719970929986922 1.845      1.325      1.515      1.655      1.63       1.31       0.1555     -9999      0.07820753 0.09571733 0          0.1389053  0.1865756  0.07865951 1.465929   2.31       1.72       0          0          485.92     0.5014811  0.4760482  0.5269139 
1168.85    0.248      -9999      -9999      351.645    7.605745   1.63       1.804161855266997 1.744935528895013 1.724818831066091 1.77       1.769971751186984 1.85       1.205      1.245      1.625      1.91       1.38       0.111      -9999      0.1035595  0.1643747  0          0.1463039  0.2000155  0.2319164  1.126611   2.185      1.77       0          0.1028183  485.56     0.52373    0.5276307  0.5198292 
1169.05    0.25       7          7          375.058    7.771908   1.76       1.762952069683121 1.783704011320264 1.768982758536668 1.799749982636477 1.814993112934592 1.88       1.835      2.385      2.02       1.97       1.39       0.1245     -9999      0.1165119  0.1913522  0          0.1581834  0.2202776  0.40294    0.8524926  2.13       1.815      0          0.2022011  484.48     0.5437229  0.5883622  0.4990836 
1169.25    0.24       7          7          378.556    7.921189   1.86       1.778257574143858 1.792874786481198 1.867324288922521 1.849567517015802 1.794937324811092 1.84       1          1.29       1.7        1.89       1.34       0.135      -9999      0.08842098 0.1131879  0          0.1520751  0.1986623  0.1215988  0.6636057  2.25       1.795      0          0.04941892 483.53     0.5651566  0.6488615  0.4814517 
1169.45    0.244      7          7          374.327    8.032777   1.99       1.564992012759171 1.614992260043373 1.614992260043373 1.639512122553536 1.699735273505848 1.795      0.905      1.245      1.585      1.79       1.3        0.103      -9999      0.09357088 0.1315245  0          0.1491882  0.1929698  0.1514669  0.5502952  2.22       1.7        0          0.02668731 481.47     0.5716356  0.6981141  0.4451571 
1169.65    0.245      -9999      -9999      371.68     8.05865    2.07       1.434991289172156 1.469965986001059 1.559198512056869 1.639512122553627 1.699735273505916 1.96       2.215      2.25       2.205      1.73       1.36       0.1045     -9999      0.08335895 0.09447852 0          0.1555983  0.1803956  0.09798691 0.5269168  2.292      1.7        0          0          478.04     0.5502204  0.7100579  0.3903829 
1169.85    0.233      -9999      -9999      350.424    7.953854   2.13       2.258804993795717 2.319482700947859 2.306490841082483 2.143221873721386 2.007510896607808 2.195      2.005      2.045      2.58       1.83       1.38       0.1005     -9999      0.06093968 0.0347128  0          0.1481062  0.1529171  0.03766246 0.6282133  2.405      2.01       0          0          474.02     0.498779   0.6629079  0.3346501 
1170.05    0.233      -9999      -9999      317.939    7.737747   2.12       2.738831867785972 2.51       2.55440795488896 2.474752512878813 2.294950979868633 2.06       2.03       1.98       2.5        2.1        1.39       -9999      -9999      -9999      0.06523964 -9999      0.1325283  -9999      -9999      -9999      2.375      2.295      -9999      -9999      473.59     0.4522659  0.5753306  0.3292012 
1170.25    0.23       -9999      -9999      306.959    7.475204   2.03       2.7116415692344 2.296867431960321 2.282104292095346 2.21889612194893 2.163330765278393 1.94       1.745      2.595      2.795      2.43       1.52       -9999      -9999      -9999      0.09433717 -9999      0.1354127  -9999      -9999      -9999      2.345      2.165      -9999      -9999      474.44     0.4122077  0.4843497  0.3400657 
1170.45    0.229      -9999      -9999      313.758    -9999      1.93       2.223735595793709 1.964484665249388 1.884462788170677 1.868689380287692 1.853483207369303 1.79       1.645      2.655      2.715      2.54       1.63       -9999      -9999      -9999      0.2215569  -9999      1          -9999      -9999      -9999      2.3        1.855      -9999      -9999      473.53     -4999.336  -9999      0.3284485 
1170.65    0.229      -9999      -9999      326.498    -9999      1.84       1.89446562386326 1.68481452985182 1.694638604540723 1.674813422444366 1.674813422444366 1.79       3.01       3.62       3.855      2.56       1.62       -9999      -9999      -9999      0.2604791  -9999      1          -9999      -9999      -9999      2.235      1.675      -9999      -9999      470.08     -4999.356  -9999      0.2882187 
1170.85    0.231      -9999      -9999      334.417    -9999      1.89       1.969974619125863 1.729277305697497 1.744935528894945 1.694815624190374 1.674932834474232 1.98       3.115      3.92       3.76       2.55       1.6        -9999      -9999      -9999      -9999      -9999      1          -9999      -9999      -9999      -9999      1.675      -9999      -9999      466.32     -4999.375  -9999      0.2508337 
1171.05    0.231      -9999      -9999      337.113    -9999      1.9        1.859892470010027 1.63       1.744935528894979 1.804826861502233 1.764822937294277 2.195      2.19       1.68       2.875      2.45       1.58       -9999      -9999      -9999      -9999      -9999      1          -9999      -9999      -9999      -9999      1.765      -9999      -9999      463.07     -4999.388  -9999      0.2234998 
1171.25    0.24       -9999      -9999      340.288    -9999      1.89       2.561874313856947 2.023610634484806 2.041176131547692 2.008407329203914 1.94391357832595 2.62       5.64       3.355      4.405      2.41       1.55       -9999      -9999      -9999      -9999      -9999      1          -9999      -9999      -9999      -9999      1.945      -9999      -9999      460.19     -4999.398  -9999      0.2028093 
1171.45    0.214      -9999      -9999      344.812    -9999      1.96       3.374907406137241 2.658796720322936 2.403830276870645 2.324736544213128 2.12915476187148 3.07       7.52       2.97       4.525      2.44       1.55       -9999      -9999      -9999      -9999      -9999      1          -9999      -9999      -9999      -9999      2.13       -9999      -9999      458.02     -4999.405  -9999      0.1892406 
1171.65    0.214      -9999      -9999      344.68     -9999      2          3.384907679686348 2.904961273407995 2.519682519683689 2.399979166576266 2.329806858947822 3.535      2.485      2.215      3.345      2.59       1.59       -9999      -9999      -9999      -9999      -9999      1          -9999      -9999      -9999      -9999      2.33       -9999      -9999      453.99     -4999.416  -9999      0.1682241 
1171.85    0.213      -9999      -9999      -9999      -9999      2.02       3.289939209164859 2.854890540808934 2.444994887520229 2.518729838628805 2.479274087308486 3.655      1.15       2.695      3.645      2.73       1.64       -9999      -9999      -9999      -9999      -9999      -9999      -9999      -9999      -9999      -9999      2.48       -9999      -9999      449.05     -4999.425  -9999      0.1489515 
1172.05    0.182      -9999      -9999      -9999      -9999      2          3.164680078617743 2.739981751764051 2.484954727957835 2.784780063128864 2.71909911551602 3.655      1.385      1.89       2.755      2.66       1.68       -9999      -9999      -9999      -9999      -9999      -9999      -9999      -9999      -9999      -9999      2.72       -9999      -9999      445.4      -4999.431  -9999      0.13856   
1172.25    0.118      -9999      -9999      -9999      -9999      2.1        2.999733321480428 2.654995291897897 2.499919998719959 2.809928824721367 3.00479616613174 3.655      1.605      1.88       2.69       2.64       1.68       -9999      -9999      -9999      -9999      -9999      -9999      -9999      -9999      -9999      -9999      3.005      -9999      -9999      443.23     -4999.433  -9999      0.133677  
1172.45    0.112      -9999      -9999      -9999      -9999      -9999      2.90998281781869 2.624995238090919 2.524995049500097 2.759981883998516 3.064995921693861 3.66       1.805      1.785      2.585      -9999      1.67       -9999      -9999      -9999      -9999      -9999      -9999      -9999      -9999      -9999      -9999      3.065      -9999      -9999      442.42     -4999.434  -9999      0.1320717 
