~Version
 VERS              .         2.0                           : CWLS LOG ASCII STANDARD - VERSION 2.0
 WRAP              .         NO                            : ONE LINE PER DEPTH STEP
 DLM               .         SPACE                         : DELIMITING CHARACTER(SPACE TAB OR COMMA)
~Well Information
#_______________________________________________________________________________
#
#PARAMETER_NAME    .UNIT     VALUE                         : DESCRIPTION
#_______________________________________________________________________________
STRT               .м        2.45                          : First reference value
STOP               .м        1177.25                       : Last reference value
STEP               .м        0.2                           : Step increment
NULL               .         -9999                         : Missing value
COMP               .                                       : Company
WELL               .         6941                          : Well name
FLD                .         Узень                         : Field
LOC                .                                       : Location
CNTY               .                                       : County
STAT               .                                       : State
CTRY               .                                       : Country
SRVC               .                                       : Service Company
DATE               .         10.2.2016                     : Date
UWI                .                                       : Unique Well ID
Block              .         7                             : 
Category           .         Нефтяная                      : 
Condition          .         В работе                      : 
Date               .         27.02.2016                    : 
EREF               .m        91.6                          : 100.8
GRP                .                                       : Group name
Gor                .         14                            : 
Gorizont           .         14                            : 14
ISS                .                                       : Well surveys
Interpretator      .         Кайсанов Е.К                  : 
Kupol              .         Основной                      : osnovnoi
Mud                .         полимерный                    : 
Mud_density        .         1,34                          : 
Mud_resistivity    .         0,49                          : 
NGDU               .         НГДУ-2                        : 
ORIGINALWELLNAME   .         6941                          : 
Spud_date          .         2016                          : 1961
TIME               .         11_07                         : LOG TIME
Viscosity          .         40                            : 
X                  .m        42034.23                      : 46154
Y                  .m        84394.33                      : 85761.93
YEAR               .         2019                          : 
group              .         2016                          : 
Сдали_за_3_кв_2019 .         3                             : 
~Parameter Information Block
#_______________________________________________________________________________
#
#PARAMETER_NAME    .UNIT     VALUE                         : DESCRIPTION
#_______________________________________________________________________________
SET                .         LQC_KAZNIPI_Petrel            : 
TLFamily_CALI      .         Caliper                       : 
TLFamily_COLL      .         Net Reservoir Flag            : 
TLFamily_CSAT      .         Fluid Code                    : 
TLFamily_DEPT      .         Measured Depth                : 
TLFamily_DT        .         Compressional Slowness        : 
TLFamily_GR        .         Russian Gamma Ray             : 
TLFamily_GZ3       .         Gradient 225                  : 
TLFamily_IK1       .         Resistivity 05                : 
TLFamily_IK2       .         Resistivity 07                : 
TLFamily_IK3       .         Resistivity 10                : 
TLFamily_IK4       .         Resistivity 14                : 
TLFamily_IK5       .         Resistivity 20                : 
TLFamily_LLS       .         Lateral Log Resistivity       : 
TLFamily_MBK       .         Micro Lateral Log Resistivity : 
TLFamily_MINV      .         Micro Gradient Resistivity    : 
TLFamily_MNOR      .         Micro Resistivity             : 
TLFamily_NNKTB_1   .         Neutron Far                   : 
TLFamily_NNKTM_1   .         Neutron Near                  : 
TLFamily_NPHI      .         Neutron Porosity              : 
TLFamily_OGZ3      .         Gradient Inverted 225         : 
TLFamily_PHIE      .         Effective Porosity            : 
TLFamily_PHIED     .         Effective Porosity            : 
TLFamily_PHIEN     .         Effective Porosity            : 
TLFamily_PHIES     .         Effective Porosity            : 
TLFamily_PHIT      .         Porosity                      : 
TLFamily_PRMB      .         Permeability                  : 
TLFamily_PRMB_DGR  .         Permeability                  : 
TLFamily_RHOB      .         Bulk Density                  : 
TLFamily_RT        .         Formation Resistivity         : 
TLFamily_SOIL_ARCHIE .         Oil Saturation                : 
TLFamily_SOIL_DW   .         Oil Saturation                : 
TLFamily_SP        .         Spontaneous Potential         : 
TLFamily_VSH_FIN   .         Shale Volume                  : 
TLFamily_VSH_GR    .         Shale Volume                  : 
TLFamily_VSH_SP    .         Shale Volume                  : 
~Curve Information
#_______________________________________________________________________________
#
#LOGNAME           .UNIT     LOG_ID                        : DESCRIPTION
#_______________________________________________________________________________
DEPT               .м                                      : Колонка глубины 
CALI               .м                                      : Каверномер 
COLL               .unitless                               :  
CSAT               .unitless                               :  
DT                 .мкс/м                                  : Интервальное время пробега продольной волны 
GR                 .uR/h                                   : Гамма каротаж 
GZ3                .Ohmm                                   : Градиент-зонд  длиной 2.25м 
IK1                .OHMM                                   : И0.10И0.40 
IK2                .OHMM                                   : И0.14И0.56 
IK3                .OHMM                                   : И0.20И0.8 
IK4                .OHMM                                   : И0.28И1.12 
IK5                .OHMM                                   : И0.40И1.60 
LLS                .Ohmm                                   : Боковой каротаж 
MBK                .Ohmm                                   : Микробоковой каротаж 
MINV               .Ohmm                                   : Микро-градиент зонд 
MNOR               .Ohmm                                   : Микро-потенциал зонд 
NNKTB_1            .у.е.                                   : Показания большого зонда 2ННКт аппаратуры СРК 
NNKTM_1            .у.е.                                   : Показания малого зонда 2ННКт аппаратуры СРК 
NPHI               .v/v                                    : Кп 
OGZ3               .Ohmm                                   : Обращенный градиент-зонд 
PHIE               .v/v                                    : Описание 
PHIED              .v/v                                    :  
PHIEN              .v/v                                    :  
PHIES              .v/v                                    :  
PHIT               .v/v                                    : Описание 
PRMB               .mD                                     :  
PRMB_DGR           .mD                                     :  
RHOB               .г/см3                                  : Плотность по ГГКп 
RT                 .ohmm                                   : Удельное электрическое сопротивление 
SOIL_ARCHIE        .v/v                                    :  
SOIL_DW            .v/v                                    :  
SP                 .мВ                                     : Потенциал самополяризации 
VSH_FIN            .v/v                                    : Описание 
VSH_GR             .v/v                                    : Shale volume 
VSH_SP             .v/v                                    : Shale Volume 
~Ascii
# ...
980.65     0.229      -9999      -9999      282.459    4.248637   2.28       3.714835124201302 3.184901882319112 2.994661917479116 2.819716297785957 2.789838705015006 2.9        3.35       4.44       3.795      3.6        1.86       -9999      2.4        0.1337313  0.1531608  -9999      0.1143018  0.1990731  0.8398196  5.848348   2.26       2.79       0.2030738  0.3440583  499.43     0.4168148  0.3154342  0.5181955 
980.85     0.229      -9999      -9999      295.587    4.207469   2.27       3.868139087468424 3.311827290183033 3.159430328397895 2.929846412356832 2.809982206349345 2.76       3.21       3.965      3.635      3.66       1.88       -9999      2.24       0.149858   0.1643305  -9999      0.1353856  0.213652   1.670676   6.301771   2.245      2.81       0.2807226  0.401686   498.75     0.4069409  0.3059616  0.5079203 
981.05     0.23       -9999      -9999      309.996    4.344422   2.37       3.986376801056511 3.518579258735093 3.308776208812055 2.904031680268054 2.679328274026975 2.435      3.205      3.96       3.745      3.41       1.84       -9999      2          0.1535162  0.1564025  -9999      0.1506299  0.2186827  1.952765   4.915626   2.255      2.68       0.2798426  0.4016484  497.8      0.4156966  0.3386253  0.4927679 
981.25     0.229      -9999      -9999      325.272    4.609099   2.4        2.62369967793572 2.418925381238537 2.468805379125702 2.460731598529185 2.317390774125072 2.045      2.165      2.645      2.7        3.04       1.75       -9999      1.87       0.1469835  0.1367992  -9999      0.1571678  0.2175468  1.477912   3.041458   2.275      2.32       0.1996614  0.3433055  497.41     0.4501223  0.4119606  0.488284  
981.45     0.229      -9999      -9999      337.479    4.90151    2.24       2.204948979001572 2.039901958428417 2.1        2.104851538707631 2.044260257403578 1.93       1.88       2          2.235      2.63       1.66       -9999      1.84       0.1410725  0.128391   -9999      0.1537538  0.2197035  1.148582   1.789523   2.27       2.045      0.1199391  0.2929079  497.44     0.5015864  0.5115795  0.4915935 
981.65     0.229      -9999      -9999      343.368    5.147084   2.27       1.936878932716365 1.887352643254681 1.979368586191118 2.024697508271337 1.929896370274862 1.875      1.8        2.225      2.21       2.43       1.6        -9999      1.86       0.1339466  0.1253456  -9999      0.1425475  0.2210877  0.8475654  1.146273   2.255      1.93       0.05395047 0.2595716  497.64     0.5558722  0.6136276  0.4981169 
981.85     0.228      -9999      -9999      346.655    5.329474   2.34       1.859758048779498 1.794937324811109 1.869973261840939 1.934993540040891 1.884940317357538 1.82       1.78       2.095      2.13       2.26       1.58       -9999      1.87       0.1314205  0.1324717  -9999      0.1303694  0.2262303  0.7610006  0.8234003  2.225      1.885      0.02742464 0.2554383  497.97     0.6047902  0.7023813  0.5071992 
982.05     0.227      -9999      -9999      352.343    5.455734   2.34       1.778988476635035 1.71927310221506 1.759289629367547 1.834448145901156 1.819890106572395 1.755      1.68       2.045      2.09       2.2        1.57       -9999      1.89       0.1291313  0.1353873  -9999      0.1228753  0.2303518  0.6902124  0.6548635  2.205      1.82       0          0.245252   498.49     0.6456845  0.7712334  0.5201356 
982.25     0.227      -9999      -9999      354.031    5.519013   2.34       1.694992625352689 1.639878044245974 1.664932431061393 1.709883036935568 1.759886359967598 1.735      1.645      1.985      1.985      2.34       1.56       -9999      1.97       0.1306046  0.1412292  -9999      0.1199799  0.2340468  0.7349731  0.5838529  2.19       1.76       0          0.2432506  498.32     0.659857   0.8        0.5197141 
982.45     0.224      -9999      -9999      354.492    5.509706   2.39       1.64       1.569968152543218 1.58987420886054 1.604618334682697 1.65481116747498 1.715      1.495      2.055      2.105      2.35       1.55       -9999      2.04       0.1250917  0.1294727  -9999      0.1207107  0.2283787  0.580979   0.5937923  2.21       1.655      0          0.1943741  498.07     0.6588662  0.8        0.5177325 
982.65     0.225      -9999      -9999      358.602    5.439091   2.36       1.55948709516948 1.46945568153658 1.48969795596292 1.504991694329247 1.584992113545054 1.75       1.405      3.305      2.3        2.42       1.54       -9999      2.03       0.1196105  0.1093676  -9999      0.1298533  0.2201755  0.4598688  0.6749347  2.25       1.585      0          0.1433476  498.1      0.641503   0.7617847  0.5212212 
982.85     0.225      -9999      -9999      356.607    5.337304   2.38       1.668532289169216 1.554027026792068 1.588458372133262 1.574357011608282 1.63972558679802 1.89       1.62       1.94       1.895      2.5        1.57       -9999      2.11       0.1207343  0.1057743  -9999      0.1356943  0.2174865  0.4824477  0.8117895  2.265      1.64       0          0.1546326  498.29     0.6171808  0.7064663  0.5278953 
983.05     0.226      -9999      -9999      344.283    5.238901   2.43       1.928730152198511 1.813835714721632 1.814662503056658 1.809309260463726 1.794658741933925 2.005      1.885      2.525      2.28       2.5        1.62       -9999      2.16       0.1166587  0.1036454  -9999      0.1296721  0.2106803  0.4054719  0.9704195  2.275      1.795      0          0.1650161  498.88     0.5997624  0.6568088  0.542716  
983.25     0.226      -9999      -9999      336.526    5.172916   2.42       2.169423886657469 2.019900987672416 1.994843352245985 1.964840960485097 1.919973958156725 2.025      2.015      2.705      2.39       2.61       1.65       -9999      2.18       0.1211713  0.117571   -9999      0.1247716  0.2138135  0.4915235  1.093802   2.255      1.92       0          0.2117227  499.4      0.5909632  0.6254811  0.5564454 
983.45     0.226      -9999      -9999      339.503    5.150681   2.41       2.189177927898895 2.009378013216968 1.994692958828461 1.929766825292597 1.914836807667925 1.955      1.965      2.675      2.435      2.76       1.67       -9999      2.16       0.1256831  0.1235817  -9999      0.1277845  0.2183093  0.5958185  1.138819   2.245      1.915      0          0.2317526  499.73     0.5908612  0.6152644  0.566458  
983.65     0.225      -9999      -9999      347.36     5.158883   2.36       1.989899494949453 1.839972825886307 1.829890707118893 1.794658741934004 1.804826861502261 1.885      1.805      2.3        2.14       2.65       1.64       -9999      2.07       0.1239113  0.1136956  -9999      0.1341271  0.2171771  0.5524547  1.122001   2.26       1.805      0          0.2017249  499.79     0.5949414  0.6190137  0.5708691 
983.85     0.226      -9999      -9999      350.017    5.174949   2.25       1.824445121125822 1.724644890984768 1.764936259472262 1.734935157289764 1.74       1.895      1.715      2.02       2.045      2.48       1.59       -9999      1.99       0.1193422  0.1036137  -9999      0.1350708  0.2133862  0.4546381  1.089777   2.275      1.74       0          0.1659594  499.76     0.5999054  0.6264233  0.5733874 
984.05     0.226      -9999      -9999      342.843    5.191121   2.19       1.888703258852406 1.83417556411587 1.858278773488968 1.809751364138145 1.78482492138582 1.94       1.93       2.06       2.11       2.49       1.57       -9999      2.03       0.1255725  0.1256395  -9999      0.1255054  0.2209795  0.5930139  1.058275   2.235      1.785      0          0.2098163  500.07     0.6086004  0.6339716  0.5832291 
984.25     0.226      -9999      -9999      337.036    5.219939   2.09       2.1        1.984943324127921 2.019975247373096 1.949897433200013 1.869973261840928 1.945      3.88       2.32       2.14       2.62       1.59       -9999      2.03       0.114157   0.1133037  -9999      0.1150103  0.211937   0.364437   1.004377   2.25       1.87       0          0.1779281  500.68     0.6237376  0.6476489  0.5998262 
984.45     0.225      -9999      -9999      339.84     5.278414   2.03       1.989773856497231 1.839565166010661 1.849567517015757 1.88467503830232 1.839755418527113 1.88       2.835      2.295      2.14       2.69       1.62       -9999      2.05       0.11143    0.1116402  -9999      0.1112199  0.2125056  0.3244239  0.903304   2.245      1.84       0          0.1647752  501.13     0.6447595  0.6763145  0.6132046 
