~Version
 VERS              .         2.0                           : CWLS LOG ASCII STANDARD - VERSION 2.0
 WRAP              .         NO                            : ONE LINE PER DEPTH STEP
 DLM               .         SPACE                         : DELIMITING CHARACTER(SPACE TAB OR COMMA)
~Well Information
#_______________________________________________________________________________
#
#PARAMETER_NAME    .UNIT     VALUE                         : DESCRIPTION
#_______________________________________________________________________________
STRT               .м        2.45                          : First reference value
STOP               .м        1177.25                       : Last reference value
STEP               .м        0.2                           : Step increment
NULL               .         -9999                         : Missing value
COMP               .                                       : Company
WELL               .         6941                          : Well name
FLD                .         Узень                         : Field
LOC                .                                       : Location
CNTY               .                                       : County
STAT               .                                       : State
CTRY               .                                       : Country
SRVC               .                                       : Service Company
DATE               .         10.2.2016                     : Date
UWI                .                                       : Unique Well ID
Block              .         7                             : 
Category           .         Нефтяная                      : 
Condition          .         В работе                      : 
Date               .         27.02.2016                    : 
EREF               .m        91.6                          : 100.8
GRP                .                                       : Group name
Gor                .         14                            : 
Gorizont           .         14                            : 14
ISS                .                                       : Well surveys
Interpretator      .         Кайсанов Е.К                  : 
Kupol              .         Основной                      : osnovnoi
Mud                .         полимерный                    : 
Mud_density        .         1,34                          : 
Mud_resistivity    .         0,49                          : 
NGDU               .         НГДУ-2                        : 
ORIGINALWELLNAME   .         6941                          : 
Spud_date          .         2016                          : 1961
TIME               .         11_07                         : LOG TIME
Viscosity          .         40                            : 
X                  .m        42034.23                      : 46154
Y                  .m        84394.33                      : 85761.93
YEAR               .         2019                          : 
group              .         2016                          : 
Сдали_за_3_кв_2019 .         3                             : 
~Parameter Information Block
#_______________________________________________________________________________
#
#PARAMETER_NAME    .UNIT     VALUE                         : DESCRIPTION
#_______________________________________________________________________________
SET                .         LQC_KAZNIPI_Petrel            : 
TLFamily_CALI      .         Caliper                       : 
TLFamily_COLL      .         Net Reservoir Flag            : 
TLFamily_CSAT      .         Fluid Code                    : 
TLFamily_DEPT      .         Measured Depth                : 
TLFamily_DT        .         Compressional Slowness        : 
TLFamily_GR        .         Russian Gamma Ray             : 
TLFamily_GZ3       .         Gradient 225                  : 
TLFamily_IK1       .         Resistivity 05                : 
TLFamily_IK2       .         Resistivity 07                : 
TLFamily_IK3       .         Resistivity 10                : 
TLFamily_IK4       .         Resistivity 14                : 
TLFamily_IK5       .         Resistivity 20                : 
TLFamily_LLS       .         Lateral Log Resistivity       : 
TLFamily_MBK       .         Micro Lateral Log Resistivity : 
TLFamily_MINV      .         Micro Gradient Resistivity    : 
TLFamily_MNOR      .         Micro Resistivity             : 
TLFamily_NNKTB_1   .         Neutron Far                   : 
TLFamily_NNKTM_1   .         Neutron Near                  : 
TLFamily_NPHI      .         Neutron Porosity              : 
TLFamily_OGZ3      .         Gradient Inverted 225         : 
TLFamily_PHIE      .         Effective Porosity            : 
TLFamily_PHIED     .         Effective Porosity            : 
TLFamily_PHIEN     .         Effective Porosity            : 
TLFamily_PHIES     .         Effective Porosity            : 
TLFamily_PHIT      .         Porosity                      : 
TLFamily_PRMB      .         Permeability                  : 
TLFamily_PRMB_DGR  .         Permeability                  : 
TLFamily_RHOB      .         Bulk Density                  : 
TLFamily_RT        .         Formation Resistivity         : 
TLFamily_SOIL_ARCHIE .         Oil Saturation                : 
TLFamily_SOIL_DW   .         Oil Saturation                : 
TLFamily_SP        .         Spontaneous Potential         : 
TLFamily_VSH_FIN   .         Shale Volume                  : 
TLFamily_VSH_GR    .         Shale Volume                  : 
TLFamily_VSH_SP    .         Shale Volume                  : 
~Curve Information
#_______________________________________________________________________________
#
#LOGNAME           .UNIT     LOG_ID                        : DESCRIPTION
#_______________________________________________________________________________
DEPT               .м                                      : Колонка глубины 
CALI               .м                                      : Каверномер 
COLL               .unitless                               :  
CSAT               .unitless                               :  
DT                 .мкс/м                                  : Интервальное время пробега продольной волны 
GR                 .uR/h                                   : Гамма каротаж 
GZ3                .Ohmm                                   : Градиент-зонд  длиной 2.25м 
IK1                .OHMM                                   : И0.10И0.40 
IK2                .OHMM                                   : И0.14И0.56 
IK3                .OHMM                                   : И0.20И0.8 
IK4                .OHMM                                   : И0.28И1.12 
IK5                .OHMM                                   : И0.40И1.60 
LLS                .Ohmm                                   : Боковой каротаж 
MBK                .Ohmm                                   : Микробоковой каротаж 
MINV               .Ohmm                                   : Микро-градиент зонд 
MNOR               .Ohmm                                   : Микро-потенциал зонд 
NNKTB_1            .у.е.                                   : Показания большого зонда 2ННКт аппаратуры СРК 
NNKTM_1            .у.е.                                   : Показания малого зонда 2ННКт аппаратуры СРК 
NPHI               .v/v                                    : Кп 
OGZ3               .Ohmm                                   : Обращенный градиент-зонд 
PHIE               .v/v                                    : Описание 
PHIED              .v/v                                    :  
PHIEN              .v/v                                    :  
PHIES              .v/v                                    :  
PHIT               .v/v                                    : Описание 
PRMB               .mD                                     :  
PRMB_DGR           .mD                                     :  
RHOB               .г/см3                                  : Плотность по ГГКп 
RT                 .ohmm                                   : Удельное электрическое сопротивление 
SOIL_ARCHIE        .v/v                                    :  
SOIL_DW            .v/v                                    :  
SP                 .мВ                                     : Потенциал самополяризации 
VSH_FIN            .v/v                                    : Описание 
VSH_GR             .v/v                                    : Shale volume 
VSH_SP             .v/v                                    : Shale Volume 
~Ascii
# ...
1148.65    0.228      -9999      -9999      313.137    7.712439   1          1.329962405483681 1.189831920903071 1.189957982451459 1.174989361653957 1.14       1.43       1.19       1.79       1.7        1.93       1.4        0.057      1.97       0.04893232 0.06220829 0          0.08458867 0.1346243  0.02256853 0.9419461  2.33       1.14       0          0          492.9      0.4787841  0.4259287  0.5316395 
1148.85    0.229      -9999      -9999      319.697    7.890055   0.95       1.379963767640273 1.23       1.204989626511354 1.18       1.144989082917376 1.44       1.465      1.78       1.785      2.02       1.41       0.0695     1.9        0.04815949 0.05112707 0          0.09335141 0.1375961  0.02183678 0.6991931  2.35       1.145      0          0          488.34     0.4613579  0.4741378  0.448578  
1149.05    0.226      -9999      -9999      319.515    8.08358    0.96       1.339962686047638 1.194905854032024 1.17       1.19       1.174904251417961 1.48       1.845      2.245      2.145      2.01       1.41       0.074      1.78       0.04223721 0.03508333 0          0.09162831 0.1336802  0.01696265 0.5053306  2.375      1.175      0          0          486.17     0.4734591  0.532897   0.4140213 
1149.25    0.229      -9999      -9999      320.593    8.250826   1.05       1.403495635903439 1.259007545648556 1.30422390715705 1.274205634895718 1.244748970676417 1.55       2.24       2.39       2.44       1.95       1.39       0.1045     1.48       0.05721874 0.0742463  0          0.09740991 0.1573025  0.03213571 0.3816833  2.315      1.245      0          0          484.44     0.4890247  0.5895113  0.3885381 
1149.45    0.229      -9999      -9999      318.718    8.298672   1.19       1.624992307674101 1.484587484791651 1.454922678357857 1.39       1.324915091619082 1.675      1.87       2.255      2.38       2          1.36       0.1045     1.22       0.08234138 0.1431629  0          0.1038612  0.179575   0.09382535 0.3522398  2.21       1.325      0          0          480.98     0.4740092  0.6067872  0.3412313 
1149.65    0.226      -9999      -9999      300.082    8.164405   1.09       1.797748591989641 1.553640885147034 1.434921600645867 1.359963234797154 1.339962686047615 1.785      2.27       2.07       2.805      2.13       1.37       0.0365     0.91       0.0792689  0.1450675  0          0.09273916 0.1501128  0.08230198 0.4412437  2.22       1.34       0          0          475.7      0.4198528  0.5595438  0.2801619 
1149.85    0.227      -9999      -9999      284.88     7.883006   1.01       1.823019473291688 1.491978552124877 1.348666007579478 1.34       1.34491635427632 1.95       2.83       2.405      3.135      2.32       1.42       0.021      0.84       0.05526445 0.07806098 0          0.08773237 0.1158295  0.02956581 0.7075123  2.35       1.345      0          0          471.64     0.3571041  0.4721242  0.242084  
1150.05    0.227      1          2          279.998    7.565721   1.43       1.696437443585822 1.380217374184226 1.408545348932721 1.533623161014465 1.552095357895255 2.055      2.26       2.08       2.645      2.39       1.47       0.136      0.94       0.06330229 0.08217292 0          0.107734   0.1531995  0.04165527 1.204868   2.375      1.555      0          0          468.87     0.3050093  0.3898252  0.2201935 
1150.25    0.226      1          2          280.414    7.327362   1.85       3.171844889019638 2.605225518069405 2.58797217913949 2.428332761381768 2.169861746747935 2.645      6.735      3.305      4.635      2.41       1.49       0.1805     1.26       0.1263654  0.1976048  0.05689523 0.1245962  0.2067122  0.6134124  1.797347   2.34       2.18       0.05999938 0.2575447  467.31     0.2734714  0.3375798  0.2093631 
1150.45    0.222      1          2          293.232    7.22736    2.15       4.561644440330702 3.549774640734254 3.259754591990017 2.938622126099237 2.549509756796392 3.23       8.525      3.905      5.53       2.46       1.53       0.2025     1.55       0.150444   0.2185628  0.08476386 0.1480054  0.226976   1.712957   2.125706   2.305      2.55       0.2497479  0.3949285  467.03     0.2628624  0.3178029  0.2079218 
1150.65    0.222      -9999      -9999      307.442    7.240794   2.38       3.277804143018751 2.2859571299556 2.290851370123637 2.037841995837153 1.991883530731245 2.535      4.96       3.765      4.695      2.42       1.54       0.2225     1.72       0.1603939  0.2095809  0.1051739  0.166427   0.2366594  2.61844    2.078326   2.32       2          0.2047649  0.3506636  466.12     0.2613249  0.3203909  0.202259  
1150.85    0.222      -9999      -9999      306.639    7.259124   2.61       1.839157415775406 1.449620640029943 1.330864380769369 1.392982411949439 1.463078945238601 1.84       2.72       3.36       3.21       2.32       1.52       0.2185     2.3        0.1510963  0.1916168  0.09863331 0.1630388  0.2290132  1.76128    2.015379   2.35       1.465      0.03055395 0.2073294  467.17     0.2669356  0.3239558  0.2099155 
1151.05    0.223      -9999      -9999      309.184    7.152832   3.28       1.551773179301666 1.188486432400471 1.273342059306925 1.352922762023021 1.41943650791432 1.755      1.51       1.995      2.31       2.24       1.5        0.1475     3.68       0.1288868  0.1946108  0.02676497 0.1652847  0.2073682  0.6830534  2.40886    2.345      1.42       0          0.08907422 471.28     0.2732893  0.3038212  0.2427574 
1151.25    0.224      7          7          340.481    6.897038   4.22       2.251999111900358 1.767172883449721 1.844939023382616 1.83608278680456 1.732916616574496 1.96       3.435      2.845      3.63       2.06       1.47       0.246      5.1        0.1966828  0.2604791  0.1278334  0.2017359  0.2734946  12.30836   3.700063   2.235      1.735      0.2882692  0.4112698  476.15     0.2757829  0.2603475  0.2912182 
1151.45    0.226      7          7          395.631    6.64532    4.16       1.784152459853137 1.608011193990888 1.674932834474266 1.858682328963182 1.859569842732453 1.775      2.12       1.97       2.525      1.75       1.42       0.3725     4.74       0.299532   0.3832335  0.2607208  0.2546415  0.3721918  989.0467   5.644634   2.03       1.86       0.5224324  0.6013454  477.7      0.2666347  0.2236442  0.3096252 
1151.65    0.226      7          7          414.595    6.623361   2.72       1.466424222385416 1.418802311810429 1.390827092056734 1.500599880047715 1.518387302370353 1.61       1.62       1.515      1.985      1.56       1.33       0.325      2.93       0.3091044  0.4371257  0.2178867  0.2723009  0.3787313  1487.722   5.856485   1.94       1.52       0.4891706  0.5691803  475.85     0.2551178  0.220699   0.2895366 
1151.85    0.226      -9999      -9999      393.204    6.910098   1.8        1.014692071517323 1.03       1.074988372030124 1.169615321377144 1.274754878398253 1.4        0.85       1.005      1.32       1.7        1.29       0.164      1.56       0.2203731  0.3652695  0.04748885 0.2483609  0.2961088  33.80665   3.619865   2.06       1.275      0.255131   0.3746352  474.86     0.2710868  0.2624082  0.2797653 
1152.05    0.224      -9999      -9999      359.004    7.353893   1.01       1.059245014149229 1.163185281887628 1.238547536431283 1.22417319036156 1.26475294030099 1.405      1.015      0.85       1.26       1.91       1.37       0.1035     1.28       0.1211064  0.1641122  0          0.1992069  0.1996509  0.4901647  1.71909    2.24       1.265      0          0          474.82     0.3115699  0.3430303  0.2801096 
1152.25    0.223      -9999      -9999      341.803    7.719769   0.7        1.199833321757651 1.339962686047638 1.4        1.369854006819705 1.369854006819705 1.475      1.135      0.995      1.435      2.03       1.39       0.089      1.24       0.08258868 0.08957443 0          0.1581916  0.1646262  0.09482018 0.9304328  2.335      1.37       0          0          475.64     0.3587247  0.4278175  0.2896318 
1152.45    0.224      -9999      -9999      345.912    7.881963   0.77       1.254910355364079 1.34       1.38       1.399964285258735 1.39491935250752 1.5        1.26       1.525      1.745      2.08       1.4        0.085      1.29       0.06976753 0.0632306  0          0.146072   0.1558369  0.05488099 0.708751   2.36       1.395      0          0          477.39     0.3910469  0.4718272  0.3102666 
