~Version
 VERS              .         2.0                           : CWLS LOG ASCII STANDARD - VERSION 2.0
 WRAP              .         NO                            : ONE LINE PER DEPTH STEP
 DLM               .         SPACE                         : DELIMITING CHARACTER(SPACE TAB OR COMMA)
~Well Information
#_______________________________________________________________________________
#
#PARAMETER_NAME    .UNIT     VALUE                         : DESCRIPTION
#_______________________________________________________________________________
STRT               .м        2.45                          : First reference value
STOP               .м        1177.25                       : Last reference value
STEP               .м        0.2                           : Step increment
NULL               .         -9999                         : Missing value
COMP               .                                       : Company
WELL               .         6941                          : Well name
FLD                .         Узень                         : Field
LOC                .                                       : Location
CNTY               .                                       : County
STAT               .                                       : State
CTRY               .                                       : Country
SRVC               .                                       : Service Company
DATE               .         10.2.2016                     : Date
UWI                .                                       : Unique Well ID
Block              .         7                             : 
Category           .         Нефтяная                      : 
Condition          .         В работе                      : 
Date               .         27.02.2016                    : 
EREF               .m        91.6                          : 100.8
GRP                .                                       : Group name
Gor                .         14                            : 
Gorizont           .         14                            : 14
ISS                .                                       : Well surveys
Interpretator      .         Кайсанов Е.К                  : 
Kupol              .         Основной                      : osnovnoi
Mud                .         полимерный                    : 
Mud_density        .         1,34                          : 
Mud_resistivity    .         0,49                          : 
NGDU               .         НГДУ-2                        : 
ORIGINALWELLNAME   .         6941                          : 
Spud_date          .         2016                          : 1961
TIME               .         11_07                         : LOG TIME
Viscosity          .         40                            : 
X                  .m        42034.23                      : 46154
Y                  .m        84394.33                      : 85761.93
YEAR               .         2019                          : 
group              .         2016                          : 
Сдали_за_3_кв_2019 .         3                             : 
~Parameter Information Block
#_______________________________________________________________________________
#
#PARAMETER_NAME    .UNIT     VALUE                         : DESCRIPTION
#_______________________________________________________________________________
SET                .         LQC_KAZNIPI_Petrel            : 
TLFamily_CALI      .         Caliper                       : 
TLFamily_COLL      .         Net Reservoir Flag            : 
TLFamily_CSAT      .         Fluid Code                    : 
TLFamily_DEPT      .         Measured Depth                : 
TLFamily_DT        .         Compressional Slowness        : 
TLFamily_GR        .         Russian Gamma Ray             : 
TLFamily_GZ3       .         Gradient 225                  : 
TLFamily_IK1       .         Resistivity 05                : 
TLFamily_IK2       .         Resistivity 07                : 
TLFamily_IK3       .         Resistivity 10                : 
TLFamily_IK4       .         Resistivity 14                : 
TLFamily_IK5       .         Resistivity 20                : 
TLFamily_LLS       .         Lateral Log Resistivity       : 
TLFamily_MBK       .         Micro Lateral Log Resistivity : 
TLFamily_MINV      .         Micro Gradient Resistivity    : 
TLFamily_MNOR      .         Micro Resistivity             : 
TLFamily_NNKTB_1   .         Neutron Far                   : 
TLFamily_NNKTM_1   .         Neutron Near                  : 
TLFamily_NPHI      .         Neutron Porosity              : 
TLFamily_OGZ3      .         Gradient Inverted 225         : 
TLFamily_PHIE      .         Effective Porosity            : 
TLFamily_PHIED     .         Effective Porosity            : 
TLFamily_PHIEN     .         Effective Porosity            : 
TLFamily_PHIES     .         Effective Porosity            : 
TLFamily_PHIT      .         Porosity                      : 
TLFamily_PRMB      .         Permeability                  : 
TLFamily_PRMB_DGR  .         Permeability                  : 
TLFamily_RHOB      .         Bulk Density                  : 
TLFamily_RT        .         Formation Resistivity         : 
TLFamily_SOIL_ARCHIE .         Oil Saturation                : 
TLFamily_SOIL_DW   .         Oil Saturation                : 
TLFamily_SP        .         Spontaneous Potential         : 
TLFamily_VSH_FIN   .         Shale Volume                  : 
TLFamily_VSH_GR    .         Shale Volume                  : 
TLFamily_VSH_SP    .         Shale Volume                  : 
~Curve Information
#_______________________________________________________________________________
#
#LOGNAME           .UNIT     LOG_ID                        : DESCRIPTION
#_______________________________________________________________________________
DEPT               .м                                      : Колонка глубины 
CALI               .м                                      : Каверномер 
COLL               .unitless                               :  
CSAT               .unitless                               :  
DT                 .мкс/м                                  : Интервальное время пробега продольной волны 
GR                 .uR/h                                   : Гамма каротаж 
GZ3                .Ohmm                                   : Градиент-зонд  длиной 2.25м 
IK1                .OHMM                                   : И0.10И0.40 
IK2                .OHMM                                   : И0.14И0.56 
IK3                .OHMM                                   : И0.20И0.8 
IK4                .OHMM                                   : И0.28И1.12 
IK5                .OHMM                                   : И0.40И1.60 
LLS                .Ohmm                                   : Боковой каротаж 
MBK                .Ohmm                                   : Микробоковой каротаж 
MINV               .Ohmm                                   : Микро-градиент зонд 
MNOR               .Ohmm                                   : Микро-потенциал зонд 
NNKTB_1            .у.е.                                   : Показания большого зонда 2ННКт аппаратуры СРК 
NNKTM_1            .у.е.                                   : Показания малого зонда 2ННКт аппаратуры СРК 
NPHI               .v/v                                    : Кп 
OGZ3               .Ohmm                                   : Обращенный градиент-зонд 
PHIE               .v/v                                    : Описание 
PHIED              .v/v                                    :  
PHIEN              .v/v                                    :  
PHIES              .v/v                                    :  
PHIT               .v/v                                    : Описание 
PRMB               .mD                                     :  
PRMB_DGR           .mD                                     :  
RHOB               .г/см3                                  : Плотность по ГГКп 
RT                 .ohmm                                   : Удельное электрическое сопротивление 
SOIL_ARCHIE        .v/v                                    :  
SOIL_DW            .v/v                                    :  
SP                 .мВ                                     : Потенциал самополяризации 
VSH_FIN            .v/v                                    : Описание 
VSH_GR             .v/v                                    : Shale volume 
VSH_SP             .v/v                                    : Shale Volume 
~Ascii
# ...
1132.65    0.218      1          5          328.667    5.522158   4.21       5.864946717575587 4.724933861970924 4.269894612282535 3.939949238251636 3.61471990616137 4.425      8.43       3.525      5.4        2.55       1.62       0.2525     4.16       0.2101963  0.263473   0.1564472  0.2106686  0.2726335  21.90298   37.16071   2.23       3.615      0.524034   0.6025266  475.68     0.2445893  0.1135232  0.3756554 
1132.85    0.219      1          5          328.037    5.599003   4.05       5.619110249852956 4.235740785270465 3.886283571743447 3.748919844435399 3.44470608325307 4.205      7.95       3.665      5.35       2.51       1.6        0.256      4.28       0.2161698  0.263473   0.1676848  0.2173516  0.2735773  28.25838   32.6653    2.23       3.445      0.5248913  0.5983995  472.29     0.2235316  0.1189138  0.3281495 
1133.05    0.219      1          5          332.135    5.657798   3.88       5.112650975765899 3.699135034031604 3.509643856575764 3.504910840520769 3.25993864972947 4.035      5.855      3.855      5.42       2.4        1.56       0.27       4.51       0.2256975  0.2485029  0.1946331  0.2339565  0.2746882  42.42509   29.59666   2.255      3.26       0.5304005  0.5955458  465.78     0.1894855  0.1232104  0.2557607 
1133.25    0.217      1          5          332.878    5.697229   3.65       4.559462687642043 3.389277209081606 3.389985250705377 3.529985835665634 3.24499614791759 3.985      6.245      3.455      5.16       2.31       1.52       0.2635     4.73       0.2292036  0.2604791  0.1903245  0.2368073  0.2767699  49.26801   27.7019    2.235      3.245      0.5356594  0.5989971  464.26     0.1835173  0.1261785  0.2408562 
1133.45    0.218      1          5          332.217    5.727481   3.55       4.614672252717412 3.504568447041661 3.494824745248322 3.609875344108159 3.259984662540607 3.92       8.12       3.35       5.04       2.28       1.51       0.259      4.86       0.2290505  0.2724552  0.1821059  0.2325906  0.279034   48.94743   26.33086   2.215      3.26       0.5363935  0.601685   466.18     0.1926803  0.128504   0.2568565 
1133.65    0.219      1          5          334.515    5.755537   3.53       4.504664249419581 3.609944597912873 3.484967718645291 3.559648859086973 3.194902189426092 3.845      8.795      3.23       4.99       2.28       1.5        0.2605     5.14       0.2245868  0.2664671  0.1778273  0.2294659  0.2783265  40.46229   25.12005   2.225      3.195      0.5239     0.5937026  469.01     0.207211   0.1306991  0.2837229 
1133.85    0.218      1          5          338.023    5.781975   3.47       4.494774744077737 3.684969470701182 3.394701754204733 3.3194577870491 3.049852455447708 3.77       8.865      3.03       5.025      2.25       1.51       0.2695     5.21       0.222596   0.2544911  0.1834709  0.2298262  0.2785175  37.16864   24.03007   2.245      3.05       0.5096214  0.5827605  470.49     0.2155807  0.1328019  0.2983595 
1134.05    0.219      1          5          338.687    5.805083   3.55       4.589901959737267 3.579776529338109 3.274965648674808 3.134677016855166 2.919931506045989 3.715      9.14       3.21       4.97       2.33       1.53       0.267      5          0.223395   0.2604791  0.1800711  0.2296348  0.2799014  38.45701   23.11619   2.235      2.92       0.5010543  0.5754368  470.83     0.2176361  0.1346675  0.3006048 
1134.25    0.219      1          5          340.56     5.820152   3.6        4.624781075899702 3.493708631239875 3.209937694099373 2.959729717389749 2.819840421016764 3.595      8.86       2.95       4.78       2.45       1.55       0.2505     4.63       0.2200049  0.2694611  0.1612585  0.2292953  0.2780146  33.28001   22.53905   2.22       2.82       0.4860286  0.5634804  471.87     0.2234528  0.1358981  0.3110075 
1134.45    0.217      1          5          341.518    5.817872   3.59       4.644932722871236 3.32490601370926 2.994661917479167 2.753978939643512 2.734885738015393 3.5        6.82       3.195      5.035      2.45       1.57       0.252      4.15       0.2193156  0.2694611  0.1604456  0.2280402  0.2788287  32.31584   22.62546   2.22       2.735      0.4771666  0.5569168  473.03     0.2294998  0.1357112  0.3232884 
1134.65    0.216      1          5          339.07     5.796414   3.53       4.569299727529192 3.184525082331618 2.74423031103426 2.544759320643033 2.609923370522545 3.41       7.385      3.03       4.87       2.43       1.58       0.27       3.55       0.228957   0.2754491  0.182217   0.2292049  0.2860186  48.75256   23.4549    2.21       2.61       0.4852172  0.5610844  471.72     0.2199554  0.1339645  0.3059463 
1134.85    0.217      1          5          337.895    5.771103   3.45       4.161321905356916 2.76645983162629 2.412716311546211 2.384743172754748 2.574995145626481 3.345      7.6        2.985      4.685      2.41       1.6        0.271      2.7        0.241046   0.2874251  0.1957622  0.2399506  0.2899528  81.64211   24.47245   2.19       2.575      0.5046488  0.5710062  465.76     0.1879963  0.1319331  0.2440594 
1135.05    0.217      1          5          347.131    5.756855   3.25       3.503426893771297 2.293032926061028 2.154947795191336 2.41925608400599 2.753978939643512 3.235      6.3        2.755      4.15       2.39       1.63       0.262      2.29       0.2449004  0.2814371  0.1957583  0.2575059  0.2879595  96.22945   25.06458   2.2        2.755      0.5266935  0.5863986  460.14     0.165526   0.1308031  0.2002489 
1135.25    0.216      1          5          352.969    5.743752   3.2        3.239614174558446 2.199977272609879 2.405930173550346 2.924465763177952 3.399294044356857 3.34       6.1        2.685      3.935      2.45       1.64       0.2545     2.34       0.2383206  0.263473   0.1883987  0.2630901  0.2812884  72.68321   25.62174   2.23       3.41       0.5614947  0.6188067  460.37     0.1652992  0.1297725  0.2008259 
1135.45    0.218      1          5          341.888    5.702029   3.57       2.949847453682986 2.50353749722268 3.343725467199722 4.277288860949188 4.838181476546741 3.57       6.155      2.735      4.325      2.6        1.64       0.2215     2.75       0.2223134  0.2664671  0.1515471  0.248926   0.2677849  36.72334   27.47971   2.225      4.86       0.6054856  0.6616909  463.77     0.1753225  0.1265446  0.2241004 
1135.65    0.219      1          5          324.781    5.607625   4.2        4.773918725745713 4.757205061801056 6.647969614854854 8.186757599932827 7.021253449351121 4.455      7.135      3.275      4.375      3.14       1.68       0.1565     3.11       0.1925207  0.2664671  0.08308406 0.228011   0.2402433  10.30645   32.19617   2.225      7.065      0.624817   0.682538   467.04     0.184984   0.1195344  0.2504336 
1135.85    0.22       6          6          307.832    5.460557   5          10.77750434933322 10.11114236869168 14.46397594024122 14.43004504497245 10.3868089421136 7.16       23.885     3.125      4.655      4.09       1.82       0.1585     3.53       0.1704881  0.2245509  0.08160336 0.20531    0.2204732  4.027273   41.20719   2.295      10.405     0.6522093  0.7106498  470.31     0.1952009  0.109379   0.2810228 
1136.05    0.224      6          6          279.781    5.292802   6.18       23.75984848436538 15.7338361501574 19.24690884272069 16.15988861347751 11.30488832319895 11.05      23.575     3.395      5.37       5.28       2.07       0.1655     3.52       0.1319015  0.1467066  0.08467762 0.1643203  0.1844385  0.7767731  54.60284   2.425      11.31      0.5818004  0.657286   473.44     0.2066897  0.09884437 0.314535  
1136.25    0.224      6          6          234.884    5.160817   7.22       38.85097167382045 20.6273604709861 19.8647224999495 14.5023860105846 9.813021960639851 11.805     19.605     4.225      6.39       6.1        2.28       0.09649999 3.09       0.06178069 0.08982037 0.01243749 0.0830842  0.1164238  0.03903788 68.13857   2.52       9.825      0.1351139  0.3433111  475.69     0.2160714  0.09127416 0.3408686 
1136.45    0.222      6          6          209.969    5.119468   7.77       34.6017629608666 17.80726256334757 14.87345286071798 11.14634469231954 7.682759920757644 10.21      23.565     3.895      5.925      6.18       2.32       0.045      2.52       0.03648121 0.08383235 0          0.02561127 0.07799667 0.01327023 73.03381   2.53       7.705      0          0          475.91     0.2154593  0.08902396 0.3418947 
