~Version
 VERS              .         2.0                           : CWLS LOG ASCII STANDARD - VERSION 2.0
 WRAP              .         NO                            : ONE LINE PER DEPTH STEP
 DLM               .         SPACE                         : DELIMITING CHARACTER(SPACE TAB OR COMMA)
~Well Information
#_______________________________________________________________________________
#
#PARAMETER_NAME    .UNIT     VALUE                         : DESCRIPTION
#_______________________________________________________________________________
STRT               .м        2.45                          : First reference value
STOP               .м        1177.25                       : Last reference value
STEP               .м        0.2                           : Step increment
NULL               .         -9999                         : Missing value
COMP               .                                       : Company
WELL               .         6941                          : Well name
FLD                .         Узень                         : Field
LOC                .                                       : Location
CNTY               .                                       : County
STAT               .                                       : State
CTRY               .                                       : Country
SRVC               .                                       : Service Company
DATE               .         10.2.2016                     : Date
UWI                .                                       : Unique Well ID
Block              .         7                             : 
Category           .         Нефтяная                      : 
Condition          .         В работе                      : 
Date               .         27.02.2016                    : 
EREF               .m        91.6                          : 100.8
GRP                .                                       : Group name
Gor                .         14                            : 
Gorizont           .         14                            : 14
ISS                .                                       : Well surveys
Interpretator      .         Кайсанов Е.К                  : 
Kupol              .         Основной                      : osnovnoi
Mud                .         полимерный                    : 
Mud_density        .         1,34                          : 
Mud_resistivity    .         0,49                          : 
NGDU               .         НГДУ-2                        : 
ORIGINALWELLNAME   .         6941                          : 
Spud_date          .         2016                          : 1961
TIME               .         11_07                         : LOG TIME
Viscosity          .         40                            : 
X                  .m        42034.23                      : 46154
Y                  .m        84394.33                      : 85761.93
YEAR               .         2019                          : 
group              .         2016                          : 
Сдали_за_3_кв_2019 .         3                             : 
~Parameter Information Block
#_______________________________________________________________________________
#
#PARAMETER_NAME    .UNIT     VALUE                         : DESCRIPTION
#_______________________________________________________________________________
SET                .         LQC_KAZNIPI_Petrel            : 
TLFamily_CALI      .         Caliper                       : 
TLFamily_COLL      .         Net Reservoir Flag            : 
TLFamily_CSAT      .         Fluid Code                    : 
TLFamily_DEPT      .         Measured Depth                : 
TLFamily_DT        .         Compressional Slowness        : 
TLFamily_GR        .         Russian Gamma Ray             : 
TLFamily_GZ3       .         Gradient 225                  : 
TLFamily_IK1       .         Resistivity 05                : 
TLFamily_IK2       .         Resistivity 07                : 
TLFamily_IK3       .         Resistivity 10                : 
TLFamily_IK4       .         Resistivity 14                : 
TLFamily_IK5       .         Resistivity 20                : 
TLFamily_LLS       .         Lateral Log Resistivity       : 
TLFamily_MBK       .         Micro Lateral Log Resistivity : 
TLFamily_MINV      .         Micro Gradient Resistivity    : 
TLFamily_MNOR      .         Micro Resistivity             : 
TLFamily_NNKTB_1   .         Neutron Far                   : 
TLFamily_NNKTM_1   .         Neutron Near                  : 
TLFamily_NPHI      .         Neutron Porosity              : 
TLFamily_OGZ3      .         Gradient Inverted 225         : 
TLFamily_PHIE      .         Effective Porosity            : 
TLFamily_PHIED     .         Effective Porosity            : 
TLFamily_PHIEN     .         Effective Porosity            : 
TLFamily_PHIES     .         Effective Porosity            : 
TLFamily_PHIT      .         Porosity                      : 
TLFamily_PRMB      .         Permeability                  : 
TLFamily_PRMB_DGR  .         Permeability                  : 
TLFamily_RHOB      .         Bulk Density                  : 
TLFamily_RT        .         Formation Resistivity         : 
TLFamily_SOIL_ARCHIE .         Oil Saturation                : 
TLFamily_SOIL_DW   .         Oil Saturation                : 
TLFamily_SP        .         Spontaneous Potential         : 
TLFamily_VSH_FIN   .         Shale Volume                  : 
TLFamily_VSH_GR    .         Shale Volume                  : 
TLFamily_VSH_SP    .         Shale Volume                  : 
~Curve Information
#_______________________________________________________________________________
#
#LOGNAME           .UNIT     LOG_ID                        : DESCRIPTION
#_______________________________________________________________________________
DEPT               .м                                      : Колонка глубины 
CALI               .м                                      : Каверномер 
COLL               .unitless                               :  
CSAT               .unitless                               :  
DT                 .мкс/м                                  : Интервальное время пробега продольной волны 
GR                 .uR/h                                   : Гамма каротаж 
GZ3                .Ohmm                                   : Градиент-зонд  длиной 2.25м 
IK1                .OHMM                                   : И0.10И0.40 
IK2                .OHMM                                   : И0.14И0.56 
IK3                .OHMM                                   : И0.20И0.8 
IK4                .OHMM                                   : И0.28И1.12 
IK5                .OHMM                                   : И0.40И1.60 
LLS                .Ohmm                                   : Боковой каротаж 
MBK                .Ohmm                                   : Микробоковой каротаж 
MINV               .Ohmm                                   : Микро-градиент зонд 
MNOR               .Ohmm                                   : Микро-потенциал зонд 
NNKTB_1            .у.е.                                   : Показания большого зонда 2ННКт аппаратуры СРК 
NNKTM_1            .у.е.                                   : Показания малого зонда 2ННКт аппаратуры СРК 
NPHI               .v/v                                    : Кп 
OGZ3               .Ohmm                                   : Обращенный градиент-зонд 
PHIE               .v/v                                    : Описание 
PHIED              .v/v                                    :  
PHIEN              .v/v                                    :  
PHIES              .v/v                                    :  
PHIT               .v/v                                    : Описание 
PRMB               .mD                                     :  
PRMB_DGR           .mD                                     :  
RHOB               .г/см3                                  : Плотность по ГГКп 
RT                 .ohmm                                   : Удельное электрическое сопротивление 
SOIL_ARCHIE        .v/v                                    :  
SOIL_DW            .v/v                                    :  
SP                 .мВ                                     : Потенциал самополяризации 
VSH_FIN            .v/v                                    : Описание 
VSH_GR             .v/v                                    : Shale volume 
VSH_SP             .v/v                                    : Shale Volume 
~Ascii
# ...
1092.65    0.227      -9999      -9999      316.29     5.954128   2.07       2.304951192541863 2.204948979001589 2.189794510907427 2.174856317093211 2.109905211141058 2.3        2.215      3.335      2.695      2.32       1.48       -9999      3.64       0.1201311  0.1274694  -9999      0.1127928  0.207888   0.4701951  3.555678   2.25       2.11       0.002491251 0.2325609  488.34     0.5598001  0.3865041  0.733096  
1092.85    0.225      -9999      -9999      316.921    5.904496   2.11       2.39486951627844 2.304864421175297 2.264862026702674 2.244994432064353 2.209909500409417 2.35       2.48       3.66       2.885      2.32       1.5        -9999      3.74       0.1116076  0.1078325  -9999      0.1153826  0.1984296  0.3268897  3.811229   2.285      2.21       0          0.2059352  488.26     0.5538368  0.3757041  0.7319695 
1093.05    0.225      -9999      -9999      317.581    5.841008   2.18       2.404953221998299 2.284994529533933 2.27       2.279978070069973 2.279912279014261 2.42       2.325      3.7        2.89       2.28       1.5        -9999      3.81       0.1133298  0.1071938  -9999      0.1194658  0.1984854  0.3518043  4.165076   2.29       2.28       0          0.2230676  487.92     0.5432063  0.3623276  0.7240849 
1093.25    0.226      -9999      -9999      309.53     5.773448   2.18       2.509282766050889 2.434132288927617 2.423839928708165 2.404578965224474 2.389665248523316 2.53       2.47       3.305      3.04       2.32       1.5        -9999      3.7        -9999      0.107713   -9999      0.1320155  -9999      -9999      -9999      2.315      2.39       -9999      -9999      487.54     0.4027776  0.13212    0.6734352 
1093.45    0.227      -9999      -9999      300.038    5.702442   2.22       2.818563463894329 2.693956198604573 2.679701475911076 2.624766656295374 2.539685019840059 2.655      2.905      3.285      3.33       2.43       1.5        -9999      3.44       -9999      0.08953206 -9999      0.1200161  -9999      -9999      -9999      2.345      2.54       -9999      -9999      487.88     0.4046311  0.1265762  0.6826861 
1093.65    0.227      -9999      -9999      294.668    5.629617   2.32       3.009983388658505 2.834995590825484 2.769981949399693 2.72       2.594956647036675 2.635      2.945      3.19       3.24       2.53       1.5        -9999      2.85       -9999      0.08067288 -9999      0.1174783  -9999      -9999      -9999      2.365      2.595      -9999      -9999      487.11     0.3929605  0.1211319  0.6647891 
1093.85    0.225      -9999      -9999      301.699    5.580759   2.41       2.854259974144059 2.704440792474606 2.629524671875242 2.599519186311305 2.484753508901918 2.535      2.65       3.085      3.3        2.53       1.51       -9999      2.42       -9999      0.0957476  -9999      0.130911   -9999      -9999      -9999      2.345      2.485      -9999      -9999      486.22     0.3810337  0.1176113  0.644456  
1094.05    0.225      -9999      -9999      314.222    5.595138   2.39       2.552841554033466 2.463534046852204 2.409252996262535 2.34863790312598 2.253752426510064 2.33       2.275      3.485      2.92       2.38       1.5        -9999      1.88       -9999      0.101736   -9999      0.1502603  -9999      -9999      -9999      2.34       2.255      -9999      -9999      485.08     0.3687871  0.1186367  0.6189374 
1094.25    0.225      -9999      -9999      326.015    5.68443    2.38       2.158124185490724 2.093274946107176 2.098475637218598 2.073644135332772 1.979368586191061 2.155      1.71       3.035      2.585      2.2        1.47       -9999      2          -9999      0.1205181  -9999      0.1688247  -9999      -9999      -9999      2.315      1.98       -9999      -9999      483.26     0.3523515  0.1252073  0.5794957 
1094.45    0.224      -9999      -9999      330.315    5.803465   2.31       1.934838494551935 1.859892470010027 1.869759342803239 1.854831528737853 1.834993187998255 2.12       1.665      2.775      2.37       2.11       1.43       -9999      2.41       -9999      0.1421487  -9999      0.1785813  -9999      -9999      -9999      2.285      1.835      -9999      -9999      481.21     0.3360577  0.134536   0.5375794 
1094.65    0.224      -9999      -9999      319.406    5.858471   2.33       1.904940943966539 1.82499315067209 1.839755418527216 1.899052395275211 1.899052395275211 2.305      1.79       2.59       2.405      2.15       1.43       -9999      3.07       -9999      0.1421182  -9999      0.1667093  -9999      -9999      -9999      2.285      1.9        -9999      -9999      480.88     0.3353906  0.1390785  0.5317028 
1094.85    0.224      6          6          287.006    5.759875   2.76       2.247398496038945 2.200931620927375 2.200931620927375 2.325790188301283 2.362371689636912 2.655      2.82       3.36       2.965      2.34       1.47       -9999      3.82       -9999      0.1095251  -9999      0.122522   -9999      -9999      -9999      2.335      2.37       -9999      -9999      482.41     0.3474131  0.1310419  0.5637842 
1095.05    0.225      6          6          244.334    5.498621   3.38       3.976204220107413 3.702161530781714 3.602499132546737 3.551605270859925 3.509487142019472 3.975      5.365      4.35       5.425      2.82       1.54       0.1165     4.51       0.04630588 0.08750803 0          0.05140962 0.1285988  0.02017694 38.65768   2.37       3.53       0          0          483.95     0.3548347  0.1119216  0.5977479 
1095.25    0.225      6          6          223.797    5.18048    3.97       7.501919754302893 6.52498275859791 5.775015151495276 5.360457070064083 4.85128848863887 6.32       14.625     7.93       8.245      3.44       1.64       0.092      5.24       0.02075397 0.05601528 0          0.006246621 0.09561258 0.006785344 65.92715   2.42       4.865      0          0          485.59     0.3640622  0.0923641  0.6357604 
1095.45    0.223      6          6          220.454    4.972715   4.98       7.977317844990256 7.020021367488848 6.395498416855407 6.128164488654006 5.669779537160153 6.985      8.42       5.6        6.03       3.84       1.75       0.0825     5.53       0.01       0.009555719 0          0.0005392964 0.07437553 0.004289259 93.42501   2.5        5.67       0          0          485.65     0.3597465  0.08147621 0.6380169 
1095.65    0.225      6          6          221.22     5.008506   5.84       12.07402169950289 10.84656627693883 8.596045602486013 6.659091529630999 5.568707210834213 6.43       14.785     10.65      10.19      3.96       1.78       0.07300001 5.39       0.01       0.01723783 0          0.00897028 0.07436852 0.004289259 87.97958   2.495      5.57       0          0          483.85     0.3406198  0.08325583 0.5979838 
1095.85    0.225      6          6          243.272    5.326596   6.26       10.00573335643632 9.113451596408531 7.197610714676671 5.571821964135033 4.604237178947952 4.62       12.155     8.125      9.525      3.74       1.77       0.1145     4.53       0.07948485 0.1766467  0          0.06180785 0.1569637  0.08306351 51.59292   2.375      4.615      0.009982187 0.2762985  481.15     0.3212346  0.1008816  0.5415877 
1096.05    0.224      -9999      -9999      288.138    5.852532   5.21       3.21466950089741 3.406347016967003 3.215835816704578 3.020943561207326 2.9235252692597 2.98       2.465      4.19       3.57       3.12       1.72       0.1545     3.65       0.09765308 0.1310328  0.02858697 0.1333394  0.1795003  0.1802727  21.34718   2.31       2.945      0          0.2295625  479.06     0.3199591  0.1385808  0.5013374 
1096.25    0.226      -9999      -9999      316.743    6.413124   3.62       2.126617031813673 2.098475637218598 2.153323013391163 2.152440475367437 2.01643249329106 2          1.895      2.75       2.58       2.52       1.59       0.1005     2.23       0.1039251  0.14634    0          0.1654354  0.1785546  0.2355612  8.333681   2.28       2.02       0          0.08939967 475.93     0.3200819  0.1943927  0.445771  
1096.45    0.225      -9999      -9999      322.799    6.809264   2.47       1.809751364138179 1.854831528737853 1.94976921711263 1.98997487421324 1.879973404067196 2.03       1.88       2.76       2.575      2.3        1.49       0.082      1.4        0.1069341  0.1563944  0          0.1644079  0.1779981  0.2678162  4.287157   2.254      1.88       0          0.06502678 474.01     0.3308586  0.2469112  0.4148059 
