~Version
 VERS              .         2.0                           : CWLS LOG ASCII STANDARD - VERSION 2.0
 WRAP              .         NO                            : ONE LINE PER DEPTH STEP
 DLM               .         SPACE                         : DELIMITING CHARACTER(SPACE TAB OR COMMA)
~Well Information
#_______________________________________________________________________________
#
#PARAMETER_NAME    .UNIT     VALUE                         : DESCRIPTION
#_______________________________________________________________________________
STRT               .м        2.45                          : First reference value
STOP               .м        1177.25                       : Last reference value
STEP               .м        0.2                           : Step increment
NULL               .         -9999                         : Missing value
COMP               .                                       : Company
WELL               .         6941                          : Well name
FLD                .         Узень                         : Field
LOC                .                                       : Location
CNTY               .                                       : County
STAT               .                                       : State
CTRY               .                                       : Country
SRVC               .                                       : Service Company
DATE               .         10.2.2016                     : Date
UWI                .                                       : Unique Well ID
Block              .         7                             : 
Category           .         Нефтяная                      : 
Condition          .         В работе                      : 
Date               .         27.02.2016                    : 
EREF               .m        91.6                          : 100.8
GRP                .                                       : Group name
Gor                .         14                            : 
Gorizont           .         14                            : 14
ISS                .                                       : Well surveys
Interpretator      .         Кайсанов Е.К                  : 
Kupol              .         Основной                      : osnovnoi
Mud                .         полимерный                    : 
Mud_density        .         1,34                          : 
Mud_resistivity    .         0,49                          : 
NGDU               .         НГДУ-2                        : 
ORIGINALWELLNAME   .         6941                          : 
Spud_date          .         2016                          : 1961
TIME               .         11_07                         : LOG TIME
Viscosity          .         40                            : 
X                  .m        42034.23                      : 46154
Y                  .m        84394.33                      : 85761.93
YEAR               .         2019                          : 
group              .         2016                          : 
Сдали_за_3_кв_2019 .         3                             : 
~Parameter Information Block
#_______________________________________________________________________________
#
#PARAMETER_NAME    .UNIT     VALUE                         : DESCRIPTION
#_______________________________________________________________________________
SET                .         LQC_KAZNIPI_Petrel            : 
TLFamily_CALI      .         Caliper                       : 
TLFamily_COLL      .         Net Reservoir Flag            : 
TLFamily_CSAT      .         Fluid Code                    : 
TLFamily_DEPT      .         Measured Depth                : 
TLFamily_DT        .         Compressional Slowness        : 
TLFamily_GR        .         Russian Gamma Ray             : 
TLFamily_GZ3       .         Gradient 225                  : 
TLFamily_IK1       .         Resistivity 05                : 
TLFamily_IK2       .         Resistivity 07                : 
TLFamily_IK3       .         Resistivity 10                : 
TLFamily_IK4       .         Resistivity 14                : 
TLFamily_IK5       .         Resistivity 20                : 
TLFamily_LLS       .         Lateral Log Resistivity       : 
TLFamily_MBK       .         Micro Lateral Log Resistivity : 
TLFamily_MINV      .         Micro Gradient Resistivity    : 
TLFamily_MNOR      .         Micro Resistivity             : 
TLFamily_NNKTB_1   .         Neutron Far                   : 
TLFamily_NNKTM_1   .         Neutron Near                  : 
TLFamily_NPHI      .         Neutron Porosity              : 
TLFamily_OGZ3      .         Gradient Inverted 225         : 
TLFamily_PHIE      .         Effective Porosity            : 
TLFamily_PHIED     .         Effective Porosity            : 
TLFamily_PHIEN     .         Effective Porosity            : 
TLFamily_PHIES     .         Effective Porosity            : 
TLFamily_PHIT      .         Porosity                      : 
TLFamily_PRMB      .         Permeability                  : 
TLFamily_PRMB_DGR  .         Permeability                  : 
TLFamily_RHOB      .         Bulk Density                  : 
TLFamily_RT        .         Formation Resistivity         : 
TLFamily_SOIL_ARCHIE .         Oil Saturation                : 
TLFamily_SOIL_DW   .         Oil Saturation                : 
TLFamily_SP        .         Spontaneous Potential         : 
TLFamily_VSH_FIN   .         Shale Volume                  : 
TLFamily_VSH_GR    .         Shale Volume                  : 
TLFamily_VSH_SP    .         Shale Volume                  : 
~Curve Information
#_______________________________________________________________________________
#
#LOGNAME           .UNIT     LOG_ID                        : DESCRIPTION
#_______________________________________________________________________________
DEPT               .м                                      : Колонка глубины 
CALI               .м                                      : Каверномер 
COLL               .unitless                               :  
CSAT               .unitless                               :  
DT                 .мкс/м                                  : Интервальное время пробега продольной волны 
GR                 .uR/h                                   : Гамма каротаж 
GZ3                .Ohmm                                   : Градиент-зонд  длиной 2.25м 
IK1                .OHMM                                   : И0.10И0.40 
IK2                .OHMM                                   : И0.14И0.56 
IK3                .OHMM                                   : И0.20И0.8 
IK4                .OHMM                                   : И0.28И1.12 
IK5                .OHMM                                   : И0.40И1.60 
LLS                .Ohmm                                   : Боковой каротаж 
MBK                .Ohmm                                   : Микробоковой каротаж 
MINV               .Ohmm                                   : Микро-градиент зонд 
MNOR               .Ohmm                                   : Микро-потенциал зонд 
NNKTB_1            .у.е.                                   : Показания большого зонда 2ННКт аппаратуры СРК 
NNKTM_1            .у.е.                                   : Показания малого зонда 2ННКт аппаратуры СРК 
NPHI               .v/v                                    : Кп 
OGZ3               .Ohmm                                   : Обращенный градиент-зонд 
PHIE               .v/v                                    : Описание 
PHIED              .v/v                                    :  
PHIEN              .v/v                                    :  
PHIES              .v/v                                    :  
PHIT               .v/v                                    : Описание 
PRMB               .mD                                     :  
PRMB_DGR           .mD                                     :  
RHOB               .г/см3                                  : Плотность по ГГКп 
RT                 .ohmm                                   : Удельное электрическое сопротивление 
SOIL_ARCHIE        .v/v                                    :  
SOIL_DW            .v/v                                    :  
SP                 .мВ                                     : Потенциал самополяризации 
VSH_FIN            .v/v                                    : Описание 
VSH_GR             .v/v                                    : Shale volume 
VSH_SP             .v/v                                    : Shale Volume 
~Ascii
# ...
1020.65    0.226      -9999      -9999      284.474    4.051943   3.6        3.721934980625468 3.474708620877916 3.514868418590022 3.177735042447823 2.968636050444818 2.71       4.255      5.13       4.605      2.68       1.57       -9999      3.55       0.08975202 0.0945012  -9999      0.08500282 0.1711777  0.1287014  8.355592   2.32       2.97       0          0.1838486  494.34     0.5194137  0.2726717  0.7661555 
1020.85    0.225      -9999      -9999      307.574    4.323969   3.51       2.58391176319927 2.377898231632182 2.518928343561801 2.615702582481255 2.537616992376778 2.35       2.21       3.12       2.73       2.65       1.58       -9999      3.63       0.1056573  0.1109557  -9999      0.1003588  0.1945064  0.2536222  5.101418   2.275      2.54       0          0.2339606  496.03     0.5667671  0.3335342  0.8       
1021.05    0.225      -9999      -9999      330.461    4.505861   3.38       2.444381312316126 2.269801753457811 2.259800876183597 2.284731931759212 2.259446834957676 2.275      2.295      3.035      2.85       2.47       1.54       -9999      3.78       0.1180908  0.1176033  -9999      0.1185783  0.2107101  0.4310086  3.66781    2.255      2.26       0.01960751 0.2594868  497.89     0.5908174  0.3816348  0.8       
1021.25    0.228      -9999      -9999      333.854    4.54547    3.27       2.144947551806337 2.024252948620799 2.074849392124643 2.169907832144029 2.179977064099528 2.3        1.985      2.5        2.605      2.3        1.5        -9999      3.97       0.1288091  0.1373028  -9999      0.1203155  0.222319   0.6807941  3.413542   2.22       2.18       0.07555041 0.2947293  498.73     0.5964983  0.3929965  0.8       
1021.45    0.227      -9999      -9999      324.95     4.43609    3.19       2.490180716333832 2.257321421508369 2.276290842577168 2.313438998547497 2.373099239391499 2.52       2.37       2.875      3.105      2.36       1.48       -9999      4.45       0.1132354  0.1107505  -9999      0.1157203  0.2043482  0.3503908  4.162636   2.27       2.375      0.006505087 0.2518192  499.88     0.5812072  0.3624144  0.8       
1021.65    0.226      -9999      -9999      303.006    4.215916   3.16       2.969242327597859 2.662498826290594 2.814249455893853 2.830759615368109 2.77539186422368 3.015      2.975      3.84       3.645      2.5        1.5        -9999      4.93       0.08832118 0.07786937 -9999      0.098773   0.1751595  0.1210823  6.205962   2.335      2.78       0          0.1630438  500.92     0.5539408  0.3078816  0.8       
1021.85    0.225      -9999      -9999      276.939    3.95058    3.35       4.342257477396335 3.81853375001493 3.571260281749571 3.522413945010024 3.374166563760683 3.54       5.28       5.19       5.1        2.72       1.53       -9999      5.35       0.07041588 0.0689846  -9999      0.07184718 0.1529486  0.05641974 10.04212   2.36       3.375      0          0.0994067  501.39     0.5264752  0.2529504  0.8       
1022.05    0.224      -9999      -9999      262.844    3.710967   3.58       4.924083671100536 4.089217529063385 3.869987080081803 3.674914965002621 3.51       3.485      3.87       4.8        4.76       2.99       1.59       -9999      5.4        0.05436338 0.05258315 -9999      0.05614363 0.133672   0.02845115 15.50884   2.395      3.51       0          0          500.27     0.5059085  0.2118171  0.8       
1022.25    0.224      -9999      -9999      274.069    3.545669   3.64       4.532350383630991 4.018818234257428 3.651711927302043 3.287019926924691 3.247783859803481 3.29       4          6.225      5.115      3.09       1.63       -9999      5.21       0.0725295  0.06726305 -9999      0.07779595 0.149925   0.06174196 20.93108   2.375      3.25       0          0.08116359 498.72     0.4937046  0.1874092  0.8       
1022.45    0.225      -9999      -9999      289.387    3.450524   3.59       3.116857391668571 2.844257372320511 2.89402833434635 2.894477500344343 2.944893886033898 2.955      2.51       3.74       3.185      3.01       1.62       -9999      4.66       0.09276778 0.08364581 -9999      0.1018897  0.1691637  0.1463667  24.87372   2.35       2.945      0          0.1850417  498.09     0.4873286  0.1746573  0.8       
1022.65    0.225      -9999      -9999      280.964    3.374012   3.53       3.771418831155602 3.520326689384917 3.496040617612551 3.280487768609744 3.113229834111073 3.295      3.63       4.33       4.78       3.03       1.58       -9999      4.16       0.07765031 0.06375363 -9999      0.09154698 0.153292   0.07681219 28.57675   2.385      3.115      0          0.09813265 496.17     0.4825174  0.1650348  0.8       
1022.85    0.224      -9999      -9999      256.388    3.27454    3.51       5.749443451326307 4.948434095751618 4.824251237238694 4.313467282824934 3.697350402653389 3.945      7.095      7.075      7.305      3.18       1.59       -9999      3.64       0.06756949 0.07156587 -9999      0.06357311 0.1376836  0.04996996 34.22717   2.385      3.7        0          0.06740826 493.09     0.4472568  0.1533131  0.7412004 
1023.05    0.224      -9999      -9999      243.483    3.160935   3.51       5.049009803911938 4.009950124378086 4.229988179652504 4.304764801937551 3.934996823378636 3.71       3.93       4.445      4.43       3.3        1.65       -9999      3.14       0.07668629 0.09767944 -9999      0.05569316 0.1389157  0.07371812 42.05935   2.36       3.935      0          0.1436879  489.56     0.3969607  0.1409408  0.6529805 
1023.25    0.224      -9999      -9999      243.573    3.065008   3.51       5.784980553122024 4.728477556254234 4.478883789517205 4.439448163905059 3.934971410315455 3.695      4.625      4.27       4.77       3.35       1.68       -9999      2.9        0.1357819  0.2095809  -9999      0.06198299 0.1949532  0.9165772  50.05283   2.32       3.935      0.3307599  0.4442928  488.29     0.377453   0.1312746  0.6236314 
1023.45    0.224      -9999      -9999      241.771    3.003092   3.58       6.417756617386207 5.40792011775339 4.749621037514535 4.464773230523533 4.024922359499593 3.71       4.64       4.405      5.12       3.43       1.7        -9999      2.76       0.1411899  0.2215569  -9999      0.06082299 0.1991909  1.154352   56.00186   2.3        4.025      0.3599699  0.4661034  487.88     0.3699875  0.1253905  0.6145846 
1023.65    0.224      -9999      -9999      245.979    2.977518   3.68       4.901428363243558 4.139565194559178 3.847531676283213 3.793033087121965 3.763801269992985 3.46       3.475      4.585      4.62       3.37       1.71       -9999      2.72       0.1438411  0.2155689  -9999      0.07211338 0.2002443  1.292543   58.66077   2.31       3.765      0.3502105  0.4538943  487.06     0.3597949  0.1230379  0.5965519 
1023.85    0.225      -9999      -9999      244.492    2.980369   3.99       4.614932285527704 3.657813554570947 3.527605420111643 3.419634483391521 3.59       3.38       3.175      2.85       3.675      3.18       1.71       -9999      2.95       0.1499566  0.2305389  -9999      0.06937426 0.206315   1.677712   58.35824   2.285      3.59       0.3591982  0.4598356  487.01     0.3595094  0.1232979  0.5957209 
1024.05    0.224      -9999      -9999      233.193    2.986903   4.65       4.35697142519893 3.545109307200555 3.718911130962933 3.92674165180242 3.970692634793079 4.02       3.34       3.66       4.65       3.17       1.68       -9999      3.37       0.1337156  0.2245509  -9999      0.04288038 0.191985   0.8392583  57.67069   2.295      3.975      0.3249728  0.4385493  488.06     0.3716999  0.123896   0.6195037 
1024.25    0.224      -9999      -9999      223.373    2.984914   5.77       6.196692666253508 4.625386470339532 5.159166599364669 5.207801839548045 5.087406018787964 4.79       6.795      4.48       5.61       3.42       1.7        -9999      3.67       0.1068212  0.1886227  -9999      0.02501964 0.1632375  0.2665298  57.87914   2.355      5.11       0.2704222  0.402568   487        0.3598786  0.1237137  0.5960435 
1024.45    0.224      -9999      -9999      224.614    3.02198    7.02       12.40487001141084 8.585452812752511 8.147023996527812 7.618070621883207 6.198451419507942 6.625      16.26      8.81       9.61       3.7        1.75       -9999      3.87       0.08653332 0.1437125  -9999      0.0293541  0.1421972  0.1121928  54.11569   2.43       6.205      0.199848   0.3590961  486.39     0.3550789  0.1271571  0.5830008 
