~Version
 VERS              .         2.0                           : CWLS LOG ASCII STANDARD - VERSION 2.0
 WRAP              .         NO                            : ONE LINE PER DEPTH STEP
 DLM               .         SPACE                         : DELIMITING CHARACTER(SPACE TAB OR COMMA)
~Well Information
#_______________________________________________________________________________
#
#PARAMETER_NAME    .UNIT     VALUE                         : DESCRIPTION
#_______________________________________________________________________________
STRT               .м        2.45                          : First reference value
STOP               .м        1177.25                       : Last reference value
STEP               .м        0.2                           : Step increment
NULL               .         -9999                         : Missing value
COMP               .                                       : Company
WELL               .         6941                          : Well name
FLD                .         Узень                         : Field
LOC                .                                       : Location
CNTY               .                                       : County
STAT               .                                       : State
CTRY               .                                       : Country
SRVC               .                                       : Service Company
DATE               .         10.2.2016                     : Date
UWI                .                                       : Unique Well ID
Block              .         7                             : 
Category           .         Нефтяная                      : 
Condition          .         В работе                      : 
Date               .         27.02.2016                    : 
EREF               .m        91.6                          : 100.8
GRP                .                                       : Group name
Gor                .         14                            : 
Gorizont           .         14                            : 14
ISS                .                                       : Well surveys
Interpretator      .         Кайсанов Е.К                  : 
Kupol              .         Основной                      : osnovnoi
Mud                .         полимерный                    : 
Mud_density        .         1,34                          : 
Mud_resistivity    .         0,49                          : 
NGDU               .         НГДУ-2                        : 
ORIGINALWELLNAME   .         6941                          : 
Spud_date          .         2016                          : 1961
TIME               .         11_07                         : LOG TIME
Viscosity          .         40                            : 
X                  .m        42034.23                      : 46154
Y                  .m        84394.33                      : 85761.93
YEAR               .         2019                          : 
group              .         2016                          : 
Сдали_за_3_кв_2019 .         3                             : 
~Parameter Information Block
#_______________________________________________________________________________
#
#PARAMETER_NAME    .UNIT     VALUE                         : DESCRIPTION
#_______________________________________________________________________________
SET                .         LQC_KAZNIPI_Petrel            : 
TLFamily_CALI      .         Caliper                       : 
TLFamily_COLL      .         Net Reservoir Flag            : 
TLFamily_CSAT      .         Fluid Code                    : 
TLFamily_DEPT      .         Measured Depth                : 
TLFamily_DT        .         Compressional Slowness        : 
TLFamily_GR        .         Russian Gamma Ray             : 
TLFamily_GZ3       .         Gradient 225                  : 
TLFamily_IK1       .         Resistivity 05                : 
TLFamily_IK2       .         Resistivity 07                : 
TLFamily_IK3       .         Resistivity 10                : 
TLFamily_IK4       .         Resistivity 14                : 
TLFamily_IK5       .         Resistivity 20                : 
TLFamily_LLS       .         Lateral Log Resistivity       : 
TLFamily_MBK       .         Micro Lateral Log Resistivity : 
TLFamily_MINV      .         Micro Gradient Resistivity    : 
TLFamily_MNOR      .         Micro Resistivity             : 
TLFamily_NNKTB_1   .         Neutron Far                   : 
TLFamily_NNKTM_1   .         Neutron Near                  : 
TLFamily_NPHI      .         Neutron Porosity              : 
TLFamily_OGZ3      .         Gradient Inverted 225         : 
TLFamily_PHIE      .         Effective Porosity            : 
TLFamily_PHIED     .         Effective Porosity            : 
TLFamily_PHIEN     .         Effective Porosity            : 
TLFamily_PHIES     .         Effective Porosity            : 
TLFamily_PHIT      .         Porosity                      : 
TLFamily_PRMB      .         Permeability                  : 
TLFamily_PRMB_DGR  .         Permeability                  : 
TLFamily_RHOB      .         Bulk Density                  : 
TLFamily_RT        .         Formation Resistivity         : 
TLFamily_SOIL_ARCHIE .         Oil Saturation                : 
TLFamily_SOIL_DW   .         Oil Saturation                : 
TLFamily_SP        .         Spontaneous Potential         : 
TLFamily_VSH_FIN   .         Shale Volume                  : 
TLFamily_VSH_GR    .         Shale Volume                  : 
TLFamily_VSH_SP    .         Shale Volume                  : 
~Curve Information
#_______________________________________________________________________________
#
#LOGNAME           .UNIT     LOG_ID                        : DESCRIPTION
#_______________________________________________________________________________
DEPT               .м                                      : Колонка глубины 
CALI               .м                                      : Каверномер 
COLL               .unitless                               :  
CSAT               .unitless                               :  
DT                 .мкс/м                                  : Интервальное время пробега продольной волны 
GR                 .uR/h                                   : Гамма каротаж 
GZ3                .Ohmm                                   : Градиент-зонд  длиной 2.25м 
IK1                .OHMM                                   : И0.10И0.40 
IK2                .OHMM                                   : И0.14И0.56 
IK3                .OHMM                                   : И0.20И0.8 
IK4                .OHMM                                   : И0.28И1.12 
IK5                .OHMM                                   : И0.40И1.60 
LLS                .Ohmm                                   : Боковой каротаж 
MBK                .Ohmm                                   : Микробоковой каротаж 
MINV               .Ohmm                                   : Микро-градиент зонд 
MNOR               .Ohmm                                   : Микро-потенциал зонд 
NNKTB_1            .у.е.                                   : Показания большого зонда 2ННКт аппаратуры СРК 
NNKTM_1            .у.е.                                   : Показания малого зонда 2ННКт аппаратуры СРК 
NPHI               .v/v                                    : Кп 
OGZ3               .Ohmm                                   : Обращенный градиент-зонд 
PHIE               .v/v                                    : Описание 
PHIED              .v/v                                    :  
PHIEN              .v/v                                    :  
PHIES              .v/v                                    :  
PHIT               .v/v                                    : Описание 
PRMB               .mD                                     :  
PRMB_DGR           .mD                                     :  
RHOB               .г/см3                                  : Плотность по ГГКп 
RT                 .ohmm                                   : Удельное электрическое сопротивление 
SOIL_ARCHIE        .v/v                                    :  
SOIL_DW            .v/v                                    :  
SP                 .мВ                                     : Потенциал самополяризации 
VSH_FIN            .v/v                                    : Описание 
VSH_GR             .v/v                                    : Shale volume 
VSH_SP             .v/v                                    : Shale Volume 
~Ascii
# ...
888.65     0.227      -9999      -9999      375.665    7.42834    3.49       2666.030000000001 2665.620099999999 2666.030000000001 2665.620099999999 2666.030000000001 2.56       -9999      -9999      -9999      2.24       1.45       -9999      3.42       -9999      -9999      -9999      0.1106835  -9999      -9999      -9999      -9999      2.56       -9999      -9999      526.98     0.7488607  0.8        0.6977214 
888.85     0.228      -9999      -9999      383.885    7.525078   3.14       77.79388214989255 2665.620099999999 2666.030000000001 2665.620099999999 2666.030000000001 2.53       -9999      -9999      -9999      2.22       1.44       -9999      3.72       -9999      -9999      -9999      0.1228457  -9999      -9999      -9999      -9999      2.53       -9999      -9999      525.66     0.7308673  0.8        0.6617346 
889.05     0.225      -9999      -9999      372.051    7.41909    3.03       2.24494988808212 76.75298314103181 2666.030000000001 2665.620099999999 2666.030000000001 2.695      1.775      1.58       2.045      2.22       1.46       -9999      3.96       -9999      -9999      -9999      0.1175334  -9999      -9999      -9999      -9999      2.695      -9999      -9999      524.68     0.7175781  0.8        0.6351561 
889.25     0.228      -9999      -9999      343.52     7.18692    3.07       2.588899380045505 2.542144763777232 2.572236381050544 2665.620099999999 2666.030000000001 2.96       1.99       1.675      2.25       2.34       1.49       -9999      4.43       -9999      -9999      -9999      0.1029585  -9999      -9999      -9999      -9999      2.96       -9999      -9999      523.16     0.682611   0.7677662  0.5974559 
889.45     0.228      -9999      -9999      316.635    6.93445    3.39       3.724969798535301 3.624582734605523 3.562807881432987 98.36768251274094 2666.030000000001 3.515      3.335      2.115      2.755      2.59       1.55       -9999      4.78       -9999      -9999      -9999      0.09950452 -9999      -9999      -9999      -9999      3.515      -9999      -9999      521.48     0.60344    0.6485406  0.5583395 
889.65     0.228      -9999      -9999      306.944    6.764397   4.03       5.556077753234309 4.49165893629422 3.991541055782546 3.854451971422064 2666.030000000001 3.84       3.575      1.83       2.93       2.79       1.61       -9999      4.94       -9999      -9999      -9999      0.1030643  -9999      -9999      -9999      -9999      3.84       -9999      -9999      520.36     0.5557033  0.5788565  0.53255   
889.85     0.228      -9999      -9999      319.408    6.725037   4.24       4.645772271645645 4.032617016280413 4.122111109613123 3.806638937435309 97.55883916861875 3.54       3.405      1.885      2.88       2.8        1.62       -9999      4.69       -9999      -9999      -9999      0.122997   -9999      -9999      -9999      -9999      3.54       -9999      -9999      519.52     0.5385154  0.5638253  0.5132054 
890.05     0.228      -9999      -9999      337.436    6.778926   4.08       3.393051723743817 3.18960812640054 3.104094070739566 3.072848841059515 3.176916744266524 2.985      2.285      1.61       2.315      2.72       1.57       -9999      3.93       -9999      -9999      -9999      0.1433938  -9999      -9999      -9999      -9999      2.985      -9999      -9999      518.14     0.5344918  0.5845055  0.4844782 
890.25     0.229      -9999      -9999      343.083    6.835908   3.58       3.154108431871041 3.004663042672173 2.97499579831636 2.844960456667193 2.829929327739475 2.905      2.21       1.68       2.27       2.53       1.51       -9999      3.5        -9999      -9999      -9999      0.1500171  -9999      -9999      -9999      -9999      2.905      -9999      -9999      516.64     0.5311652  0.6071984  0.455132  
890.45     0.229      -9999      -9999      341.091    6.817592   3.28       2.964995784145395 2.894961139635539 2.954961928688744 2.864786204937504 2.814960035240305 2.93       2.245      1.66       2.28       2.4        1.49       -9999      3.48       -9999      -9999      -9999      0.1530543  -9999      -9999      -9999      -9999      2.93       -9999      -9999      515.34     0.515267   0.5998093  0.4307246 
890.65     0.228      -9999      -9999      333.343    6.686719   3.17       3.148412298286119 2.898275349237774 3.024070105007403 3.068370903264353 2.979395911925704 3.16       2.42       1.735      2.39       2.52       1.5        -9999      3.54       -9999      -9999      -9999      0.1550049  -9999      -9999      -9999      -9999      3.16       -9999      -9999      514.75     0.4841813  0.5495675  0.4187951 
890.85     0.229      -9999      -9999      312.709    6.446369   3.26       3.701567235645207 3.385217865958022 3.519488599214448 3.604455576089354 3.441511295928173 3.67       2.895      1.96       2.76       2.74       1.54       -9999      3.75       -9999      -9999      -9999      0.1463027  -9999      -9999      -9999      -9999      3.67       -9999      -9999      514.43     0.43971    0.4680019  0.4114181 
891.05     0.228      -9999      -9999      301.551    6.150297   3.62       5.91547124073736 4.939230709330713 4.49252712846529 4.476773391629095 4.04306814189408 4.12       4.185      2.565      3.775      2.99       1.63       -9999      3.92       -9999      -9999      -9999      0.1449787  -9999      -9999      -9999      -9999      4.12       -9999      -9999      514.96     0.4007576  0.3839708  0.4175443 
891.25     0.227      -9999      -9999      309.804    5.901295   4.07       5.323119386224584 4.748599793623379 4.542664416397056 4.627569556473462 4.399988636348962 4.265      3.76       2.615      3.685      3.19       1.71       -9999      3.87       -9999      -9999      -9999      0.1640986  -9999      -9999      -9999      -9999      4.265      -9999      -9999      515.19     0.3720087  0.325097   0.4189204 
891.45     0.229      -9999      -9999      314.885    5.798906   4.36       4.691044659774952 4.136520276754664 4.170899183629563 4.099695110614878 4.164324675142332 3.775      3.395      2.025      2.995      3.08       1.71       -9999      3.7        -9999      -9999      -9999      0.1738897  -9999      -9999      -9999      -9999      3.775      -9999      -9999      515.15     0.3597848  0.3035915  0.4159781 
891.65     0.228      -9999      -9999      317.773    5.87461    4.44       5.16650752443101 4.689904050191252 4.393973145116041 4.054922933916282 3.874274125562189 3.5        4.31       2.29       3.285      2.87       1.67       -9999      3.45       -9999      -9999      -9999      0.1754763  -9999      -9999      -9999      -9999      3.5        -9999      -9999      514.99     0.3652555  0.3193496  0.4111613 
891.85     0.227      -9999      -9999      335.244    6.079886   4.51       3.829516940816194 3.498999857101793 3.655406954088395 3.505880773785476 3.467563986431826 3.05       2.615      2.18       2.72       2.67       1.63       -9999      3.33       -9999      -9999      -9999      0.1870081  -9999      -9999      -9999      -9999      3.05       -9999      -9999      515.08     0.3883141  0.3663178  0.4103104 
892.05     0.226      -9999      -9999      350.167    6.328858   4.44       2.965703963648695 2.752162785883274 2.901378982484183 3.003797596377056 3.0289437102727 2.835      2.095      2.2        2.68       2.47       1.57       -9999      3.29       -9999      -9999      -9999      0.1894408  -9999      -9999      -9999      -9999      3.03       -9999      -9999      515.91     0.4269391  0.4326475  0.4212307 
892.25     0.226      -9999      -9999      339.715    6.554924   4.3        2.733971470224223 2.634425933671319 2.769350104266342 2.944044836615094 2.919931506045989 2.785      2.095      1.95       2.335      2.43       1.54       -9999      3.45       -9999      -9999      -9999      0.1679809  -9999      -9999      -9999      -9999      2.92       -9999      -9999      516.19     0.4633256  0.5032237  0.4234276 
892.45     0.227      -9999      -9999      319.167    6.747811   4.3        3.817394399325844 3.457744929864464 3.603040382788245 3.489555845663104 3.228126391577753 3.085      2.945      2.165      2.875      2.46       1.57       -9999      3.67       -9999      -9999      -9999      0.1356578  -9999      -9999      -9999      -9999      3.23       -9999      -9999      516.25     0.4972711  0.5724744  0.4220679 
