~Version
 VERS              .         2.0                           : CWLS LOG ASCII STANDARD - VERSION 2.0
 WRAP              .         NO                            : ONE LINE PER DEPTH STEP
 DLM               .         SPACE                         : DELIMITING CHARACTER(SPACE TAB OR COMMA)
~Well Information
#_______________________________________________________________________________
#
#PARAMETER_NAME    .UNIT     VALUE                         : DESCRIPTION
#_______________________________________________________________________________
STRT               .м        2.45                          : First reference value
STOP               .м        1177.25                       : Last reference value
STEP               .м        0.2                           : Step increment
NULL               .         -9999                         : Missing value
COMP               .                                       : Company
WELL               .         6941                          : Well name
FLD                .         Узень                         : Field
LOC                .                                       : Location
CNTY               .                                       : County
STAT               .                                       : State
CTRY               .                                       : Country
SRVC               .                                       : Service Company
DATE               .         10.2.2016                     : Date
UWI                .                                       : Unique Well ID
Block              .         7                             : 
Category           .         Нефтяная                      : 
Condition          .         В работе                      : 
Date               .         27.02.2016                    : 
EREF               .m        91.6                          : 100.8
GRP                .                                       : Group name
Gor                .         14                            : 
Gorizont           .         14                            : 14
ISS                .                                       : Well surveys
Interpretator      .         Кайсанов Е.К                  : 
Kupol              .         Основной                      : osnovnoi
Mud                .         полимерный                    : 
Mud_density        .         1,34                          : 
Mud_resistivity    .         0,49                          : 
NGDU               .         НГДУ-2                        : 
ORIGINALWELLNAME   .         6941                          : 
Spud_date          .         2016                          : 1961
TIME               .         11_07                         : LOG TIME
Viscosity          .         40                            : 
X                  .m        42034.23                      : 46154
Y                  .m        84394.33                      : 85761.93
YEAR               .         2019                          : 
group              .         2016                          : 
Сдали_за_3_кв_2019 .         3                             : 
~Parameter Information Block
#_______________________________________________________________________________
#
#PARAMETER_NAME    .UNIT     VALUE                         : DESCRIPTION
#_______________________________________________________________________________
SET                .         LQC_KAZNIPI_Petrel            : 
TLFamily_CALI      .         Caliper                       : 
TLFamily_COLL      .         Net Reservoir Flag            : 
TLFamily_CSAT      .         Fluid Code                    : 
TLFamily_DEPT      .         Measured Depth                : 
TLFamily_DT        .         Compressional Slowness        : 
TLFamily_GR        .         Russian Gamma Ray             : 
TLFamily_GZ3       .         Gradient 225                  : 
TLFamily_IK1       .         Resistivity 05                : 
TLFamily_IK2       .         Resistivity 07                : 
TLFamily_IK3       .         Resistivity 10                : 
TLFamily_IK4       .         Resistivity 14                : 
TLFamily_IK5       .         Resistivity 20                : 
TLFamily_LLS       .         Lateral Log Resistivity       : 
TLFamily_MBK       .         Micro Lateral Log Resistivity : 
TLFamily_MINV      .         Micro Gradient Resistivity    : 
TLFamily_MNOR      .         Micro Resistivity             : 
TLFamily_NNKTB_1   .         Neutron Far                   : 
TLFamily_NNKTM_1   .         Neutron Near                  : 
TLFamily_NPHI      .         Neutron Porosity              : 
TLFamily_OGZ3      .         Gradient Inverted 225         : 
TLFamily_PHIE      .         Effective Porosity            : 
TLFamily_PHIED     .         Effective Porosity            : 
TLFamily_PHIEN     .         Effective Porosity            : 
TLFamily_PHIES     .         Effective Porosity            : 
TLFamily_PHIT      .         Porosity                      : 
TLFamily_PRMB      .         Permeability                  : 
TLFamily_PRMB_DGR  .         Permeability                  : 
TLFamily_RHOB      .         Bulk Density                  : 
TLFamily_RT        .         Formation Resistivity         : 
TLFamily_SOIL_ARCHIE .         Oil Saturation                : 
TLFamily_SOIL_DW   .         Oil Saturation                : 
TLFamily_SP        .         Spontaneous Potential         : 
TLFamily_VSH_FIN   .         Shale Volume                  : 
TLFamily_VSH_GR    .         Shale Volume                  : 
TLFamily_VSH_SP    .         Shale Volume                  : 
~Curve Information
#_______________________________________________________________________________
#
#LOGNAME           .UNIT     LOG_ID                        : DESCRIPTION
#_______________________________________________________________________________
DEPT               .м                                      : Колонка глубины 
CALI               .м                                      : Каверномер 
COLL               .unitless                               :  
CSAT               .unitless                               :  
DT                 .мкс/м                                  : Интервальное время пробега продольной волны 
GR                 .uR/h                                   : Гамма каротаж 
GZ3                .Ohmm                                   : Градиент-зонд  длиной 2.25м 
IK1                .OHMM                                   : И0.10И0.40 
IK2                .OHMM                                   : И0.14И0.56 
IK3                .OHMM                                   : И0.20И0.8 
IK4                .OHMM                                   : И0.28И1.12 
IK5                .OHMM                                   : И0.40И1.60 
LLS                .Ohmm                                   : Боковой каротаж 
MBK                .Ohmm                                   : Микробоковой каротаж 
MINV               .Ohmm                                   : Микро-градиент зонд 
MNOR               .Ohmm                                   : Микро-потенциал зонд 
NNKTB_1            .у.е.                                   : Показания большого зонда 2ННКт аппаратуры СРК 
NNKTM_1            .у.е.                                   : Показания малого зонда 2ННКт аппаратуры СРК 
NPHI               .v/v                                    : Кп 
OGZ3               .Ohmm                                   : Обращенный градиент-зонд 
PHIE               .v/v                                    : Описание 
PHIED              .v/v                                    :  
PHIEN              .v/v                                    :  
PHIES              .v/v                                    :  
PHIT               .v/v                                    : Описание 
PRMB               .mD                                     :  
PRMB_DGR           .mD                                     :  
RHOB               .г/см3                                  : Плотность по ГГКп 
RT                 .ohmm                                   : Удельное электрическое сопротивление 
SOIL_ARCHIE        .v/v                                    :  
SOIL_DW            .v/v                                    :  
SP                 .мВ                                     : Потенциал самополяризации 
VSH_FIN            .v/v                                    : Описание 
VSH_GR             .v/v                                    : Shale volume 
VSH_SP             .v/v                                    : Shale Volume 
~Ascii
# ...
1056.65    0.223      -9999      -9999      335.368    6.809703   2.12       1.899894733926112 1.759744299607258 1.729971098024496 1.784936973677256 1.764822937294334 1.905      1.615      2.6        2.27       2.23       1.46       -9999      2.38       0.1046751  0.1096592  -9999      0.09969095 0.2092707  0.2432171  1.07476    2.24       1.765      0          0.1180918  493.77     0.6672141  0.6299827  0.7044455 
1056.85    0.223      -9999      -9999      322.388    6.694149   2.12       2.148115453135404 1.918332609324906 1.929067132061369 1.914471206364726 1.889761889762766 1.97       1.77       2.73       2.72       2.27       1.47       -9999      2.4        0.1030797  0.1140248  -9999      0.09213471 0.2045864  0.2272191  1.263251   2.24       1.89       0          0.1306792  493.79     0.6475098  0.5897561  0.7052635 
1057.05    0.224      -9999      -9999      317.173    6.601142   2.16       2.399979166576244 2.149906974731697 2.12       2.07       2.019900987672416 2.05       2.165      2.845      2.81       2.28       1.48       -9999      2.39       0.08838026 0.08672457 -9999      0.09003596 0.1880191  0.1213878  1.438716   2.29       2.02       0          0.06044428 494.04     0.6355946  0.5592521  0.7119371 
1057.25    0.223      -9999      -9999      323.528    6.552824   2.2        2.303779503337939 2.0580330415229 2.048804529475665 1.984489858880614 1.959974489629903 1.98       2.03       2.525      2.685      2.28       1.5        -9999      2.36       0.09316896 0.08600225 -9999      0.1003357  0.1912003  0.1488926  1.53929    2.295      1.96       0          0.07479533 493.82     0.625341   0.5440326  0.7066493 
1057.45    0.225      -9999      -9999      333.191    6.560788   2.24       2.049902436702781 1.839891301137108 1.839891301137108 1.84466799180774 1.834666182170479 1.865      1.855      2.36       2.35       2.35       1.49       -9999      2.26       0.1097196  0.1077422  -9999      0.111697   0.2071978  0.3015998  1.522241   2.26       1.835      0          0.1454849  493.43     0.6218122  0.5465125  0.697112  
1057.65    0.226      -9999      -9999      338.871    6.613385   2.28       1.989899494949385 1.824993150672067 1.81       1.789972066821133 1.729884389200574 1.815      1.83       2.28       2.325      2.38       1.46       -9999      2.24       0.1123096  0.1075041  -9999      0.1171151  0.2099563  0.3368249  1.414295   2.26       1.73       0          0.1349122  492.81     0.6228868  0.5631754  0.6825982 
1057.85    0.226      -9999      -9999      343.201    6.671549   2.28       1.924941557554445 1.759886359967643 1.744935528895013 1.72493478137584 1.669970059611871 1.79       1.785      2.175      2.265      2.25       1.43       -9999      2.26       0.1209849  0.119942   -9999      0.1220279  0.2183048  0.4876325  1.303814   2.24       1.67       0          0.1648483  491.82     0.6208022  0.582194   0.6594104 
1058.05    0.227      -9999      -9999      346.9      6.686018   2.42       1.814827815524106 1.649878783426225 1.649727250184102 1.634808857328587 1.599968749694818 1.775      1.655      2.275      2.2        2.14       1.41       -9999      2.32       0.1267204  0.1249743  -9999      0.1284665  0.2225981  0.6227686  1.277698   2.235      1.6        0          0.172042   490.8      0.6116029  0.5870241  0.6361817 
1058.25    0.225      -9999      -9999      342.357    6.617732   2.64       1.78       1.6        1.574928569808803 1.584992113545049 1.594929465525043 1.83       1.64       2.335      2.195      2.2        1.42       -9999      2.35       0.1274907  0.1186525  -9999      0.1363289  0.2172492  0.643569   1.405725   2.26       1.595      0          0.1605087  488.28     0.5725684  0.5645749  0.5805618 
1058.45    0.224      -9999      -9999      322.33     6.447291   2.71       1.828660712105994 1.63890207151007 1.643289384131718 1.723774927303446 1.762952069683121 2.08       1.735      2.445      2.315      2.32       1.47       -9999      2.55       0.1159866  0.1019335  -9999      0.1300398  0.1985089  0.3940144  1.784073   2.305      1.765      0          0.1251065  486.33     0.5264081  0.512217   0.5405991 
1058.65    0.226      -9999      -9999      295.828    6.198911   2          2.772706259235713 2.462315982972888 2.425901894142333 2.328669147818649 2.22148598915259 2.61       2.73       3.66       3.455      2.48       1.52       -9999      2.82       0.1019691  0.09121036 -9999      0.1127279  0.1772496  0.2167075  2.524993   2.34       2.225      0          0.1219187  485.05     0.480213   0.4444858  0.5159401 
1058.85    0.226      -9999      -9999      285.012    5.970425   2.31       4.087493119259536 3.437644542415124 3.299757566852359 3.048671841966392 2.758532218408709 2.865      4.18       3.77       4.2        2.74       1.61       -9999      2.92       0.1033574  0.1001907  -9999      0.106524   0.1744021  0.2299255  3.475564   2.335      2.76       0          0.2081413  485.03     0.4531931  0.3901176  0.5162687 
1059.05    0.224      -9999      -9999      293.278    5.894048   2.45       4.141859485786547 3.247845439672276 2.996948448005071 2.811263061330262 2.656821409127832 2.635      3.505      3.635      3.565      3.01       1.67       -9999      2.77       0.1229071  0.1274848  -9999      0.1183294  0.1937056  0.5292927  3.867325   2.29       2.66       0.1228616  0.2934081  485.68     0.4516228  0.3734692  0.5297763 
1059.25    0.227      -9999      -9999      314.814    6.018794   2.4        2.651037532740719 2.302607217916247 2.213368473616627 2.186709857297031 2.131900560532785 2.105      2.18       2.895      2.675      2.69       1.61       -9999      2.45       0.1436438  0.1511514  -9999      0.1361361  0.2188811  1.28171    3.248251   2.24       2.135      0.1510091  0.3114953  487.07     0.479938   0.4010426  0.5588334 
1059.45    0.226      -9999      -9999      330.849    6.24516    2.24       2.217746604100658 2.033961651555899 1.949358868961793 1.894465623863363 1.864457025517081 1.915      1.915      2.695      2.475      2.45       1.52       -9999      2.34       0.1533102  0.1623898  -9999      0.1442306  0.2333064  1.935687   2.366858   2.21       1.865      0.1452807  0.3092548  487.29     0.5102944  0.4563806  0.5642082 
1059.65    0.225      -9999      -9999      330.503    6.410024   2.14       1.934683436637553 1.784432682955464 1.839972825886273 1.829972677391683 1.814938015470535 1.93       1.705      2.71       2.315      2.43       1.5        -9999      2.32       0.1368055  0.1348374  -9999      0.1387736  0.2193491  0.957476   1.879516   2.25       1.815      0.04402679 0.2393402  486.65     0.5265448  0.5014319  0.5516577 
1059.85    0.224      -9999      -9999      317.803    6.422095   2.1        2.149418526020116 1.946304189996758 2.017523234066732 2.002748111969934 1.923902284420763 2.08       1.935      2.735      2.67       2.53       1.49       -9999      2.38       0.1152968  0.1069641  -9999      0.1236294  0.1984964  0.3825902  1.848054   2.295      1.925      0          0.1602341  486.85     0.5307292  0.5049003  0.5565581 
1060.05    0.223      -9999      -9999      306.041    6.298478   2.17       2.744776857961317 2.334737672630482 2.329978540673711 2.319655146783676 2.12452347598232 2.225      2.78       3.03       3.225      2.63       1.51       -9999      2.42       0.1057633  0.0995348  -9999      0.1119918  0.1878643  0.2547714  2.196802   2.31       2.125      0          0.1449812  487.78     0.5237215  0.4704891  0.5769538 
1060.25    0.224      -9999      -9999      303.521    6.100765   2.28       2.474146317419404 2.144014925321184 2.119410295341607 2.269647549731015 2.249977777668037 2.305      2.12       2.635      2.735      2.6        1.57       -9999      2.55       0.1039809  0.09934379 -9999      0.1086179  0.1862171  0.2361218  2.896454   2.31       2.25       0          0.15901    490.08     0.5245836  0.4202605  0.6289067 
1060.45    0.224      -9999      -9999      294.711    5.876719   2.39       2.839013913315678 2.439180190145862 2.343842998154953 2.357435046825257 2.379243577274088 2.42       2.39       3.07       3.07       2.72       1.61       -9999      2.66       0.09398231 0.08695748 -9999      0.1010071  0.1743903  0.1541482  3.962184   2.335      2.38       0          0.1146042  491.2      0.5129215  0.369792   0.6560511 
