~Version
 VERS              .         2.0                           : CWLS LOG ASCII STANDARD - VERSION 2.0
 WRAP              .         NO                            : ONE LINE PER DEPTH STEP
 DLM               .         SPACE                         : DELIMITING CHARACTER(SPACE TAB OR COMMA)
~Well Information
#_______________________________________________________________________________
#
#PARAMETER_NAME    .UNIT     VALUE                         : DESCRIPTION
#_______________________________________________________________________________
STRT               .м        2.45                          : First reference value
STOP               .м        1177.25                       : Last reference value
STEP               .м        0.2                           : Step increment
NULL               .         -9999                         : Missing value
COMP               .                                       : Company
WELL               .         6941                          : Well name
FLD                .         Узень                         : Field
LOC                .                                       : Location
CNTY               .                                       : County
STAT               .                                       : State
CTRY               .                                       : Country
SRVC               .                                       : Service Company
DATE               .         10.2.2016                     : Date
UWI                .                                       : Unique Well ID
Block              .         7                             : 
Category           .         Нефтяная                      : 
Condition          .         В работе                      : 
Date               .         27.02.2016                    : 
EREF               .m        91.6                          : 100.8
GRP                .                                       : Group name
Gor                .         14                            : 
Gorizont           .         14                            : 14
ISS                .                                       : Well surveys
Interpretator      .         Кайсанов Е.К                  : 
Kupol              .         Основной                      : osnovnoi
Mud                .         полимерный                    : 
Mud_density        .         1,34                          : 
Mud_resistivity    .         0,49                          : 
NGDU               .         НГДУ-2                        : 
ORIGINALWELLNAME   .         6941                          : 
Spud_date          .         2016                          : 1961
TIME               .         11_07                         : LOG TIME
Viscosity          .         40                            : 
X                  .m        42034.23                      : 46154
Y                  .m        84394.33                      : 85761.93
YEAR               .         2019                          : 
group              .         2016                          : 
Сдали_за_3_кв_2019 .         3                             : 
~Parameter Information Block
#_______________________________________________________________________________
#
#PARAMETER_NAME    .UNIT     VALUE                         : DESCRIPTION
#_______________________________________________________________________________
SET                .         LQC_KAZNIPI_Petrel            : 
TLFamily_CALI      .         Caliper                       : 
TLFamily_COLL      .         Net Reservoir Flag            : 
TLFamily_CSAT      .         Fluid Code                    : 
TLFamily_DEPT      .         Measured Depth                : 
TLFamily_DT        .         Compressional Slowness        : 
TLFamily_GR        .         Russian Gamma Ray             : 
TLFamily_GZ3       .         Gradient 225                  : 
TLFamily_IK1       .         Resistivity 05                : 
TLFamily_IK2       .         Resistivity 07                : 
TLFamily_IK3       .         Resistivity 10                : 
TLFamily_IK4       .         Resistivity 14                : 
TLFamily_IK5       .         Resistivity 20                : 
TLFamily_LLS       .         Lateral Log Resistivity       : 
TLFamily_MBK       .         Micro Lateral Log Resistivity : 
TLFamily_MINV      .         Micro Gradient Resistivity    : 
TLFamily_MNOR      .         Micro Resistivity             : 
TLFamily_NNKTB_1   .         Neutron Far                   : 
TLFamily_NNKTM_1   .         Neutron Near                  : 
TLFamily_NPHI      .         Neutron Porosity              : 
TLFamily_OGZ3      .         Gradient Inverted 225         : 
TLFamily_PHIE      .         Effective Porosity            : 
TLFamily_PHIED     .         Effective Porosity            : 
TLFamily_PHIEN     .         Effective Porosity            : 
TLFamily_PHIES     .         Effective Porosity            : 
TLFamily_PHIT      .         Porosity                      : 
TLFamily_PRMB      .         Permeability                  : 
TLFamily_PRMB_DGR  .         Permeability                  : 
TLFamily_RHOB      .         Bulk Density                  : 
TLFamily_RT        .         Formation Resistivity         : 
TLFamily_SOIL_ARCHIE .         Oil Saturation                : 
TLFamily_SOIL_DW   .         Oil Saturation                : 
TLFamily_SP        .         Spontaneous Potential         : 
TLFamily_VSH_FIN   .         Shale Volume                  : 
TLFamily_VSH_GR    .         Shale Volume                  : 
TLFamily_VSH_SP    .         Shale Volume                  : 
~Curve Information
#_______________________________________________________________________________
#
#LOGNAME           .UNIT     LOG_ID                        : DESCRIPTION
#_______________________________________________________________________________
DEPT               .м                                      : Колонка глубины 
CALI               .м                                      : Каверномер 
COLL               .unitless                               :  
CSAT               .unitless                               :  
DT                 .мкс/м                                  : Интервальное время пробега продольной волны 
GR                 .uR/h                                   : Гамма каротаж 
GZ3                .Ohmm                                   : Градиент-зонд  длиной 2.25м 
IK1                .OHMM                                   : И0.10И0.40 
IK2                .OHMM                                   : И0.14И0.56 
IK3                .OHMM                                   : И0.20И0.8 
IK4                .OHMM                                   : И0.28И1.12 
IK5                .OHMM                                   : И0.40И1.60 
LLS                .Ohmm                                   : Боковой каротаж 
MBK                .Ohmm                                   : Микробоковой каротаж 
MINV               .Ohmm                                   : Микро-градиент зонд 
MNOR               .Ohmm                                   : Микро-потенциал зонд 
NNKTB_1            .у.е.                                   : Показания большого зонда 2ННКт аппаратуры СРК 
NNKTM_1            .у.е.                                   : Показания малого зонда 2ННКт аппаратуры СРК 
NPHI               .v/v                                    : Кп 
OGZ3               .Ohmm                                   : Обращенный градиент-зонд 
PHIE               .v/v                                    : Описание 
PHIED              .v/v                                    :  
PHIEN              .v/v                                    :  
PHIES              .v/v                                    :  
PHIT               .v/v                                    : Описание 
PRMB               .mD                                     :  
PRMB_DGR           .mD                                     :  
RHOB               .г/см3                                  : Плотность по ГГКп 
RT                 .ohmm                                   : Удельное электрическое сопротивление 
SOIL_ARCHIE        .v/v                                    :  
SOIL_DW            .v/v                                    :  
SP                 .мВ                                     : Потенциал самополяризации 
VSH_FIN            .v/v                                    : Описание 
VSH_GR             .v/v                                    : Shale volume 
VSH_SP             .v/v                                    : Shale Volume 
~Ascii
# ...
964.65     0.227      -9999      -9999      336.816    4.711825   2.88       2.696868554453627 2.347424120179519 2.327401985046972 2.324349371329597 2.319461144317849 2.255      2.085      3.045      2.57       2.72       1.74       -9999      2.45       0.1636141  0.1543517  -9999      0.1728764  0.2323502  3.003914   2.524409   2.25       2.32       0.2709974  0.3954945  506.54     0.4384668  0.4445278  0.4324058 
964.85     0.227      -9999      -9999      333.31     4.592326   2.82       2.194720938980586 2.014497455942746 2.009900495049421 2.16       2.219977477363239 2.21       2.12       2.685      2.455      2.71       1.7        -9999      2.45       0.1749593  0.1757521  -9999      0.1741666  0.241264   4.87337    3.135411   2.22       2.22       0.2979802  0.4120438  506.79     0.4229568  0.4068746  0.439039  
965.05     0.227      -9999      -9999      315.456    4.444479   2.81       2.675387822353668 2.446425964544781 2.494333578332781 2.456562639136091 2.40792441741834 2.395      3.225      3.95       3.735      2.84       1.68       -9999      2.42       0.151322   0.1414148  -9999      0.1612292  0.2143826  1.778313   4.099774   2.285      2.41       0.2334966  0.3578111  506.69     0.4022627  0.3646732  0.4398523 
965.25     0.227      -9999      -9999      305.281    4.319772   2.89       3.734032672594069 3.26490428649907 3.209984423638221 2.984493256819321 2.784241368847177 2.72       3.215      4.17       3.845      2.95       1.73       -9999      2.42       0.1461182  0.1386016  -9999      0.1536348  0.2069324  1.424366   5.140403   2.295      2.785      0.2616249  0.3811971  506.75     0.3879332  0.3324989  0.4433675 
965.45     0.227      -9999      -9999      313.726    4.265866   2.91       3.306659946229463 2.687191842797747 2.709981549752504 2.732983717477905 2.763982633809324 2.56       2.31       3.07       2.98       2.91       1.75       -9999      2.38       0.1586221  0.1517968  -9999      0.1654474  0.2185737  2.427866   5.668411   2.275      2.765      0.3102557  0.418653   506.72     0.3824303  0.3194852  0.4453755 
965.65     0.227      -9999      -9999      323.181    4.319582   2.94       2.82       2.479818541748535 2.424994845355341 2.489979919597758 2.554995107627415 2.445      2.485      3.115      2.985      2.84       1.7        -9999      2.34       0.1654685  0.1565578  -9999      0.1743792  0.2262883  3.251143   5.142179   2.265      2.555      0.310074   0.4176809  506.46     0.3879687  0.3324521  0.4434852 
965.85     0.227      -9999      -9999      320.333    4.494277   3.03       3.028002642006899 2.802641611052104 2.727361362196206 2.694438717061558 2.664620047961861 2.52       2.88       3.575      3.365      2.74       1.68       -9999      2.24       0.1669182  0.1695874  -9999      0.1642491  0.2312295  3.458509   3.745688   2.235      2.665      0.3287065  0.4390252  506.23     0.4102408  0.3783747  0.4421069 
966.05     0.227      -9999      -9999      316.485    4.763381   3.18       3.50827592985488 3.10496376790453 3.13490031739445 2.954961928688744 2.809928824721344 2.59       2.99       4.105      3.575      2.73       1.71       -9999      2.22       0.1678672  0.18796    -9999      0.1477745  0.2382447  3.601361   2.299043   2.19       2.81       0.3484156  0.4644481  505.72     0.4489371  0.4618302  0.4360439 
966.25     0.227      -9999      -9999      325.489    5.054012   3.23       3.398823325799681 2.901861471538571 2.942346002767179 2.75780709985307 2.663644120373441 2.35       2.44       3.52       3.14       2.74       1.73       -9999      2.17       0.1699636  0.1995902  -9999      0.1403369  0.2490595  3.938184   1.357077   2.15       2.665      0.3391945  0.4669928  505.59     0.504552   0.5727529  0.4363511 
966.45     0.227      -9999      -9999      343.179    5.272455   3.15       2.373183515870408 2.186321110907323 2.113172969730396 2.244994432064194 2.217273100003571 2.01       1.62       2.12       1.98       2.61       1.69       -9999      2.14       0.1588391  0.1741046  -9999      0.1435735  0.2453754  2.450433   0.9131196  2.175      2.22       0.2363194  0.3943459  505.1      0.5520144  0.6733363  0.4306925 
966.65     0.227      -9999      -9999      360.812    5.351923   2.88       1.913530767978484 1.78381613402286 1.79415718374958 1.843854658046635 1.873499399519605 1.87       1.615      2.125      1.98       2.41       1.63       -9999      2.11       0.1519663  0.1493875  -9999      0.1545452  0.2411624  1.827859   0.7905464  2.21       1.875      0.1408598  0.3221213  504.53     0.5689808  0.7141571  0.4238046 
966.85     0.227      -9999      -9999      369.53     5.2837     2.63       1.709883036935545 1.60987577160473 1.664932431061376 1.704934016318503 1.749971428338177 1.83       1.62       1.92       2.045      2.45       1.57       -9999      2.08       0.1623795  0.1549136  -9999      0.1698455  0.2476656  2.849843   0.8946848  2.21       1.75       0.1623643  0.3276469  503.46     0.5440386  0.6789674  0.4091099 
967.05     0.227      -9999      -9999      369.374    5.115339   2.55       1.863061995747764 1.688934575405385 1.764426252355088 1.798999722067726 1.799749982636443 1.895      1.895      2.28       2.245      2.55       1.55       -9999      2.05       0.1530667  0.1226952  -9999      0.1834381  0.231491   1.915685   1.214213   2.28       1.8        0.129729   0.2931722  502.8      0.5002678  0.5993682  0.4011674 
967.25     0.227      -9999      -9999      367.271    4.931323   2.56       2.109786719078495 1.909764383372985 1.959591794226542 1.999774987342326 1.96959386676543 1.975      2.07       2.64       2.54       2.49       1.58       -9999      2.1        0.1551806  0.1164085  -9999      0.1939528  0.2274609  2.096425   1.695321   2.305      1.97       0.175721   0.321117   502.52     0.4610752  0.5230014  0.3991489 
967.45     0.228      -9999      -9999      372.408    4.82024    2.53       2.224724702069938 1.99977498734236 1.99       2.02484567313163 1.994843352245957 1.92       1.985      2.445      2.38       2.37       1.61       -9999      2.12       0.1755253  0.1455117  -9999      0.2055389  0.2441609  4.992434   2.073751   2.265      1.995      0.2639517  0.3849209  502.03     0.4378254  0.4816947  0.393956  
967.65     0.228      -9999      -9999      390.149    4.827293   2.47       1.876859078354245 1.781909088590219 1.748999714122497 1.791926337771848 1.792986335698169 1.82       1.405      1.74       1.855      2.16       1.6        -9999      2.09       0.1868207  0.1525904  -9999      0.221051   0.2546845  8.082215   2.047392   2.255      1.795      0.2674363  0.3835244  501.05     0.4329026  0.4842174  0.3815877 
967.85     0.227      -9999      -9999      402.818    4.920135   2.37       1.514793715328894 1.424780684877472 1.449448170856712 1.45914358443569 1.529182788289165 1.68       1.355      1.65       1.76       2.05       1.54       -9999      2.22       0.1949123  0.1642443  -9999      0.2255803  0.2651225  11.41319   1.730079   2.23       1.53       0.2390404  0.359151   500.59     0.4478702  0.5186853  0.377055  
968.05     0.226      -9999      -9999      387.639    5.010294   2.28       1.429860133020032 1.34       1.379855064852805 1.404919926543841 1.464923206178382 1.74       1.425      1.73       1.855      2.17       1.5        -9999      2.45       0.1826223  0.1551628  -9999      0.2100819  0.2550214  6.757194   1.469072   2.24       1.465      0.1780521  0.3116964  499.89     0.4618329  0.5545043  0.3691615 
968.25     0.226      -9999      -9999      351.69     5.030989   2.28       1.725108692227826 1.622128231675906 1.633125837160138 1.674962686151545 1.673320053068151 1.885      2.105      2.37       2.57       2.49       1.52       -9999      2.65       0.168434   0.1594125  -9999      0.1774555  0.242063   3.689472   1.414949   2.23       1.675      0.1717999  0.313751   500.24     0.4696786  0.563069   0.3762881 
968.45     0.227      -9999      -9999      330.205    4.997787   2.36       2.407924417418567 2.144527920079433 2.164024029441522 2.119410295341664 1.958366666383074 2.165      2.385      2.4        2.735      2.88       1.62       -9999      2.7        0.1594719  0.164263   -9999      0.1546807  0.2339058  2.517468   1.50278    2.22       1.96       0.1931487  0.3379608  501.7      0.4748129  0.5493913  0.4002344 
