~Version
 VERS              .         2.0                           : CWLS LOG ASCII STANDARD - VERSION 2.0
 WRAP              .         NO                            : ONE LINE PER DEPTH STEP
 DLM               .         SPACE                         : DELIMITING CHARACTER(SPACE TAB OR COMMA)
~Well Information
#_______________________________________________________________________________
#
#PARAMETER_NAME    .UNIT     VALUE                         : DESCRIPTION
#_______________________________________________________________________________
STRT               .м        2.45                          : First reference value
STOP               .м        1177.25                       : Last reference value
STEP               .м        0.2                           : Step increment
NULL               .         -9999                         : Missing value
COMP               .                                       : Company
WELL               .         6941                          : Well name
FLD                .         Узень                         : Field
LOC                .                                       : Location
CNTY               .                                       : County
STAT               .                                       : State
CTRY               .                                       : Country
SRVC               .                                       : Service Company
DATE               .         10.2.2016                     : Date
UWI                .                                       : Unique Well ID
Block              .         7                             : 
Category           .         Нефтяная                      : 
Condition          .         В работе                      : 
Date               .         27.02.2016                    : 
EREF               .m        91.6                          : 100.8
GRP                .                                       : Group name
Gor                .         14                            : 
Gorizont           .         14                            : 14
ISS                .                                       : Well surveys
Interpretator      .         Кайсанов Е.К                  : 
Kupol              .         Основной                      : osnovnoi
Mud                .         полимерный                    : 
Mud_density        .         1,34                          : 
Mud_resistivity    .         0,49                          : 
NGDU               .         НГДУ-2                        : 
ORIGINALWELLNAME   .         6941                          : 
Spud_date          .         2016                          : 1961
TIME               .         11_07                         : LOG TIME
Viscosity          .         40                            : 
X                  .m        42034.23                      : 46154
Y                  .m        84394.33                      : 85761.93
YEAR               .         2019                          : 
group              .         2016                          : 
Сдали_за_3_кв_2019 .         3                             : 
~Parameter Information Block
#_______________________________________________________________________________
#
#PARAMETER_NAME    .UNIT     VALUE                         : DESCRIPTION
#_______________________________________________________________________________
SET                .         LQC_KAZNIPI_Petrel            : 
TLFamily_CALI      .         Caliper                       : 
TLFamily_COLL      .         Net Reservoir Flag            : 
TLFamily_CSAT      .         Fluid Code                    : 
TLFamily_DEPT      .         Measured Depth                : 
TLFamily_DT        .         Compressional Slowness        : 
TLFamily_GR        .         Russian Gamma Ray             : 
TLFamily_GZ3       .         Gradient 225                  : 
TLFamily_IK1       .         Resistivity 05                : 
TLFamily_IK2       .         Resistivity 07                : 
TLFamily_IK3       .         Resistivity 10                : 
TLFamily_IK4       .         Resistivity 14                : 
TLFamily_IK5       .         Resistivity 20                : 
TLFamily_LLS       .         Lateral Log Resistivity       : 
TLFamily_MBK       .         Micro Lateral Log Resistivity : 
TLFamily_MINV      .         Micro Gradient Resistivity    : 
TLFamily_MNOR      .         Micro Resistivity             : 
TLFamily_NNKTB_1   .         Neutron Far                   : 
TLFamily_NNKTM_1   .         Neutron Near                  : 
TLFamily_NPHI      .         Neutron Porosity              : 
TLFamily_OGZ3      .         Gradient Inverted 225         : 
TLFamily_PHIE      .         Effective Porosity            : 
TLFamily_PHIED     .         Effective Porosity            : 
TLFamily_PHIEN     .         Effective Porosity            : 
TLFamily_PHIES     .         Effective Porosity            : 
TLFamily_PHIT      .         Porosity                      : 
TLFamily_PRMB      .         Permeability                  : 
TLFamily_PRMB_DGR  .         Permeability                  : 
TLFamily_RHOB      .         Bulk Density                  : 
TLFamily_RT        .         Formation Resistivity         : 
TLFamily_SOIL_ARCHIE .         Oil Saturation                : 
TLFamily_SOIL_DW   .         Oil Saturation                : 
TLFamily_SP        .         Spontaneous Potential         : 
TLFamily_VSH_FIN   .         Shale Volume                  : 
TLFamily_VSH_GR    .         Shale Volume                  : 
TLFamily_VSH_SP    .         Shale Volume                  : 
~Curve Information
#_______________________________________________________________________________
#
#LOGNAME           .UNIT     LOG_ID                        : DESCRIPTION
#_______________________________________________________________________________
DEPT               .м                                      : Колонка глубины 
CALI               .м                                      : Каверномер 
COLL               .unitless                               :  
CSAT               .unitless                               :  
DT                 .мкс/м                                  : Интервальное время пробега продольной волны 
GR                 .uR/h                                   : Гамма каротаж 
GZ3                .Ohmm                                   : Градиент-зонд  длиной 2.25м 
IK1                .OHMM                                   : И0.10И0.40 
IK2                .OHMM                                   : И0.14И0.56 
IK3                .OHMM                                   : И0.20И0.8 
IK4                .OHMM                                   : И0.28И1.12 
IK5                .OHMM                                   : И0.40И1.60 
LLS                .Ohmm                                   : Боковой каротаж 
MBK                .Ohmm                                   : Микробоковой каротаж 
MINV               .Ohmm                                   : Микро-градиент зонд 
MNOR               .Ohmm                                   : Микро-потенциал зонд 
NNKTB_1            .у.е.                                   : Показания большого зонда 2ННКт аппаратуры СРК 
NNKTM_1            .у.е.                                   : Показания малого зонда 2ННКт аппаратуры СРК 
NPHI               .v/v                                    : Кп 
OGZ3               .Ohmm                                   : Обращенный градиент-зонд 
PHIE               .v/v                                    : Описание 
PHIED              .v/v                                    :  
PHIEN              .v/v                                    :  
PHIES              .v/v                                    :  
PHIT               .v/v                                    : Описание 
PRMB               .mD                                     :  
PRMB_DGR           .mD                                     :  
RHOB               .г/см3                                  : Плотность по ГГКп 
RT                 .ohmm                                   : Удельное электрическое сопротивление 
SOIL_ARCHIE        .v/v                                    :  
SOIL_DW            .v/v                                    :  
SP                 .мВ                                     : Потенциал самополяризации 
VSH_FIN            .v/v                                    : Описание 
VSH_GR             .v/v                                    : Shale volume 
VSH_SP             .v/v                                    : Shale Volume 
~Ascii
# ...
924.65     0.224      -9999      -9999      237.91     3.03946    7.3        9.819470454156988 6.501076833879893 6.880988301109856 6.299428545511394 5.873670062235507 6.52       12.43      12.41      10.015     5.76       2.27       -9999      9.83       0.0669373  0.1064435  -9999      0.02743113 0.1377947  0.04864063 52.42679   2.325      5.875      0          0.2576093  552.02     0.4519983  0.128814   0.7751826 
924.85     0.224      -9999      -9999      244.783    3.065691   7.39       5.786544737578949 5.246913378358952 5.324152514720174 5.584729178751581 5.433985645913936 5.67       4.945      5.58       5.055      5.65       2.3        -9999      9.63       0.08025546 0.1188994  -9999      0.04161158 0.1507733  0.08583886 49.99089   2.305      5.435      0.09079307 0.3190399  551.62     0.4498325  0.131341   0.7683239 
925.05     0.224      -9999      -9999      247.034    3.19672    7.16       9.878005871629094 9.257213403610034 7.636517530915663 6.446301265066277 5.478685973844322 6.005      12.5       8.685      9.465      5.37       2.25       -9999      9.28       0.07356547 0.1010701  -9999      0.04606086 0.143988   0.06453109 39.41602   2.335      5.48       0.0229769  0.2784978  550.93     0.4492241  0.1447264  0.753722  
925.25     0.224      -9999      -9999      259.402    3.355658   6.7        9.194900760747776 7.929464042417999 7.6810546150903 6.379137872785005 5.54797260267208 6.12       8.325      6.46       6.42       5.14       2.26       -9999      8.38       0.09170981 0.1174792  -9999      0.06594036 0.1632325  0.1399092  29.54414   2.305      5.55       0.1984484  0.3906118  550.63     0.4562421  0.1628065  0.7496777 
925.45     0.223      -9999      -9999      288.877    3.470305   5.93       4.047221268969442 3.983365411307117 4.51005543203131 4.564142854906793 4.67100631555952 4.38       4.24       4.055      4.215      4.58       2.15       -9999      7.62       0.1186281  0.1281562  -9999      0.1091     0.19107    0.4409997  23.99709   2.285      4.68       0.3060452  0.4551918  550.38     0.4621056  0.177235   0.7469762 
925.65     0.223      -9999      -9999      300.732    3.485835   5.16       4.053368969141727 3.812243433990183 4.069987714969185 4.253445662048463 4.154852584629167 4.015      3.785      3.33       3.945      4.01       1.95       -9999      6.45       0.1100525  0.09529325 -9999      0.1248117  0.1824441  0.3059125  23.33055   2.34       4.155      0.2166379  0.3874092  550.13     0.4617848  0.1792853  0.7442842 
925.85     0.224      -9999      -9999      273.391    3.376369   4.84       4.399090815157502 4.649677408165353 4.668361596963625 5.124412161409801 4.796540419928004 5.13       5.55       5.235      5.745      4.06       1.9        -9999      5.97       0.0930104  0.09693249 -9999      0.0890883  0.1642421  0.1478891  28.45485   2.34       4.805      0.1528102  0.351128   549.95     0.454386   0.1653232  0.7434489 
926.05     0.224      -9999      -9999      235.451    3.176829   5.14       7.928474001973238 7.434850368365554 8.076001485883188 7.142268547176713 6.362703827775695 6.61       14.225     7.955      9.515      4.74       2.03       -9999      5.84       0.05407405 0.08383605 -9999      0.02431206 0.12398    0.02810222 40.86415   2.365      6.39       0          0.1760496  550.02     0.4459292  0.1426098  0.7492486 
926.25     0.223      -9999      -9999      227.611    2.986438   5.74       12.69300594815901 9.381257911389069 9.135398185082028 8.371977066380438 7.409973009397537 7.87       10.985     7.16       9.54       5.43       2.21       -9999      5.57       0.04928974 0.08855808 -9999      0.01002141 0.1179731  0.0229152  57.71936   2.36       7.41       0          0.1830205  549.99     0.4381301  0.1238534  0.7524067 
926.45     0.223      -9999      -9999      247.386    2.90653    6.22       9.224640914418771 7.313658455245766 6.430334361446256 6.594543198735704 6.547793521484474 6.14       5.215      10.36      5.745      5.37       2.25       -9999      5.07       0.08330729 0.1158819  -9999      0.05073272 0.1517233  0.09777124 66.72189   2.315      6.56       0.194241   0.3914886  549.98     0.436425   0.1167359  0.756114  
926.65     0.224      -9999      -9999      271.399    2.964701   6.38       5.284552961226038 4.88221261315009 4.72932341884131 5.013182621848275 5.428443607517868 4.425      3.995      4.355      4.07       4.81       2.13       -9999      4.64       0.09947766 0.1088227  -9999      0.09013258 0.1686516  0.1948614  60.04057   2.325      5.43       0.2455453  0.4150988  550        0.4412594  0.1218753  0.7606434 
926.85     0.224      -9999      -9999      264.297    3.107055   6.56       7.068182227419745 6.516225901548174 6.018538028459048 5.38107795892271 5.487367310468848 4.685      13.615     5.07       5.39       4.43       2.09       -9999      4.88       0.08033252 0.08537811 -9999      0.07528692 0.1512659  0.08612142 46.37737   2.36       5.49       0.09583485 0.3240595  550.18     0.4524829  0.1354272  0.7695386 
927.05     0.224      -9999      -9999      247.094    3.25703    7.01       8.775989972645963 7.415726532174105 7.252103143226564 6.478263656258348 6.157653773962743 5.46       7.425      6.78       8.4        4.66       2.18       -9999      5.43       0.05978367 0.07733043 -9999      0.04223693 0.1321744  0.03585063 35.33168   2.37       6.16       0          0.2234576  550.13     0.4617792  0.1513377  0.7722207 
927.25     0.224      -9999      -9999      250.057    3.365001   8.15       7.925805952709162 6.245430329448885 6.471661301397037 6.455904274383257 6.268851569466293 5.68       3.55       6.27       5.715      5.18       2.26       -9999      6          0.06851409 0.09106023 -9999      0.04596797 0.1417823  0.05202419 29.04763   2.345      6.27       0.02418762 0.3001866  549.93     0.4673767  0.1639371  0.7708164 
927.45     0.224      -9999      -9999      247.011    3.417556   9.01       5.321231060573519 4.474460861378328 4.998999899980273 6.138859828991468 6.029966832412951 5.51       5.14       8.59       7.6        5.55       2.23       -9999      7.09       0.06322218 0.08725958 -9999      0.03918479 0.1370611  0.04151321 26.40652   2.35       6.03       0          0.2486795  549.81     0.4710178  0.1704441  0.7715915 
927.65     0.223      -9999      -9999      232.359    3.445671   10.51      16.28950275483722 13.74783619337825 9.684317219089969 8.737007496848387 6.830519745963291 7.405      16.255     9.455      11.25      5.78       2.22       -9999      8.08       0.04281254 0.07543306 -9999      0.01019203 0.1165457  0.01738402 25.09364   2.37       6.84       0          0.09828036 549.48     0.470343   0.1740306  0.7666553 
927.85     0.223      -9999      -9999      242.998    3.525068   11.38      13.32485271963124 10.87165120853063 9.586553082311649 8.03514778955422 7.213341805293501 7.085      5.78       7.545      8.69       5.55       2.32       -9999      7.69       0.05711155 0.08361183 -9999      0.03061127 0.131413   0.03198913 21.728     2.355      7.22       0          0.2677275  549.21     0.4739682  0.1845714  0.7633649 
928.05     0.223      -9999      -9999      278.158    3.71865    10.66      4.49588700925682 4.305810028322414 5.155657087123654 5.159534862757047 5.385443342939086 4.42       2.99       3.17       4.9        4.61       2.24       -9999      6.73       0.1133661  0.1406434  -9999      0.08608879 0.1896831  0.3523488  15.29419   2.255      5.415      0.3258388  0.48196    548.96     0.4868256  0.2130259  0.7606253 
928.25     0.222      -9999      -9999      307.671    4.001382   8.98       4.394974402655833 4.183921605384115 4.186549892214352 3.896716566546763 3.96495901618163 3.315      3.045      4.42       4.51       3.66       1.98       -9999      5.14       0.138327   0.1590134  -9999      0.1176406  0.2185938  1.021668   9.158119   2.215      3.97       0.3442276  0.4869147  548.84     0.5120209  0.2626495  0.7613922 
928.45     0.224      -9999      -9999      316.233    4.269166   6.39       3.302726146685168 3.201015463879901 3.345295203714923 3.387875440449232 3.422718218024824 3.01       2.445      2.86       3.205      3.28       1.83       -9999      4.21       0.1338002  0.1493419  -9999      0.1182585  0.2187917  0.8422917  5.634574   2.22       3.425      0.2765103  0.4404513  548.79     0.5421594  0.3202672  0.7640515 
