~Version
 VERS              .         2.0                           : CWLS LOG ASCII STANDARD - VERSION 2.0
 WRAP              .         NO                            : ONE LINE PER DEPTH STEP
 DLM               .         SPACE                         : DELIMITING CHARACTER(SPACE TAB OR COMMA)
~Well Information
#_______________________________________________________________________________
#
#PARAMETER_NAME    .UNIT     VALUE                         : DESCRIPTION
#_______________________________________________________________________________
STRT               .м        2.45                          : First reference value
STOP               .м        1177.25                       : Last reference value
STEP               .м        0.2                           : Step increment
NULL               .         -9999                         : Missing value
COMP               .                                       : Company
WELL               .         6941                          : Well name
FLD                .         Узень                         : Field
LOC                .                                       : Location
CNTY               .                                       : County
STAT               .                                       : State
CTRY               .                                       : Country
SRVC               .                                       : Service Company
DATE               .         10.2.2016                     : Date
UWI                .                                       : Unique Well ID
Block              .         7                             : 
Category           .         Нефтяная                      : 
Condition          .         В работе                      : 
Date               .         27.02.2016                    : 
EREF               .m        91.6                          : 100.8
GRP                .                                       : Group name
Gor                .         14                            : 
Gorizont           .         14                            : 14
ISS                .                                       : Well surveys
Interpretator      .         Кайсанов Е.К                  : 
Kupol              .         Основной                      : osnovnoi
Mud                .         полимерный                    : 
Mud_density        .         1,34                          : 
Mud_resistivity    .         0,49                          : 
NGDU               .         НГДУ-2                        : 
ORIGINALWELLNAME   .         6941                          : 
Spud_date          .         2016                          : 1961
TIME               .         11_07                         : LOG TIME
Viscosity          .         40                            : 
X                  .m        42034.23                      : 46154
Y                  .m        84394.33                      : 85761.93
YEAR               .         2019                          : 
group              .         2016                          : 
Сдали_за_3_кв_2019 .         3                             : 
~Parameter Information Block
#_______________________________________________________________________________
#
#PARAMETER_NAME    .UNIT     VALUE                         : DESCRIPTION
#_______________________________________________________________________________
SET                .         LQC_KAZNIPI_Petrel            : 
TLFamily_CALI      .         Caliper                       : 
TLFamily_COLL      .         Net Reservoir Flag            : 
TLFamily_CSAT      .         Fluid Code                    : 
TLFamily_DEPT      .         Measured Depth                : 
TLFamily_DT        .         Compressional Slowness        : 
TLFamily_GR        .         Russian Gamma Ray             : 
TLFamily_GZ3       .         Gradient 225                  : 
TLFamily_IK1       .         Resistivity 05                : 
TLFamily_IK2       .         Resistivity 07                : 
TLFamily_IK3       .         Resistivity 10                : 
TLFamily_IK4       .         Resistivity 14                : 
TLFamily_IK5       .         Resistivity 20                : 
TLFamily_LLS       .         Lateral Log Resistivity       : 
TLFamily_MBK       .         Micro Lateral Log Resistivity : 
TLFamily_MINV      .         Micro Gradient Resistivity    : 
TLFamily_MNOR      .         Micro Resistivity             : 
TLFamily_NNKTB_1   .         Neutron Far                   : 
TLFamily_NNKTM_1   .         Neutron Near                  : 
TLFamily_NPHI      .         Neutron Porosity              : 
TLFamily_OGZ3      .         Gradient Inverted 225         : 
TLFamily_PHIE      .         Effective Porosity            : 
TLFamily_PHIED     .         Effective Porosity            : 
TLFamily_PHIEN     .         Effective Porosity            : 
TLFamily_PHIES     .         Effective Porosity            : 
TLFamily_PHIT      .         Porosity                      : 
TLFamily_PRMB      .         Permeability                  : 
TLFamily_PRMB_DGR  .         Permeability                  : 
TLFamily_RHOB      .         Bulk Density                  : 
TLFamily_RT        .         Formation Resistivity         : 
TLFamily_SOIL_ARCHIE .         Oil Saturation                : 
TLFamily_SOIL_DW   .         Oil Saturation                : 
TLFamily_SP        .         Spontaneous Potential         : 
TLFamily_VSH_FIN   .         Shale Volume                  : 
TLFamily_VSH_GR    .         Shale Volume                  : 
TLFamily_VSH_SP    .         Shale Volume                  : 
~Curve Information
#_______________________________________________________________________________
#
#LOGNAME           .UNIT     LOG_ID                        : DESCRIPTION
#_______________________________________________________________________________
DEPT               .м                                      : Колонка глубины 
CALI               .м                                      : Каверномер 
COLL               .unitless                               :  
CSAT               .unitless                               :  
DT                 .мкс/м                                  : Интервальное время пробега продольной волны 
GR                 .uR/h                                   : Гамма каротаж 
GZ3                .Ohmm                                   : Градиент-зонд  длиной 2.25м 
IK1                .OHMM                                   : И0.10И0.40 
IK2                .OHMM                                   : И0.14И0.56 
IK3                .OHMM                                   : И0.20И0.8 
IK4                .OHMM                                   : И0.28И1.12 
IK5                .OHMM                                   : И0.40И1.60 
LLS                .Ohmm                                   : Боковой каротаж 
MBK                .Ohmm                                   : Микробоковой каротаж 
MINV               .Ohmm                                   : Микро-градиент зонд 
MNOR               .Ohmm                                   : Микро-потенциал зонд 
NNKTB_1            .у.е.                                   : Показания большого зонда 2ННКт аппаратуры СРК 
NNKTM_1            .у.е.                                   : Показания малого зонда 2ННКт аппаратуры СРК 
NPHI               .v/v                                    : Кп 
OGZ3               .Ohmm                                   : Обращенный градиент-зонд 
PHIE               .v/v                                    : Описание 
PHIED              .v/v                                    :  
PHIEN              .v/v                                    :  
PHIES              .v/v                                    :  
PHIT               .v/v                                    : Описание 
PRMB               .mD                                     :  
PRMB_DGR           .mD                                     :  
RHOB               .г/см3                                  : Плотность по ГГКп 
RT                 .ohmm                                   : Удельное электрическое сопротивление 
SOIL_ARCHIE        .v/v                                    :  
SOIL_DW            .v/v                                    :  
SP                 .мВ                                     : Потенциал самополяризации 
VSH_FIN            .v/v                                    : Описание 
VSH_GR             .v/v                                    : Shale volume 
VSH_SP             .v/v                                    : Shale Volume 
~Ascii
# ...
908.65     0.219      1          3          314.774    1.933735   1.8        3.504967902848738 2.119976414963136 1.909581105897266 1.824171044611709 1.809309260463726 2.44       3.88       3.21       4.32       3.95       1.96       -9999      1.91       0.2869895  0.3113772  -9999      0.2626019  0.2989709  579.2954   3594.392   2.15       1.81       0.4979256  0.5333724  489.09     0.0764291  0.02292101 0.1299372 
908.85     0.219      1          3          285.748    1.907727   1.88       4.523383689231581 2.702276817796781 2.288318159697403 2.093274946107272 2.039387162850701 2.63       8.365      3.29       4.56       4          1.96       -9999      1.97       0.2625958  0.2994012  -9999      0.2257905  0.2745242  204.6772   3750.731   2.17       2.04       0.4871517  0.5205933  489.07     0.076091   0.02252597 0.129656  
909.05     0.219      1          3          277.398    1.867123   1.95       5.972721322814436 3.309622334950073 2.619064718558977 2.324736544213168 2.079975961399565 2.8        6.3        4.375      5.74       3.95       1.99       -9999      1.85       0.2746385  0.3353294  -9999      0.2139476  0.2864628  342.081    4008.507   2.11       2.08       0.5112678  0.5454581  488.78     0.07542711 0.02192281 0.1289314 
909.25     0.219      1          3          286.588    1.816569   1.81       4.692121055556857 2.606952243521158 2.082834606971951 1.940309253701584 1.847295320191117 2.355      4.085      3.315      4.46       3.72       2          -9999      1.66       0.2963509  0.3652695  -9999      0.2274323  0.3080451  863.5662   4354.352   2.06       1.85       0.5167498  0.5524664  488.34     0.07459705 0.02119436 0.1279997 
909.45     0.219      1          3          289.814    1.774816   1.65       3.41999999999979 2.109407499749577 1.754422982065562 1.609720472628677 1.609720472628677 2.125      3.875      3.42       4.425      3.49       1.96       -9999      1.56       0.2941744  0.3562874  -9999      0.2320615  0.3057757  787.0137   4662.371   2.075      1.61       0.4808674  0.5167125  488.09     0.07400455 0.02061103 0.1273981 
909.65     0.219      1          3          288.167    1.759786   1.45       3.39231484387858 2.124005649709926 1.764822937294249 1.614930339054891 1.559967948388673 2.135      4.35       3.465      4.495      3.43       1.92       -9999      1.5        0.2886384  0.3473054  -9999      0.2299714  0.3001567  621.5016   4778.511   2.09       1.56       0.4643343  0.4997399  487.65     0.07347485 0.02040499 0.1265447 
909.85     0.219      1          3          291.683    1.770569   1.42       3.624582734605398 2.099404677521645 1.799555500672273 1.65499244711268 1.58       2.155      4.02       3.435      4.555      3.4        1.92       -9999      1.5        0.2940621  0.3532934  -9999      0.2348308  0.3055434  783.2534   4694.9     2.08       1.58       0.4760908  0.5118548  487.35     0.07323895 0.0205526  0.1259253 
910.05     0.219      1          3          297.613    1.790458   1.58       3.444967343822017 1.97499367087594 1.68997041394222 1.579715164198948 1.529869275461165 2.095      3.84       3.7        4.56       3.39       1.91       -9999      1.48       0.3099415  0.3772455  -9999      0.2426374  0.3214269  1541.793   4544.504   2.04       1.53       0.4919382  0.5288458  487.33     0.07326516 0.02082766 0.1257026 
910.25     0.218      1          3          306.677    1.805566   1.61       3.080584360149873 1.879042309262886 1.569203619674643 1.484587484791651 1.479966215830618 2.055      3.69       3.515      4.42       3.51       1.92       -9999      1.49       0.311121   0.3682634  -9999      0.2539787  0.3226163  1621.342   4433.486   2.055      1.48       0.4856591  0.522741   487.41     0.07332782 0.02103906 0.1256166 
910.45     0.219      1          3          308.945    1.815715   1.69       2.828568542567172 1.704406054905982 1.469863939281479 1.469693845669941 1.504792344478163 2.115      3.365      3.435      4.185      3.83       1.96       -9999      1.6        0.2944953  0.3323353  -9999      0.2566553  0.3060215  797.8583   4360.441   2.115      1.505      0.4646838  0.5006012  487.74     0.07352499 0.02118227 0.1258677 
910.65     0.219      1          3          290.727    1.828102   1.77       3.363658722284303 1.96936538001453 1.738965209542664 1.65329973084124 1.658523439689574 2.34       4.395      3.14       4.32       4.11       2.03       -9999      1.69       0.276843   0.3203593  -9999      0.2333267  0.2884315  375.8043   4272.913   2.135      1.66       0.4604723  0.494918   488.33     0.07392287 0.02135839 0.1264873 
910.85     0.219      1          3          273.247    1.846368   1.85       3.76952251618166 2.258915669076727 1.974487275218608 1.909345437578077 1.914471206364879 2.395      4.59       3.505      4.74       4.02       2.06       -9999      1.69       0.2686355  0.3293414  -9999      0.2079297  0.2803363  264.8131   4147.038   2.12       1.915      0.4820661  0.5158272  489.27     0.07463903 0.02162077 0.1276573 
911.05     0.219      1          3          278.119    1.86974    1.91       3.804996714847459 2.379915964902986 2.089904304029276 1.954840146917418 1.939896904477165 2.325      5.37       3.16       4.47       3.69       2.01       -9999      1.64       0.2691443  0.3233532  -9999      0.2149354  0.2810093  270.6226   3991.368   2.13       1.94       0.4860567  0.5200042  490.51     0.07568618 0.0219612  0.1294112 
911.25     0.22       1          3          291.704    1.897465   1.91       3.332836629659486 2.031157305577291 1.793822733717019 1.748599439551551 1.754137964927502 2.07       3.765      2.95       3.92       3.4        1.92       -9999      1.48       0.284602   0.3353294  -9999      0.2338746  0.2965755  523.2115   3814.271   2.11       1.755      0.4868825  0.5222256  491.22     0.07637904 0.02237198 0.1303861 
911.45     0.22       1          3          297.819    1.926019   1.91       2.938298827553227 1.89388489618569 1.664632091484521 1.604992211819116 1.609720472628677 2          3.77       3.285      4.135      3.34       1.88       -9999      1.43       0.2883936  0.3353294  -9999      0.2414577  0.3006017  615.0451   3640.085   2.11       1.61       0.4718159  0.5078027  492.73     0.07787571 0.02280308 0.1329483 
911.65     0.22       1          3          298.021    1.944455   1.88       3.19       1.954226189569734 1.699970587980874 1.614992260043378 1.609968943799837 2.015      3.55       3.145      4.055      3.42       1.86       -9999      1.4        0.2957816  0.3502994  -9999      0.2412639  0.3082169  842.8527   3531.868   2.085      1.61       0.4833251  0.5200211  494.12     0.07932442 0.02308584 0.135563  
911.85     0.22       1          3          298.416    1.942488   1.88       3.149857139617571 1.884993368688606 1.654811167475037 1.60996894379986 1.594992162990145 1.995      3.245      3.505      4.29       3.34       1.89       -9999      1.38       0.2988578  0.3562874  -9999      0.2414282  0.311465   961.0128   3543.256   2.075      1.595      0.4857059  0.5227701  495.23     0.08042101 0.02305551 0.1377865 
912.05     0.22       1          3          306.47     1.924959   1.75       3.456747025745278 2.11452122240468 1.724818831066062 1.619722198403205 1.564928113364973 1.96       3.75       3.185      4.205      3.34       1.93       -9999      1.38       0.2978545  0.3443114  -9999      0.2513977  0.3105142  920.7596   3646.406   2.095      1.565      0.479581   0.5166788  495.76     0.08075622 0.02278694 0.1387255 
912.25     0.221      1          3          317.743    1.908976   1.68       2.955807842198136 1.791954240487184 1.469149413776557 1.454303957224899 1.474584687293341 1.885      2.845      3.03       3.855      3.45       1.95       -9999      1.34       0.3029343  0.3413174  -9999      0.2645512  0.315639   1143.5     3743.069   2.1        1.475      0.4727371  0.5103495  496.23     0.08104319 0.02254478 0.1395416 
912.45     0.22       1          3          319.209    1.904784   1.59       2.920958746713402 1.738159946610299 1.449137674619001 1.404777562463211 1.45499140890935 1.86       3.315      2.79       3.91       3.53       1.97       -9999      1.41       0.3052618  0.3443114  -9999      0.2662122  0.3179628  1262.836   3768.842   2.095      1.455      0.472874   0.5106661  496.38     0.0810192  0.0224817  0.1395567 
