~Version
 VERS              .         2.0                           : CWLS LOG ASCII STANDARD - VERSION 2.0
 WRAP              .         NO                            : ONE LINE PER DEPTH STEP
 DLM               .         SPACE                         : DELIMITING CHARACTER(SPACE TAB OR COMMA)
~Well Information
#_______________________________________________________________________________
#
#PARAMETER_NAME    .UNIT     VALUE                         : DESCRIPTION
#_______________________________________________________________________________
STRT               .м        2.45                          : First reference value
STOP               .м        1177.25                       : Last reference value
STEP               .м        0.2                           : Step increment
NULL               .         -9999                         : Missing value
COMP               .                                       : Company
WELL               .         6941                          : Well name
FLD                .         Узень                         : Field
LOC                .                                       : Location
CNTY               .                                       : County
STAT               .                                       : State
CTRY               .                                       : Country
SRVC               .                                       : Service Company
DATE               .         10.2.2016                     : Date
UWI                .                                       : Unique Well ID
Block              .         7                             : 
Category           .         Нефтяная                      : 
Condition          .         В работе                      : 
Date               .         27.02.2016                    : 
EREF               .m        91.6                          : 100.8
GRP                .                                       : Group name
Gor                .         14                            : 
Gorizont           .         14                            : 14
ISS                .                                       : Well surveys
Interpretator      .         Кайсанов Е.К                  : 
Kupol              .         Основной                      : osnovnoi
Mud                .         полимерный                    : 
Mud_density        .         1,34                          : 
Mud_resistivity    .         0,49                          : 
NGDU               .         НГДУ-2                        : 
ORIGINALWELLNAME   .         6941                          : 
Spud_date          .         2016                          : 1961
TIME               .         11_07                         : LOG TIME
Viscosity          .         40                            : 
X                  .m        42034.23                      : 46154
Y                  .m        84394.33                      : 85761.93
YEAR               .         2019                          : 
group              .         2016                          : 
Сдали_за_3_кв_2019 .         3                             : 
~Parameter Information Block
#_______________________________________________________________________________
#
#PARAMETER_NAME    .UNIT     VALUE                         : DESCRIPTION
#_______________________________________________________________________________
SET                .         LQC_KAZNIPI_Petrel            : 
TLFamily_CALI      .         Caliper                       : 
TLFamily_COLL      .         Net Reservoir Flag            : 
TLFamily_CSAT      .         Fluid Code                    : 
TLFamily_DEPT      .         Measured Depth                : 
TLFamily_DT        .         Compressional Slowness        : 
TLFamily_GR        .         Russian Gamma Ray             : 
TLFamily_GZ3       .         Gradient 225                  : 
TLFamily_IK1       .         Resistivity 05                : 
TLFamily_IK2       .         Resistivity 07                : 
TLFamily_IK3       .         Resistivity 10                : 
TLFamily_IK4       .         Resistivity 14                : 
TLFamily_IK5       .         Resistivity 20                : 
TLFamily_LLS       .         Lateral Log Resistivity       : 
TLFamily_MBK       .         Micro Lateral Log Resistivity : 
TLFamily_MINV      .         Micro Gradient Resistivity    : 
TLFamily_MNOR      .         Micro Resistivity             : 
TLFamily_NNKTB_1   .         Neutron Far                   : 
TLFamily_NNKTM_1   .         Neutron Near                  : 
TLFamily_NPHI      .         Neutron Porosity              : 
TLFamily_OGZ3      .         Gradient Inverted 225         : 
TLFamily_PHIE      .         Effective Porosity            : 
TLFamily_PHIED     .         Effective Porosity            : 
TLFamily_PHIEN     .         Effective Porosity            : 
TLFamily_PHIES     .         Effective Porosity            : 
TLFamily_PHIT      .         Porosity                      : 
TLFamily_PRMB      .         Permeability                  : 
TLFamily_PRMB_DGR  .         Permeability                  : 
TLFamily_RHOB      .         Bulk Density                  : 
TLFamily_RT        .         Formation Resistivity         : 
TLFamily_SOIL_ARCHIE .         Oil Saturation                : 
TLFamily_SOIL_DW   .         Oil Saturation                : 
TLFamily_SP        .         Spontaneous Potential         : 
TLFamily_VSH_FIN   .         Shale Volume                  : 
TLFamily_VSH_GR    .         Shale Volume                  : 
TLFamily_VSH_SP    .         Shale Volume                  : 
~Curve Information
#_______________________________________________________________________________
#
#LOGNAME           .UNIT     LOG_ID                        : DESCRIPTION
#_______________________________________________________________________________
DEPT               .м                                      : Колонка глубины 
CALI               .м                                      : Каверномер 
COLL               .unitless                               :  
CSAT               .unitless                               :  
DT                 .мкс/м                                  : Интервальное время пробега продольной волны 
GR                 .uR/h                                   : Гамма каротаж 
GZ3                .Ohmm                                   : Градиент-зонд  длиной 2.25м 
IK1                .OHMM                                   : И0.10И0.40 
IK2                .OHMM                                   : И0.14И0.56 
IK3                .OHMM                                   : И0.20И0.8 
IK4                .OHMM                                   : И0.28И1.12 
IK5                .OHMM                                   : И0.40И1.60 
LLS                .Ohmm                                   : Боковой каротаж 
MBK                .Ohmm                                   : Микробоковой каротаж 
MINV               .Ohmm                                   : Микро-градиент зонд 
MNOR               .Ohmm                                   : Микро-потенциал зонд 
NNKTB_1            .у.е.                                   : Показания большого зонда 2ННКт аппаратуры СРК 
NNKTM_1            .у.е.                                   : Показания малого зонда 2ННКт аппаратуры СРК 
NPHI               .v/v                                    : Кп 
OGZ3               .Ohmm                                   : Обращенный градиент-зонд 
PHIE               .v/v                                    : Описание 
PHIED              .v/v                                    :  
PHIEN              .v/v                                    :  
PHIES              .v/v                                    :  
PHIT               .v/v                                    : Описание 
PRMB               .mD                                     :  
PRMB_DGR           .mD                                     :  
RHOB               .г/см3                                  : Плотность по ГГКп 
RT                 .ohmm                                   : Удельное электрическое сопротивление 
SOIL_ARCHIE        .v/v                                    :  
SOIL_DW            .v/v                                    :  
SP                 .мВ                                     : Потенциал самополяризации 
VSH_FIN            .v/v                                    : Описание 
VSH_GR             .v/v                                    : Shale volume 
VSH_SP             .v/v                                    : Shale Volume 
~Ascii
# ...
1000.65    0.225      -9999      -9999      266.225    3.252064   4.36       4.788736785416658 4.457476864774681 4.239245215837458 4.008752923291845 3.919374950167517 3.2        3.69       4.485      4.38       3.36       1.85       -9999      2.16       0.1907765  0.239521   -9999      0.142032   0.2299046  9.56757    35.65141   2.27       3.92       0.5014192  0.5611533  476.5      0.2495978  0.150782   0.3484137 
1000.85    0.226      -9999      -9999      295.405    3.644933   4.37       3.719892471563977 3.57969272424302 3.581647665530313 3.586864926366586 3.387875440449232 2.765      3.065      4.06       3.72       2.98       1.75       -9999      2.05       0.2102636  0.2485029  -9999      0.1720243  0.255619   21.96595   17.48224   2.255      3.39       0.509599   0.5739893  478.52     0.2893215  0.2017067  0.3769363 
1001.05    0.226      -9999      -9999      327.808    4.13831    4.32       3.156437865696247 3.184116832027453 3.198734124618777 3.027209936558893 2.909157953772957 2.355      2.59       3.855      3.285      2.67       1.66       -9999      1.96       0.2280856  0.2664671  -9999      0.189704   0.2837412  46.97387   7.144015   2.225      2.91       0.5092135  0.5817248  481.27     0.3550264  0.2906839  0.419369  
1001.25    0.226      -9999      -9999      357.256    4.619018   4.17       2.337691168653379 2.318404623873926 2.213458831783415 2.353869155242067 2.333816616617509 1.965      1.58       2.16       2.03       2.4        1.59       -9999      1.82       0.2057162  0.2162572  -9999      0.1951753  0.2730193  18.09346   2.987225   2.15       2.34       0.4052078  0.5019149  482.71     0.4293255  0.4149983  0.4436526 
1001.45    0.226      -9999      -9999      372.055    4.988863   3.88       1.442220510185426 1.437706506905887 1.498365776437703 1.682319826905585 1.792986335697975 1.695      1.15       1.415      1.55       2.2        1.53       -9999      1.88       0.1922333  0.2015722  -9999      0.1828945  0.2720454  10.18089   1.527304   2.145      1.795      0.285434   0.4138733  484.33     0.50912    0.545772   0.4724681 
1001.65    0.225      -9999      -9999      356.811    5.205295   3.53       1.38769593211184 1.477260978974162 1.639024099883615 1.653723072343056 1.699735273505814 1.7        1.585      1.655      1.895      2.09       1.48       -9999      2          0.1591552  0.1638301  -9999      0.1544804  0.2466061  2.4837     1.031413   2.19       1.7        0.1359297  0.310499   484.44     0.5578479  0.6406623  0.4750335 
1001.85    0.225      -9999      -9999      335.499    5.277899   3.27       1.96634178107483 2.12661703181381 2.071810802172954 2.028792744466601 1.9390719429666 1.88       2.13       3.04       2.57       2.17       1.49       -9999      2.11       0.1336555  0.1388662  -9999      0.1284449  0.2239408  0.8371111  0.9041479  2.225      1.94       0.05445261 0.2665051  484.45     0.5759284  0.6760565  0.4758002 
1002.05    0.226      -9999      -9999      336.312    5.240258   3.09       1.859032006179628 1.852214890340944 1.846104005737625 1.927900412365845 1.974841765813178 1.925      1.92       2.49       2.275      2.39       1.54       -9999      2.13       0.1268541  0.1241209  -9999      0.1295873  0.2169803  0.6263306  0.9680341  2.25       1.975      0.01871606 0.2435125  485.32     0.5749138  0.6574693  0.4923583 
1002.25    0.225      -9999      -9999      344.482    5.136694   2.93       1.824445121125873 1.738965209542733 1.71481777457548 1.754992877478424 1.849891888732961 1.89       2.19       2.73       2.54       2.45       1.55       -9999      2.22       0.1279929  0.1164606  -9999      0.1395252  0.2171839  0.6575024  1.168079   2.265      1.85       0          0.2215881  487.19     0.568948   0.6089239  0.5289721 
1002.45    0.226      -9999      -9999      343.257    5.021935   2.8        1.969365380014644 1.89871008845487 1.814662503056738 1.789888264669077 1.839972825886307 1.925      2.135      2.75       2.51       2.41       1.53       -9999      2.28       0.1312467  0.1214002  -9999      0.1410933  0.2190611  0.7553803  1.438377   2.26       1.84       0.01519995 0.2312412  488.73     0.5601668  0.5593059  0.5610276 
1002.65    0.226      -9999      -9999      341.498    4.944496   2.73       1.934218188312849 1.82778554540744 1.814827815524135 1.779971909890727 1.81997252726519 1.935      1.72       2.15       2.17       2.38       1.51       -9999      2.32       0.1343439  0.1316931  -9999      0.1369947  0.2233492  0.8620508  1.655293   2.24       1.82       0.03004164 0.2430619  490.84     0.5677637  0.5281292  0.6073982 
1002.85    0.225      -9999      -9999      341.009    4.918047   2.61       1.939768027368255 1.834666182170519 1.824664352696173 1.75499287747843 1.8        1.945      1.925      2.52       2.355      2.39       1.51       -9999      2.29       0.1339839  0.1333482  -9999      0.1346195  0.2239366  0.8489146  1.73664    2.235      1.8        0.02271752 0.2392516  491.79     0.5738072  0.5178841  0.6297303 
1003.05    0.225      -9999      -9999      333.861    4.916482   2.47       1.984993702760798 1.89       1.86       1.854669781928808 1.839891301137085 2.015      1.935      2.435      2.375      2.41       1.51       -9999      2.26       0.1070384  0.08944771 -9999      0.1246291  0.1983951  0.2690106  1.741578   2.305      1.84       0          0.1152534  492.55     0.5827628  0.517284   0.6482416 
1003.25    0.225      -9999      -9999      323.5      4.906697   2.44       2.158124185490724 2.077089309586855 2.028003944769339 2.00449494885869 1.929766825292631 2.07       2.285      2.82       2.64       2.54       1.53       -9999      2.3        0.09954651 0.08778765 -9999      0.1113054  0.1920778  0.1954343  1.772763   2.305      1.93       0          0.09364312 493.3      0.5902556  0.5135488  0.6669623 
1003.45    0.224      -9999      -9999      321.292    4.889121   2.34       2.349978723307948 2.21       2.189908673894895 2.119976414963159 2.024944443682362 2.12       2.225      2.95       2.62       2.57       1.57       -9999      2.3        0.1176969  0.1266307  -9999      0.1087631  0.2102841  0.423829   1.830191   2.24       2.025      0          0.2157061  493.57     0.5906127  0.5069068  0.6743186 
1003.65    0.225      -9999      -9999      328.856    4.897787   2.18       2.374952631106583 2.229910312097799 2.14990697473172 2.104851538707687 2.014944167961005 2.07       1.95       2.715      2.58       2.56       1.59       -9999      2.3        0.1258053  0.1352174  -9999      0.1163933  0.2186724  0.5989323  1.801648   2.225      2.015      0.0208515  0.2520975  493.55     0.5923976  0.5101709  0.6746244 
1003.85    0.227      -9999      -9999      336.333    4.949313   2.14       2.05650188426839 1.923122460999202 1.88260457876836 1.923902284420837 1.919765610693105 1.985      1.44       1.945      2.07       2.57       1.59       -9999      2.3        0.1201435  0.1185549  -9999      0.121732   0.2142079  0.4704431  1.640895   2.25       1.92       0          0.20995    493.33     0.6000358  0.5300166  0.670055  
1004.05    0.226      -9999      -9999      331.734    5.004155   2.19       1.961631973638146 1.862041889969062 1.853860836200961 1.879574419915272 1.889894176931585 1.975      1.91       2.345      2.465      2.51       1.59       -9999      2.34       0.1074056  0.09943309 -9999      0.1153781  0.2022892  0.2732564  1.485522   2.28       1.89       0          0.1384721  492.82     0.6052615  0.5519887  0.6585343 
1004.25    0.227      -9999      -9999      321.479    5.003299   2.3        2.329978540673711 2.21       2.199795445035742 2.098833009079093 2.029384143034532 2.12       1.995      2.675      2.7        2.54       1.6        -9999      2.38       0.1084034  0.1100772  -9999      0.1067295  0.2021109  0.2851355  1.48783    2.265      2.03       0          0.1712577  492.17     0.5977595  0.5516389  0.6438801 
1004.45    0.225      -9999      -9999      322.043    4.936364   2.28       2.474146317419478 2.324091220240794 2.289803485017908 2.249977777668049 2.179908254950217 2.19       2.045      2.46       2.76       2.55       1.62       -9999      2.4        0.1092193  0.1069862  -9999      0.1114524  0.2008771  0.2952326  1.679892   2.275      2.18       0          0.1996403  492.16     0.5846837  0.5249577  0.6444098 
