~Version
 VERS              .         2.0                           : CWLS LOG ASCII STANDARD - VERSION 2.0
 WRAP              .         NO                            : ONE LINE PER DEPTH STEP
 DLM               .         SPACE                         : DELIMITING CHARACTER(SPACE TAB OR COMMA)
~Well Information
#_______________________________________________________________________________
#
#PARAMETER_NAME    .UNIT     VALUE                         : DESCRIPTION
#_______________________________________________________________________________
STRT               .м        2.45                          : First reference value
STOP               .м        1177.25                       : Last reference value
STEP               .м        0.2                           : Step increment
NULL               .         -9999                         : Missing value
COMP               .                                       : Company
WELL               .         6941                          : Well name
FLD                .         Узень                         : Field
LOC                .                                       : Location
CNTY               .                                       : County
STAT               .                                       : State
CTRY               .                                       : Country
SRVC               .                                       : Service Company
DATE               .         10.2.2016                     : Date
UWI                .                                       : Unique Well ID
Block              .         7                             : 
Category           .         Нефтяная                      : 
Condition          .         В работе                      : 
Date               .         27.02.2016                    : 
EREF               .m        91.6                          : 100.8
GRP                .                                       : Group name
Gor                .         14                            : 
Gorizont           .         14                            : 14
ISS                .                                       : Well surveys
Interpretator      .         Кайсанов Е.К                  : 
Kupol              .         Основной                      : osnovnoi
Mud                .         полимерный                    : 
Mud_density        .         1,34                          : 
Mud_resistivity    .         0,49                          : 
NGDU               .         НГДУ-2                        : 
ORIGINALWELLNAME   .         6941                          : 
Spud_date          .         2016                          : 1961
TIME               .         11_07                         : LOG TIME
Viscosity          .         40                            : 
X                  .m        42034.23                      : 46154
Y                  .m        84394.33                      : 85761.93
YEAR               .         2019                          : 
group              .         2016                          : 
Сдали_за_3_кв_2019 .         3                             : 
~Parameter Information Block
#_______________________________________________________________________________
#
#PARAMETER_NAME    .UNIT     VALUE                         : DESCRIPTION
#_______________________________________________________________________________
SET                .         LQC_KAZNIPI_Petrel            : 
TLFamily_CALI      .         Caliper                       : 
TLFamily_COLL      .         Net Reservoir Flag            : 
TLFamily_CSAT      .         Fluid Code                    : 
TLFamily_DEPT      .         Measured Depth                : 
TLFamily_DT        .         Compressional Slowness        : 
TLFamily_GR        .         Russian Gamma Ray             : 
TLFamily_GZ3       .         Gradient 225                  : 
TLFamily_IK1       .         Resistivity 05                : 
TLFamily_IK2       .         Resistivity 07                : 
TLFamily_IK3       .         Resistivity 10                : 
TLFamily_IK4       .         Resistivity 14                : 
TLFamily_IK5       .         Resistivity 20                : 
TLFamily_LLS       .         Lateral Log Resistivity       : 
TLFamily_MBK       .         Micro Lateral Log Resistivity : 
TLFamily_MINV      .         Micro Gradient Resistivity    : 
TLFamily_MNOR      .         Micro Resistivity             : 
TLFamily_NNKTB_1   .         Neutron Far                   : 
TLFamily_NNKTM_1   .         Neutron Near                  : 
TLFamily_NPHI      .         Neutron Porosity              : 
TLFamily_OGZ3      .         Gradient Inverted 225         : 
TLFamily_PHIE      .         Effective Porosity            : 
TLFamily_PHIED     .         Effective Porosity            : 
TLFamily_PHIEN     .         Effective Porosity            : 
TLFamily_PHIES     .         Effective Porosity            : 
TLFamily_PHIT      .         Porosity                      : 
TLFamily_PRMB      .         Permeability                  : 
TLFamily_PRMB_DGR  .         Permeability                  : 
TLFamily_RHOB      .         Bulk Density                  : 
TLFamily_RT        .         Formation Resistivity         : 
TLFamily_SOIL_ARCHIE .         Oil Saturation                : 
TLFamily_SOIL_DW   .         Oil Saturation                : 
TLFamily_SP        .         Spontaneous Potential         : 
TLFamily_VSH_FIN   .         Shale Volume                  : 
TLFamily_VSH_GR    .         Shale Volume                  : 
TLFamily_VSH_SP    .         Shale Volume                  : 
~Curve Information
#_______________________________________________________________________________
#
#LOGNAME           .UNIT     LOG_ID                        : DESCRIPTION
#_______________________________________________________________________________
DEPT               .м                                      : Колонка глубины 
CALI               .м                                      : Каверномер 
COLL               .unitless                               :  
CSAT               .unitless                               :  
DT                 .мкс/м                                  : Интервальное время пробега продольной волны 
GR                 .uR/h                                   : Гамма каротаж 
GZ3                .Ohmm                                   : Градиент-зонд  длиной 2.25м 
IK1                .OHMM                                   : И0.10И0.40 
IK2                .OHMM                                   : И0.14И0.56 
IK3                .OHMM                                   : И0.20И0.8 
IK4                .OHMM                                   : И0.28И1.12 
IK5                .OHMM                                   : И0.40И1.60 
LLS                .Ohmm                                   : Боковой каротаж 
MBK                .Ohmm                                   : Микробоковой каротаж 
MINV               .Ohmm                                   : Микро-градиент зонд 
MNOR               .Ohmm                                   : Микро-потенциал зонд 
NNKTB_1            .у.е.                                   : Показания большого зонда 2ННКт аппаратуры СРК 
NNKTM_1            .у.е.                                   : Показания малого зонда 2ННКт аппаратуры СРК 
NPHI               .v/v                                    : Кп 
OGZ3               .Ohmm                                   : Обращенный градиент-зонд 
PHIE               .v/v                                    : Описание 
PHIED              .v/v                                    :  
PHIEN              .v/v                                    :  
PHIES              .v/v                                    :  
PHIT               .v/v                                    : Описание 
PRMB               .mD                                     :  
PRMB_DGR           .mD                                     :  
RHOB               .г/см3                                  : Плотность по ГГКп 
RT                 .ohmm                                   : Удельное электрическое сопротивление 
SOIL_ARCHIE        .v/v                                    :  
SOIL_DW            .v/v                                    :  
SP                 .мВ                                     : Потенциал самополяризации 
VSH_FIN            .v/v                                    : Описание 
VSH_GR             .v/v                                    : Shale volume 
VSH_SP             .v/v                                    : Shale Volume 
~Ascii
# ...
944.65     0.225      -9999      -9999      340.378    4.378302   3.24       2.338952757111689 2.043232732705796 2.113291271926426 2.209185370221408 2.314087293081301 2.34       1.99       2.73       2.495      3.09       1.74       -9999      2.85       0.1967001  0.2030852  -9999      0.190315   0.2584941  12.31746   4.622644   2.185      2.315      0.3784064  0.4732628  521.91     0.3941833  0.34723    0.4411365 
944.85     0.225      -9999      -9999      331.367    4.474679   3.11       2.308246087400664 2.094277918519952 2.166679487141693 2.228564560429068 2.284337978496239 2.415      2.245      2.605      2.56       2.95       1.73       -9999      2.96       0.1740638  0.1705808  -9999      0.1775467  0.2376722  4.690741   3.881233   2.235      2.285      0.3043207  0.4141095  521.61     0.405757   0.3729221  0.438592  
945.05     0.225      -9999      -9999      307.415    4.495413   3.17       3.040542714713665 2.764145437562732 2.707988183135 2.809555124926166 2.639071806525843 2.755      2.75       4.45       3.925      3.17       1.78       -9999      3.09       0.1466633  0.1432389  -9999      0.1500878  0.2105518  1.457869   3.73798    2.28       2.64       0.2453156  0.3718447  521.33     0.4075435  0.3786931  0.4363938 
945.25     0.225      -9999      -9999      302.462    4.490031   3.31       3.944971482786663 3.25993864972947 3.133847475548228 3.014796842243271 2.879982638836561 2.87       3.675      3.805      3.95       3.38       1.87       -9999      3.24       0.1423019  0.140396   -9999      0.1442078  0.2060834  1.210416   3.774649   2.285      2.88       0.2562081  0.383337   521.19     0.4068609  0.3771866  0.4365353 
945.45     0.225      -9999      -9999      317.055    4.525508   3.39       2.861328362841122 2.424128709454109 2.47014169634034 2.51081660023172 2.598768939324835 2.675      2.275      3.1        2.935      3.32       1.87       -9999      3.2        0.1660217  0.1721281  -9999      0.1599153  0.2306537  3.328767   3.5394     2.23       2.6        0.3176899  0.4299569  521.09     0.4122866  0.387229   0.4373442 
945.65     0.225      -9999      -9999      327.706    4.604372   3.28       2.748836117341392 2.449489742783235 2.349978723307925 2.334866163187975 2.399812492675243 2.505      2.46       3.395      3.085      3.13       1.79       -9999      3.14       0.1810276  0.1954878  -9999      0.1665674  0.2481972  6.312894   3.06765    2.185      2.4        0.3430019  0.4516292  521.48     0.428474   0.4105208  0.4464273 
945.85     0.226      -9999      -9999      321.147    4.663776   3.13       2.398978949470041 2.266825974793967 2.338268590218087 2.364571842850253 2.434584153402846 2.565      2.165      2.965      2.57       3.14       1.74       -9999      3.15       0.1726967  0.1897866  -9999      0.1556068  0.2417817  4.425069   2.754294   2.19       2.435      0.3201175  0.4362795  521.68     0.4406925  0.4289861  0.452399  
946.05     0.225      -9999      -9999      314.147    4.662179   3.13       3.165438358268689 2.837463656154775 2.958310328548938 2.757807099852945 2.643936459145633 2.8        3.145      3.48       3.61       3.17       1.73       -9999      3.17       0.1607815  0.1744346  -9999      0.1471285  0.2301369  2.662086   2.762287   2.215      2.645      0.3039891  0.4265451  521.76     0.4424172  0.4284789  0.4563555 
946.25     0.226      -9999      -9999      323.024    4.634599   3.26       3.309939576487764 2.909845356715714 2.984057640193969 2.939846934790994 2.779928056623049 2.755      2.945      3.37       3.535      3.07       1.73       -9999      3.07       0.1615909  0.1656981  -9999      0.1574836  0.2307724  2.75558    2.903986   2.23       2.78       0.3230264  0.4427018  521.98     0.4413083  0.4198151  0.4628016 
946.45     0.225      -9999      -9999      343.748    4.650105   3.26       3.122883283121415 2.724224660339084 2.654204212188581 2.678488379664816 2.568754562039654 2.6        2.63       3.475      3.31       2.87       1.71       -9999      3.07       0.1740773  0.168952   -9999      0.1792025  0.243075   4.693442   2.823443   2.225      2.57       0.3416978  0.4547967  521.42     0.4401357  0.4246645  0.455607  
946.65     0.225      -9999      -9999      356.705    4.734376   3.12       2.476590398107998 2.263404515326511 2.283418489896331 2.349468024894203 2.324736544213168 2.39       2.225      3.1        2.725      2.59       1.64       -9999      3.17       0.1785414  0.1693976  -9999      0.1876851  0.2493422  5.677766   2.423237   2.22       2.325      0.3250598  0.4411666  521.02     0.4516376  0.4520147  0.4512605 
946.85     0.226      -9999      -9999      358.733    4.840551   3.03       2.499279896290198 2.329463457537007 2.31922400815452 2.274950548913114 2.26       2.4        2.455      3.05       2.875      2.53       1.6        -9999      3.32       0.1806534  0.1774132  -9999      0.1838936  0.2542565  6.212933   1.998744   2.2        2.26       0.3229886  0.4423593  520.8      0.4695135  0.4889956  0.4500314 
947.05     0.226      -9999      -9999      353.957    4.885372   2.98       2.474752512878853 2.244860797466099 2.33       2.339978632381063 2.349808502835888 2.53       2.34       3.375      2.855      2.59       1.6        -9999      3.49       0.1804065  0.182499   -9999      0.178314   0.254648   6.147865   1.842679   2.19       2.35       0.3344898  0.4533275  520.16     0.4735853  0.5055013  0.4416693 
947.25     0.225      -9999      -9999      332.008    4.821193   3.07       2.761249717066531 2.371581750646602 2.474833327721283 2.538405011025624 2.583253762215397 2.675      2.285      3.08       2.855      2.7        1.63       -9999      3.64       0.1537957  0.1447489  -9999      0.1628425  0.2250895  1.976186   2.070173   2.26       2.585      0.2687016  0.4014786  519.16     0.4547819  0.4820346  0.4275292 
947.45     0.226      -9999      -9999      302.062    4.69138    3.22       4.086379815925593 3.567408022640869 3.634226189988815 3.322047561369604 3.047228248753431 3.165      4.345      5.3        4.745      3.13       1.76       -9999      3.72       0.1418938  0.1472827  -9999      0.1365049  0.2092763  1.189529   2.619786   2.265      3.05       0.2741451  0.4054817  518.66     0.429832   0.4378469  0.4218171 
947.65     0.225      -9999      -9999      299.364    4.609648   3.29       4.506406550678916 3.800499967109801 3.657690528188666 3.573457709278348 3.294996206371115 3.29       4.05       5.06       4.81       3.53       1.88       -9999      3.61       0.1530003  0.1684195  -9999      0.1375812  0.218138   1.910273   3.038429   2.235      3.295      0.3444619  0.4588282  518.33     0.4155124  0.4121283  0.4188964 
947.85     0.225      -9999      -9999      324.559    4.662928   3.36       3.554926159570472 3.05106538769639 2.994060787625977 3.022813259200642 3.008654184182586 2.89       2.74       3.65       3.255      3.29       1.85       -9999      3.52       0.1747514  0.1829204  -9999      0.1665825  0.240221   4.830349   2.758533   2.21       3.01       0.3908053  0.4935294  517.4      0.4176297  0.4287168  0.4065426 
948.05     0.226      -9999      -9999      350.365    4.82676    3.43       3.364699095015829 2.989933109619701 2.924995726492599 2.814960035240305 2.749709075520582 2.76       2.825      3.535      3.39       2.76       1.71       -9999      3.54       0.1947399  0.2045123  -9999      0.1849674  0.2639979  11.32956   2.049373   2.165      2.75       0.4216342  0.5206261  516.8      0.4417958  0.4840262  0.3995653 
948.25     0.225      -9999      -9999      367.868    4.976993   3.41       3.114803364580178 2.849719284420836 2.839718295887816 2.699703687444235 2.619522857315813 2.67       2.81       3.25       3.28       2.41       1.62       -9999      3.53       0.1927499  0.1929232  -9999      0.1925766  0.265971   10.40767   1.560544   2.175      2.62       0.4030238  0.508926   516.23     0.4670767  0.5409947  0.3931586 
948.45     0.225      -9999      -9999      364.231    4.981555   3.22       2.450714181621049 2.24499443206407 2.424046204179917 2.403497451631587 2.464751508773208 2.57       3.31       4.04       4.125      2.47       1.59       -9999      3.47       0.1780641  0.1662585  -9999      0.1898697  0.2510861  5.563355   1.547682   2.22       2.465      0.3417946  0.4588868  515.79     0.4658062  0.5428261  0.3887863 
