~Version
 VERS              .         2.0                           : CWLS LOG ASCII STANDARD - VERSION 2.0
 WRAP              .         NO                            : ONE LINE PER DEPTH STEP
 DLM               .         SPACE                         : DELIMITING CHARACTER(SPACE TAB OR COMMA)
~Well Information
#_______________________________________________________________________________
#
#PARAMETER_NAME    .UNIT     VALUE                         : DESCRIPTION
#_______________________________________________________________________________
STRT               .м        2.45                          : First reference value
STOP               .м        1177.25                       : Last reference value
STEP               .м        0.2                           : Step increment
NULL               .         -9999                         : Missing value
COMP               .                                       : Company
WELL               .         6941                          : Well name
FLD                .         Узень                         : Field
LOC                .                                       : Location
CNTY               .                                       : County
STAT               .                                       : State
CTRY               .                                       : Country
SRVC               .                                       : Service Company
DATE               .         10.2.2016                     : Date
UWI                .                                       : Unique Well ID
Block              .         7                             : 
Category           .         Нефтяная                      : 
Condition          .         В работе                      : 
Date               .         27.02.2016                    : 
EREF               .m        91.6                          : 100.8
GRP                .                                       : Group name
Gor                .         14                            : 
Gorizont           .         14                            : 14
ISS                .                                       : Well surveys
Interpretator      .         Кайсанов Е.К                  : 
Kupol              .         Основной                      : osnovnoi
Mud                .         полимерный                    : 
Mud_density        .         1,34                          : 
Mud_resistivity    .         0,49                          : 
NGDU               .         НГДУ-2                        : 
ORIGINALWELLNAME   .         6941                          : 
Spud_date          .         2016                          : 1961
TIME               .         11_07                         : LOG TIME
Viscosity          .         40                            : 
X                  .m        42034.23                      : 46154
Y                  .m        84394.33                      : 85761.93
YEAR               .         2019                          : 
group              .         2016                          : 
Сдали_за_3_кв_2019 .         3                             : 
~Parameter Information Block
#_______________________________________________________________________________
#
#PARAMETER_NAME    .UNIT     VALUE                         : DESCRIPTION
#_______________________________________________________________________________
SET                .         LQC_KAZNIPI_Petrel            : 
TLFamily_CALI      .         Caliper                       : 
TLFamily_COLL      .         Net Reservoir Flag            : 
TLFamily_CSAT      .         Fluid Code                    : 
TLFamily_DEPT      .         Measured Depth                : 
TLFamily_DT        .         Compressional Slowness        : 
TLFamily_GR        .         Russian Gamma Ray             : 
TLFamily_GZ3       .         Gradient 225                  : 
TLFamily_IK1       .         Resistivity 05                : 
TLFamily_IK2       .         Resistivity 07                : 
TLFamily_IK3       .         Resistivity 10                : 
TLFamily_IK4       .         Resistivity 14                : 
TLFamily_IK5       .         Resistivity 20                : 
TLFamily_LLS       .         Lateral Log Resistivity       : 
TLFamily_MBK       .         Micro Lateral Log Resistivity : 
TLFamily_MINV      .         Micro Gradient Resistivity    : 
TLFamily_MNOR      .         Micro Resistivity             : 
TLFamily_NNKTB_1   .         Neutron Far                   : 
TLFamily_NNKTM_1   .         Neutron Near                  : 
TLFamily_NPHI      .         Neutron Porosity              : 
TLFamily_OGZ3      .         Gradient Inverted 225         : 
TLFamily_PHIE      .         Effective Porosity            : 
TLFamily_PHIED     .         Effective Porosity            : 
TLFamily_PHIEN     .         Effective Porosity            : 
TLFamily_PHIES     .         Effective Porosity            : 
TLFamily_PHIT      .         Porosity                      : 
TLFamily_PRMB      .         Permeability                  : 
TLFamily_PRMB_DGR  .         Permeability                  : 
TLFamily_RHOB      .         Bulk Density                  : 
TLFamily_RT        .         Formation Resistivity         : 
TLFamily_SOIL_ARCHIE .         Oil Saturation                : 
TLFamily_SOIL_DW   .         Oil Saturation                : 
TLFamily_SP        .         Spontaneous Potential         : 
TLFamily_VSH_FIN   .         Shale Volume                  : 
TLFamily_VSH_GR    .         Shale Volume                  : 
TLFamily_VSH_SP    .         Shale Volume                  : 
~Curve Information
#_______________________________________________________________________________
#
#LOGNAME           .UNIT     LOG_ID                        : DESCRIPTION
#_______________________________________________________________________________
DEPT               .м                                      : Колонка глубины 
CALI               .м                                      : Каверномер 
COLL               .unitless                               :  
CSAT               .unitless                               :  
DT                 .мкс/м                                  : Интервальное время пробега продольной волны 
GR                 .uR/h                                   : Гамма каротаж 
GZ3                .Ohmm                                   : Градиент-зонд  длиной 2.25м 
IK1                .OHMM                                   : И0.10И0.40 
IK2                .OHMM                                   : И0.14И0.56 
IK3                .OHMM                                   : И0.20И0.8 
IK4                .OHMM                                   : И0.28И1.12 
IK5                .OHMM                                   : И0.40И1.60 
LLS                .Ohmm                                   : Боковой каротаж 
MBK                .Ohmm                                   : Микробоковой каротаж 
MINV               .Ohmm                                   : Микро-градиент зонд 
MNOR               .Ohmm                                   : Микро-потенциал зонд 
NNKTB_1            .у.е.                                   : Показания большого зонда 2ННКт аппаратуры СРК 
NNKTM_1            .у.е.                                   : Показания малого зонда 2ННКт аппаратуры СРК 
NPHI               .v/v                                    : Кп 
OGZ3               .Ohmm                                   : Обращенный градиент-зонд 
PHIE               .v/v                                    : Описание 
PHIED              .v/v                                    :  
PHIEN              .v/v                                    :  
PHIES              .v/v                                    :  
PHIT               .v/v                                    : Описание 
PRMB               .mD                                     :  
PRMB_DGR           .mD                                     :  
RHOB               .г/см3                                  : Плотность по ГГКп 
RT                 .ohmm                                   : Удельное электрическое сопротивление 
SOIL_ARCHIE        .v/v                                    :  
SOIL_DW            .v/v                                    :  
SP                 .мВ                                     : Потенциал самополяризации 
VSH_FIN            .v/v                                    : Описание 
VSH_GR             .v/v                                    : Shale volume 
VSH_SP             .v/v                                    : Shale Volume 
~Ascii
# ...
1036.65    0.225      -9999      -9999      346.207    6.686705   1.49       1.719970929986922 1.559967948388707 1.544991909363941 1.544797721386258 1.524795068197747 1.75       1.7        1.84       1.795      2          1.39       -9999      1.98       0.1271965  0.1151159  -9999      0.1392771  0.2173389  0.6355441  1.276471   2.265      1.525      0          0.1408819  488.87     0.5750171  0.5872545  0.5627797 
1036.85    0.227      -9999      -9999      328.593    6.452783   1.54       1.927900412365538 1.76244148839025 1.728149299105656 1.703760546555618 1.68926019310218 1.835      2.12       1.88       1.815      2.05       1.42       -9999      1.97       0.1257391  0.1212432  -9999      0.130235   0.2115461  0.5972435  1.770425   2.265      1.69       0          0.1667089  489.71     0.5473614  0.5138258  0.5808971 
1037.05    0.228      -9999      -9999      313.702    6.202423   1.66       2.224050359142077 2.024499938256358 1.969086082425042 1.934683436637632 1.884462788170677 1.95       2.08       1.635      2.15       2.14       1.45       -9999      1.93       0.1164793  0.1116463  -9999      0.1213123  0.1984845  0.4023812  2.512623   2.29       1.885      0          0.1547763  490.61     0.52311    0.4453781  0.6008419 
1037.25    0.227      -9999      -9999      314.146    6.013544   1.72       2.364867861001963 2.129624380025736 2.10997630318447 2.039975490048839 1.99       1.95       2.18       2.68       2.62       2.3        1.45       -9999      1.91       0.1092211  0.09489639 -9999      0.1235459  0.1903673  0.2952558  3.272186   2.32       1.99       0          0.1345751  492.12     0.51763    0.3998422  0.6354178 
1037.45    0.226      -9999      -9999      325.615    5.940564   1.81       2.409813270774315 2.194720938980626 2.12       2.014844907182684 1.944685064477022 1.84       2.18       2.68       2.62       2.21       1.45       -9999      1.84       0.1246089  0.1110998  -9999      0.138118   0.2048823  0.5691379  3.623768   2.295      1.945      0          0.2053246  492.33     0.5120629  0.383522   0.6406038 
1037.65    0.226      -9999      -9999      344.501    5.971265   1.82       2.060582441932071 1.857309882598797 1.838260046891987 1.75769735733979 1.748971126119446 1.705      1.675      1.84       2.12       2.09       1.44       -9999      1.74       0.145482   0.130936   -9999      0.160028   0.2244307  1.386236   3.471482   2.265      1.75       0.07823785 0.2546039  491.29     0.5036131  0.3903048  0.6169214 
1037.85    0.226      -9999      -9999      355.405    6.023101   1.84       1.67409677139657 1.524007873995532 1.544344521148152 1.514925740754346 1.55479902238205 1.65       1.45       1.805      1.855      2.1        1.44       -9999      1.73       0.1556559  0.1386513  -9999      0.1726605  0.2333825  2.139352   3.228743   2.255      1.555      0.08139727 0.2483398  490.05     0.495817   0.4020303  0.5896037 
1038.05    0.226      -9999      -9999      346.898    6.010998   1.8        1.74241212116996 1.621604144049959 1.61802348561447 1.598468016570866 1.589716955939013 1.725      1.7        2.005      2.22       2.07       1.42       -9999      1.85       0.1538652  0.1404368  -9999      0.1672936  0.2303284  1.98205    3.283858   2.255      1.59       0.08173484 0.2472946  489.42     0.487758   0.3992613  0.5762547 
1038.25    0.224      -9999      -9999      325.867    5.928311   1.93       2.097617696340303 1.934476673418421 1.919348847916918 1.908323871883387 1.793822733717019 1.885      2.005      2.105      2.535      2.18       1.42       -9999      1.98       0.1495005  0.1491437  -9999      0.1498574  0.2240401  1.645398   3.686394   2.245      1.795      0.1105161  0.2713696  489.12     0.4754868  0.380848   0.5701257 
1038.45    0.224      -9999      -9999      313.859    5.848826   2.12       2.589691101270574 2.314735406045365 2.224724702069899 2.124852936087578 2.014696006845698 1.955      2.42       2.4        2.785      2.3        1.45       -9999      2.04       0.1478115  0.1585693  -9999      0.1370538  0.2220372  1.531039   4.11979    2.23       2.015      0.1491093  0.3054172  489.71     0.4734846  0.3639487  0.5830204 
1038.65    0.224      -9999      -9999      325.267    5.851018   1.96       2.145437018418074 1.982725397022781 1.95161471607461 1.978383178254223 1.969365380014473 1.825      1.905      2.265      2.415      2.22       1.47       -9999      2.01       0.1589598  0.1695254  -9999      0.1483943  0.2339072  2.463084   4.107181   2.21       1.97       0.1928154  0.3387754  490.1      0.4780881  0.3644045  0.5917717 
1038.85    0.225      -9999      -9999      344.507    5.948643   1.95       1.829316812364774 1.664632091484561 1.669520889357274 1.67409677139657 1.748971126119719 1.72       1.655      1.975      1.99       2.12       1.47       -9999      1.9        0.16075    0.1558575  -9999      0.1656424  0.2368944  2.658504   3.583058   2.23       1.75       0.1549735  0.3068663  489.83     0.4857242  0.3852954  0.5861531 
1039.05    0.225      -9999      -9999      355.747    6.085052   1.96       1.689733706830754 1.609875771604753 1.58       1.549967741599805 1.57987341265052 1.665      1.5        1.555      1.895      2.11       1.44       -9999      1.93       0.1550811  0.1380472  -9999      0.1721151  0.2332352  2.08755    2.960799   2.255      1.58       0.08530467 0.2529051  489.56     0.4985435  0.4165068  0.5805802 
1039.25    0.226      -9999      -9999      355.952    6.185374   1.98       1.654811167475008 1.579968354113461 1.594804063200242 1.564928113364956 1.57987341265052 1.685      1.44       1.475      2.045      2.11       1.42       -9999      1.99       0.1598648  0.1489493  -9999      0.1707803  0.2387788  2.560012   2.573245   2.235      1.58       0.1091897  0.2722985  488.85     0.5033914  0.4410634  0.5657195 
1039.45    0.226      -9999      -9999      349.798    6.222396   2.12       1.82931681236466 1.72441294358399 1.724644890984808 1.714409519338947 1.67973212150033 1.775      1.655      1.78       2.025      2.18       1.42       -9999      2.02       0.1612423  0.1576941  -9999      0.1647905  0.2403241  2.714918   2.443412   2.22       1.68       0.1409211  0.2994356  488.49     0.5044618  0.4504869  0.5584367 
1039.65    0.226      -9999      -9999      338.065    6.231376   2.13       2.024499938256461 1.894835085172379 1.864671552847926 1.844830615530925 1.7898882646691 1.86       1.93       1.945      2.15       2.22       1.43       -9999      2.04       0.1577135  0.1629803  -9999      0.1524468  0.2372919  2.335583   2.412921   2.21       1.79       0.149885   0.3099797  488.67     0.5076294  0.4528027  0.562456  
1039.85    0.226      -9999      -9999      331.936    6.259763   2.07       2.12978872191593 1.979772714227638 1.899894733926112 1.874939999040003 1.84       1.89       1.92       2.125      2.385      2.28       1.46       -9999      2.05       0.1538479  0.1641206  -9999      0.1435751  0.2347379  1.980586   2.319011   2.205      1.84       0.1424692  0.3080831  489.1      0.5159966  0.4602023  0.5717908 
1040.05    0.224      -9999      -9999      329.362    6.31874    1.95       1.95       1.84466799180774 1.81       1.814993112934592 1.844939023382616 1.89       1.71       2.355      2.285      2.34       1.47       -9999      2.01       0.1465348  0.1556711  -9999      0.1373985  0.2291665  1.4499     2.135429   2.215      1.845      0.106452   0.2850997  489.39     0.5271063  0.4759643  0.5782482 
1040.25    0.224      -9999      -9999      325.902    6.393703   1.89       2.293032926061028 2.149418526020468 2.074849392124643 1.944685064477022 1.899763143131269 1.92       2.195      2.69       2.725      2.32       1.45       -9999      2.01       0.1345813  0.1402818  -9999      0.1288807  0.219628   0.8708225  1.922906   2.235      1.9        0.0508858  0.252201   489.84     0.5425121  0.4967805  0.5882437 
1040.45    0.225      -9999      -9999      328.653    6.478274   1.93       2.168524844220144 2.024252948620799 2.024499938256358 1.97484176581315 1.929974093090371 1.89       1.945      2.22       2.36       2.26       1.44       -9999      1.97       0.1276992  0.1298574  -9999      0.125541   0.215885   0.6493169  1.708425   2.245      1.93       0.01376498 0.2344362  490.53     0.5625359  0.5213597  0.603712  
