~Version
 VERS              .         2.0                           : CWLS LOG ASCII STANDARD - VERSION 2.0
 WRAP              .         NO                            : ONE LINE PER DEPTH STEP
 DLM               .         SPACE                         : DELIMITING CHARACTER(SPACE TAB OR COMMA)
~Well Information
#_______________________________________________________________________________
#
#PARAMETER_NAME    .UNIT     VALUE                         : DESCRIPTION
#_______________________________________________________________________________
STRT               .м        2.45                          : First reference value
STOP               .м        1177.25                       : Last reference value
STEP               .м        0.2                           : Step increment
NULL               .         -9999                         : Missing value
COMP               .                                       : Company
WELL               .         6941                          : Well name
FLD                .         Узень                         : Field
LOC                .                                       : Location
CNTY               .                                       : County
STAT               .                                       : State
CTRY               .                                       : Country
SRVC               .                                       : Service Company
DATE               .         10.2.2016                     : Date
UWI                .                                       : Unique Well ID
Block              .         7                             : 
Category           .         Нефтяная                      : 
Condition          .         В работе                      : 
Date               .         27.02.2016                    : 
EREF               .m        91.6                          : 100.8
GRP                .                                       : Group name
Gor                .         14                            : 
Gorizont           .         14                            : 14
ISS                .                                       : Well surveys
Interpretator      .         Кайсанов Е.К                  : 
Kupol              .         Основной                      : osnovnoi
Mud                .         полимерный                    : 
Mud_density        .         1,34                          : 
Mud_resistivity    .         0,49                          : 
NGDU               .         НГДУ-2                        : 
ORIGINALWELLNAME   .         6941                          : 
Spud_date          .         2016                          : 1961
TIME               .         11_07                         : LOG TIME
Viscosity          .         40                            : 
X                  .m        42034.23                      : 46154
Y                  .m        84394.33                      : 85761.93
YEAR               .         2019                          : 
group              .         2016                          : 
Сдали_за_3_кв_2019 .         3                             : 
~Parameter Information Block
#_______________________________________________________________________________
#
#PARAMETER_NAME    .UNIT     VALUE                         : DESCRIPTION
#_______________________________________________________________________________
SET                .         LQC_KAZNIPI_Petrel            : 
TLFamily_CALI      .         Caliper                       : 
TLFamily_COLL      .         Net Reservoir Flag            : 
TLFamily_CSAT      .         Fluid Code                    : 
TLFamily_DEPT      .         Measured Depth                : 
TLFamily_DT        .         Compressional Slowness        : 
TLFamily_GR        .         Russian Gamma Ray             : 
TLFamily_GZ3       .         Gradient 225                  : 
TLFamily_IK1       .         Resistivity 05                : 
TLFamily_IK2       .         Resistivity 07                : 
TLFamily_IK3       .         Resistivity 10                : 
TLFamily_IK4       .         Resistivity 14                : 
TLFamily_IK5       .         Resistivity 20                : 
TLFamily_LLS       .         Lateral Log Resistivity       : 
TLFamily_MBK       .         Micro Lateral Log Resistivity : 
TLFamily_MINV      .         Micro Gradient Resistivity    : 
TLFamily_MNOR      .         Micro Resistivity             : 
TLFamily_NNKTB_1   .         Neutron Far                   : 
TLFamily_NNKTM_1   .         Neutron Near                  : 
TLFamily_NPHI      .         Neutron Porosity              : 
TLFamily_OGZ3      .         Gradient Inverted 225         : 
TLFamily_PHIE      .         Effective Porosity            : 
TLFamily_PHIED     .         Effective Porosity            : 
TLFamily_PHIEN     .         Effective Porosity            : 
TLFamily_PHIES     .         Effective Porosity            : 
TLFamily_PHIT      .         Porosity                      : 
TLFamily_PRMB      .         Permeability                  : 
TLFamily_PRMB_DGR  .         Permeability                  : 
TLFamily_RHOB      .         Bulk Density                  : 
TLFamily_RT        .         Formation Resistivity         : 
TLFamily_SOIL_ARCHIE .         Oil Saturation                : 
TLFamily_SOIL_DW   .         Oil Saturation                : 
TLFamily_SP        .         Spontaneous Potential         : 
TLFamily_VSH_FIN   .         Shale Volume                  : 
TLFamily_VSH_GR    .         Shale Volume                  : 
TLFamily_VSH_SP    .         Shale Volume                  : 
~Curve Information
#_______________________________________________________________________________
#
#LOGNAME           .UNIT     LOG_ID                        : DESCRIPTION
#_______________________________________________________________________________
DEPT               .м                                      : Колонка глубины 
CALI               .м                                      : Каверномер 
COLL               .unitless                               :  
CSAT               .unitless                               :  
DT                 .мкс/м                                  : Интервальное время пробега продольной волны 
GR                 .uR/h                                   : Гамма каротаж 
GZ3                .Ohmm                                   : Градиент-зонд  длиной 2.25м 
IK1                .OHMM                                   : И0.10И0.40 
IK2                .OHMM                                   : И0.14И0.56 
IK3                .OHMM                                   : И0.20И0.8 
IK4                .OHMM                                   : И0.28И1.12 
IK5                .OHMM                                   : И0.40И1.60 
LLS                .Ohmm                                   : Боковой каротаж 
MBK                .Ohmm                                   : Микробоковой каротаж 
MINV               .Ohmm                                   : Микро-градиент зонд 
MNOR               .Ohmm                                   : Микро-потенциал зонд 
NNKTB_1            .у.е.                                   : Показания большого зонда 2ННКт аппаратуры СРК 
NNKTM_1            .у.е.                                   : Показания малого зонда 2ННКт аппаратуры СРК 
NPHI               .v/v                                    : Кп 
OGZ3               .Ohmm                                   : Обращенный градиент-зонд 
PHIE               .v/v                                    : Описание 
PHIED              .v/v                                    :  
PHIEN              .v/v                                    :  
PHIES              .v/v                                    :  
PHIT               .v/v                                    : Описание 
PRMB               .mD                                     :  
PRMB_DGR           .mD                                     :  
RHOB               .г/см3                                  : Плотность по ГГКп 
RT                 .ohmm                                   : Удельное электрическое сопротивление 
SOIL_ARCHIE        .v/v                                    :  
SOIL_DW            .v/v                                    :  
SP                 .мВ                                     : Потенциал самополяризации 
VSH_FIN            .v/v                                    : Описание 
VSH_GR             .v/v                                    : Shale volume 
VSH_SP             .v/v                                    : Shale Volume 
~Ascii
# ...
1112.65    0.225      -9999      -9999      311.281    7.055392   2.18       1.70499266860595 1.549967741599782 1.574928569808768 1.58499211354506 1.694933627019098 1.96       1.725      2.45       2.34       2.2        1.43       0.107      5.1        0.062453   0.08692253 0          0.1004365  0.158803   0.04017344 2.836719   2.31       1.695      0          0          476.45     0.4651589  0.2864646  0.6438532 
1112.85    0.223      -9999      -9999      309.406    6.947414   2.48       1.966316352980453 1.807844019819818 1.826636252787771 1.806017718628202 1.878297101099641 2.35       2.045      3.125      2.78       2.24       1.46       0.142      7.13       0.07095542 0.1019148  0          0.1109514  0.1747247  0.05773306 3.400161   2.3        1.88       0          0          474.28     0.4333256  0.2683869  0.5982643 
1113.05    0.222      -9999      -9999      312.523    6.786032   2.92       3.36882768927115 3.055977748610091 2.691096430825175 2.425365951768928 2.237297476868018 2.935      6.23       3.84       4.5        2.3        1.48       0.169      9.09       0.09148208 0.1435977  0.003828855 0.1270196  0.1988482  0.1385569  4.457575   2.245      2.24       0          0.1494839  472.55     0.4040561  0.2434724  0.5646397 
1113.25    0.217      -9999      -9999      318.622    6.610687   3.05       4.297534176711105 3.370311558298432 2.734666341621954 2.538405011025624 2.509980079602227 3.23       3.795      4.595      5.37       2.32       1.5        0.192      10.42      0.1102     0.1525214  0.03566088 0.1424178  0.2118251  0.3078431  5.982359   2.24       2.51       0.008765501 0.280387   472.11     0.3857718  0.2190168  0.5525267 
1113.45    0.218      -9999      -9999      325.323    6.458621   2.91       2.999983333287037 2.497578827584827 2.269449272400685 2.304951192541829 2.51992063367083 3.035      2.77       3.58       3.88       2.36       1.52       0.2065     12.1       0.1105751  0.1271569  0.05251673 0.1520517  0.2106688  0.3128074  7.721171   2.285      2.52       0.013537   0.2803572  472.96     0.3835616  0.199806   0.5673173 
1113.65    0.219      -9999      -9999      329.041    6.338735   2.7        3.032820469463765 2.969393877544845 2.911700534052723 2.798213715927087 2.870818698560051 3.805      3.78       3.955      4.255      2.32       1.53       0.2145     14.23      0.1233472  0.1294491  0.07284983 0.1677427  0.215424   0.5393213  9.441567   2.295      2.875      0.1569068  0.3632289  470.81     0.3532762  0.185856   0.5206963 
1113.85    0.215      1          2          331.906    6.233127   2.64       3.637141734933067 3.997599279566519 4.15677759809078 3.690853559814537 3.680842294909831 4.91       7.83       3.335      4.475      2.22       1.51       0.2365     16.86      0.1516725  0.1603998  0.1097333  0.1848844  0.2340746  1.805096   11.27199   2.26       3.685      0.3732458  0.5074093  467.51     0.315724   0.1743765  0.4570714 
1114.05    0.218      1          2          330.689    6.118219   2.74       4.759737387713738 4.954573644623722 5.693628017354138 4.933882852277708 4.33222806417206 5.685      8.545      4.075      5.645      2.14       1.5        0.2275     18.93      0.1853648  0.2544911  0.1095811  0.1920222  0.2620156  7.595626   13.66892   2.245      4.335      0.5123456  0.6085899  465.81     0.2943664  0.1626901  0.4260428 
1114.25    0.217      1          2          327.786    5.98614    2.76       5.181698563212646 5.376281242643469 5.939461255029785 5.453072528400845 4.719735162061533 6.025      8.21       4.045      5.575      2.14       1.47       0.2325     19.94      0.19094    0.239521   0.1298417  0.2034573  0.2576709  9.634523   17.06005   2.27       4.72       0.5433719  0.6258177  461.72     0.2562345  0.1502216  0.3622473 
1114.45    0.216      1          2          328.199    5.862243   2.78       5.594622418001058 5.749782604586021 6.248647853736039 6.270964838045259 5.143481311329905 6.23       5.92       3.95       5.8        2.14       1.43       0.255      22         0.203693   0.2425149  0.1586625  0.2099017  0.2663153  16.59767   21.00216   2.265      5.145      0.5854889  0.657783   460.47     0.2414201  0.1393956  0.3434446 
1114.65    0.215      1          2          334.543    5.80078    2.8        6.391384826468069 6.720163688483175 7.281105685265934 7.122815454580468 5.915133134596926 6.585      5.35       4.01       5.91       2.21       1.43       0.277      25.1       0.2191675  0.2485029  0.1867266  0.2222731  0.277848   32.1124    23.28371   2.255      5.92       0.6358799  0.6981341  458.63     0.2263753  0.1343181  0.3184325 
1114.85    0.214      1          2          341.334    5.834964   3.01       6.529724343339601 7.004955388865743 8.417624367955151 8.336114202671734 6.955141982734196 7.53       5.695      4.545      6.48       2.39       1.46       0.2595     28.57      0.2225398  0.257485   0.1752936  0.2348409  0.2772765  37.07967   21.9858    2.24       6.96       0.6669683  0.7230509  455.68     0.2102363  0.1371188  0.2833539 
1115.05    0.213      1          2          344.947    5.926008   3.6        6.682155340906107 7.453173820594821 9.138107024980609 9.70736833544499 8.24819980359351 8.56       7.885      4.785      6.33       2.31       1.49       0.246      31.74      0.220188   0.2544911  0.1648335  0.2412394  0.2729487  33.54086   18.87114   2.245      8.255      0.6897383  0.7422232  453.26     0.2012957  0.1448662  0.2577253 
1115.25    0.216      1          2          345.684    5.98676    4.47       9.31429009640563 9.941549175053149 11.42598792227613 11.61178280885412 9.746137696544206 9.435      10.91      4.065      5.67       2.14       1.49       0.2655     33.41      0.2314758  0.2694611  0.1836599  0.2413065  0.2846743  54.28146   17.0423    2.22       9.76       0.7254084  0.7734534  453.02     0.2022201  0.1502779  0.2541624 
1115.45    0.219      1          2          346.682    5.963976   5.11       13.25817860793857 13.38028400296496 14.54136857383101 14.29383783313635 11.41884407459879 11.39      12.175     4.19       6.31       2.12       1.49       0.28       35.53      0.2444274  0.2934131  0.1978779  0.2419913  0.2978092  94.30768   17.70642   2.18       11.425     0.7567832  0.8006333  453.6      0.2032447  0.1482251  0.2582644 
1115.65    0.218      1          2          351.015    5.877913   6.27       14.62803130978383 14.85485779130869 16.01395641308018 15.65907723973582 13.07044758223759 12.545     13.07      3.86       6.215      2.16       1.48       0.288      36.57      0.2496467  0.2874251  0.2107865  0.2507283  0.2998377  117.8203   20.45717   2.19       13.075     0.775865   0.8160172  452.05     0.1918132  0.1407205  0.242906  
1115.85    0.218      1          2          354.063    5.785728   7.61       15.20893487394786 15.63240224661519 17.13299448432648 16.67812639357254 14.5906819580161 12.835     14.445     3.405      5.455      2.13       1.47       0.306      36.63      0.2554089  0.2724552  0.2346586  0.2591129  0.3017829  150.6434   23.87926   2.215      14.595     0.7913275  0.8281789  449.75     0.1779862  0.133103   0.2228694 
1116.05    0.218      1          2          350.031    5.729778   9.17       17.43430239499132 18.93261207546385 19.77130496451865 18.24140619579533 15.85146050053433 13.405     14.725     2.965      4.865      2.1        1.48       0.2995     36.53      0.2581898  0.2844312  0.2315372  0.2586011  0.3023677  169.6134   26.22956   2.195      15.855     0.8011647  0.8360868  448.35     0.1700663  0.1286824  0.2114502 
1116.25    0.217      1          2          351.403    5.71743    10.87      18.26442443659257 20.17461275960459 22.17949278049433 20.44993887521428 17.21365736849668 13.875     15.755     3.16       4.47       2.14       1.49       0.2945     36.34      0.2612537  0.2934131  0.2285543  0.2617936  0.3041203  193.2901   26.7787    2.18       17.215     0.8106526  0.8440009  447.2      0.1651536  0.1277267  0.2025806 
1116.45    0.218      1          2          354.317    5.728553   12.28      17.00129406839374 19.1397387651974 22.17949278049433 21.29939905255545 18.44704854441491 14.19      16.01      3.045      3.985      2.14       1.49       0.2955     36.05      0.2587523  0.2814371  0.2299617  0.2648581  0.3013541  173.7316   26.28352   2.2        18.45      0.8151674  0.847898   446.87     0.1640417  0.1285873  0.199496  
