~Version
 VERS              .         2.0                           : CWLS LOG ASCII STANDARD - VERSION 2.0
 WRAP              .         NO                            : ONE LINE PER DEPTH STEP
 DLM               .         SPACE                         : DELIMITING CHARACTER(SPACE TAB OR COMMA)
~Well Information
#_______________________________________________________________________________
#
#PARAMETER_NAME    .UNIT     VALUE                         : DESCRIPTION
#_______________________________________________________________________________
STRT               .M        894                           : First reference value
STOP               .M        1248                          : Last reference value
STEP               .M        0.2                           : Step increment
NULL               .         -9999                         : Missing value
COMP               .                                       : Company
WELL               .         7334                          : Well name
FLD                .         Узень                         : Field
LOC                .                                       : Location
CNTY               .                                       : County
STAT               .                                       : State
CTRY               .                                       : Country
SRVC               .                                       : Service Company
DATE               .                                       : Date
UWI                .                                       : Unique Well ID
API                .                                       : 
Block              .         7                             : 
Category           .         Нефтяная                      : 
Condition          .         В работе                      : 
Date               .         03.03.1983                    : 
EREF               .m        87.7                          : 100.8
Gor                .         14                            : 
Gorizont           .         14                            : 14
Interpretator      .         Кайсанов Е.К                  : 
Kupol              .         Основной                      : osnovnoi
Mud                .                                       : 
Mud_density        .                                       : 
Mud_resistivity    .                                       : 
NGDU               .         НГДУ-2                        : 
ORIGINALWELLNAME   .         7334                          : 
Spud_date          .         1983                          : 1961
Viscosity          .                                       : 
X                  .m        42733.9                       : 46154
Y                  .m        84668.93                      : 85761.93
YEAR               .         2019                          : 
Сдали_за_3_кв_2019 .         3                             : 
временно           .         \                             : 
~Parameter Information Block
#_______________________________________________________________________________
#
#PARAMETER_NAME    .UNIT     VALUE                         : DESCRIPTION
#_______________________________________________________________________________
SET                .         LQC_KAZNIPI_Petrel            : 
TLFamily_CALI      .         Caliper                       : 
TLFamily_CILD      .         Conductivity                  : 
TLFamily_COLL      .         Net Reservoir Flag            : 
TLFamily_CSAT      .         Fluid Code                    : 
TLFamily_DEPT      .         Measured Depth                : 
TLFamily_GR        .         Russian Gamma Ray             : 
TLFamily_GZ1       .         Gradient 045                  : 
TLFamily_GZ2       .         Gradient 105                  : 
TLFamily_GZ3       .         Gradient 225                  : 
TLFamily_GZ4       .         Gradient 425                  : 
TLFamily_GZ5       .         Gradient 850                  : 
TLFamily_LLS       .         Lateral Log Resistivity       : 
TLFamily_MINV      .         Micro Gradient Resistivity    : 
TLFamily_MNOR      .         Micro Resistivity             : 
TLFamily_NGLD      .         Neutron Far                   : 
TLFamily_OGZ3      .         Gradient Inverted 225         : 
TLFamily_PHIE      .         Effective Porosity            : 
TLFamily_PHIEN     .         Effective Porosity            : 
TLFamily_PHIT      .         Porosity                      : 
TLFamily_PRMB      .         Permeability                  : 
TLFamily_PRMB_DGR  .         Permeability                  : 
TLFamily_RT        .         Formation Resistivity         : 
TLFamily_SOIL_ARCHIE .         Oil Saturation                : 
TLFamily_SOIL_DW   .         Oil Saturation                : 
TLFamily_SP        .         Spontaneous Potential         : 
TLFamily_VSH_FIN   .         Shale Volume                  : 
TLFamily_VSH_GR    .         Shale Volume                  : 
TLFamily_VSH_SP    .         Shale Volume                  : 
~Curve Information
#_______________________________________________________________________________
#
#LOGNAME           .UNIT     LOG_ID                        : DESCRIPTION
#_______________________________________________________________________________
DEPT               .M                                      : Колонка глубины 
CALI               .м                                      : Каверномер 
CILD               .мСм/м                                  : Индукционный каротаж 
COLL               .unitless                               :  
CSAT               .unitless                               :  
GR                 .uR/h                                   : Гамма каротаж 
GZ1                .OHMM                                   :  
GZ2                .OHMM                                   :  
GZ3                .OHMM                                   :  
GZ4                .OHMM                                   :  
GZ5                .OHMM                                   :  
LLS                .Ohmm                                   : Боковой каротаж 
MINV               .Ohmm                                   : Микро-градиент зонд 
MNOR               .Ohmm                                   : Микро-потенциал зонд 
NGLD               .у.е.                                   : Показания зонда НГК-60 аппаратуры ДРСТ-3-90 
OGZ3               .Ohmm                                   :  
PHIE               .v/v                                    : Описание 
PHIEN              .v/v                                    :  
PHIT               .v/v                                    : Описание 
PRMB               .mD                                     :  
PRMB_DGR           .mD                                     :  
RT                 .ohmm                                   : Удельное электрическое сопротивление 
SOIL_ARCHIE        .v/v                                    :  
SOIL_DW            .v/v                                    :  
SP                 .мВ                                     : Потенциал самополяризации 
VSH_FIN            .v/v                                    : Описание 
VSH_GR             .v/v                                    : Shale volume 
VSH_SP             .v/v                                    : Shale Volume 
~Ascii
# ...
1007.6     0.233      450.85     -9999      -9999      4.24       1.219      1.753      1.855      1.439      1.617      1.921      0.594      0.559      1.076      1.676      0.2289538  0.2289538  0.4006376  48.74596   1.643218   1.916      0.4048512  0.5802612  69.977     0.5202538  0.5297105  0.5107971 
1007.8     0.233      433.07     -9999      -9999      4.113      1.321      1.778      2.058      1.414      1.719      2.052      1.026      0.851      1.095      1.829      0.2303429  0.2303429  0.392897   51.72112   2.186436   1.995      0.4190975  0.5847847  69.977     0.4925881  0.4713986  0.5137776 
1008       0.242      408.94     -9999      -9999      4.012      1.448      1.854      2.312      1.414      1.846      2.207      0.925      0.826      1.083      1.956      0.2421509  0.2421509  0.3977858  85.58163   2.744      2.112      0.4585242  0.6073545  69.935     0.4716209  0.4296425  0.5135993 
1008.2     0.236      379.73     -9999      -9999      3.885      1.346      1.905      2.414      1.363      1.846      2.392      0.823      0.8        1.123      2.007      0.2342212  0.2342212  0.3814898  61.02445   3.651119   2.274      0.4615924  0.6067838  69.85      0.4462683  0.3823462  0.5101903 
1008.4     0.227      367.03     -9999      -9999      3.961      1.753      2.261      2.617      1.566      1.871      2.593      1.534      1.156      1.14       2.083      0.2243209  0.2243209  0.374564   40.00605   3.077488   2.354      0.4499518  0.6024363  69.681     0.4552821  0.4099844  0.5005798 
1008.6     0.245      383.54     -9999      -9999      3.808      2.286      2.616      2.617      1.77       1.846      2.81       3.274      1.88       1.157      2.083      0.227318   0.227318   0.3676382  45.461     4.341427   2.252      0.4448527  0.5911434  69.554     0.4252128  0.356244   0.4941816 
1008.8     0.245      407.67     -9999      -9999      3.77       2.819      2.946      2.693      1.744      1.744      2.749      4.074      0.851      1.133      2.311      0.2401548  0.2401548  0.3774158  78.59746   4.728762   2.119      0.4554527  0.5941494  69.427     0.4159423  0.3440268  0.4878577 
1009       0.267      411.48     -9999      -9999      4.1        2.362      3.073      2.439      1.541      1.643      2.257      0.01       0.013      1.069      2.565      0.2466722  0.2466722  0.4034894  103.7831   2.251303   2.099      0.4656326  0.6123713  69.342     0.4752035  0.4658044  0.4846027 
1009.2     0.269      406.4      -9999      -9999      4.304      1.803      2.692      2.236      1.363      1.541      2.037      0.023      0.013      1.014      2.362      0.2537777  0.2537777  0.4258964  140.5195   1.422937   2.126      0.4818045  0.6313393  69.257     0.5215718  0.5617762  0.4813673 
1009.4     0.279      400.05     -9999      -9999      4.469      1.676      2.489      2.058      1.287      1.439      1.866      0.035      0.013      1.027      2.134      0.2328502  0.2328502  0.4206002  57.55849   0.9818135  2.16       0.4456124  0.6186957  69.257     0.5689393  0.6536857  0.4841929 
1009.6     0.287      402.59     -9999      -9999      4.342      1.499      2.515      2.058      1.389      1.439      1.88       0.061      0.013      1.042      2.134      0.2376325  0.2376325  0.4144892  70.58111   1.306383   2.146      0.4536776  0.6171333  69.3       0.5359293  0.5817262  0.4901325 
1009.8     0.287      406.4      -9999      -9999      4.227      1.473      2.438      2.058      1.389      1.439      1.993      0.581      0.165      1.077      2.159      0.2315067  0.2315067  0.4002302  54.35312   1.691967   2.126      0.4386474  0.6030338  69.384     0.5112832  0.5234246  0.4991419 
1010       0.281      407.67     -9999      -9999      4.253      1.549      2.311      2.16       1.389      1.439      2.098      0.962      0.8        1.097      2.388      0.2202646  0.2202646  0.3920822  33.65056   1.595871   2.119      0.4128664  0.5893981  69.427     0.5206595  0.5360723  0.5052468 
1010.2     0.268      407.67     -9999      -9999      4.151      1.575      2.108      2.16       1.389      1.414      2.175      1.077      0.775      1.128      2.692      0.2150571  0.2150571  0.3794528  26.94871   2.007344   2.119      0.4005032  0.5772058  69.427     0.4981687  0.488139   0.5081983 
1010.4     0.259      381        -9999      -9999      3.935      1.524      2.007      2.185      1.414      1.414      2.191      0.988      0.699      1.149      2.997      0.2220634  0.2220634  0.3708974  36.3338    3.262803   2.268      0.4353081  0.5909194  69.3       0.4510121  0.4003114  0.5017128 
1010.6     0.249      355.6      -9999      -9999      3.999      1.448      1.981      2.185      1.414      1.414      2.375      1.039      0.673      1.183      2.997      0.2052714  0.2052714  0.3570458  17.75344   2.825409   2.429      0.4144331  0.5826909  69.173     0.4599224  0.4245439  0.495301  
1010.8     0.247      335.28     -9999      -9999      3.872      1.448      2.134      2.287      1.389      1.414      2.612      1.242      0.889      1.222      3.302      0.1986499  0.1986499  0.3411572  13.38557   3.759441   2.577      0.413963   0.5781193  69.003     0.4318402  0.3778088  0.4858715 
1011       0.247      317.5      -9999      -9999      3.694      1.575      2.184      2.516      1.439      1.414      2.851      1.267      0.927      1.278      3.607      0.1891836  0.1891836  0.3183428  8.939181   5.610188   2.721      0.4039095  0.5635682  68.622     0.3913915  0.320835   0.4619479 
1011.2     0.239      300.99     -9999      -9999      3.529      2.032      2.362      2.693      1.49       1.414      3.09       1.61       1.194      1.318      3.886000000000001 0.1849982  0.1849982  0.3020468  7.47779    8.130813   2.87       0.4071983  0.5574972  68.157     0.3546928  0.275725   0.4336607 
1011.4     0.226      284.48     -9999      -9999      3.237      2.438      2.692      2.516      1.516      1.414      3.3        2.372      1.384      1.376      4.394      0.1777372  0.1777372  0.2784176  5.486335   15.67952   3.036      0.402146   0.5409777  67.564     0.305092   0.2108725  0.3993116 
1011.6     0.218      274.955    -9999      -9999      3.199      2.845      2.997      2.516      1.516      1.414      3.058      2.626      1.651      1.396      4.394      0.173258   0.173258   0.2702696  4.532277   17.07842   3.144      0.3986519  0.5361171  67.268     0.2939745  0.2036407  0.3843084 
1011.8     0.228      247.65     -9999      -9999      3.059      2.642      3.15       2.414      1.439      1.465      2.979      2.563      1.613      1.437      4.801000000000001 0.1652713  0.1652713  0.2535662  3.22392    23.39842   3.488      0.4032178  0.5337242  66.717     0.2675602  0.1790728  0.3560475 
1012       0.228      227.33     -9999      -9999      3.084      1.981      2.718      2.541      1.465      1.414      3.181      1.509      0.914      1.466      4.572000000000001 0.161018   0.161018   0.2417516  2.68907    22.11917   3.8        0.4135678  0.5355539  65.659     0.2446473  0.1832315  0.3060631 
1012.2     0.232      222.25     -9999      -9999      2.843      2.286      2.946      2.846      1.516      1.363      3.576      1.013      1.283      1.561      4.572000000000001 0.1383057  0.1383057  0.2030486  1.020739   38.03257   3.886      0.3375245  0.4581659  64.093     0.1961907  0.1468534  0.245528  
1012.4     0.22       213.36     -9999      -9999      2.589      2.54       3.429      3.201000000000001 1.566      1.312      3.991      2.626      2.273      1.65       4.699000000000001 0.1149285  0.1149285  0.16679    0.3766284  67.33474   4.049      0.2364613  0.3568434  62.442     0.157156   0.1163009  0.1980112 
1012.6     0.216      201.93     -9999      -9999      2.462      2.87       3.861      3.201000000000001 1.668      1.414      4.389      3.883      2.235      1.693      4.699000000000001 0.1028345  0.1028345  0.1492718  0.2248554  89.59447   4.278      0.1802599  0.300799   61.51      0.140719   0.1034982  0.1779399 
