~Version
 VERS              .         2.0                           : CWLS LOG ASCII STANDARD - VERSION 2.0
 WRAP              .         NO                            : ONE LINE PER DEPTH STEP
 DLM               .         SPACE                         : DELIMITING CHARACTER(SPACE TAB OR COMMA)
~Well Information
#_______________________________________________________________________________
#
#PARAMETER_NAME    .UNIT     VALUE                         : DESCRIPTION
#_______________________________________________________________________________
STRT               .M        894                           : First reference value
STOP               .M        1248                          : Last reference value
STEP               .M        0.2                           : Step increment
NULL               .         -9999                         : Missing value
COMP               .                                       : Company
WELL               .         7334                          : Well name
FLD                .         Узень                         : Field
LOC                .                                       : Location
CNTY               .                                       : County
STAT               .                                       : State
CTRY               .                                       : Country
SRVC               .                                       : Service Company
DATE               .                                       : Date
UWI                .                                       : Unique Well ID
API                .                                       : 
Block              .         7                             : 
Category           .         Нефтяная                      : 
Condition          .         В работе                      : 
Date               .         03.03.1983                    : 
EREF               .m        87.7                          : 100.8
Gor                .         14                            : 
Gorizont           .         14                            : 14
Interpretator      .         Кайсанов Е.К                  : 
Kupol              .         Основной                      : osnovnoi
Mud                .                                       : 
Mud_density        .                                       : 
Mud_resistivity    .                                       : 
NGDU               .         НГДУ-2                        : 
ORIGINALWELLNAME   .         7334                          : 
Spud_date          .         1983                          : 1961
Viscosity          .                                       : 
X                  .m        42733.9                       : 46154
Y                  .m        84668.93                      : 85761.93
YEAR               .         2019                          : 
Сдали_за_3_кв_2019 .         3                             : 
временно           .         \                             : 
~Parameter Information Block
#_______________________________________________________________________________
#
#PARAMETER_NAME    .UNIT     VALUE                         : DESCRIPTION
#_______________________________________________________________________________
SET                .         LQC_KAZNIPI_Petrel            : 
TLFamily_CALI      .         Caliper                       : 
TLFamily_CILD      .         Conductivity                  : 
TLFamily_COLL      .         Net Reservoir Flag            : 
TLFamily_CSAT      .         Fluid Code                    : 
TLFamily_DEPT      .         Measured Depth                : 
TLFamily_GR        .         Russian Gamma Ray             : 
TLFamily_GZ1       .         Gradient 045                  : 
TLFamily_GZ2       .         Gradient 105                  : 
TLFamily_GZ3       .         Gradient 225                  : 
TLFamily_GZ4       .         Gradient 425                  : 
TLFamily_GZ5       .         Gradient 850                  : 
TLFamily_LLS       .         Lateral Log Resistivity       : 
TLFamily_MINV      .         Micro Gradient Resistivity    : 
TLFamily_MNOR      .         Micro Resistivity             : 
TLFamily_NGLD      .         Neutron Far                   : 
TLFamily_OGZ3      .         Gradient Inverted 225         : 
TLFamily_PHIE      .         Effective Porosity            : 
TLFamily_PHIEN     .         Effective Porosity            : 
TLFamily_PHIT      .         Porosity                      : 
TLFamily_PRMB      .         Permeability                  : 
TLFamily_PRMB_DGR  .         Permeability                  : 
TLFamily_RT        .         Formation Resistivity         : 
TLFamily_SOIL_ARCHIE .         Oil Saturation                : 
TLFamily_SOIL_DW   .         Oil Saturation                : 
TLFamily_SP        .         Spontaneous Potential         : 
TLFamily_VSH_FIN   .         Shale Volume                  : 
TLFamily_VSH_GR    .         Shale Volume                  : 
TLFamily_VSH_SP    .         Shale Volume                  : 
~Curve Information
#_______________________________________________________________________________
#
#LOGNAME           .UNIT     LOG_ID                        : DESCRIPTION
#_______________________________________________________________________________
DEPT               .M                                      : Колонка глубины 
CALI               .м                                      : Каверномер 
CILD               .мСм/м                                  : Индукционный каротаж 
COLL               .unitless                               :  
CSAT               .unitless                               :  
GR                 .uR/h                                   : Гамма каротаж 
GZ1                .OHMM                                   :  
GZ2                .OHMM                                   :  
GZ3                .OHMM                                   :  
GZ4                .OHMM                                   :  
GZ5                .OHMM                                   :  
LLS                .Ohmm                                   : Боковой каротаж 
MINV               .Ohmm                                   : Микро-градиент зонд 
MNOR               .Ohmm                                   : Микро-потенциал зонд 
NGLD               .у.е.                                   : Показания зонда НГК-60 аппаратуры ДРСТ-3-90 
OGZ3               .Ohmm                                   :  
PHIE               .v/v                                    : Описание 
PHIEN              .v/v                                    :  
PHIT               .v/v                                    : Описание 
PRMB               .mD                                     :  
PRMB_DGR           .mD                                     :  
RT                 .ohmm                                   : Удельное электрическое сопротивление 
SOIL_ARCHIE        .v/v                                    :  
SOIL_DW            .v/v                                    :  
SP                 .мВ                                     : Потенциал самополяризации 
VSH_FIN            .v/v                                    : Описание 
VSH_GR             .v/v                                    : Shale volume 
VSH_SP             .v/v                                    : Shale Volume 
~Ascii
# ...
1162.8     0.212      375.92     -9999      -9999      5.634      2.591      2.87       2.566      1.973      1.262      3.029      1.648      1.549      1.34       2.083      0.1565557  0.1565557  0.293084   2.223049   6.787132   3.029      0.3408574  0.5376391  49.657     0.4137221  0.2968307  0.5306135 
1163       0.212      384.81     -9999      -9999      5.523      2.261      2.718      2.414      1.998      1.185      3.223      1.61       1.511      1.377      1.854      0.1503331  0.1503331  0.2780102  1.704869   9.10246    3.223      0.3367629  0.5297385  49.276     0.3869005  0.2633041  0.5104968 
1163.2     0.212      396.24     -9999      -9999      5.447      2.21       2.692      2.465      2.049      1.135      3.135      1.699      1.533      1.378      1.727      0.1570553  0.1570553  0.2776028  2.270929   11.12851   3.135      0.3532087  0.530956   48.853     0.3652954  0.24256    0.4880307 
1163.4     0.212      407.67     -9999      -9999      5.512      2.108      2.87       2.338      2.074      1.109      2.994      1.763      1.549      1.378      1.778      0.1567411  0.1567411  0.2776028  2.240703   9.371103   2.994      0.3379357  0.519656   48.514     0.3662474  0.2601954  0.4722995 
1163.6     0.212      408.94     -9999      -9999      5.599      2.286      2.845      2.338      2.049      1.135      2.887      1.712      1.46       1.326      1.778      0.1733251  0.1733251  0.2987876  4.545269   7.445266   2.887      0.3830144  0.5503907  48.429     0.3801894  0.2858225  0.4745564 
1163.8     0.212      401.32     -9999      -9999      5.739      1.981      2.591      2.16       1.947      1.135      2.678      1.331      1.422      1.278      1.93       0.1828101  0.1828101  0.3183428  6.811542   5.141674   2.678      0.3898492  0.560078   48.514     0.410705   0.3324654  0.4889446 
1164       0.213      405.13     -9999      -9999      5.98       1.626      2.261      2.033      1.82       1.109      2.553      1.116      1.122      1.268      2.083      0.165526   0.165526   0.3224168  3.259122   2.718567   2.553      0.3196275  0.535033   48.81      0.4754267  0.4312793  0.5195742 
1164.2     0.232      415.29     -9999      -9999      5.758      1.524      2.108      2.49       1.795      1.135      2.418      0.848      0.749      1.257      2.159      0.1769957  0.1769957  0.3268982  5.315554   4.889729   2.418      0.3416195  0.5385014  49.318     0.4542499  0.3393565  0.5691433 
1164.4     0.237      417.22     -9999      -9999      5.917      1.448      2.311      2.77       1.871      1.16       2.238      0.556      0.381      1.241      2.083      0.1623028  0.1623028  0.3334166  2.840529   3.211364   2.238      0.263755   0.5097703  49.953     0.5185267  0.4029173  0.634136  
1164.6     0.25       418.315    -9999      -9999      5.847      1.448      2.388      2.77       1.871      1.185      2.113      0.797      0.508      1.218      2.083      0.1675059  0.1675059  0.3427868  3.546293   3.864356   2.113      0.2641324  0.5099947  50.419     0.531154   0.3735864  0.6887217 
1164.8     0.247      419.1      -9999      -9999      5.79       1.422      2.362      2.744      1.795      1.185      2.113      0.759      0.483      1.201      2.083      0.1720526  0.1720526  0.3497126  4.305162   4.492994   2.113      0.2810981  0.5209529  50.673     0.5383637  0.3512869  0.7254406 
1165       0.249      420.37     -9999      -9999      5.78       1.295      2.108      2.465      1.77       1.211      2.038      0.873      0.622      1.132      2.21       0.2030477  0.2030477  0.3778232  16.14709   4.613384   2.038      0.3670327  0.5637889  50.419     0.5296227  0.3475144  0.7117311 
1165.2     0.257      421.174    -9999      -9999      5.98       1.346      1.93       2.236      1.795      1.262      2.082      0.975      0.673      1.083      2.54       0.217438   0.217438   0.3977858  29.82889   2.718567   2.082      0.4096245  0.5928171  49.784     0.5465086  0.4312793  0.6617379 
1165.4     0.244      421.64     -9999      -9999      6.145      1.27       1.88       2.236      1.77       1.312      2.067      0.975      0.864      1.113      2.972      0.2062572  0.2062572  0.3855638  18.51579   1.757334   2.049      0.377195   0.5729236  48.641     0.5433532  0.5153852  0.5713211 
1165.6     0.244      420.37     -9999      -9999      5.891      1.194      1.778      2.236      1.795      1.389      2.06       1.159      0.673      1.141      2.972      0.2252841  0.2252841  0.3741566  41.68366   3.439916   2.055      0.4240562  0.5807531  47.752     0.4511288  0.3917633  0.5104942 
1165.8     0.236      416.56     1          2          5.713      1.194      1.651      2.541      1.947      1.592      2.273      0.937      0.889      1.18       3.302      0.2362038  0.2362038  0.358268   66.40867   5.507607   2.074      0.4496982  0.5799413  46.397     0.3698917  0.3232617  0.4165217 
1166       0.211      377.19     1          2          5.65       1.295      1.702      2.846      2.201      1.871      2.709      1.509      1.283      1.177      3.531      0.2596429  0.2596429  0.3594902  180.4575   6.505963   2.29       0.5162478  0.6163288  44.281     0.3025674  0.3020034  0.3031313 
1166.2     0.207      344.17     1          2          5.612      1.727      1.829      3.201000000000001 2.506      2.227      3.423      1.369      1.575      1.202      3.962      0.2710589  0.2710589  0.3493052  293.6475   7.193676   2.51       0.5536735  0.6340076  40.64      0.23711    0.2898628  0.1843572 
1166.4     0.207      285.75     1          2          5.396      2.362      2.616      3.506      2.811      2.684      4.14       1.305      1.613      1.274      4.521      0.2605524  0.2605524  0.3199724  187.595    12.73518   3.023      0.5766438  0.6432714  36.661     0.1800605  0.2295639  0.130557  
1166.6     0.207      237.49     1          2          5.193      2.972      3.378      3.506      3.116      3.09       4.933      1.204      1.587      1.283      4.521      0.2667268  0.2667268  0.3163058  244.1099   21.78364   3.638      0.6197172  0.6759028  33.189     0.1502394  0.1843788  0.1161001 
1166.8     0.207      210.82     1          2          5.218      3.607      4.166      3.658999999999999 3.421      3.522      5.923      1.166      1.587      1.291      4.850999999999999 0.2631752  0.2631752  0.3130466  209.7981   20.39014   4.097      0.6361172  0.691016   32.046     0.1511253  0.1894237  0.112827  
1167       0.208      191.77     1          2          5.066      4.216      4.928      3.963      3.725      3.954      6.905      1.14       1.562      1.263      4.648      0.2793225  0.2793225  0.3244538  417.7226   30.47732   4.505      0.6695614  0.7185689  32.046     0.1367615  0.1607522  0.1127709 
1167.2     0.208      185.42     1          2          4.786      4.850999999999999 6.146999999999999 4.344      3.750999999999999 4.385999999999999 6.279      1.318      1.549      1.288      4.089      0.2755893  0.2755893  0.3142688  356.2376   63.90411   4.66       0.6709315  0.7165685  33.062     0.1172107  0.118811   0.1156105 
1167.4     0.208      201.93     1          2          4.735      4.928      7.95       4.724999999999999 3.573      4.564      5.545      1.293      1.549      1.29       3.174999999999999 0.2753464  0.2753464  0.313454   352.5672   73.1302    4.278      0.6571923  0.7036338  34.121     0.1154775  0.1124453  0.1185097 
1167.6     0.208      222.25     1          2          4.901      4.953      8.509000000000002 4.724999999999999 3.243      4.538      4.826      1.407      1.511      1.288      3.174999999999999 0.2716615  0.2716615  0.3142688  301.293    47.14795   3.886      0.6371452  0.6877081  35.56      0.1291129  0.134519   0.1237069 
1167.8     0.213      250.19     1          2          5.205      4.216      8.382000000000001 4.724999999999999 2.735      3.827      4.17       1.255      1.257      1.29       2.388      0.2607892  0.2607892  0.313454   189.4986   21.10326   3.453      0.602572   0.6623775  37.042     0.1595905  0.1867833  0.1323977 
