~Version
 VERS              .         2.0                           : CWLS LOG ASCII STANDARD - VERSION 2.0
 WRAP              .         NO                            : ONE LINE PER DEPTH STEP
 DLM               .         SPACE                         : DELIMITING CHARACTER(SPACE TAB OR COMMA)
~Well Information
#_______________________________________________________________________________
#
#PARAMETER_NAME    .UNIT     VALUE                         : DESCRIPTION
#_______________________________________________________________________________
STRT               .M        894                           : First reference value
STOP               .M        1248                          : Last reference value
STEP               .M        0.2                           : Step increment
NULL               .         -9999                         : Missing value
COMP               .                                       : Company
WELL               .         7334                          : Well name
FLD                .         Узень                         : Field
LOC                .                                       : Location
CNTY               .                                       : County
STAT               .                                       : State
CTRY               .                                       : Country
SRVC               .                                       : Service Company
DATE               .                                       : Date
UWI                .                                       : Unique Well ID
API                .                                       : 
Block              .         7                             : 
Category           .         Нефтяная                      : 
Condition          .         В работе                      : 
Date               .         03.03.1983                    : 
EREF               .m        87.7                          : 100.8
Gor                .         14                            : 
Gorizont           .         14                            : 14
Interpretator      .         Кайсанов Е.К                  : 
Kupol              .         Основной                      : osnovnoi
Mud                .                                       : 
Mud_density        .                                       : 
Mud_resistivity    .                                       : 
NGDU               .         НГДУ-2                        : 
ORIGINALWELLNAME   .         7334                          : 
Spud_date          .         1983                          : 1961
Viscosity          .                                       : 
X                  .m        42733.9                       : 46154
Y                  .m        84668.93                      : 85761.93
YEAR               .         2019                          : 
Сдали_за_3_кв_2019 .         3                             : 
временно           .         \                             : 
~Parameter Information Block
#_______________________________________________________________________________
#
#PARAMETER_NAME    .UNIT     VALUE                         : DESCRIPTION
#_______________________________________________________________________________
SET                .         LQC_KAZNIPI_Petrel            : 
TLFamily_CALI      .         Caliper                       : 
TLFamily_CILD      .         Conductivity                  : 
TLFamily_COLL      .         Net Reservoir Flag            : 
TLFamily_CSAT      .         Fluid Code                    : 
TLFamily_DEPT      .         Measured Depth                : 
TLFamily_GR        .         Russian Gamma Ray             : 
TLFamily_GZ1       .         Gradient 045                  : 
TLFamily_GZ2       .         Gradient 105                  : 
TLFamily_GZ3       .         Gradient 225                  : 
TLFamily_GZ4       .         Gradient 425                  : 
TLFamily_GZ5       .         Gradient 850                  : 
TLFamily_LLS       .         Lateral Log Resistivity       : 
TLFamily_MINV      .         Micro Gradient Resistivity    : 
TLFamily_MNOR      .         Micro Resistivity             : 
TLFamily_NGLD      .         Neutron Far                   : 
TLFamily_OGZ3      .         Gradient Inverted 225         : 
TLFamily_PHIE      .         Effective Porosity            : 
TLFamily_PHIEN     .         Effective Porosity            : 
TLFamily_PHIT      .         Porosity                      : 
TLFamily_PRMB      .         Permeability                  : 
TLFamily_PRMB_DGR  .         Permeability                  : 
TLFamily_RT        .         Formation Resistivity         : 
TLFamily_SOIL_ARCHIE .         Oil Saturation                : 
TLFamily_SOIL_DW   .         Oil Saturation                : 
TLFamily_SP        .         Spontaneous Potential         : 
TLFamily_VSH_FIN   .         Shale Volume                  : 
TLFamily_VSH_GR    .         Shale Volume                  : 
TLFamily_VSH_SP    .         Shale Volume                  : 
~Curve Information
#_______________________________________________________________________________
#
#LOGNAME           .UNIT     LOG_ID                        : DESCRIPTION
#_______________________________________________________________________________
DEPT               .M                                      : Колонка глубины 
CALI               .м                                      : Каверномер 
CILD               .мСм/м                                  : Индукционный каротаж 
COLL               .unitless                               :  
CSAT               .unitless                               :  
GR                 .uR/h                                   : Гамма каротаж 
GZ1                .OHMM                                   :  
GZ2                .OHMM                                   :  
GZ3                .OHMM                                   :  
GZ4                .OHMM                                   :  
GZ5                .OHMM                                   :  
LLS                .Ohmm                                   : Боковой каротаж 
MINV               .Ohmm                                   : Микро-градиент зонд 
MNOR               .Ohmm                                   : Микро-потенциал зонд 
NGLD               .у.е.                                   : Показания зонда НГК-60 аппаратуры ДРСТ-3-90 
OGZ3               .Ohmm                                   :  
PHIE               .v/v                                    : Описание 
PHIEN              .v/v                                    :  
PHIT               .v/v                                    : Описание 
PRMB               .mD                                     :  
PRMB_DGR           .mD                                     :  
RT                 .ohmm                                   : Удельное электрическое сопротивление 
SOIL_ARCHIE        .v/v                                    :  
SOIL_DW            .v/v                                    :  
SP                 .мВ                                     : Потенциал самополяризации 
VSH_FIN            .v/v                                    : Описание 
VSH_GR             .v/v                                    : Shale volume 
VSH_SP             .v/v                                    : Shale Volume 
~Ascii
# ...
1142.2     0.215      115.57     1          2          4.71       3.657999999999999 8.255000000000001 11.816     8.593999999999999 7.323999999999999 5.347      2.601      2.07       1.339      7.492999999999999 0.2195346  0.2195346  0.2934914  32.61901   89.451     7.475      0.674103   0.7399701  50.82      0.2241117  0.1035659  0.3446574 
1142.4     0.215      115.57     1          2          4.812      3.785      8.255000000000001 11.308     8.848000000000001 7.197      5.505      2.347      2.21       1.357      7.112      0.2091234  0.2091234  0.2861582  20.92336   68.83075   7.475      0.6600167  0.7307143  50.862     0.2334387  0.115262   0.3516153 
1142.6     0.215      115.57     1          2          4.697      3.81       8.255000000000001 11.308     9.228999999999999 7.197      5.669      2.169      2.134      1.378      7.112      0.2015483  0.2015483  0.2776028  15.14682   92.48889   7.475      0.6489141  0.7216616  50.905     0.2304682  0.1021631  0.3587732 
1142.8     0.216      114.3      1          2          4.596      3.861      8.382000000000001 10.673     9.228999999999999 7.197      5.837      2.156      2.248      1.373      6.730999999999999 0.2042633  0.2042633  0.2796398  17.00628   119.8882   7.558      0.6547754  0.7259008  50.927     0.2284137  0.09189256 0.3649348 
1143       0.214      111.76     1          2          4.519      4.013      8.382000000000001 10.546     9.228999999999999 7.197      5.966      1.381      1.842      1.376      6.223      0.2029999  0.2029999  0.2784176  16.11417   146.1123   7.73       0.6565508  0.7275718  50.969     0.2285385  0.08476184 0.3723152 
1143.2     0.214      110.49     1          2          4.405      4.140000000000001 8.509000000000002 11.181     9.228999999999999 7.197      6.01       2.245      2.527      1.41       6.477000000000001 0.1890781  0.1890781  0.264566   8.899027   195.8295   7.819      0.6365854  0.7125745  51.054     0.2287514  0.07520797 0.3822948 
1143.4     0.218      109.22     1          2          4.227      4.267      8.636000000000001 12.324     9.737      7.07       6.01       1.966      2.089      1.411      6.984999999999999 0.1882759  0.1882759  0.2641586  8.599725   309.368    7.909      0.6371909  0.7134532  51.223     0.2299476  0.0623979  0.3974972 
1143.6     0.218      109.22     1          2          3.973      4.343      8.763      12.324     9.609999999999998 7.07       6.189      1.953      1.93       1.41       6.984999999999999 0.1889115  0.1889115  0.264566   8.836027   594.1106   7.909      0.6382543  0.7141105  51.35      0.2292561  0.04780262 0.4107096 
1143.8     0.214      109.22     1          2          3.732      4.267      8.890000000000001 12.451     9.737      7.323999999999999 6.325      2.194      2.261      1.439      7.620000000000001 0.1761587  0.1761587  0.2527514  5.129149   1103.455   7.909      0.6155495  0.6977463  51.52      0.2320989  0.03712411 0.4270737 
1144       0.214      113.03     1          2          3.872      4.42       9.271000000000001 11.054     10.118     7.323999999999999 6.418      1.445      1.842      1.45       7.112      0.1679171  0.1679171  0.24827    3.609027   770.1133   7.642      0.5926543  0.6830825  51.689     0.2434936  0.04299695 0.4439902 
1144.2     0.212      118.11     1          2          3.859      4.623      10.033     10.165     10.499     6.798999999999999 6.234      1.255      1.435      1.471      6.096      0.1555983  0.1555983  0.2397146  2.134106   796.2673   7.314      0.5556517  0.6588231  51.943     0.254898   0.04241457 0.4673814 
1144.4     0.213      123.19     1          2          3.719      5.080000000000001 11.176     9.403      10.88      6.875      5.71       1.394      1.499      1.424      5.333999999999999 0.1716564  0.1716564  0.2588624  4.233035   1140.93    7.013      0.5839579  0.6801429  52.197     0.2642604  0.03662127 0.4918996 
1144.6     0.213      128.27     1          2          3.669      5.436000000000001 11.176     9.403      10.372     6.671999999999999 5.043      1.305      1.384      1.399      5.333999999999999 0.1789726  0.1789726  0.2690474  5.783144   1297.313   6.734      0.5910938  0.6863434  52.366     0.272954   0.03474995 0.511158  
1144.8     0.216      130.81     1          2          3.859      5.055000000000001 10.16      9.148999999999999 9.609999999999998 6.418000000000001 4.519      1.509      1.46       1.366      4.572000000000001 0.1889344  0.1889344  0.2824916  8.844663   796.2673   6.604      0.6063523  0.6990094  52.451     0.2835066  0.04241457 0.5245987 
1145       0.219      134.62     1          2          4.012      4.191      9.271000000000001 9.657      8.975      6.113      4.389      1.648      1.626      1.363      3.937      0.1866691  0.1866691  0.2837138  8.030115   537.4702   6.417      0.5967964  0.6939343  52.536     0.294075   0.04979886 0.5383511 
1145.2     0.221      135.89     1          2          4.189      3.962      8.890000000000001 10.673     8.34       5.808000000000001 4.519      1.267      1.638      1.37       3.429      0.1786999  0.1786999  0.280862   5.716286   341.093    6.357      0.5793298  0.6851172  52.705     0.3095821  0.05995947 0.5592047 
1145.4     0.214      138.43     1          2          4.392      3.302      8.000999999999998 11.943     8.34       5.783000000000001 4.791      1.331      1.664      1.364      3.174999999999999 0.1734686  0.1734686  0.2833064  4.573165   202.4801   6.24       0.5645223  0.6800116  53.001     0.332842   0.07418931 0.5914946 
1145.6     0.217      143.51     -9999      -9999      4.519      3.378      8.000999999999998 11.943     8.593999999999999 5.961      5.006      1.407      1.524      1.377      3.174999999999999 0.1608247  0.1608247  0.2780102  2.666995   146.1123   6.019      0.5269129  0.6603694  53.298     0.3551075  0.08476184 0.6254532 
1145.8     0.227      147.32     -9999      -9999      4.634      3.403999999999999 7.873999999999999 12.578     8.848000000000001 6.367      5.192      1.724      1.6        1.403      3.556      0.143889   0.143889   0.2674178  1.295184   108.7376   5.864      0.4723487  0.6319309  53.509     0.3743297  0.09562961 0.6530297 
1146       0.235      154.94     -9999      -9999      4.875      3.734      7.873999999999999 11.562     9.228999999999999 6.798999999999999 5.269      1.61       1.676      1.409      3.937      0.1321742  0.1321742  0.2649734  0.7858603  58.54532   5.575      0.4182071  0.6076832  53.721     0.4024217  0.1231369  0.6817065 
1146.2     0.238      168.91     -9999      -9999      5.116      4.039000000000001 8.000999999999998 9.657      9.483000000000001 7.129      4.933      0.518      0.965      1.404      4.115000000000001 0.1220806  0.1220806  0.2670104  0.5109601  31.52134   5.114      0.3507585  0.5798206  54.017     0.4391811  0.1585564  0.7198058 
1146.4     0.228      201.93     -9999      -9999      5.332      4.242      8.890000000000001 6.863000000000001 9.483000000000001 7.280999999999999 4.389      0.833      1.133      1.41       4.191      0.1049355  0.1049355  0.264566   0.2459333  18.09717   4.278      0.1945726  0.5113543  54.398     0.4837289  0.1988794  0.7685785 
1146.6     0.219      218.095    -9999      -9999      5.243      4.775      9.906000000000001 6.863000000000001 8.848000000000001 7.256000000000001 3.904      1.115      1.283      1.38       4.191      0.1148979  0.1148979  0.276788   0.3761373  22.74621   3.983      0.2303716  0.5239173  54.695     0.490576   0.1811519  0.8       
1146.8     0.218      234.95     -9999      -9999      5.384      4.674000000000001 9.144      4.831      7.323999999999999 6.823999999999999 3.398      1.712      1.651      1.348      3.81       0.1253722  0.1253722  0.2898248  0.587971   15.8341    3.676      0.2593243  0.5338709  54.504     0.4983411  0.2100294  0.7866527 
1147       0.226      255.27     -9999      -9999      5.535      3.277      6.857999999999999 3.942      5.799999999999999 5.834      2.593      1.318      1.448      1.293      3.15       0.1566805  0.1566805  0.3122318  2.234915   10.74287   3.384      0.3658737  0.5736441  53.657     0.4713676  0.2460783  0.6966569 
