~Version
 VERS              .         2.0                           : CWLS LOG ASCII STANDARD - VERSION 2.0
 WRAP              .         NO                            : ONE LINE PER DEPTH STEP
 DLM               .         SPACE                         : DELIMITING CHARACTER(SPACE TAB OR COMMA)
~Well Information
#_______________________________________________________________________________
#
#PARAMETER_NAME    .UNIT     VALUE                         : DESCRIPTION
#_______________________________________________________________________________
STRT               .M        894                           : First reference value
STOP               .M        1248                          : Last reference value
STEP               .M        0.2                           : Step increment
NULL               .         -9999                         : Missing value
COMP               .                                       : Company
WELL               .         7334                          : Well name
FLD                .         Узень                         : Field
LOC                .                                       : Location
CNTY               .                                       : County
STAT               .                                       : State
CTRY               .                                       : Country
SRVC               .                                       : Service Company
DATE               .                                       : Date
UWI                .                                       : Unique Well ID
API                .                                       : 
Block              .         7                             : 
Category           .         Нефтяная                      : 
Condition          .         В работе                      : 
Date               .         03.03.1983                    : 
EREF               .m        87.7                          : 100.8
Gor                .         14                            : 
Gorizont           .         14                            : 14
Interpretator      .         Кайсанов Е.К                  : 
Kupol              .         Основной                      : osnovnoi
Mud                .                                       : 
Mud_density        .                                       : 
Mud_resistivity    .                                       : 
NGDU               .         НГДУ-2                        : 
ORIGINALWELLNAME   .         7334                          : 
Spud_date          .         1983                          : 1961
Viscosity          .                                       : 
X                  .m        42733.9                       : 46154
Y                  .m        84668.93                      : 85761.93
YEAR               .         2019                          : 
Сдали_за_3_кв_2019 .         3                             : 
временно           .         \                             : 
~Parameter Information Block
#_______________________________________________________________________________
#
#PARAMETER_NAME    .UNIT     VALUE                         : DESCRIPTION
#_______________________________________________________________________________
SET                .         LQC_KAZNIPI_Petrel            : 
TLFamily_CALI      .         Caliper                       : 
TLFamily_CILD      .         Conductivity                  : 
TLFamily_COLL      .         Net Reservoir Flag            : 
TLFamily_CSAT      .         Fluid Code                    : 
TLFamily_DEPT      .         Measured Depth                : 
TLFamily_GR        .         Russian Gamma Ray             : 
TLFamily_GZ1       .         Gradient 045                  : 
TLFamily_GZ2       .         Gradient 105                  : 
TLFamily_GZ3       .         Gradient 225                  : 
TLFamily_GZ4       .         Gradient 425                  : 
TLFamily_GZ5       .         Gradient 850                  : 
TLFamily_LLS       .         Lateral Log Resistivity       : 
TLFamily_MINV      .         Micro Gradient Resistivity    : 
TLFamily_MNOR      .         Micro Resistivity             : 
TLFamily_NGLD      .         Neutron Far                   : 
TLFamily_OGZ3      .         Gradient Inverted 225         : 
TLFamily_PHIE      .         Effective Porosity            : 
TLFamily_PHIEN     .         Effective Porosity            : 
TLFamily_PHIT      .         Porosity                      : 
TLFamily_PRMB      .         Permeability                  : 
TLFamily_PRMB_DGR  .         Permeability                  : 
TLFamily_RT        .         Formation Resistivity         : 
TLFamily_SOIL_ARCHIE .         Oil Saturation                : 
TLFamily_SOIL_DW   .         Oil Saturation                : 
TLFamily_SP        .         Spontaneous Potential         : 
TLFamily_VSH_FIN   .         Shale Volume                  : 
TLFamily_VSH_GR    .         Shale Volume                  : 
TLFamily_VSH_SP    .         Shale Volume                  : 
~Curve Information
#_______________________________________________________________________________
#
#LOGNAME           .UNIT     LOG_ID                        : DESCRIPTION
#_______________________________________________________________________________
DEPT               .M                                      : Колонка глубины 
CALI               .м                                      : Каверномер 
CILD               .мСм/м                                  : Индукционный каротаж 
COLL               .unitless                               :  
CSAT               .unitless                               :  
GR                 .uR/h                                   : Гамма каротаж 
GZ1                .OHMM                                   :  
GZ2                .OHMM                                   :  
GZ3                .OHMM                                   :  
GZ4                .OHMM                                   :  
GZ5                .OHMM                                   :  
LLS                .Ohmm                                   : Боковой каротаж 
MINV               .Ohmm                                   : Микро-градиент зонд 
MNOR               .Ohmm                                   : Микро-потенциал зонд 
NGLD               .у.е.                                   : Показания зонда НГК-60 аппаратуры ДРСТ-3-90 
OGZ3               .Ohmm                                   :  
PHIE               .v/v                                    : Описание 
PHIEN              .v/v                                    :  
PHIT               .v/v                                    : Описание 
PRMB               .mD                                     :  
PRMB_DGR           .mD                                     :  
RT                 .ohmm                                   : Удельное электрическое сопротивление 
SOIL_ARCHIE        .v/v                                    :  
SOIL_DW            .v/v                                    :  
SP                 .мВ                                     : Потенциал самополяризации 
VSH_FIN            .v/v                                    : Описание 
VSH_GR             .v/v                                    : Shale volume 
VSH_SP             .v/v                                    : Shale Volume 
~Ascii
# ...
1209.6     0.222      411.48     -9999      -9999      5.701      1.905      2.184      2.439      1.947      1.185      2.191      1.623      1.448      1.246      1.626      0.2113743  0.2113743  0.3313796  23.03156   5.685167   2.099      0.3972058  0.5424354  42.926     0.3636523  0.3191004  0.4082042 
1209.8     0.223      410.21     -9999      -9999      5.535      1.88       2.235      2.389      1.871      1.211      2.09       1.547      1.283      1.227      1.803      0.2268982  0.2268982  0.3391202  44.65431   8.818159   2.106      0.434173   0.5622615  43.095     0.3400666  0.266738   0.4133953 
1210       0.221      411.48     -9999      -9999      5.396      1.88       2.311      2.211      1.846      1.236      2.052      2.105      1.206      1.202      1.956      0.2440696  0.2440696  0.3493052  92.87944   12.73518   2.099      0.4681758  0.5818601  43.095     0.3188957  0.2295639  0.4082274 
1210.2     0.221      408.94     -9999      -9999      5.371      1.854      2.337      1.982      1.77       1.262      2.098      1.978      1.283      1.22       1.88       0.2390034  0.2390034  0.341972   74.83105   13.60553   2.098      0.4582497  0.5728345  43.053     0.3120259  0.22345    0.4006018 
1210.4     0.222      401.32     -9999      -9999      5.345      1.829      2.184      1.957      1.719      1.338      2.207      1.255      0.94       1.23       1.626      0.241926   0.241926   0.337898   84.76444   14.57383   2.207      0.4765445  0.5826939  42.503     0.2908244  0.2172642  0.3643845 
1210.6     0.221      398.78     -9999      -9999      5.269      1.803      2.134      1.957      1.693      1.414      2.191      0.988      0.952      1.264      1.626      0.2427567  0.2427567  0.3240464  87.82164   17.81771   2.191      0.4763201  0.5714434  41.106     0.2463323  0.2001473  0.2925172 
1210.8     0.215      398.78     1          2          5.281      1.803      2.235      2.16       1.693      1.516      2.175      0.975      1.08       1.26       1.651      0.2551501  0.2551501  0.325676   148.9902   17.2612    2.175      0.4968173  0.5800002  39.328     0.2137147  0.2027575  0.224672  
1211       0.215      401.32     1          2          5.04       1.803      2.362      2.312      1.719      1.592      2.223      1.483      1.435      1.314      1.803      0.2493573  0.2493573  0.3036764  116.375    32.64639   2.223      0.4918831  0.5632344  37.296     0.1646034  0.1563021  0.1729047 
1211.2     0.213      405.13     1          2          5.32       1.829      2.21       2.465      1.668      1.668      2.275      1.356      1.105      1.311      1.981      0.2445896  0.2445896  0.3048986  94.96221   15.56981   2.275      0.488844   0.5657119  36.237     0.1827545  0.211478   0.1540311 
1211.4     0.214      407.67     1          2          5.415      1.829      2.159      2.262      1.617      1.719      2.324      1.304      1.234      1.354      2.007      0.2260123  0.2260123  0.2873804  42.99865   12.11116   2.324      0.4578876  0.540287   34.904     0.1859639  0.2343221  0.1376056 
1211.6     0.214      407.67     1          2          5.472      1.829      2.134      2.262      1.566      1.795      2.464      1.229      1.422      1.385      2.007      0.2116168  0.2116168  0.274751   23.27098   10.41662   2.464      0.4414508  0.5288913  34.502     0.1913158  0.2491968  0.1334348 
1211.8     0.214      408.94     1          2          5.497      2.032      2.261      2.262      1.541      1.846      2.574      1.534      1.384      1.367      1.829      0.2166245  0.2166245  0.2820842  28.81173   9.750271   2.574      0.4638159  0.5504925  35.391     0.1983628  0.2560152  0.1407104 
1212       0.214      412.75     1          2          5.44       1.956      2.362      2.185      1.541      1.897      2.555      1.343      1.486      1.342      1.651      0.227701   0.227701   0.2922692  46.20967   11.33641   2.555      0.4848173  0.5671778  36.322     0.1956612  0.2407335  0.1505888 
1212.2     0.214      416.56     1          2          5.32       2.108      2.438      2.058      1.516      1.922      2.41       1.502      1.493      1.352      1.499      0.2256649  0.2256649  0.2881952  42.36614   15.56981   2.41       0.4663385  0.5490096  37.507     0.1894858  0.211478   0.1674937 
1212.4     0.214      423.545    1          2          5.167      2.311      2.438      1.906      1.465      1.922      2.273      1.623      1.499      1.329      1.346      0.2383403  0.2383403  0.2975654  72.74416   23.33398   2.273      0.4769747  0.5545238  38.227     0.1794701  0.1792746  0.1796656 
1212.6     0.214      430.53     1          2          5.193      2.489      2.515      1.906      1.389      1.973      2.128      1.42       1.295      1.302      1.346      0.2432869  0.2432869  0.3085652  89.83021   21.78364   2.128      0.470109   0.5530424  39.624     0.1978128  0.1843788  0.2112469 
1212.8     0.217      434.34     1          2          5.501      2.337      2.642      2.084      1.439      2.049      1.993      1.343      1.346      1.301      1.295      0.2235646  0.2235646  0.3089726  38.73623   9.647691   1.993      0.4118048  0.5218546  41.233     0.258812   0.2571232  0.2605008 
1213       0.224      435.61     -9999      -9999      5.878      2.362      2.743      2.363      1.617      2.176      1.935      1.47       1.346      1.255      1.372      0.2115998  0.2115998  0.327713   23.25415   3.560221   1.983      0.3814829  0.5263357  42.672     0.351858   0.3863026  0.3174134 
1213.2     0.225      435.61     -9999      -9999      6.145      2.388      2.819      2.643      1.744      2.278      1.866      1.686      0.952      1.236      1.499      0.1850974  0.1850974  0.3354536  7.509503   1.757334   1.983      0.3050283  0.5070855  44.238     0.4556249  0.5153852  0.3958645 
1213.4     0.225      435.059    -9999      -9999      5.955      2.134      2.743      2.846      1.897      2.354      1.825      1.794      0.902      1.208      1.6        0.1961805  0.1961805  0.3468608  12.04749   2.904358   1.986      0.3398194  0.5283038  45.805     0.4566071  0.4197931  0.4934211 
1213.6     0.225      434.34     -9999      -9999      6.037      1.905      2.616      2.846      1.947      2.354      1.786      1.483      0.673      1.191      1.6        0.16821    0.16821    0.3537866  3.654387   2.338197   1.989      0.24571    0.5054782  47.964     0.5623535  0.4586566  0.6660504 
1213.8     0.228      431.8      -9999      -9999      5.917      1.753      2.413      2.82       1.922      2.278      1.786      1.522      0.959      1.215      1.702      0.1578789  0.1578789  0.344009   2.352113   3.211364   2.001      0.2051453  0.486067   48.654     0.5640306  0.4029173  0.7251438 
1214       0.23       431.8      -9999      -9999      6.018      1.6        2.235      2.516      1.846      2.176      1.812      1.687      0.965      1.226      1.676      0.136502   0.136502   0.3395276  0.9451613  2.458673   2.001      0.09776644 0.4528884  49.276     0.6152292  0.449343   0.7811154 
1214.2     0.228      433.07     -9999      -9999      5.904      1.524      2.134      2.363      1.77       2.074      1.866      1.801      0.94       1.263      1.626      0.1268991  0.1268991  0.3244538  0.6275342  3.323675   1.995      0.03722878 0.4208043  49.826     0.5986506  0.3973012  0.8       
1214.4     0.227      434.256    -9999      -9999      5.98       1.549      2.057      2.236      1.719      1.973      1.907      1.47       0.901      1.286      1.702      0.1119225  0.1119225  0.3150836  0.33131    2.718567   1.989      0          0.3816327  49.572     0.6156396  0.4312793  0.8       
1214.6     0.225      435.61     -9999      -9999      5.84       1.549      2.057      2.236      1.719      1.897      1.935      1.572      1.041      1.282      1.702      0.1326185  0.1326185  0.3167132  0.8008914  3.93655    1.983      0.07086693 0.4196072  49.022     0.5578629  0.3707733  0.7449525 
