~Version
 VERS              .         2.0                           : CWLS LOG ASCII STANDARD - VERSION 2.0
 WRAP              .         NO                            : ONE LINE PER DEPTH STEP
 DLM               .         SPACE                         : DELIMITING CHARACTER(SPACE TAB OR COMMA)
~Well Information
#_______________________________________________________________________________
#
#PARAMETER_NAME    .UNIT     VALUE                         : DESCRIPTION
#_______________________________________________________________________________
STRT               .M        894                           : First reference value
STOP               .M        1248                          : Last reference value
STEP               .M        0.2                           : Step increment
NULL               .         -9999                         : Missing value
COMP               .                                       : Company
WELL               .         7334                          : Well name
FLD                .         Узень                         : Field
LOC                .                                       : Location
CNTY               .                                       : County
STAT               .                                       : State
CTRY               .                                       : Country
SRVC               .                                       : Service Company
DATE               .                                       : Date
UWI                .                                       : Unique Well ID
API                .                                       : 
Block              .         7                             : 
Category           .         Нефтяная                      : 
Condition          .         В работе                      : 
Date               .         03.03.1983                    : 
EREF               .m        87.7                          : 100.8
Gor                .         14                            : 
Gorizont           .         14                            : 14
Interpretator      .         Кайсанов Е.К                  : 
Kupol              .         Основной                      : osnovnoi
Mud                .                                       : 
Mud_density        .                                       : 
Mud_resistivity    .                                       : 
NGDU               .         НГДУ-2                        : 
ORIGINALWELLNAME   .         7334                          : 
Spud_date          .         1983                          : 1961
Viscosity          .                                       : 
X                  .m        42733.9                       : 46154
Y                  .m        84668.93                      : 85761.93
YEAR               .         2019                          : 
Сдали_за_3_кв_2019 .         3                             : 
временно           .         \                             : 
~Parameter Information Block
#_______________________________________________________________________________
#
#PARAMETER_NAME    .UNIT     VALUE                         : DESCRIPTION
#_______________________________________________________________________________
SET                .         LQC_KAZNIPI_Petrel            : 
TLFamily_CALI      .         Caliper                       : 
TLFamily_CILD      .         Conductivity                  : 
TLFamily_COLL      .         Net Reservoir Flag            : 
TLFamily_CSAT      .         Fluid Code                    : 
TLFamily_DEPT      .         Measured Depth                : 
TLFamily_GR        .         Russian Gamma Ray             : 
TLFamily_GZ1       .         Gradient 045                  : 
TLFamily_GZ2       .         Gradient 105                  : 
TLFamily_GZ3       .         Gradient 225                  : 
TLFamily_GZ4       .         Gradient 425                  : 
TLFamily_GZ5       .         Gradient 850                  : 
TLFamily_LLS       .         Lateral Log Resistivity       : 
TLFamily_MINV      .         Micro Gradient Resistivity    : 
TLFamily_MNOR      .         Micro Resistivity             : 
TLFamily_NGLD      .         Neutron Far                   : 
TLFamily_OGZ3      .         Gradient Inverted 225         : 
TLFamily_PHIE      .         Effective Porosity            : 
TLFamily_PHIEN     .         Effective Porosity            : 
TLFamily_PHIT      .         Porosity                      : 
TLFamily_PRMB      .         Permeability                  : 
TLFamily_PRMB_DGR  .         Permeability                  : 
TLFamily_RT        .         Formation Resistivity         : 
TLFamily_SOIL_ARCHIE .         Oil Saturation                : 
TLFamily_SOIL_DW   .         Oil Saturation                : 
TLFamily_SP        .         Spontaneous Potential         : 
TLFamily_VSH_FIN   .         Shale Volume                  : 
TLFamily_VSH_GR    .         Shale Volume                  : 
TLFamily_VSH_SP    .         Shale Volume                  : 
~Curve Information
#_______________________________________________________________________________
#
#LOGNAME           .UNIT     LOG_ID                        : DESCRIPTION
#_______________________________________________________________________________
DEPT               .M                                      : Колонка глубины 
CALI               .м                                      : Каверномер 
CILD               .мСм/м                                  : Индукционный каротаж 
COLL               .unitless                               :  
CSAT               .unitless                               :  
GR                 .uR/h                                   : Гамма каротаж 
GZ1                .OHMM                                   :  
GZ2                .OHMM                                   :  
GZ3                .OHMM                                   :  
GZ4                .OHMM                                   :  
GZ5                .OHMM                                   :  
LLS                .Ohmm                                   : Боковой каротаж 
MINV               .Ohmm                                   : Микро-градиент зонд 
MNOR               .Ohmm                                   : Микро-потенциал зонд 
NGLD               .у.е.                                   : Показания зонда НГК-60 аппаратуры ДРСТ-3-90 
OGZ3               .Ohmm                                   :  
PHIE               .v/v                                    : Описание 
PHIEN              .v/v                                    :  
PHIT               .v/v                                    : Описание 
PRMB               .mD                                     :  
PRMB_DGR           .mD                                     :  
RT                 .ohmm                                   : Удельное электрическое сопротивление 
SOIL_ARCHIE        .v/v                                    :  
SOIL_DW            .v/v                                    :  
SP                 .мВ                                     : Потенциал самополяризации 
VSH_FIN            .v/v                                    : Описание 
VSH_GR             .v/v                                    : Shale volume 
VSH_SP             .v/v                                    : Shale Volume 
~Ascii
# ...
1183.6     0.234      393.7      -9999      -9999      6.094      1.6        2.235      1.322      1.109      1.084      2.207      1.255      1.295      1.155      1.676      0.2148342  0.2148342  0.368453   26.69367   2.011049   2.194      0.4178878  0.5826198  48.429     0.4655116  0.4877716  0.4432516 
1183.8     0.229      392.43     -9999      -9999      5.866      1.575      2.083      1.373      1.058      1.008      2.29       1.127      1.308      1.178      1.702      0.2289629  0.2289629  0.3590828  48.76486   3.675      2.201      0.4501232  0.5875767  47.879     0.3943027  0.3813297  0.4072756 
1184       0.216      384.81     -9999      -9999      5.739      1.524      2.007      1.677      1.058      1.008      2.428      1.153      1.245      1.202      1.702      0.2323269  0.2323269  0.3493052  56.28807   5.141674   2.245      0.4620839  0.5873852  47.371     0.3544796  0.3324654  0.3764937 
1184.2     0.216      374.65     1          2          5.624      1.6        2.007      2.16       1.16       1.008      2.555      1.184      1.333      1.282      1.626      0.2153449  0.2153449  0.3167132  27.28146   6.968993   2.306      0.4325052  0.5550348  46.313     0.3071768  0.293643   0.3207106 
1184.4     0.215      364.49     1          2          5.396      1.93       2.184      2.566      1.236      1.109      2.65       1.242      1.499      1.29       1.626      0.2298991  0.2298991  0.313454   50.75135   12.73518   2.37       0.470769   0.5702315  45.329     0.2531966  0.2295639  0.2768293 
1184.6     0.215      355.6      1          2          5.447      2.057      2.337      2.566      1.338      1.135      2.612      1.724      1.715      1.321      1.626      0.2209021  0.2209021  0.3008246  34.5781    11.12851   2.429      0.4583309  0.557883   44.398     0.2421894  0.24256    0.2418188 
1184.8     0.214      346.71     1          2          5.307      2.134      2.337      3.024      1.414      1.211      2.67       1.704      1.803      1.298      1.727      0.2380256  0.2380256  0.3101948  71.77448   16.11434   2.491      0.4983997  0.5843371  44.017     0.2186945  0.2085302  0.2288588 
1185       0.214      336.55     1          2          5.259      2.134      2.388      3.074      1.414      1.287      2.81       1.661      1.994      1.325      1.905      0.2314883  0.2314883  0.299195   54.31051   18.29515   2.567      0.4932816  0.5769544  43.476     0.2051716  0.1979977  0.2123455 
1185.2     0.214      322.58     1          2          5.205      2.235      2.515      2.693      1.363      1.338      2.957      1.674      1.887      1.305      2.057      0.2434331  0.2434331  0.307343   90.39177   21.10326   2.678      0.5245457  0.6007615  43.051     0.1936665  0.1867833  0.2005498 
1185.4     0.214      321.31     1          2          5.238      2.362      2.667      2.668      1.516      1.414      3.135      1.699      1.676      1.316      2.057      0.2400698  0.2400698  0.3028616  78.31281   19.33981   2.688      0.5195906  0.5957409  42.501     0.1902783  0.1935587  0.1869978 
1185.6     0.213      327.66     1          2          5.269      2.413      2.946      2.668      1.693      1.465      3.3        1.662      1.621      1.294      2.057      0.2483215  0.2483215  0.3118244  111.3463   17.81771   2.636      0.5292289  0.604282   42.416     0.1924328  0.2001473  0.1847184 
1185.8     0.212      338.294    1          2          5.04       2.743      3.556      3.049      1.871      1.465      3.473      1.597      1.524      1.305      1.956      0.2505625  0.2505625  0.307343   122.5132   32.64639   2.556      0.5260937  0.5963088  42.574     0.1720623  0.1563021  0.1878226 
1186       0.212      347.98     1          2          5.028      3.174999999999999 3.962      3.430000000000001 1.998      1.465      3.373      1.544      1.505      1.314      2.083      0.2458209  0.2458209  0.3036764  100.0822   33.69893   2.483      0.5115453  0.5842215  42.955     0.1753198  0.1542899  0.1963497 
1186.2     0.212      361.95     1          2          5.18       3.174999999999999 3.734      3.201000000000001 1.998      1.389      3.001      1.458      1.473      1.316      2.286      0.2394885  0.2394885  0.3028616  76.39529   22.54548   2.387      0.4909839  0.5705695  43.209     0.1920396  0.1818088  0.2022705 
1186.4     0.212      363.795    1          2          5.263      2.972      3.353      2.77       2.125      1.287      2.888      1.514      1.458      1.313      2.134      0.2362356  0.2362356  0.3040838  66.499     18.10266   2.375      0.4836651  0.5680028  43.603     0.2056006  0.1988548  0.2123463 
1186.6     0.211      365.76     1          2          5.332      2.718      3.226      2.77       2.252      1.211      2.769      1.597      1.435      1.331      2.134      0.2243525  0.2243525  0.2967506  40.06004   15.08353   2.362      0.458533   0.5510074  44.04      0.2193881  0.2142358  0.2245404 
1186.8     0.21       374.65     1          2          5.586      2.54       3.250999999999999 2.516      2.252      1.236      2.593      1.527      1.527      1.301      1.778      0.2226054  0.2226054  0.3089726  37.18355   7.70565    2.306      0.4486606  0.5546913  44.591     0.2617187  0.2818385  0.2415988 
1187       0.212      384.81     1          2          5.726      2.413      3.250999999999999 2.541      2.125      1.262      2.392      1.432      1.651      1.279      1.651      0.2192742  0.2192742  0.3179354  32.25883   5.321494   2.245      0.4343004  0.5533926  45.395     0.2989732  0.3278313  0.2701151 
1187.2     0.215      394.97     -9999      -9999      5.802      2.083      2.921      2.49       2.024      1.262      2.24       1.635      1.422      1.254      1.549      0.2179381  0.2179381  0.3281204  30.47192   4.352663   2.187      0.4242524  0.5547087  46.397     0.3338859  0.3558682  0.3119037 
1187.4     0.213      403.86     -9999      -9999      6.005      1.854      2.616      2.363      1.947      1.211      2.159      2.131      0.978      1.268      1.524      0.1897972  0.1897972  0.3224168  9.176193   2.544662   2.139      0.3437795  0.518777   47.392     0.4018776  0.4430797  0.3606755 
1187.6     0.214      408.94     -9999      -9999      5.897      1.676      2.388      2.363      1.871      1.16       2.098      2.033      0.953      1.295      1.524      0.1798504  0.1798504  0.311417   6.003759   3.38577    2.112      0.3081687  0.4947536  48.154     0.3986868  0.3943096  0.403064  
1187.8     0.215      414.02     -9999      -9999      6.12       1.626      2.261      2.236      1.846      1.16       2.052      1.928      0.927      1.268      1.727      0.1671875  0.1671875  0.3224168  3.498454   1.877432   2.086      0.2584501  0.4876127  48.747     0.4703918  0.5016591  0.4391245 
1188       0.215      416.56     -9999      -9999      6.16       1.575      2.159      2.262      1.871      1.16       1.993      1.839      0.826      1.215      2.007      0.1774453  0.1774453  0.344009   5.418447   1.688995   2.074      0.2940193  0.5173933  49.445     0.5047386  0.5238004  0.4856767 
1188.2     0.215      417.83     -9999      -9999      6.209      1.6        2.083      2.541      1.871      1.211      1.978      1.661      0.813      1.218      2.261      0.1644634  0.1644634  0.3427868  3.114728   1.483736   2.067      0.2445271  0.5010678  50.038     0.5403737  0.5522599  0.5284876 
1188.4     0.216      420.37     -9999      -9999      6.444      1.549      1.981      2.617      1.871      1.236      2.022      1.597      0.864      1.24       2.184      0.1215736  0.1215736  0.333824   0.5000303  0.7970459  2.055      0.01440007 0.4308721  50.631     0.643183   0.7117735  0.5745925 
1188.6     0.214      420.37     -9999      -9999      6.513      1.626      1.956      2.617      1.846      1.338      2.067      2.029      0.965      1.269      2.184      0.09329545 0.09329545 0.3220094  0.1496981  0.6641152  2.055      0          0.3615013  51.17      0.6930725  0.7668282  0.6193168 
