~Version
 VERS              .         2.0                           : CWLS LOG ASCII STANDARD - VERSION 2.0
 WRAP              .         NO                            : ONE LINE PER DEPTH STEP
 DLM               .         SPACE                         : DELIMITING CHARACTER(SPACE TAB OR COMMA)
~Well Information
#_______________________________________________________________________________
#
#PARAMETER_NAME    .UNIT     VALUE                         : DESCRIPTION
#_______________________________________________________________________________
STRT               .M        894                           : First reference value
STOP               .M        1248                          : Last reference value
STEP               .M        0.2                           : Step increment
NULL               .         -9999                         : Missing value
COMP               .                                       : Company
WELL               .         7334                          : Well name
FLD                .         Узень                         : Field
LOC                .                                       : Location
CNTY               .                                       : County
STAT               .                                       : State
CTRY               .                                       : Country
SRVC               .                                       : Service Company
DATE               .                                       : Date
UWI                .                                       : Unique Well ID
API                .                                       : 
Block              .         7                             : 
Category           .         Нефтяная                      : 
Condition          .         В работе                      : 
Date               .         03.03.1983                    : 
EREF               .m        87.7                          : 100.8
Gor                .         14                            : 
Gorizont           .         14                            : 14
Interpretator      .         Кайсанов Е.К                  : 
Kupol              .         Основной                      : osnovnoi
Mud                .                                       : 
Mud_density        .                                       : 
Mud_resistivity    .                                       : 
NGDU               .         НГДУ-2                        : 
ORIGINALWELLNAME   .         7334                          : 
Spud_date          .         1983                          : 1961
Viscosity          .                                       : 
X                  .m        42733.9                       : 46154
Y                  .m        84668.93                      : 85761.93
YEAR               .         2019                          : 
Сдали_за_3_кв_2019 .         3                             : 
временно           .         \                             : 
~Parameter Information Block
#_______________________________________________________________________________
#
#PARAMETER_NAME    .UNIT     VALUE                         : DESCRIPTION
#_______________________________________________________________________________
SET                .         LQC_KAZNIPI_Petrel            : 
TLFamily_CALI      .         Caliper                       : 
TLFamily_CILD      .         Conductivity                  : 
TLFamily_COLL      .         Net Reservoir Flag            : 
TLFamily_CSAT      .         Fluid Code                    : 
TLFamily_DEPT      .         Measured Depth                : 
TLFamily_GR        .         Russian Gamma Ray             : 
TLFamily_GZ1       .         Gradient 045                  : 
TLFamily_GZ2       .         Gradient 105                  : 
TLFamily_GZ3       .         Gradient 225                  : 
TLFamily_GZ4       .         Gradient 425                  : 
TLFamily_GZ5       .         Gradient 850                  : 
TLFamily_LLS       .         Lateral Log Resistivity       : 
TLFamily_MINV      .         Micro Gradient Resistivity    : 
TLFamily_MNOR      .         Micro Resistivity             : 
TLFamily_NGLD      .         Neutron Far                   : 
TLFamily_OGZ3      .         Gradient Inverted 225         : 
TLFamily_PHIE      .         Effective Porosity            : 
TLFamily_PHIEN     .         Effective Porosity            : 
TLFamily_PHIT      .         Porosity                      : 
TLFamily_PRMB      .         Permeability                  : 
TLFamily_PRMB_DGR  .         Permeability                  : 
TLFamily_RT        .         Formation Resistivity         : 
TLFamily_SOIL_ARCHIE .         Oil Saturation                : 
TLFamily_SOIL_DW   .         Oil Saturation                : 
TLFamily_SP        .         Spontaneous Potential         : 
TLFamily_VSH_FIN   .         Shale Volume                  : 
TLFamily_VSH_GR    .         Shale Volume                  : 
TLFamily_VSH_SP    .         Shale Volume                  : 
~Curve Information
#_______________________________________________________________________________
#
#LOGNAME           .UNIT     LOG_ID                        : DESCRIPTION
#_______________________________________________________________________________
DEPT               .M                                      : Колонка глубины 
CALI               .м                                      : Каверномер 
CILD               .мСм/м                                  : Индукционный каротаж 
COLL               .unitless                               :  
CSAT               .unitless                               :  
GR                 .uR/h                                   : Гамма каротаж 
GZ1                .OHMM                                   :  
GZ2                .OHMM                                   :  
GZ3                .OHMM                                   :  
GZ4                .OHMM                                   :  
GZ5                .OHMM                                   :  
LLS                .Ohmm                                   : Боковой каротаж 
MINV               .Ohmm                                   : Микро-градиент зонд 
MNOR               .Ohmm                                   : Микро-потенциал зонд 
NGLD               .у.е.                                   : Показания зонда НГК-60 аппаратуры ДРСТ-3-90 
OGZ3               .Ohmm                                   :  
PHIE               .v/v                                    : Описание 
PHIEN              .v/v                                    :  
PHIT               .v/v                                    : Описание 
PRMB               .mD                                     :  
PRMB_DGR           .mD                                     :  
RT                 .ohmm                                   : Удельное электрическое сопротивление 
SOIL_ARCHIE        .v/v                                    :  
SOIL_DW            .v/v                                    :  
SP                 .мВ                                     : Потенциал самополяризации 
VSH_FIN            .v/v                                    : Описание 
VSH_GR             .v/v                                    : Shale volume 
VSH_SP             .v/v                                    : Shale Volume 
~Ascii
# ...
914.8      0.213      401.32     1          3          1.764      1.778      2.007      2.49       1.566      1.719      2.273      1.928      1.549      1.504      1.422      0.1995228  0.1995228  0.2282704  13.89329   3884.563   2.153      0.3648123  0.4166315  56.896     0.08711387 0.02220578 0.152022  
915        0.213      394.97     1          3          1.751      2.007      2.337      2.414      1.592      1.693      2.273      2.093      1.956      1.505      1.524      0.1992116  0.1992116  0.227863   13.71009   3974.281   2.187      0.3686076  0.4202047  56.896     0.08682239 0.02199971 0.1516451 
915.2      0.213      398.78     1          3          1.789      2.057      2.261      2.262      1.693      1.77       2.34       2.55       1.727      1.484      1.803      0.2077285  0.2077285  0.2364184  19.71483   3717.684   2.167      0.3885843  0.4398111  56.896     0.08693926 0.02260752 0.151271  
915.4      0.213      407.67     1          3          1.865      2.184      2.261      2.109      1.82       1.846      2.257      1.877      1.727      1.467      1.778      0.2145978  0.2145978  0.2433442  26.42593   3253.121   2.119      0.3993858  0.4504845  56.854     0.08711024 0.02387398 0.1503465 
915.6      0.213      414.02     1          3          1.992      2.362      2.337      2.109      1.846      1.922      2.113      1.534      1.384      1.467      1.778      0.2143738  0.2143738  0.2433442  26.1747    2602.708   2.086      0.3943951  0.4459079  56.811     0.08778898 0.02615062 0.1494273 
915.8      0.213      417.83     1          3          1.891      2.464      2.438      1.881      1.795      1.82       2.052      1.953      1.359      1.434      1.651      0.2281784  0.2281784  0.2567884  47.1601    3107.904   2.067      0.4239648  0.4744516  56.811     0.08669711 0.02432334 0.1490709 
916        0.213      416.56     1          3          1.967      2.286      2.362      1.957      1.719      1.719      2.082      1.635      1.334      1.414      1.575      0.2360697  0.2360697  0.2649364  66.03004   2719.539   2.074      0.4416587  0.4920753  56.854     0.08747485 0.02568593 0.1492638 
916.2      0.213      407.67     1          3          1.916      2.032      2.235      2.287      1.643      1.617      2.067      1.47       1.181      1.408      1.422      0.2386365  0.2386365  0.2673808  73.66892   2974.389   2.119      0.4524363  0.5024385  56.896     0.08710407 0.02476339 0.1494448 
916.4      0.213      396.875    1          3          1.967      2.007      2.21       2.566      1.541      1.516      2.216      1.331      1.384      1.434      1.321      0.2279064  0.2279064  0.2567884  46.61625   2719.539   2.177      0.437227   0.48764    56.917     0.08752123 0.02568593 0.1493565 
916.6      0.213      400.05     1          3          2.03       1.778      2.057      2.566      1.439      1.49       2.273      1.724      1.587      1.424      1.321      0.2317546  0.2317546  0.2608624  54.93068   2434.666   2.16       0.4433303  0.493878   56.959     0.08820551 0.02687312 0.1495379 
916.8      0.213      408.94     1          3          2.081      1.651      2.007      2.592      1.414      1.541      2.175      2.283      1.587      1.387      1.626      0.2466332  0.2466332  0.2759362  103.6102   2226.06    2.112      0.467105   0.5173697  57.001     0.08879713 0.02787425 0.14972   
917        0.213      410.21     1          3          2.119      1.803      2.261      2.389      1.516      1.592      2.144      2.017      1.435      1.372      1.88       0.2526296  0.2526296  0.2820472  133.8049   2082.336   2.106      0.4774415  0.5275829  57.023     0.08914419 0.02864436 0.149644  
917.2      0.213      410.21     1          3          2.094      2.184      2.413      2.211      1.617      1.643      2.082      2.169      1.435      1.387      1.753      0.2466617  0.2466617  0.2759362  103.7365   2175.808   2.106      0.4664469  0.5167067  57.023     0.08871059 0.02813536 0.1492858 
917.4      0.213      414.02     1          3          2.03       2.286      2.337      2.033      1.693      1.693      2.037      2.03       1.638      1.39       1.702      0.2457064  0.2457064  0.274714   99.59485   2434.666   2.086      0.4622381  0.5123515  57.023     0.08790181 0.02687312 0.1489305 
917.6      0.213      425.45     1          3          1.903      2.184      2.286      2.033      1.668      1.617      2.007      1.826      1.41       1.422      1.702      0.233026   0.233026   0.2616772  57.9915    3043.085   2.03       0.4296014  0.4800726  57.065     0.08682186 0.02453358 0.1491101 
917.8      0.213      434.34     1          3          1.827      2.159      2.235      1.957      1.592      1.541      1.978      1.763      1.321      1.437      1.778      0.2270978  0.2270978  0.2555662  45.03613   3477.653   1.989      0.4110427  0.4616892  57.108     0.08626769 0.02323212 0.1493033 
918        0.213      438.15     1          3          1.891      2.007      2.235      1.881      1.465      1.439      1.964      1.547      1.384      1.438      1.854      0.2264805  0.2264805  0.2551588  43.86589   3107.904   1.971      0.4071209  0.4581124  57.15      0.08690388 0.02432334 0.1494844 
918.2      0.214      438.15     1          3          1.916      1.956      2.235      1.728      1.389      1.363      2.037      1.585      1.448      1.418      1.88       0.2346148  0.2346148  0.2633068  62.05738   2974.389   1.971      0.4250644  0.4757455  57.15      0.08694544 0.02476339 0.1491275 
918.4      0.213      438.15     1          3          1.891      1.956      2.21       1.703      1.312      1.287      2.098      1.572      1.41       1.414      1.803      0.2363754  0.2363754  0.2649364  66.89664   3107.904   1.971      0.428796   0.4792612  57.15      0.08654839 0.02432334 0.1487734 
918.6      0.213      438.15     1          3          1.827      2.007      2.134      1.703      1.262      1.262      2.191      1.47       1.46       1.443      1.803      0.2247114  0.2247114  0.2531218  40.67781   3477.653   1.971      0.4030576  0.453792   57.192     0.08609228 0.02323212 0.1489524 
918.8      0.213      435.61     1          3          1.941      1.854      1.956      1.855      1.262      1.236      2.257      1.661      1.372      1.424      1.727      0.2321836  0.2321836  0.2608624  55.94495   2846.61    1.983      0.4214748  0.4721905  57.192     0.08690553 0.0252114  0.1485997 
919        0.213      430.53     1          3          1.992      1.93       1.829      2.008      1.16       1.185      2.29       1.572      1.473      1.414      1.676      0.2361603  0.2361603  0.2649364  66.28571   2602.708   2.007      0.4331777  0.4837516  57.192     0.08720022 0.02615062 0.1482498 
919.2      0.213      426.72     1          3          2.056      1.88       1.753      2.16       1.135      1.16       2.273      1.623      1.651      1.434      1.829      0.2279523  0.2279523  0.2567884  46.70765   2325.984   2.024      0.4177516  0.4686731  57.15      0.08738206 0.02737892 0.1473852 
919.4      0.214      425.45     1          3          2.183      1.981      1.829      2.109      1.135      1.135      2.29       1.902      1.93       1.457      2.057      0.2182074  0.2182074  0.2474182  30.82401   1860.939   2.03       0.3960084  0.4478305  57.15      0.08851747 0.0299898  0.1470452 
919.6      0.214      426.72     1          3          2.107      2.007      1.829      2.109      1.185      1.109      2.273      1.61       1.587      1.476      2.057      0.210701   0.210701   0.2396776  22.37958   2126.69    2.024      0.3764444  0.4283678  57.192     0.08780794 0.0283989  0.147217  
919.8      0.214      422.836    1          3          2.043      1.93       1.854      1.957      1.236      1.033      2.273      1.331      1.257      1.488      2.362      0.2059919  0.2059919  0.2347888  18.30743   2379.705   2.043      0.3668295  0.4186901  57.235     0.08726335 0.02712484 0.1474018 
