~Version
 VERS              .         2.0                           : CWLS LOG ASCII STANDARD - VERSION 2.0
 WRAP              .         NO                            : ONE LINE PER DEPTH STEP
 DLM               .         SPACE                         : DELIMITING CHARACTER(SPACE TAB OR COMMA)
~Well Information
#_______________________________________________________________________________
#
#PARAMETER_NAME    .UNIT     VALUE                         : DESCRIPTION
#_______________________________________________________________________________
STRT               .M        894                           : First reference value
STOP               .M        1248                          : Last reference value
STEP               .M        0.2                           : Step increment
NULL               .         -9999                         : Missing value
COMP               .                                       : Company
WELL               .         7334                          : Well name
FLD                .         Узень                         : Field
LOC                .                                       : Location
CNTY               .                                       : County
STAT               .                                       : State
CTRY               .                                       : Country
SRVC               .                                       : Service Company
DATE               .                                       : Date
UWI                .                                       : Unique Well ID
API                .                                       : 
Block              .         7                             : 
Category           .         Нефтяная                      : 
Condition          .         В работе                      : 
Date               .         03.03.1983                    : 
EREF               .m        87.7                          : 100.8
Gor                .         14                            : 
Gorizont           .         14                            : 14
Interpretator      .         Кайсанов Е.К                  : 
Kupol              .         Основной                      : osnovnoi
Mud                .                                       : 
Mud_density        .                                       : 
Mud_resistivity    .                                       : 
NGDU               .         НГДУ-2                        : 
ORIGINALWELLNAME   .         7334                          : 
Spud_date          .         1983                          : 1961
Viscosity          .                                       : 
X                  .m        42733.9                       : 46154
Y                  .m        84668.93                      : 85761.93
YEAR               .         2019                          : 
Сдали_за_3_кв_2019 .         3                             : 
временно           .         \                             : 
~Parameter Information Block
#_______________________________________________________________________________
#
#PARAMETER_NAME    .UNIT     VALUE                         : DESCRIPTION
#_______________________________________________________________________________
SET                .         LQC_KAZNIPI_Petrel            : 
TLFamily_CALI      .         Caliper                       : 
TLFamily_CILD      .         Conductivity                  : 
TLFamily_COLL      .         Net Reservoir Flag            : 
TLFamily_CSAT      .         Fluid Code                    : 
TLFamily_DEPT      .         Measured Depth                : 
TLFamily_GR        .         Russian Gamma Ray             : 
TLFamily_GZ1       .         Gradient 045                  : 
TLFamily_GZ2       .         Gradient 105                  : 
TLFamily_GZ3       .         Gradient 225                  : 
TLFamily_GZ4       .         Gradient 425                  : 
TLFamily_GZ5       .         Gradient 850                  : 
TLFamily_LLS       .         Lateral Log Resistivity       : 
TLFamily_MINV      .         Micro Gradient Resistivity    : 
TLFamily_MNOR      .         Micro Resistivity             : 
TLFamily_NGLD      .         Neutron Far                   : 
TLFamily_OGZ3      .         Gradient Inverted 225         : 
TLFamily_PHIE      .         Effective Porosity            : 
TLFamily_PHIEN     .         Effective Porosity            : 
TLFamily_PHIT      .         Porosity                      : 
TLFamily_PRMB      .         Permeability                  : 
TLFamily_PRMB_DGR  .         Permeability                  : 
TLFamily_RT        .         Formation Resistivity         : 
TLFamily_SOIL_ARCHIE .         Oil Saturation                : 
TLFamily_SOIL_DW   .         Oil Saturation                : 
TLFamily_SP        .         Spontaneous Potential         : 
TLFamily_VSH_FIN   .         Shale Volume                  : 
TLFamily_VSH_GR    .         Shale Volume                  : 
TLFamily_VSH_SP    .         Shale Volume                  : 
~Curve Information
#_______________________________________________________________________________
#
#LOGNAME           .UNIT     LOG_ID                        : DESCRIPTION
#_______________________________________________________________________________
DEPT               .M                                      : Колонка глубины 
CALI               .м                                      : Каверномер 
CILD               .мСм/м                                  : Индукционный каротаж 
COLL               .unitless                               :  
CSAT               .unitless                               :  
GR                 .uR/h                                   : Гамма каротаж 
GZ1                .OHMM                                   :  
GZ2                .OHMM                                   :  
GZ3                .OHMM                                   :  
GZ4                .OHMM                                   :  
GZ5                .OHMM                                   :  
LLS                .Ohmm                                   : Боковой каротаж 
MINV               .Ohmm                                   : Микро-градиент зонд 
MNOR               .Ohmm                                   : Микро-потенциал зонд 
NGLD               .у.е.                                   : Показания зонда НГК-60 аппаратуры ДРСТ-3-90 
OGZ3               .Ohmm                                   :  
PHIE               .v/v                                    : Описание 
PHIEN              .v/v                                    :  
PHIT               .v/v                                    : Описание 
PRMB               .mD                                     :  
PRMB_DGR           .mD                                     :  
RT                 .ohmm                                   : Удельное электрическое сопротивление 
SOIL_ARCHIE        .v/v                                    :  
SOIL_DW            .v/v                                    :  
SP                 .мВ                                     : Потенциал самополяризации 
VSH_FIN            .v/v                                    : Описание 
VSH_GR             .v/v                                    : Shale volume 
VSH_SP             .v/v                                    : Shale Volume 
~Ascii
# ...
940.2      0.214      186.69     -9999      -9999      2.703      3.505      6.019999999999999 7.037      5.248999999999999 5.3        4.453      3.579      2.21       1.437      5.537      0.1745827  0.1745827  0.2535662  4.795723   52.10682   4.627      0.5016959  0.6041211  67.522     0.2393437  0.1291365  0.349551  
940.4      0.214      186.69     -9999      -9999      2.653      4.013      6.96       6.503000000000001 5.148      5.097      4.231      3.058      1.968      1.396      5.283000000000001 0.1896793  0.1896793  0.2702696  9.13018    58.30821   4.627      0.5364208  0.6314983  67.818     0.2442129  0.1233411  0.3650848 
940.6      0.214      190.5      -9999      -9999      2.754      4.216      7.036      6.503000000000001 5.046      4.919      3.962      3.579      2.311      1.375      5.283000000000001 0.1943623  0.1943623  0.278825   11.14855   46.46036   4.534      0.5418193  0.6381531  68.03      0.2559477  0.1353284  0.3765671 
940.8      0.215      200.66     -9999      -9999      2.894      3.886000000000001 6.274      6.325999999999999 4.665      4.665      4.049      3.718      2.121      1.38       4.826000000000001 0.1873168  0.1873168  0.276788   8.255051   33.91122   4.305      0.5151973  0.6213532  68.241     0.2711248  0.1538948  0.3883549 
941        0.215      207.01     -9999      -9999      3.148      3.708      5.613      6.325999999999999 4.284      4.385999999999999 4.231      3.375      1.918      1.368      4.216      0.1831039  0.1831039  0.2816768  6.897423   19.15401   4.173      0.498217   0.6158347  68.495     0.2987057  0.1943233  0.4030881 
941.2      0.215      204.47     -9999      -9999      3.389      3.682999999999999 5.893      6.097      4.03       4.106      4.109      3.147      1.791      1.342      3.758999999999999 0.1827892  0.1827892  0.2922692  6.805449   11.13969   4.225      0.5003765  0.6262468  68.792     0.3317577  0.2424605  0.4210548 
941.4      0.215      193.04     -9999      -9999      3.402      3.657999999999999 6.019999999999999 5.664999999999999 4.056      4.106      3.933      2.906      2.515      1.349      3.758999999999999 0.1777354  0.1777354  0.2894174  5.485903   10.81872   4.475      0.5016524  0.6305583  68.961     0.3384305  0.2453724  0.4314886 
941.6      0.215      184.15     -9999      -9999      3.465      3.607      5.918      5.664999999999999 4.056      4.208      3.933      3.807      1.791      1.361      3.758999999999999 0.1672834  0.1672834  0.2845286  3.512799   9.389522   4.691      0.4861343  0.6265135  69.257     0.3552884  0.2599869  0.45059   
941.8      0.216      184.15     -9999      -9999      3.453      3.785      6.198      5.818      3.802      4.284      4.17       2.677      1.346      1.386      3.861      0.1547685  0.1547685  0.2743436  2.0599     9.646364   4.691      0.4501274  0.6062524  69.511     0.3623487  0.2571376  0.4675599 
942        0.216      193.04     -9999      -9999      3.376      3.250999999999999 5.309      6.224      3.827      4.335      4.653      2.651      2.248      1.414      3.937      0.141848   0.141848   0.2629364  1.187207   11.47018   4.475      0.3934833  0.5719193  69.892     0.3669346  0.2395831  0.4942861 
942.2      0.216      212.09     -9999      -9999      3.148      2.718      4.597      6.656000000000001 4.106      4.487      5.08       3.464      2.769      1.447      4.293      0.131236   0.131236   0.2494922  0.7550362  19.15401   4.073      0.3216752  0.5224286  70.273     0.358352   0.1943233  0.5223808 
942.4      0.214      226.06     -9999      -9999      2.945      3.023      5.131      6.071999999999999 4.385999999999999 4.64       4.519      4.036      2.273      1.479      4.039000000000001 0.119892   0.119892   0.2364554  0.4654243  30.2365    3.822      0.2438698  0.4723625  70.57      0.3532224  0.1612738  0.545171  
942.6      0.214      240.03     -9999      -9999      2.83       3.581      5.766      6.071999999999999 4.64       4.691      3.764      3.998      2.261      1.428      4.039000000000001 0.139447   0.139447   0.2572328  1.071655   39.1609    3.599      0.3181365  0.5129988  70.866     0.3569266  0.1451106  0.5687427 
942.8      0.214      241.3      -9999      -9999      3.11       4.140000000000001 6.045      5.233      4.691      4.461999999999999 3.398      3.655      2.565      1.361      3.556      0.1562793  0.1562793  0.2845286  2.197001   20.8629    3.58       0.3810283  0.5608138  71.12      0.3886342  0.187659   0.5896094 
943        0.214      232.41     -9999      -9999      3.376      4.368999999999999 6.400999999999999 4.878      4.31       4.233      3.023      3.909      2.489      1.306      3.073      0.1653331  0.1653331  0.3069356  3.23242    11.47018   3.717      0.4209509  0.5973874  71.459     0.4290985  0.2395831  0.618614  
943.2      0.214      231.14     -9999      -9999      3.542      4.801000000000001 6.706      5.132      3.954      4.03       3.045      2.525      1.283      1.278      2.718      0.1658998  0.1658998  0.3183428  3.311505   7.896538   3.737      0.4241262  0.6078367  71.755     0.4619484  0.2790363  0.6448604 
943.4      0.214      240.03     -9999      -9999      3.592      3.758999999999999 6.121      5.182999999999999 3.725      3.802      3.373      2.169      1.422      1.291      2.819      0.1559305  0.1559305  0.3130466  2.164556   7.056695   3.599      0.381361   0.586476   71.924     0.4761094  0.2921473  0.6600716 
943.6      0.214      241.3      -9999      -9999      3.503      2.972      5.512      5.182999999999999 3.497      3.522      3.655      2.499      1.88       1.309      2.819      0.151136   0.151136   0.3057134  1.76426    8.620421   3.58       0.3627219  0.5742068  72.009     0.4684165  0.2692196  0.6676133 
943.8      0.214      237.49     -9999      -9999      3.389      2.489      4.953      5.309999999999999 3.573      3.624000000000001 3.736      3.274      2.184      1.309      3.277      0.1556245  0.1556245  0.3057134  2.136492   11.13969   3.638      0.3834281  0.5823427  72.009     0.4548149  0.2424605  0.6671693 
944        0.214      240.03     -9999      -9999      3.237      2.413      4.318      5.487000000000001 3.750999999999999 3.725      3.602      2.791      1.232      1.321      3.682999999999999 0.1566724  0.1566724  0.3008246  2.234148   15.67952   3.599      0.3839134  0.5770153  71.967     0.4368247  0.2108725  0.662777  
944.2      0.214      245.11     -9999      -9999      3.364      2.87       4.469999999999999 5.056      3.827      3.802      3.551      2.474      1.791      1.297      3.531      0.1635269  0.1635269  0.3106022  2.992769   11.78395   3.524      0.4005722  0.5877327  71.882     0.4456826  0.2369575  0.6544078 
944.4      0.214      248.92     -9999      -9999      3.669      3.073      4.191      4.548      3.827      3.827      3.448      3.096      1.486      1.279      3.327      0.1595884  0.1595884  0.3179354  2.530014   5.934649   3.47       0.3832553  0.5865595  71.797     0.4798393  0.3135532  0.6461254 
944.6      0.214      248.92     -9999      -9999      3.732      3.073      4.115000000000001 4.548      3.750999999999999 3.852      3.3        3.134      1.74       1.293      3.327      0.151509   0.151509   0.3122318  1.792557   5.150651   3.47       0.3547075  0.5735108  71.755     0.4870387  0.3322286  0.6418489 
944.8      0.214      238.76     -9999      -9999      3.846      3.200000000000001 4.343      4.217      3.675      3.852      3.205      2.296      1.308      1.278      3.15       0.151641   0.151641   0.3183428  1.802674   3.985821   3.618      0.3677115  0.5874444  71.755     0.505157   0.368895   0.6414191 
945        0.214      231.14     -9999      -9999      3.719      3.226      4.42       4.268      3.649      3.827      3.135      2.677      1.219      1.272      2.997      0.1602229  0.1602229  0.3207872  2.599411   5.303462   3.737      0.4063953  0.6043906  71.797     0.4865585  0.328286   0.6448311 
