~Version
 VERS              .         2.0                           : CWLS LOG ASCII STANDARD - VERSION 2.0
 WRAP              .         NO                            : ONE LINE PER DEPTH STEP
 DLM               .         SPACE                         : DELIMITING CHARACTER(SPACE TAB OR COMMA)
~Well Information
#_______________________________________________________________________________
#
#PARAMETER_NAME    .UNIT     VALUE                         : DESCRIPTION
#_______________________________________________________________________________
STRT               .M        894                           : First reference value
STOP               .M        1248                          : Last reference value
STEP               .M        0.2                           : Step increment
NULL               .         -9999                         : Missing value
COMP               .                                       : Company
WELL               .         7334                          : Well name
FLD                .         Узень                         : Field
LOC                .                                       : Location
CNTY               .                                       : County
STAT               .                                       : State
CTRY               .                                       : Country
SRVC               .                                       : Service Company
DATE               .                                       : Date
UWI                .                                       : Unique Well ID
API                .                                       : 
Block              .         7                             : 
Category           .         Нефтяная                      : 
Condition          .         В работе                      : 
Date               .         03.03.1983                    : 
EREF               .m        87.7                          : 100.8
Gor                .         14                            : 
Gorizont           .         14                            : 14
Interpretator      .         Кайсанов Е.К                  : 
Kupol              .         Основной                      : osnovnoi
Mud                .                                       : 
Mud_density        .                                       : 
Mud_resistivity    .                                       : 
NGDU               .         НГДУ-2                        : 
ORIGINALWELLNAME   .         7334                          : 
Spud_date          .         1983                          : 1961
Viscosity          .                                       : 
X                  .m        42733.9                       : 46154
Y                  .m        84668.93                      : 85761.93
YEAR               .         2019                          : 
Сдали_за_3_кв_2019 .         3                             : 
временно           .         \                             : 
~Parameter Information Block
#_______________________________________________________________________________
#
#PARAMETER_NAME    .UNIT     VALUE                         : DESCRIPTION
#_______________________________________________________________________________
SET                .         LQC_KAZNIPI_Petrel            : 
TLFamily_CALI      .         Caliper                       : 
TLFamily_CILD      .         Conductivity                  : 
TLFamily_COLL      .         Net Reservoir Flag            : 
TLFamily_CSAT      .         Fluid Code                    : 
TLFamily_DEPT      .         Measured Depth                : 
TLFamily_GR        .         Russian Gamma Ray             : 
TLFamily_GZ1       .         Gradient 045                  : 
TLFamily_GZ2       .         Gradient 105                  : 
TLFamily_GZ3       .         Gradient 225                  : 
TLFamily_GZ4       .         Gradient 425                  : 
TLFamily_GZ5       .         Gradient 850                  : 
TLFamily_LLS       .         Lateral Log Resistivity       : 
TLFamily_MINV      .         Micro Gradient Resistivity    : 
TLFamily_MNOR      .         Micro Resistivity             : 
TLFamily_NGLD      .         Neutron Far                   : 
TLFamily_OGZ3      .         Gradient Inverted 225         : 
TLFamily_PHIE      .         Effective Porosity            : 
TLFamily_PHIEN     .         Effective Porosity            : 
TLFamily_PHIT      .         Porosity                      : 
TLFamily_PRMB      .         Permeability                  : 
TLFamily_PRMB_DGR  .         Permeability                  : 
TLFamily_RT        .         Formation Resistivity         : 
TLFamily_SOIL_ARCHIE .         Oil Saturation                : 
TLFamily_SOIL_DW   .         Oil Saturation                : 
TLFamily_SP        .         Spontaneous Potential         : 
TLFamily_VSH_FIN   .         Shale Volume                  : 
TLFamily_VSH_GR    .         Shale Volume                  : 
TLFamily_VSH_SP    .         Shale Volume                  : 
~Curve Information
#_______________________________________________________________________________
#
#LOGNAME           .UNIT     LOG_ID                        : DESCRIPTION
#_______________________________________________________________________________
DEPT               .M                                      : Колонка глубины 
CALI               .м                                      : Каверномер 
CILD               .мСм/м                                  : Индукционный каротаж 
COLL               .unitless                               :  
CSAT               .unitless                               :  
GR                 .uR/h                                   : Гамма каротаж 
GZ1                .OHMM                                   :  
GZ2                .OHMM                                   :  
GZ3                .OHMM                                   :  
GZ4                .OHMM                                   :  
GZ5                .OHMM                                   :  
LLS                .Ohmm                                   : Боковой каротаж 
MINV               .Ohmm                                   : Микро-градиент зонд 
MNOR               .Ohmm                                   : Микро-потенциал зонд 
NGLD               .у.е.                                   : Показания зонда НГК-60 аппаратуры ДРСТ-3-90 
OGZ3               .Ohmm                                   :  
PHIE               .v/v                                    : Описание 
PHIEN              .v/v                                    :  
PHIT               .v/v                                    : Описание 
PRMB               .mD                                     :  
PRMB_DGR           .mD                                     :  
RT                 .ohmm                                   : Удельное электрическое сопротивление 
SOIL_ARCHIE        .v/v                                    :  
SOIL_DW            .v/v                                    :  
SP                 .мВ                                     : Потенциал самополяризации 
VSH_FIN            .v/v                                    : Описание 
VSH_GR             .v/v                                    : Shale volume 
VSH_SP             .v/v                                    : Shale Volume 
~Ascii
# ...
1075.2     0.237      341.63     -9999      -9999      5.383      1.651      2.337      2.871      1.744      1.719      2.481      1.813      1.016      1.241      2.464      0.194892   0.194892   0.3334166  11.40333   2.419918   2.528      0.3987413  0.5648283  66.167     0.4197713  0.4522676  0.387275  
1075.4     0.234      334.01     -9999      -9999      5.37       1.702      2.362      2.693      1.795      1.795      2.593      2.182      1.511      1.254      2.769      0.1910528  0.1910528  0.3281204  9.680974   2.469255   2.586      0.3947091  0.5621157  66.082     0.4153565  0.4485557  0.3821573 
1075.6     0.225      326.39     -9999      -9999      5.167      1.88       2.489      2.693      1.871      1.871      2.749      3.794      1.168      1.255      2.769      0.2000147  0.2000147  0.327713   14.18781   3.384058   2.647      0.424728   0.5747225  66.04      0.3869646  0.394391   0.3795381 
1075.8     0.225      335.28     -9999      -9999      5.307      2.108      2.642      2.49       1.922      1.897      2.67       2.626      1.08       1.279      2.997      0.185025   0.185025   0.3179354  7.486354   2.722972   2.577      0.3765512  0.5472051  65.955     0.4027587  0.4309943  0.374523  
1076       0.22       337.82     -9999      -9999      5.472      2.159      2.642      2.693      1.947      1.846      2.593      1.75       1.156      1.248      2.87       0.1925211  0.1925211  0.3305648  10.3066    2.107622   2.557      0.3955413  0.5629365  65.659     0.4183143  0.4785185  0.35811   
1076.2     0.24       317.5      -9999      -9999      5.51       2.108      2.54       2.744      1.947      1.795      2.689      2.22       1.346      1.22       2.692      0.2060011  0.2060011  0.341972   18.31467   1.986879   2.721      0.4465236  0.59592    65.193     0.4120329  0.4901859  0.3338798 
1076.4     0.223      292.1      -9999      -9999      5.434      2.184      2.591      2.516      1.973      1.744      2.914      2.512      1.638      1.25       2.667      0.2012857  0.2012857  0.32975    14.97814   2.235703   2.957      0.4568662  0.6001394  64.728     0.3892857  0.4671289  0.3114426 
1076.6     0.223      278.13     -9999      -9999      5.32       2.057      2.616      2.516      1.973      1.693      3.181      3.21       1.448      1.257      2.667      0.205726   0.205726   0.3268982  18.10103   2.668566   3.105      0.4791649  0.6111829  64.474     0.3671884  0.4345609  0.299816  
1076.8     0.223      269.24     -9999      -9999      5.129      1.93       2.642      2.338      2.1        1.795      3.448      3.452      1.854      1.302      2.845      0.1965127  0.1965127  0.3085652  12.2194    3.589706   3.208      0.4661979  0.5966917  64.347     0.339553   0.3850038  0.2941021 
1077       0.225      260.35     -9999      -9999      5.142      2.032      2.769      2.795      2.049      1.846      3.576      2.461      1.753      1.331      2.997      0.1842011  0.1842011  0.2967506  7.22785    3.517984   3.318      0.4441192  0.583354   64.347     0.3410591  0.3881899  0.2939284 
1077.2     0.219      256.54     -9999      -9999      5.078      2.464      3.023      3.278      1.973      1.947      3.655      3.172      2.553      1.349      3.023      0.1788421  0.1788421  0.2894174  5.751056   3.885487   3.367      0.4335498  0.5751482  64.431     0.3350767  0.3727553  0.2973981 
1077.4     0.221      259.08     -9999      -9999      4.989      2.108      2.769      3.430000000000001 1.973      2.049      3.398      3.452      1.295      1.306      2.794      0.1982088  0.1982088  0.3069356  13.13607   4.46122    3.334      0.4796707  0.6045166  64.643     0.3294752  0.3523065  0.306644  
1077.6     0.235      264.16     -9999      -9999      5.154      1.981      2.464      3.430000000000001 1.973      2.151      3.252      2.575      1.194      1.274      2.794      0.2035874  0.2035874  0.3199724  16.52305   3.453052   3.27       0.4870193  0.6146292  64.812     0.3526818  0.3911541  0.3142095 
1077.8     0.235      269.24     -9999      -9999      5.307      1.88       2.515      3.303      1.236      2.278      2.979      2.232      1.194      1.246      2.819      0.2071305  0.2071305  0.3313796  19.21839   2.722972   3.208      0.4901105  0.6216108  64.982     0.3765124  0.4309943  0.3220306 
1078       0.238      270.51     -9999      -9999      5.447      2.007      2.794      3.481      0.449      2.354      2.749      2.296      1.118      1.239      3.15       0.2024034  0.2024034  0.3342314  15.70944   2.191033   3.194      0.4786857  0.6192059  65.109     0.3994787  0.4709945  0.3279629 
1078.2     0.244      271.145    -9999      -9999      5.142      2.337      3.200000000000001 3.786      0.449      2.43       2.79       2.194      1.334      1.239      3.632      0.2140161  0.2140161  0.3342314  25.77833   3.517984   3.186      0.5028254  0.6271983  65.363     0.364289   0.3881899  0.3403881 
1078.4     0.242      275.59     -9999      -9999      4.913      2.667      3.403999999999999 3.76       0.449      2.532      3.023      2.347      1.105      1.231      3.758999999999999 0.2241706  0.2241706  0.3374906  39.75039   5.019911   3.135      0.518869   0.6333088  65.574     0.343394   0.335735   0.3510531 
1078.6     0.24       271.78     -9999      -9999      4.888      2.794      3.429      3.76       0.449      2.608      3.205      2.169      1.257      1.215      3.758999999999999 0.2301072  0.2301072  0.344009   51.20384   5.218579   3.178      0.5326952  0.643719   65.744     0.3451568  0.330456   0.3598576 
1078.8     0.24       269.24     -9999      -9999      4.913      3.099      3.835      3.532      0.449      2.557      3.158      3.401      1.93       1.254      3.505      0.21301    0.21301    0.3281204  24.69567   5.019911   3.208      0.5023904  0.6236618  65.786     0.3488193  0.335735   0.3619037 
1079       0.219      271.78     -9999      -9999      4.888      3.48       4.343      3.303      0.423      2.43       3.229      3.261      1.283      1.271      3.174999999999999 0.2066157  0.2066157  0.3211946  18.80103   5.218579   3.178      0.4867462  0.6123012  65.828     0.3472088  0.330456   0.3639616 
1079.2     0.222      276.86     -9999      -9999      5.053      3.327      4.318      3.582      0.423      2.328      3.276      2.156      1.283      1.258      2.845      0.2047864  0.2047864  0.3264908  17.38996   4.039259   3.12       0.4782653  0.6111125  65.955     0.3688013  0.3668943  0.3707083 
1079.4     0.234      280.67     -9999      -9999      5.142      2.946      4.089      3.887      0.423      2.201      3.112      2.296      1.575      1.225      2.565      0.2127864  0.2127864  0.339935   24.4612    3.517984   3.078      0.4921719  0.6236449  66.167     0.3852989  0.3881899  0.3824079 
1079.6     0.242      281.94     -9999      -9999      5.269      2.54       3.937      3.887      1.211      2.074      2.936      2.372      0.927      1.232      2.565      0.2025733  0.2025733  0.3370832  15.82366   2.888448   3.064      0.4688089  0.6133177  66.379     0.4076058  0.4207357  0.3944758 
1079.8     0.242      284.48     -9999      -9999      5.497      2.438      3.912      4.167      1.973      2.024      2.83       2.131      1.08       1.236      2.565      0.188942   0.188942   0.3354536  8.847518   2.027386   3.036      0.4331459  0.59947    66.506     0.4439747  0.4861628  0.4017867 
1080       0.242      288.29     -9999      -9999      5.205      2.438      3.758999999999999 4.09       2.43       2.024      2.749      2.042      1.13       1.246      2.769      0.1976274  0.1976274  0.3313796  12.81435   3.190189   2.997      0.4515887  0.6010718  66.59      0.4053097  0.4040072  0.4066122 
1080.2     0.253      294.64     -9999      -9999      5.078      2.362      3.531      3.887      2.379      2.074      2.789      1.94       0.965      1.271      3.048      0.1922075  0.1922075  0.3211946  10.16968   3.885487   2.932      0.4323333  0.584451   66.633     0.39087    0.3727553  0.4089846 
