~Version
 VERS              .         2.0                           : CWLS LOG ASCII STANDARD - VERSION 2.0
 WRAP              .         NO                            : ONE LINE PER DEPTH STEP
 DLM               .         SPACE                         : DELIMITING CHARACTER(SPACE TAB OR COMMA)
~Well Information
#_______________________________________________________________________________
#
#PARAMETER_NAME    .UNIT     VALUE                         : DESCRIPTION
#_______________________________________________________________________________
STRT               .M        894                           : First reference value
STOP               .M        1248                          : Last reference value
STEP               .M        0.2                           : Step increment
NULL               .         -9999                         : Missing value
COMP               .                                       : Company
WELL               .         7334                          : Well name
FLD                .         Узень                         : Field
LOC                .                                       : Location
CNTY               .                                       : County
STAT               .                                       : State
CTRY               .                                       : Country
SRVC               .                                       : Service Company
DATE               .                                       : Date
UWI                .                                       : Unique Well ID
API                .                                       : 
Block              .         7                             : 
Category           .         Нефтяная                      : 
Condition          .         В работе                      : 
Date               .         03.03.1983                    : 
EREF               .m        87.7                          : 100.8
Gor                .         14                            : 
Gorizont           .         14                            : 14
Interpretator      .         Кайсанов Е.К                  : 
Kupol              .         Основной                      : osnovnoi
Mud                .                                       : 
Mud_density        .                                       : 
Mud_resistivity    .                                       : 
NGDU               .         НГДУ-2                        : 
ORIGINALWELLNAME   .         7334                          : 
Spud_date          .         1983                          : 1961
Viscosity          .                                       : 
X                  .m        42733.9                       : 46154
Y                  .m        84668.93                      : 85761.93
YEAR               .         2019                          : 
Сдали_за_3_кв_2019 .         3                             : 
временно           .         \                             : 
~Parameter Information Block
#_______________________________________________________________________________
#
#PARAMETER_NAME    .UNIT     VALUE                         : DESCRIPTION
#_______________________________________________________________________________
SET                .         LQC_KAZNIPI_Petrel            : 
TLFamily_CALI      .         Caliper                       : 
TLFamily_CILD      .         Conductivity                  : 
TLFamily_COLL      .         Net Reservoir Flag            : 
TLFamily_CSAT      .         Fluid Code                    : 
TLFamily_DEPT      .         Measured Depth                : 
TLFamily_GR        .         Russian Gamma Ray             : 
TLFamily_GZ1       .         Gradient 045                  : 
TLFamily_GZ2       .         Gradient 105                  : 
TLFamily_GZ3       .         Gradient 225                  : 
TLFamily_GZ4       .         Gradient 425                  : 
TLFamily_GZ5       .         Gradient 850                  : 
TLFamily_LLS       .         Lateral Log Resistivity       : 
TLFamily_MINV      .         Micro Gradient Resistivity    : 
TLFamily_MNOR      .         Micro Resistivity             : 
TLFamily_NGLD      .         Neutron Far                   : 
TLFamily_OGZ3      .         Gradient Inverted 225         : 
TLFamily_PHIE      .         Effective Porosity            : 
TLFamily_PHIEN     .         Effective Porosity            : 
TLFamily_PHIT      .         Porosity                      : 
TLFamily_PRMB      .         Permeability                  : 
TLFamily_PRMB_DGR  .         Permeability                  : 
TLFamily_RT        .         Formation Resistivity         : 
TLFamily_SOIL_ARCHIE .         Oil Saturation                : 
TLFamily_SOIL_DW   .         Oil Saturation                : 
TLFamily_SP        .         Spontaneous Potential         : 
TLFamily_VSH_FIN   .         Shale Volume                  : 
TLFamily_VSH_GR    .         Shale Volume                  : 
TLFamily_VSH_SP    .         Shale Volume                  : 
~Curve Information
#_______________________________________________________________________________
#
#LOGNAME           .UNIT     LOG_ID                        : DESCRIPTION
#_______________________________________________________________________________
DEPT               .M                                      : Колонка глубины 
CALI               .м                                      : Каверномер 
CILD               .мСм/м                                  : Индукционный каротаж 
COLL               .unitless                               :  
CSAT               .unitless                               :  
GR                 .uR/h                                   : Гамма каротаж 
GZ1                .OHMM                                   :  
GZ2                .OHMM                                   :  
GZ3                .OHMM                                   :  
GZ4                .OHMM                                   :  
GZ5                .OHMM                                   :  
LLS                .Ohmm                                   : Боковой каротаж 
MINV               .Ohmm                                   : Микро-градиент зонд 
MNOR               .Ohmm                                   : Микро-потенциал зонд 
NGLD               .у.е.                                   : Показания зонда НГК-60 аппаратуры ДРСТ-3-90 
OGZ3               .Ohmm                                   :  
PHIE               .v/v                                    : Описание 
PHIEN              .v/v                                    :  
PHIT               .v/v                                    : Описание 
PRMB               .mD                                     :  
PRMB_DGR           .mD                                     :  
RT                 .ohmm                                   : Удельное электрическое сопротивление 
SOIL_ARCHIE        .v/v                                    :  
SOIL_DW            .v/v                                    :  
SP                 .мВ                                     : Потенциал самополяризации 
VSH_FIN            .v/v                                    : Описание 
VSH_GR             .v/v                                    : Shale volume 
VSH_SP             .v/v                                    : Shale Volume 
~Ascii
# ...
1028.4     0.277      426.72     -9999      -9999      5.891      1.854      2.743      2.947      2.354      2.176      1.772      0.861      0.483      1.075      1.651      0.2258548  0.2258548  0.401045   42.71072   1.099725   2.024      0.4130449  0.5896602  65.998     0.5308793  0.6241034  0.4376553 
1028.6     0.277      426.72     -9999      -9999      5.726      1.753      2.515      2.947      2.43       2.074      1.799      0.696      0.673      1.08       1.651      0.2327162  0.2327162  0.399008   57.23032   1.420805   2.024      0.4281464  0.5932459  66.125     0.5039146  0.5621203  0.445709  
1028.8     0.287      426.72     -9999      -9999      5.637      1.626      2.362      2.744      2.303      1.973      1.88       0.721      0.559      1.052      1.549      0.2478598  0.2478598  0.4104152  109.1748   1.631331   2.024      0.4586992  0.6100114  66.252     0.4925921  0.5312832  0.4539011 
1029       0.291      424.18     -9999      -9999      5.65       1.422      2.261      2.49       2.176      2.024      1.978      1.293      0.711      1.074      1.448      0.2372816  0.2372816  0.4014524  69.53265   1.598737   2.036      0.4392987  0.5990472  66.336     0.4974873  0.5356797  0.4592949 
1029.2     0.269      425.45     -9999      -9999      5.828      1.27       2.184      2.465      2.049      1.998      2.007      0.988      0.597      1.076      1.346      0.2249974  0.2249974  0.4006376  41.17705   1.212722   2.03       0.4119147  0.5893992  66.421     0.5322431  0.599669   0.4648173 
1029.4     0.255      427.99     -9999      -9999      5.65       1.321      2.108      2.643      1.922      2.1        1.964      0.848      0.711      1.094      1.27       0.228272   0.228272   0.3933044  47.34879   1.598737   2.019      0.4177865  0.5860342  66.421     0.5000983  0.5356797  0.4645168 
1029.6     0.255      431.8      -9999      -9999      5.662      1.321      2.057      2.643      1.922      2.176      1.949      1.255      0.864      1.115      1.27       0.2190912  0.2190912  0.384749   32.00804   1.569228   2.001      0.3940533  0.5717077  66.421     0.5019932  0.5397704  0.4642161 
1029.8     0.263      434.34     -9999      -9999      5.764      1.448      2.057      2.516      1.998      2.227      1.993      0.823      0.597      1.114      1.422      0.214074   0.214074   0.3851564  25.84209   1.339409   1.989      0.3799554  0.5667514  66.379     0.5184316  0.575826   0.4610372 
1030       0.268      433.07     -9999      -9999      5.548      1.575      2.083      2.363      2.125      2.252      2.037      1.14       1.143      1.102      1.499      0.2325895  0.2325895  0.3900452  56.922     1.873054   1.995      0.4239874  0.5845718  66.252     0.4771385  0.5021377  0.4521392 
1030.2     0.286      417.83     -9999      -9999      5.523      1.6        2.083      2.262      2.252      2.201      2.052      1.928      1.08       1.079      1.372      0.2456233  0.2456233  0.3994154  99.24248   1.947181   2.067      0.4597649  0.6063296  66.04      0.4660367  0.4942422  0.4378312 
1030.4     0.258      408.94     -9999      -9999      5.447      1.499      1.981      2.338      2.227      2.176      1.949      0.416      0.432      1.088      1.448      0.2480829  0.2480829  0.3957488  110.2185   2.191033   2.112      0.4698182  0.6099613  65.828     0.4474725  0.4709945  0.4239505 
1030.6     0.258      414.02     -9999      -9999      5.65       1.346      1.88       2.338      2.252      2.151      1.806      0.48       0.559      1.066      1.448      0.2477294  0.2477294  0.4047116  108.5693   1.598737   2.086      0.4660648  0.6125343  65.701     0.4757038  0.5356797  0.4157279 
1030.8     0.274      440.055    -9999      -9999      5.853      1.6        2.007      2.516      2.303      2.125      1.721      0.899      0.775      1.055      1.575      0.2405448  0.2405448  0.409193   79.9154    1.166554   1.964      0.4364886  0.5986176  65.659     0.5110554  0.6092486  0.4128621 
1031       0.284      451.485    -9999      -9999      5.828      1.727      2.261      2.465      2.354      2.074      1.709      0.759      0.648      1.032      1.473      0.2511121  0.2511121  0.4185632  125.4189   1.212722   1.913      0.4504559  0.6056221  65.701     0.5074278  0.599669   0.4151865 
1031.2     0.282      466.09     -9999      -9999      6.056      1.727      2.235      2.312      2.379      2.049      1.721      0.607      0.673      1.038      1.321      0.2324522  0.2324522  0.4161188  56.58969   0.8512029  1.854      0.4035234  0.5854685  65.786     0.5565654  0.6929213  0.4202095 
1031.4     0.277      474.98     -9999      -9999      5.891      1.626      2.134      2.262      2.201      2.024      1.734      0.886      0.572      1.044      1.245      0.2400841  0.2400841  0.4136744  78.36065   1.099725   1.818      0.4147109  0.5852242  65.913     0.5260312  0.6241034  0.427959  
1031.6     0.277      481.33     -9999      -9999      5.878      1.549      2.108      2.262      2.1        1.973      1.648      0.632      0.572      1.069      1.245      0.2298913  0.2298913  0.4034894  50.73442   1.122146   1.795      0.3885307  0.5688972  65.998     0.5260549  0.6189811  0.4331286 
1031.8     0.256      486.41     -9999      -9999      5.917      1.448      2.108      2.262      2.049      1.897      1.772      0.645      0.419      1.05       1.295      0.2355776  0.2355776  0.41123    64.65879   1.056218   1.776      0.3984092  0.5756685  65.955     0.5322799  0.6344754  0.4300845 
1032       0.276      486.41     -9999      -9999      5.713      1.422      2.134      2.16       2.024      1.846      1.721      0.962      0.686      1.032      1.397      0.2569861  0.2569861  0.4185632  161.1251   1.449772   1.776      0.4423001  0.5944682  65.828     0.4896277  0.5575067  0.4217488 
1032.2     0.275      485.14     -9999      -9999      5.599      1.397      2.032      2.058      1.998      1.82       1.709      0.873      0.66       1.023      1.499      0.268416   0.268416   0.4222298  262.3457   1.730469   1.78       0.4636083  0.6040326  65.701     0.4661024  0.5186376  0.4135671 
1032.4     0.271      487.68     -9999      -9999      5.853      1.346      1.854      1.957      1.947      1.795      1.684      0.797      0.572      1.029      1.499      0.2514913  0.2514913  0.4197854  127.4638   1.166554   1.772      0.4311007  0.5911951  65.659     0.5099822  0.6092486  0.4107157 
1032.6     0.271      495.3      -9999      -9999      5.777      1.321      1.778      1.957      1.846      1.744      1.672      1.051      0.61       1.032      1.499      0.2550417  0.2550417  0.4185632  148.3026   1.312647   1.744      0.4337883  0.5895154  65.659     0.4955198  0.5805911  0.4104484 
1032.8     0.278      497.84     -9999      -9999      5.84       1.295      1.753      1.982      1.744      1.744      1.66       0.81       0.521      1.015      1.321      0.2576827  0.2576827  0.425489   165.9841   1.190338   1.735      0.4374818  0.5941586  65.701     0.508504   0.6042483  0.4127597 
1033       0.291      494.03     -9999      -9999      5.79       1.27       1.753      2.058      1.693      1.744      1.648      0.429      0.419      1.009      1.27       0.2628441  0.2628441  0.4279334  206.8566   1.286419   1.748      0.4490481  0.6002478  65.744     0.5002705  0.5853957  0.4151454 
1033.2     0.3        487.68     -9999      -9999      5.751      1.245      1.753      2.033      1.668      1.77       1.624      0.531      0.495      1.032      1.27       0.2554471  0.2554471  0.4185632  150.8895   1.366716   1.772      0.4387815  0.5930308  65.786     0.4942911  0.5711     0.4174822 
1033.4     0.309      486.41     -9999      -9999      5.574      1.219      1.702      1.881      1.668      1.77       1.624      0.505      0.521      1.046      1.27       0.2602201  0.2602201  0.4128596  184.9547   1.798953   1.776      0.4483416  0.5931843  65.744     0.462544   0.5104827  0.4146053 
