~Version
 VERS              .         2.0                           : CWLS LOG ASCII STANDARD - VERSION 2.0
 WRAP              .         NO                            : ONE LINE PER DEPTH STEP
 DLM               .         SPACE                         : DELIMITING CHARACTER(SPACE TAB OR COMMA)
~Well Information
#_______________________________________________________________________________
#
#PARAMETER_NAME    .UNIT     VALUE                         : DESCRIPTION
#_______________________________________________________________________________
STRT               .M        894                           : First reference value
STOP               .M        1248                          : Last reference value
STEP               .M        0.2                           : Step increment
NULL               .         -9999                         : Missing value
COMP               .                                       : Company
WELL               .         7334                          : Well name
FLD                .         Узень                         : Field
LOC                .                                       : Location
CNTY               .                                       : County
STAT               .                                       : State
CTRY               .                                       : Country
SRVC               .                                       : Service Company
DATE               .                                       : Date
UWI                .                                       : Unique Well ID
API                .                                       : 
Block              .         7                             : 
Category           .         Нефтяная                      : 
Condition          .         В работе                      : 
Date               .         03.03.1983                    : 
EREF               .m        87.7                          : 100.8
Gor                .         14                            : 
Gorizont           .         14                            : 14
Interpretator      .         Кайсанов Е.К                  : 
Kupol              .         Основной                      : osnovnoi
Mud                .                                       : 
Mud_density        .                                       : 
Mud_resistivity    .                                       : 
NGDU               .         НГДУ-2                        : 
ORIGINALWELLNAME   .         7334                          : 
Spud_date          .         1983                          : 1961
Viscosity          .                                       : 
X                  .m        42733.9                       : 46154
Y                  .m        84668.93                      : 85761.93
YEAR               .         2019                          : 
Сдали_за_3_кв_2019 .         3                             : 
временно           .         \                             : 
~Parameter Information Block
#_______________________________________________________________________________
#
#PARAMETER_NAME    .UNIT     VALUE                         : DESCRIPTION
#_______________________________________________________________________________
SET                .         LQC_KAZNIPI_Petrel            : 
TLFamily_CALI      .         Caliper                       : 
TLFamily_CILD      .         Conductivity                  : 
TLFamily_COLL      .         Net Reservoir Flag            : 
TLFamily_CSAT      .         Fluid Code                    : 
TLFamily_DEPT      .         Measured Depth                : 
TLFamily_GR        .         Russian Gamma Ray             : 
TLFamily_GZ1       .         Gradient 045                  : 
TLFamily_GZ2       .         Gradient 105                  : 
TLFamily_GZ3       .         Gradient 225                  : 
TLFamily_GZ4       .         Gradient 425                  : 
TLFamily_GZ5       .         Gradient 850                  : 
TLFamily_LLS       .         Lateral Log Resistivity       : 
TLFamily_MINV      .         Micro Gradient Resistivity    : 
TLFamily_MNOR      .         Micro Resistivity             : 
TLFamily_NGLD      .         Neutron Far                   : 
TLFamily_OGZ3      .         Gradient Inverted 225         : 
TLFamily_PHIE      .         Effective Porosity            : 
TLFamily_PHIEN     .         Effective Porosity            : 
TLFamily_PHIT      .         Porosity                      : 
TLFamily_PRMB      .         Permeability                  : 
TLFamily_PRMB_DGR  .         Permeability                  : 
TLFamily_RT        .         Formation Resistivity         : 
TLFamily_SOIL_ARCHIE .         Oil Saturation                : 
TLFamily_SOIL_DW   .         Oil Saturation                : 
TLFamily_SP        .         Spontaneous Potential         : 
TLFamily_VSH_FIN   .         Shale Volume                  : 
TLFamily_VSH_GR    .         Shale Volume                  : 
TLFamily_VSH_SP    .         Shale Volume                  : 
~Curve Information
#_______________________________________________________________________________
#
#LOGNAME           .UNIT     LOG_ID                        : DESCRIPTION
#_______________________________________________________________________________
DEPT               .M                                      : Колонка глубины 
CALI               .м                                      : Каверномер 
CILD               .мСм/м                                  : Индукционный каротаж 
COLL               .unitless                               :  
CSAT               .unitless                               :  
GR                 .uR/h                                   : Гамма каротаж 
GZ1                .OHMM                                   :  
GZ2                .OHMM                                   :  
GZ3                .OHMM                                   :  
GZ4                .OHMM                                   :  
GZ5                .OHMM                                   :  
LLS                .Ohmm                                   : Боковой каротаж 
MINV               .Ohmm                                   : Микро-градиент зонд 
MNOR               .Ohmm                                   : Микро-потенциал зонд 
NGLD               .у.е.                                   : Показания зонда НГК-60 аппаратуры ДРСТ-3-90 
OGZ3               .Ohmm                                   :  
PHIE               .v/v                                    : Описание 
PHIEN              .v/v                                    :  
PHIT               .v/v                                    : Описание 
PRMB               .mD                                     :  
PRMB_DGR           .mD                                     :  
RT                 .ohmm                                   : Удельное электрическое сопротивление 
SOIL_ARCHIE        .v/v                                    :  
SOIL_DW            .v/v                                    :  
SP                 .мВ                                     : Потенциал самополяризации 
VSH_FIN            .v/v                                    : Описание 
VSH_GR             .v/v                                    : Shale volume 
VSH_SP             .v/v                                    : Shale Volume 
~Ascii
# ...
1116.8     0.21       59.69      0          0          5.637      4.850999999999999 12.192     19.817     17.10300000000001 6.816      8.599      1.826      2.045      1.345      10.795     0.2253743  0.2253743  0.291047   41.8444    8.266412   14.472     0.7663798  0.8142534  51.35      0.1990081  0.273869   0.1241471 
1117       0.21       60.96      1          2          5.453      4.75       12.192     21.214     17.10300000000001 6.435      8.985      2.08       2.388      1.358      11.557     0.2283064  0.2283064  0.2857508  47.41838   13.26199   14.17      0.7666978  0.8113     50.842     0.1740739  0.2257956  0.1223521 
1117.2     0.21       62.207     1          2          5.281      4.877      12.319     22.611     17.484     6.435      9.251      2.131      2.108      1.335      12.446     0.2440348  0.2440348  0.295121   92.74178   20.6306    13.892     0.7777933  0.8181277  50.419     0.1548065  0.188519   0.121094  
1117.4     0.21       63.5       1          2          5.218      5.080000000000001 12.7       23.119     18.5       6.435      9.387      1.978      1.88       1.312      13.208     0.2554864  0.2554864  0.3044912  151.1425   24.25503   13.604     0.7843842  0.8229665  50.165     0.1484993  0.1764629  0.1205357 
1117.6     0.21       67.31      1          2          5.091      5.41       13.589     23.119     19.77      6.562      9.183      2.398      2.375      1.324      13.208     0.2542697  0.2542697  0.2996024  143.4992   33.61226   12.834     0.7774842  0.8156539  49.996     0.1373719  0.1544522  0.1202914 
1117.8     0.21       71.12      1          2          5.167      5.715      13.97      20.579     21.167     6.816      8.474      2.067      2.159      1.306      13.335     0.2592227  0.2592227  0.3069356  177.2524   27.65054   12.146     0.7754607  0.8146477  50.334     0.1445844  0.1672702  0.1218986 
1118       0.21       74.93      1          2          5.269      5.74       13.589     18.039     21.54799999999999 6.816      8.155      1.851      1.93       1.302      12.446     0.2572632  0.2572632  0.3085652  163.041    21.27651   11.529     0.7683739  0.8097208  50.885     0.1554605  0.1861608  0.1247602 
1118.2     0.21       77.47      1          2          5.269      5.359      12.827     16.388     20.913     6.816      7.877      1.661      1.93       1.301      11.684     0.2573272  0.2573272  0.3089726  163.4868   21.27651   11.15      0.7647631  0.8066814  51.181     0.1565012  0.1861608  0.1268416 
1118.4     0.21       80.01      1          2          5.231      4.953      12.319     15.372     19.262     6.562      7.322      1.89       2.515      1.33       10.922     0.2468164  0.2468164  0.297158   104.4231   23.45836   10.796     0.7523403  0.7954915  50.969     0.1525503  0.1788858  0.1262147 
1118.6     0.21       82.043     1          2          5.193      4.572000000000001 11.43      15.372     17.865     6.308      6.855      2.588      2.489      1.314      10.922     0.2549874  0.2549874  0.3036764  147.96     25.86395   10.534     0.7564755  0.7983388  50.25      0.1475423  0.1718952  0.1231894 
1118.8     0.21       83.82      1          2          5.205      4.293      10.795     14.61      15.96      6.054      6.561      2.677      2.515      1.315      10.033     0.2545235  0.2545235  0.303269   145.0608   25.07878   10.306     0.7535714  0.795805   49.699     0.1477137  0.1740727  0.1213548 
1119       0.21       85.09      1          2          5.294      4.267      10.033     14.483     14.817     6.054      6.561      2.525      2.667      1.319      10.033     0.2502983  0.2502983  0.3016394  121.1407   19.95296   10.152     0.7481795  0.7921535  49.234     0.155579   0.1911075  0.1200505 
1119.2     0.21       87.63      1          2          5.383      4.394      9.906000000000001 15.245     14.436     6.054      6.657      2.525      2.553      1.34       11.303     0.2387645  0.2387645  0.293084   74.07234   15.87483   9.858      0.7339738  0.7812248  48.937     0.1646045  0.2098092  0.1193997 
1119.4     0.21       87.63      1          2          5.447      4.469999999999999 9.906000000000001 16.388     14.436     6.308      7.058      2.512      2.565      1.337      12.192     0.2377473  0.2377473  0.2943062  70.92766   13.468     9.858      0.7329828  0.7813572  48.514     0.1713905  0.2243789  0.118402  
1119.6     0.21       87.63      1          2          5.586      4.521      9.906000000000001 16.388     15.325     6.943      7.594      2.918      2.731      1.328      12.192     0.2355742  0.2355742  0.2979728  64.64925   9.423642   9.858      0.7308387  0.7820792  48.472     0.1890868  0.2596021  0.1185714 
1119.8     0.21       86.36      1          2          5.434      4.699000000000001 10.668     17.785     15.96      7.705000000000001 8.17       2.613      2.883      1.343      12.954     0.235684   0.235684   0.2918618  64.95277   13.92539   10.002     0.7327726  0.7810842  48.556     0.1702357  0.2213398  0.1191316 
1120       0.21       85.09      1          2          5.383      4.953      11.938     19.182     16.849     8.467000000000001 8.725      2.194      2.4        1.342      12.065     0.2376789  0.2376789  0.2922692  70.72097   15.87483   10.152     0.7365738  0.7836531  49.022     0.1654251  0.2098092  0.1210409 
1120.2     0.21       83.82      1          2          5.294      5.512      13.208     18.801     17.865     9.609999999999998 9.183      2.042      2.146      1.356      10.668     0.2345596  0.2345596  0.2865656  61.91139   19.95296   10.306     0.7354012  0.7816017  49.657     0.1575941  0.1911075  0.1240806 
1120.4     0.21       83.82      1          2          5.256      6.045      14.351     16.896     18.754     10.753     9.456      2.778      2.718      1.37       9.651999999999999 0.2291311  0.2291311  0.280862   49.11589   21.99908   10.306     0.7299497  0.7768548  50.588     0.1567603  0.1836393  0.1298813 
1120.6     0.209      82.55      1          2          5.243      6.400999999999999 14.605     16.896     18.119     11.642     8.854      3.413      2.883      1.345      9.651999999999999 0.2385575  0.2385575  0.291047   73.42116   22.74621   10.465     0.741134   0.7867289  51.393     0.1590592  0.1811519  0.1369664 
1120.8     0.209      83.82      1          2          5.269      5.74       13.462     15.753     16.976     12.277     7.65       2.944      2.464      1.333      8.636000000000001 0.2416198  0.2416198  0.2959358  83.66482   21.27651   10.306     0.742148   0.7882917  51.901     0.164594   0.1861608  0.1430273 
1121       0.209      87.63      1          2          5.18       5.309      12.827     14.356     15.96      12.404     6.707      2.461      2.476      1.348      7.620000000000001 0.2372266  0.2372266  0.2898248  69.36974   26.74234   9.858      0.7324724  0.7792051  52.324     0.1593885  0.1695669  0.14921   
1121.2     0.209      92.71      1          2          5.243      4.978000000000001 12.319     14.102     14.944     12.15      6.372      2.537      2.616      1.345      6.604      0.2351429  0.2351429  0.291047   63.47096   22.74621   9.317      0.7231728  0.772592   52.832     0.1694063  0.1811519  0.1576608 
1121.4     0.209      99.06      1          2          5.459      4.75       11.557     15.499     14.055     11.896     6.466      2.893      2.705      1.328      5.715      0.2323213  0.2323213  0.2979728  56.27455   13.05914   8.72       0.711417   0.7669395  53.509     0.198944   0.2272213  0.1706667 
1121.6     0.209      102.235    1          2          5.355      4.597      10.668     15.499     13.039     11.642     6.325      2.982      3.048      1.324      5.715      0.2359802  0.2359802  0.2996024  65.77853   17.05882   8.45       0.711085   0.7655357  53.975     0.1927945  0.2037363  0.1818528 
1121.8     0.209      104.14     1          2          5.256      4.496      10.287     16.896     12.277     11.642     6.234      2.944      2.527      1.318      5.080000000000001 0.2396339  0.2396339  0.3020468  76.87029   21.99908   8.295      0.712438   0.765983   54.441     0.1891302  0.1836393  0.1946211 
