~Version
 VERS              .         2.0                           : CWLS LOG ASCII STANDARD - VERSION 2.0
 WRAP              .         NO                            : ONE LINE PER DEPTH STEP
 DLM               .         SPACE                         : DELIMITING CHARACTER(SPACE TAB OR COMMA)
~Well Information
#_______________________________________________________________________________
#
#PARAMETER_NAME    .UNIT     VALUE                         : DESCRIPTION
#_______________________________________________________________________________
STRT               .M        894                           : First reference value
STOP               .M        1248                          : Last reference value
STEP               .M        0.2                           : Step increment
NULL               .         -9999                         : Missing value
COMP               .                                       : Company
WELL               .         7334                          : Well name
FLD                .         Узень                         : Field
LOC                .                                       : Location
CNTY               .                                       : County
STAT               .                                       : State
CTRY               .                                       : Country
SRVC               .                                       : Service Company
DATE               .                                       : Date
UWI                .                                       : Unique Well ID
API                .                                       : 
Block              .         7                             : 
Category           .         Нефтяная                      : 
Condition          .         В работе                      : 
Date               .         03.03.1983                    : 
EREF               .m        87.7                          : 100.8
Gor                .         14                            : 
Gorizont           .         14                            : 14
Interpretator      .         Кайсанов Е.К                  : 
Kupol              .         Основной                      : osnovnoi
Mud                .                                       : 
Mud_density        .                                       : 
Mud_resistivity    .                                       : 
NGDU               .         НГДУ-2                        : 
ORIGINALWELLNAME   .         7334                          : 
Spud_date          .         1983                          : 1961
Viscosity          .                                       : 
X                  .m        42733.9                       : 46154
Y                  .m        84668.93                      : 85761.93
YEAR               .         2019                          : 
Сдали_за_3_кв_2019 .         3                             : 
временно           .         \                             : 
~Parameter Information Block
#_______________________________________________________________________________
#
#PARAMETER_NAME    .UNIT     VALUE                         : DESCRIPTION
#_______________________________________________________________________________
SET                .         LQC_KAZNIPI_Petrel            : 
TLFamily_CALI      .         Caliper                       : 
TLFamily_CILD      .         Conductivity                  : 
TLFamily_COLL      .         Net Reservoir Flag            : 
TLFamily_CSAT      .         Fluid Code                    : 
TLFamily_DEPT      .         Measured Depth                : 
TLFamily_GR        .         Russian Gamma Ray             : 
TLFamily_GZ1       .         Gradient 045                  : 
TLFamily_GZ2       .         Gradient 105                  : 
TLFamily_GZ3       .         Gradient 225                  : 
TLFamily_GZ4       .         Gradient 425                  : 
TLFamily_GZ5       .         Gradient 850                  : 
TLFamily_LLS       .         Lateral Log Resistivity       : 
TLFamily_MINV      .         Micro Gradient Resistivity    : 
TLFamily_MNOR      .         Micro Resistivity             : 
TLFamily_NGLD      .         Neutron Far                   : 
TLFamily_OGZ3      .         Gradient Inverted 225         : 
TLFamily_PHIE      .         Effective Porosity            : 
TLFamily_PHIEN     .         Effective Porosity            : 
TLFamily_PHIT      .         Porosity                      : 
TLFamily_PRMB      .         Permeability                  : 
TLFamily_PRMB_DGR  .         Permeability                  : 
TLFamily_RT        .         Formation Resistivity         : 
TLFamily_SOIL_ARCHIE .         Oil Saturation                : 
TLFamily_SOIL_DW   .         Oil Saturation                : 
TLFamily_SP        .         Spontaneous Potential         : 
TLFamily_VSH_FIN   .         Shale Volume                  : 
TLFamily_VSH_GR    .         Shale Volume                  : 
TLFamily_VSH_SP    .         Shale Volume                  : 
~Curve Information
#_______________________________________________________________________________
#
#LOGNAME           .UNIT     LOG_ID                        : DESCRIPTION
#_______________________________________________________________________________
DEPT               .M                                      : Колонка глубины 
CALI               .м                                      : Каверномер 
CILD               .мСм/м                                  : Индукционный каротаж 
COLL               .unitless                               :  
CSAT               .unitless                               :  
GR                 .uR/h                                   : Гамма каротаж 
GZ1                .OHMM                                   :  
GZ2                .OHMM                                   :  
GZ3                .OHMM                                   :  
GZ4                .OHMM                                   :  
GZ5                .OHMM                                   :  
LLS                .Ohmm                                   : Боковой каротаж 
MINV               .Ohmm                                   : Микро-градиент зонд 
MNOR               .Ohmm                                   : Микро-потенциал зонд 
NGLD               .у.е.                                   : Показания зонда НГК-60 аппаратуры ДРСТ-3-90 
OGZ3               .Ohmm                                   :  
PHIE               .v/v                                    : Описание 
PHIEN              .v/v                                    :  
PHIT               .v/v                                    : Описание 
PRMB               .mD                                     :  
PRMB_DGR           .mD                                     :  
RT                 .ohmm                                   : Удельное электрическое сопротивление 
SOIL_ARCHIE        .v/v                                    :  
SOIL_DW            .v/v                                    :  
SP                 .мВ                                     : Потенциал самополяризации 
VSH_FIN            .v/v                                    : Описание 
VSH_GR             .v/v                                    : Shale volume 
VSH_SP             .v/v                                    : Shale Volume 
~Ascii
894.0      0.25       238.76     -9999      -9999      6.475      2.591      5.486      5.208000000000001 3.548      2.786      3.398      1.305      1.016      1.177      4.115000000000001 0.1413389  0.1413389  0.3614902  1.161707   0.9904339  3.618      0.3277555  0.6090968  65.257     0.6671252  0.6513564  0.6828941 
894.2      0.257      240.03     -9999      -9999      6.425      2.21       4.877      4.700000000000001 3.548      2.963      3.423      0.988      1.016      1.197      4.140000000000001 0.1369765  0.1369765  0.3533422  0.9644859  1.081347   3.599      0.3074379  0.5977898  65.257     0.6556535  0.6284129  0.6828941 
894.4      0.262      242.57     -9999      -9999      6.399      2.311      4.089      4.268      3.268      3.09       3.551      1.458      1.118      1.241      5.309      0.1212993  0.1212993  0.3354166  0.4942143  1.131873   3.562      0.2263572  0.5634124  65.236     0.6488402  0.6168034  0.6808771 
894.6      0.245      245.11     -9999      -9999      6.272      2.21       3.835      4.268      3.116      3.167      3.764      1.953      1.448      1.274      5.309      0.1163825  0.1163825  0.3219724  0.4007232  1.414727   3.524      0.1939205  0.5426606  65.257     0.6229996  0.5631052  0.6828941 
894.8      0.245      245.11     -9999      -9999      6.259      2.235      3.835      3.887      2.989      3.217      4.02       2.355      1.425      1.298      6.198      0.1081477  0.1081477  0.3121948  0.2820438  1.447401   3.524      0.1407187  0.5212442  65.214     0.6183245  0.5578794  0.6787695 
895        0.245      242.57     -9999      -9999      6.31       2.464      3.962      3.989      3.065      3.243      4.293      2.842      1.397      1.321      6.756000000000001 0.0983143  0.0983143  0.3028246  0.1854289  1.323385   3.562      0.07101735 0.4979566  65.024     0.6197282  0.5786628  0.6607937 
895.2      0.25       227.965    -9999      -9999      6.044      2.388      3.835      4.522      3.116      3.243      4.552      1.28       1.283      1.381      7.315      0.09682246 0.09682246 0.2783806  0.1739982  2.11149    3.793      0.08591715 0.4832047  64.601     0.5501761  0.4781604  0.622192  
895.4      0.253      201.93     -9999      -9999      5.701      2.261      3.403999999999999 5.081      3.04       3.268      5.006      1.699      1.257      1.443      8.547000000000001 0.09716704 0.09716704 0.2531218  0.1765743  3.856798   4.278      0.1387702  0.4832001  64.008     0.4725902  0.3738851  0.5712953 
895.6      0.236      180.34     -9999      -9999      5.383      2.286      3.174999999999999 5.081      2.913      3.243      5.545      1.458      1.46       1.511      8.547000000000001 0.09037373 0.09037373 0.2254186  0.1321596  6.7421     4.79       0.1300476  0.4601194  63.373     0.4092268  0.2976387  0.520815  
895.8      0.228      161.29     6          6          5.091      2.311      3.174999999999999 5.995      2.811      3.268      6.143      2.321      1.676      1.657      9.779      0.05104307 0.05104307 0.1659382  0.02469446 11.2598    5.356      0          0.239059   62.484     0.3481671  0.241401   0.4549332 
896        0.217      140.97     6          6          5.154      2.489      3.250999999999999 6.757000000000001 2.76       3.37       7.058      2.321      1.715      1.828      11.43      0.01       0          0.09627282 0.004289259 10.08033   6.128      0          0          61.51      0.3222028  0.2525584  0.3918472 
896.2      0.22       120.65     6          6          4.507      2.565      3.327      7.240000000000001 2.76       3.573      8.11       2.515      1.815      1.843      12.573     0.01000617 0.01000617 0.09016178 0.004290388 31.40522   7.159      0          0          60.325     0.2428958  0.1587956  0.326996  
896.4      0.22       104.14     6          6          4.113      2.921      3.632      7.595999999999999 3.04       3.979      9.387      2.715      1.918      1.846      13.589     0.02056818 0.02056818 0.08893961 0.00673179 62.73964   8.295      0          0          59.648     0.2071862  0.1197065  0.2946659 
896.6      0.22       87.63      6          6          4.138      3.250999999999999 4.166      7.595999999999999 3.421      4.792      11.026     3.845      2.337      1.847      13.589     0.02454186 0.02454186 0.0885322  0.007975041 60.04436   9.858      0          0          58.97      0.1939101  0.1218722  0.265948  
896.8      0.221      83.82      6          6          3.732      3.226      4.496      7.951      3.802      5.91       13.432     3.413      2.515      1.85       15.24      0.03256715 0.03256715 0.08730999 0.01123002 122.5084   10.306     0          0.02472758 58.293     0.1658874  0.09108489 0.2406899 
897        0.218      87.63      6          6          3.097      2.845      4.444999999999999 10.201     4.36       6.85       14.45      3.287      2.127      1.852      17.907     0.04149595 0.04149595 0.0864952  0.01643478 373.7142   9.858      0          0.08261977 57.489     0.1363614  0.05776443 0.2149583 
897.2      0.214      88.9       6          6          2.856      3.302      4.953      12.451     4.995      7.788999999999999 11.69      3.883      3.099      1.855      20.193     0.04451636 0.04451636 0.08527299 0.01869429 570.6536   9.717      0          0.09269743 56.896     0.123505   0.04859542 0.1984145 
897.4      0.215      96.52      6          6          2.907      3.861      6.045      12.197     5.934999999999999 10.262     9.666      2.537      2.426      1.856      18.415     0.0449338  0.0449338  0.08486562 0.01903009 521.7592   8.95       0          0.05528217 56.642     0.1210055  0.0504058  0.1916053 
897.6      0.217      100.33     6          6          2.665      4.850999999999999 7.366      12.197     7.510000000000001 13.166     8.23       4.023      3.086      1.859      18.415     0.0457805  0.0457805  0.08364341 0.01972986 798.1159   8.61       0          0.03532312 56.473     0.1147361  0.04237443 0.1870978 
897.8      0.216      104.14     6          6          2.551      6.552999999999999 8.077000000000002 12.705     9.563000000000001 14.309     7.215      4.01       3.975      1.861      14.859     0.0457743  0.0457743  0.08282863 0.01972464 975.0441   8.295      0          0.01126353 56.43      0.1122858  0.03904774 0.1855239 
898        0.213      109.22     6          6          2.589      7.468000000000001 14.859     14.229     11.769     15.071     6.756      3.896      3.962      1.862      12.573     0.04544081 0.04544081 0.08242121 0.01944608 912.0911   7.909      0          0          56.388     0.1120618  0.04012655 0.1839971 
898.2      0.213      113.03     6          6          2.589      8.611000000000001 18.669     15.499     12.023     15.198     6.418      3.782      3.531      1.865      10.795     0.04431796 0.04431796 0.081199   0.01853678 912.0911   7.642      0          0          56.388     0.1117607  0.04012655 0.1833948 
898.4      0.212      114.3      6          6          2.36       8.890000000000001 20.066     16.388     11.134     13.801     6.098      3.439      3.099      1.855      9.271000000000001 0.04949348 0.04949348 0.08527299 0.02311519 1363.697   7.558      0          0.01317201 56.388     0.1084228  0.034049   0.1827965 
898.6      0.213      120.65     6          6          2.335      8.255000000000001 19.812     16.388     9.990999999999998 11.769     6.054      3.833      3.429      1.832      9.271000000000001 0.05920817 0.05920817 0.09464319 0.03498138 1424.911   7.159      0          0.1134251  56.346     0.1073789  0.03344395 0.1813138 
898.8      0.213      130.81     6          6          2.411      7.873999999999999 19.431     16.007     8.593999999999999 10.245     6.418      3.49       3.391      1.808      8.509000000000002 0.06892077 0.06892077 0.1044208  0.05293439 1246.853   6.604      0.05256193 0.1813233  56.303     0.1075759  0.03531747 0.1798343 
899        0.213      135.89     6          6          2.335      7.112      19.558     15.245     7.578      8.593999999999999 6.234      3.045      3.048      1.799      8.127999999999998 0.07313314 0.07313314 0.1080874  0.06335213 1424.911   6.357      0.08403242 0.2019981  56.261     0.105922   0.03344395 0.1784    
