~Version
 VERS              .         2.0                           : CWLS LOG ASCII STANDARD - VERSION 2.0
 WRAP              .         NO                            : ONE LINE PER DEPTH STEP
 DLM               .         SPACE                         : DELIMITING CHARACTER(SPACE TAB OR COMMA)
~Well Information
#_______________________________________________________________________________
#
#PARAMETER_NAME    .UNIT     VALUE                         : DESCRIPTION
#_______________________________________________________________________________
STRT               .M        894                           : First reference value
STOP               .M        1248                          : Last reference value
STEP               .M        0.2                           : Step increment
NULL               .         -9999                         : Missing value
COMP               .                                       : Company
WELL               .         7334                          : Well name
FLD                .         Узень                         : Field
LOC                .                                       : Location
CNTY               .                                       : County
STAT               .                                       : State
CTRY               .                                       : Country
SRVC               .                                       : Service Company
DATE               .                                       : Date
UWI                .                                       : Unique Well ID
API                .                                       : 
Block              .         7                             : 
Category           .         Нефтяная                      : 
Condition          .         В работе                      : 
Date               .         03.03.1983                    : 
EREF               .m        87.7                          : 100.8
Gor                .         14                            : 
Gorizont           .         14                            : 14
Interpretator      .         Кайсанов Е.К                  : 
Kupol              .         Основной                      : osnovnoi
Mud                .                                       : 
Mud_density        .                                       : 
Mud_resistivity    .                                       : 
NGDU               .         НГДУ-2                        : 
ORIGINALWELLNAME   .         7334                          : 
Spud_date          .         1983                          : 1961
Viscosity          .                                       : 
X                  .m        42733.9                       : 46154
Y                  .m        84668.93                      : 85761.93
YEAR               .         2019                          : 
Сдали_за_3_кв_2019 .         3                             : 
временно           .         \                             : 
~Parameter Information Block
#_______________________________________________________________________________
#
#PARAMETER_NAME    .UNIT     VALUE                         : DESCRIPTION
#_______________________________________________________________________________
SET                .         LQC_KAZNIPI_Petrel            : 
TLFamily_CALI      .         Caliper                       : 
TLFamily_CILD      .         Conductivity                  : 
TLFamily_COLL      .         Net Reservoir Flag            : 
TLFamily_CSAT      .         Fluid Code                    : 
TLFamily_DEPT      .         Measured Depth                : 
TLFamily_GR        .         Russian Gamma Ray             : 
TLFamily_GZ1       .         Gradient 045                  : 
TLFamily_GZ2       .         Gradient 105                  : 
TLFamily_GZ3       .         Gradient 225                  : 
TLFamily_GZ4       .         Gradient 425                  : 
TLFamily_GZ5       .         Gradient 850                  : 
TLFamily_LLS       .         Lateral Log Resistivity       : 
TLFamily_MINV      .         Micro Gradient Resistivity    : 
TLFamily_MNOR      .         Micro Resistivity             : 
TLFamily_NGLD      .         Neutron Far                   : 
TLFamily_OGZ3      .         Gradient Inverted 225         : 
TLFamily_PHIE      .         Effective Porosity            : 
TLFamily_PHIEN     .         Effective Porosity            : 
TLFamily_PHIT      .         Porosity                      : 
TLFamily_PRMB      .         Permeability                  : 
TLFamily_PRMB_DGR  .         Permeability                  : 
TLFamily_RT        .         Formation Resistivity         : 
TLFamily_SOIL_ARCHIE .         Oil Saturation                : 
TLFamily_SOIL_DW   .         Oil Saturation                : 
TLFamily_SP        .         Spontaneous Potential         : 
TLFamily_VSH_FIN   .         Shale Volume                  : 
TLFamily_VSH_GR    .         Shale Volume                  : 
TLFamily_VSH_SP    .         Shale Volume                  : 
~Curve Information
#_______________________________________________________________________________
#
#LOGNAME           .UNIT     LOG_ID                        : DESCRIPTION
#_______________________________________________________________________________
DEPT               .M                                      : Колонка глубины 
CALI               .м                                      : Каверномер 
CILD               .мСм/м                                  : Индукционный каротаж 
COLL               .unitless                               :  
CSAT               .unitless                               :  
GR                 .uR/h                                   : Гамма каротаж 
GZ1                .OHMM                                   :  
GZ2                .OHMM                                   :  
GZ3                .OHMM                                   :  
GZ4                .OHMM                                   :  
GZ5                .OHMM                                   :  
LLS                .Ohmm                                   : Боковой каротаж 
MINV               .Ohmm                                   : Микро-градиент зонд 
MNOR               .Ohmm                                   : Микро-потенциал зонд 
NGLD               .у.е.                                   : Показания зонда НГК-60 аппаратуры ДРСТ-3-90 
OGZ3               .Ohmm                                   :  
PHIE               .v/v                                    : Описание 
PHIEN              .v/v                                    :  
PHIT               .v/v                                    : Описание 
PRMB               .mD                                     :  
PRMB_DGR           .mD                                     :  
RT                 .ohmm                                   : Удельное электрическое сопротивление 
SOIL_ARCHIE        .v/v                                    :  
SOIL_DW            .v/v                                    :  
SP                 .мВ                                     : Потенциал самополяризации 
VSH_FIN            .v/v                                    : Описание 
VSH_GR             .v/v                                    : Shale volume 
VSH_SP             .v/v                                    : Shale Volume 
~Ascii
# ...
960.8      0.231      288.29     -9999      -9999      3.707      3.200000000000001 4.293      3.786      2.659      2.659      2.67       2.131      0.927      1.234      2.565      0.1755012  0.1755012  0.3362684  4.987297   5.44854    2.997      0.3918385  0.5856717  72.221     0.4871735  0.3246882  0.6496589 
961        0.221      284.48     -9999      -9999      3.961      2.946      4.115000000000001 3.938      2.608      2.633      2.631      1.75       0.952      1.213      2.362      0.1700542  0.1700542  0.3448238  3.953425   3.077488   3.036      0.378688   0.5896881  72.221     0.5296049  0.4099844  0.6492255 
961.2      0.229      293.37     -9999      -9999      3.872      2.667      3.962      3.912999999999999 2.557      2.582      2.709      1.877      1.448      1.23       2.337      0.1678686  0.1678686  0.337898   3.601574   3.759441   2.945      0.3626111  0.5760552  72.263     0.5152405  0.3778088  0.6526721 
961.4      0.229      303.53     -9999      -9999      3.719      2.235      3.378      3.608      2.532      2.532      2.872      3.071      1.321      1.249      2.489      0.1683712  0.1683712  0.3301574  3.679612   5.303462   2.846      0.3539853  0.5630569  72.263     0.4902611  0.328286   0.6522363 
961.6      0.24       309.88     -9999      -9999      3.707      2.413      3.429      3.608      2.481      2.506      2.936      2.042      1.08       1.253      2.489      0.167407   0.167407   0.3285278  3.53136    5.44854    2.788      0.3444422  0.5562093  72.263     0.4882448  0.3246882  0.6518014 
961.8      0.249      295.91     -9999      -9999      3.808      2.388      3.607      3.303      2.481      2.481      2.83       1.826      1.029      1.259      2.616      0.1591854  0.1591854  0.3260834  2.486894   4.341427   2.919      0.3296503  0.5557718  72.305     0.5057517  0.356244   0.6552594 
962        0.251      279.4      -9999      -9999      3.796      2.54       3.48       3.227      2.455      2.455      2.81       1.851      1.029      1.281      2.667      0.1502784  0.1502784  0.3171206  1.700899   4.460188   3.092      0.313964   0.5511287  72.348     0.5055825  0.3523397  0.6588252 
962.2      0.216      261.62     -9999      -9999      3.872      2.337      3.174999999999999 3.455000000000001 2.506      2.455      2.936      1.585      1.08       1.326      2.667      0.1271673  0.1271673  0.2987876  0.6347537  3.759441   3.302      0.2306612  0.5200573  72.39      0.5200615  0.3778088  0.6623141 
962.4      0.216      262.89     -9999      -9999      3.91       2.083      2.921      3.786      2.532      2.557      3.229      1.432      1.651      1.373      2.921      0.1058785  0.1058785  0.2796398  0.2560265  3.451503   3.286      0.09550276 0.4636061  72.39      0.5265493  0.3912257  0.661873  
962.6      0.218      273.05     -9999      -9999      3.783      2.032      2.87       3.786      2.608      2.633      3.423      3.007      1.6        1.411      2.921      0.09757604 0.09757604 0.2641586  0.1796814  4.592511   3.163      0.0112872  0.4161138  72.39      0.5047956  0.3481584  0.6614328 
962.8      0.224      284.48     -9999      -9999      3.694      2.159      3.174999999999999 3.862000000000001 2.659      2.735      3.398      2.969      1.88       1.378      3.200000000000001 0.1156012  0.1156012  0.2776028  0.3875901  5.610188   3.036      0.1304329  0.45693    72.39      0.4909139  0.320835   0.6609928 
963        0.227      281.94     -9999      -9999      3.872      2.311      3.250999999999999 3.608      2.76       2.811      3.135      3.033      1.372      1.344      3.174999999999999 0.1201248  0.1201248  0.2914544  0.4700683  3.759441   3.064      0.1626384  0.4831584  72.39      0.5191806  0.3778088  0.6605524 
963.2      0.23       273.05     -9999      -9999      3.859      2.794      3.454      3.430000000000001 2.76       2.836      3.023      2.613      1.168      1.305      2.997      0.1368257  0.1368257  0.307343   0.9583015  3.870976   3.163      0.2634657  0.5311757  72.39      0.5167191  0.3733253  0.6601129 
963.4      0.236      278.13     -9999      -9999      3.859      3.174999999999999 3.708      3.379      2.709      2.735      2.851      2.156      1.041      1.291      2.769      0.1426018  0.1426018  0.3130466  1.225995   3.870976   3.105      0.2833207  0.5394189  72.39      0.5164995  0.3733253  0.6596738 
963.6      0.236      280.67     -9999      -9999      4.037      3.277      3.708      3.379      2.633      2.633      2.769      1.89       1.359      1.29       2.769      0.132143   0.132143   0.313454   0.7848157  2.593979   3.078      0.2310176  0.5244888  72.39      0.5494272  0.4396204  0.659234  
963.8      0.227      281.94     -9999      -9999      4.202      2.972      3.632      3.481      2.557      2.582      2.893      1.839      1.448      1.3        2.642      0.1156256  0.1156256  0.30938    0.387993   1.789821   3.064      0.1343299  0.4955747  72.432     0.5871347  0.5115446  0.6627247 
964        0.214      275.59     -9999      -9999      4.1        2.616      3.632      3.532      2.532      2.557      3.045      2.372      1.092      1.31       2.718      0.1185674  0.1185674  0.305306   0.4398597  2.251303   3.135      0.1621227  0.5015695  72.475     0.5658746  0.4658044  0.6659448 
964.2      0.214      267.97     -9999      -9999      4.138      2.438      3.657999999999999 3.379      2.532      2.532      3.023      2.118      1.295      1.304      2.87       0.1177645  0.1177645  0.3077504  0.4250526  2.066898   3.224      0.1681492  0.5098044  72.517     0.5757148  0.4823462  0.6690834 
964.4      0.227      271.78     -9999      -9999      4.253      2.515      3.682999999999999 3.227      2.532      2.506      3.001      2.499      1.245      1.297      2.997      0.1118876  0.1118876  0.3106022  0.3308167  1.595871   3.178      0.1243355  0.5001726  72.517     0.6021655  0.5360723  0.6682587 
964.6      0.227      275.59     -9999      -9999      4.278      2.616      3.556      3.227      2.532      2.506      3.067      2.207      1.346      1.293      2.997      0.1122513  0.1122513  0.3122318  0.3359878  1.508621   3.135      0.121207   0.4990319  72.475     0.6060017  0.5485218  0.6634815 
964.8      0.221      270.51     -9999      -9999      4.113      2.616      3.378      3.354      2.532      2.481      3.112      2.452      1.518      1.314      2.972      0.1172201  0.1172201  0.3036764  0.4152976  2.186436   3.194      0.1611134  0.5024572  72.432     0.565019   0.4713986  0.6586394 
965        0.224      269.24     -9999      -9999      4.062      2.515      3.250999999999999 3.582      2.532      2.481      3.023      2.677      1.676      1.311      3.023      0.1227799  0.1227799  0.3048986  0.5264278  2.452161   3.208      0.195948   0.51305    72.39      0.551875   0.4498298  0.6539201 
965.2      0.223      276.86     -9999      -9999      3.999      2.743      3.429      3.735      2.557      2.481      2.979      2.829      1.156      1.284      2.921      0.1380855  0.1380855  0.3158984  1.011197   2.825409   3.12       0.2646129  0.5375974  72.39      0.5388271  0.4245439  0.6531103 
965.4      0.216      284.48     -9999      -9999      4.062      2.692      3.607      3.912999999999999 2.557      2.506      2.957      2.143      1.359      1.306      2.667      0.125084   0.125084   0.3069356  0.5807866  2.452161   3.036      0.1881379  0.504927   72.39      0.5510656  0.4498298  0.6523013 
965.6      0.216      285.75     -9999      -9999      4.088      2.667      3.505      3.912999999999999 2.557      2.506      2.957      2.575      1.397      1.3        2.667      0.1258681  0.1258681  0.30938    0.6005393  2.312888   3.023      0.1909174  0.5074811  72.39      0.5560966  0.4606994  0.6514938 
965.8      0.217      273.05     -9999      -9999      4.24       2.819      3.708      3.709      2.557      2.506      2.893      2.385      1.27       1.279      2.464      0.1231699  0.1231699  0.3179354  0.5352576  1.643218   3.163      0.1928328  0.523071   72.39      0.5901985  0.5297105  0.6506864 
