~Version
 VERS              .         2.0                           : CWLS LOG ASCII STANDARD - VERSION 2.0
 WRAP              .         NO                            : ONE LINE PER DEPTH STEP
 DLM               .         SPACE                         : DELIMITING CHARACTER(SPACE TAB OR COMMA)
~Well Information
#_______________________________________________________________________________
#
#PARAMETER_NAME    .UNIT     VALUE                         : DESCRIPTION
#_______________________________________________________________________________
STRT               .M        894                           : First reference value
STOP               .M        1248                          : Last reference value
STEP               .M        0.2                           : Step increment
NULL               .         -9999                         : Missing value
COMP               .                                       : Company
WELL               .         7334                          : Well name
FLD                .         Узень                         : Field
LOC                .                                       : Location
CNTY               .                                       : County
STAT               .                                       : State
CTRY               .                                       : Country
SRVC               .                                       : Service Company
DATE               .                                       : Date
UWI                .                                       : Unique Well ID
API                .                                       : 
Block              .         7                             : 
Category           .         Нефтяная                      : 
Condition          .         В работе                      : 
Date               .         03.03.1983                    : 
EREF               .m        87.7                          : 100.8
Gor                .         14                            : 
Gorizont           .         14                            : 14
Interpretator      .         Кайсанов Е.К                  : 
Kupol              .         Основной                      : osnovnoi
Mud                .                                       : 
Mud_density        .                                       : 
Mud_resistivity    .                                       : 
NGDU               .         НГДУ-2                        : 
ORIGINALWELLNAME   .         7334                          : 
Spud_date          .         1983                          : 1961
Viscosity          .                                       : 
X                  .m        42733.9                       : 46154
Y                  .m        84668.93                      : 85761.93
YEAR               .         2019                          : 
Сдали_за_3_кв_2019 .         3                             : 
временно           .         \                             : 
~Parameter Information Block
#_______________________________________________________________________________
#
#PARAMETER_NAME    .UNIT     VALUE                         : DESCRIPTION
#_______________________________________________________________________________
SET                .         LQC_KAZNIPI_Petrel            : 
TLFamily_CALI      .         Caliper                       : 
TLFamily_CILD      .         Conductivity                  : 
TLFamily_COLL      .         Net Reservoir Flag            : 
TLFamily_CSAT      .         Fluid Code                    : 
TLFamily_DEPT      .         Measured Depth                : 
TLFamily_GR        .         Russian Gamma Ray             : 
TLFamily_GZ1       .         Gradient 045                  : 
TLFamily_GZ2       .         Gradient 105                  : 
TLFamily_GZ3       .         Gradient 225                  : 
TLFamily_GZ4       .         Gradient 425                  : 
TLFamily_GZ5       .         Gradient 850                  : 
TLFamily_LLS       .         Lateral Log Resistivity       : 
TLFamily_MINV      .         Micro Gradient Resistivity    : 
TLFamily_MNOR      .         Micro Resistivity             : 
TLFamily_NGLD      .         Neutron Far                   : 
TLFamily_OGZ3      .         Gradient Inverted 225         : 
TLFamily_PHIE      .         Effective Porosity            : 
TLFamily_PHIEN     .         Effective Porosity            : 
TLFamily_PHIT      .         Porosity                      : 
TLFamily_PRMB      .         Permeability                  : 
TLFamily_PRMB_DGR  .         Permeability                  : 
TLFamily_RT        .         Formation Resistivity         : 
TLFamily_SOIL_ARCHIE .         Oil Saturation                : 
TLFamily_SOIL_DW   .         Oil Saturation                : 
TLFamily_SP        .         Spontaneous Potential         : 
TLFamily_VSH_FIN   .         Shale Volume                  : 
TLFamily_VSH_GR    .         Shale Volume                  : 
TLFamily_VSH_SP    .         Shale Volume                  : 
~Curve Information
#_______________________________________________________________________________
#
#LOGNAME           .UNIT     LOG_ID                        : DESCRIPTION
#_______________________________________________________________________________
DEPT               .M                                      : Колонка глубины 
CALI               .м                                      : Каверномер 
CILD               .мСм/м                                  : Индукционный каротаж 
COLL               .unitless                               :  
CSAT               .unitless                               :  
GR                 .uR/h                                   : Гамма каротаж 
GZ1                .OHMM                                   :  
GZ2                .OHMM                                   :  
GZ3                .OHMM                                   :  
GZ4                .OHMM                                   :  
GZ5                .OHMM                                   :  
LLS                .Ohmm                                   : Боковой каротаж 
MINV               .Ohmm                                   : Микро-градиент зонд 
MNOR               .Ohmm                                   : Микро-потенциал зонд 
NGLD               .у.е.                                   : Показания зонда НГК-60 аппаратуры ДРСТ-3-90 
OGZ3               .Ohmm                                   :  
PHIE               .v/v                                    : Описание 
PHIEN              .v/v                                    :  
PHIT               .v/v                                    : Описание 
PRMB               .mD                                     :  
PRMB_DGR           .mD                                     :  
RT                 .ohmm                                   : Удельное электрическое сопротивление 
SOIL_ARCHIE        .v/v                                    :  
SOIL_DW            .v/v                                    :  
SP                 .мВ                                     : Потенциал самополяризации 
VSH_FIN            .v/v                                    : Описание 
VSH_GR             .v/v                                    : Shale volume 
VSH_SP             .v/v                                    : Shale Volume 
~Ascii
# ...
1230.4     -9999      504.825    1          3          -9999      1.626      1.88       1.931      0.931      1.465      2.433      1.521      1.499      -9999      1.016      -9999      -9999      -9999      -9999      -9999      1.412      -9999      -9999      34.993     -4999.44   -9999      0.1193926 
1230.6     -9999      504.19     1          3          -9999      1.88       1.981      1.931      0.906      1.541      2.392      1.521      1.676      -9999      1.016      -9999      -9999      -9999      -9999      -9999      1.414      -9999      -9999      36.322     -4999.438  -9999      0.1246198 
1230.8     -9999      488.95     1          3          -9999      2.21       2.184      1.728      1.008      1.643      2.24       1.458      1.537      -9999      1.27       -9999      -9999      -9999      -9999      -9999      1.468      -9999      -9999      37.38      -4999.435  -9999      0.1308516 
1231       -9999      484.505    1          3          -9999      2.54       2.362      1.728      1.135      1.744      2.148      1.369      1.435      -9999      1.499      -9999      -9999      -9999      -9999      -9999      1.484      -9999      -9999      38.142     -4999.432  -9999      0.1369616 
1231.2     -9999      501.65     1          3          -9999      2.692      2.565      2.236      1.312      1.846      2.082      1.496      1.283      -9999      1.651      -9999      -9999      -9999      -9999      -9999      1.423      -9999      -9999      38.989     -4999.427  -9999      0.1457503 
1231.4     -9999      495.3      1          3          -9999      2.515      2.438      2.312      1.439      1.795      1.935      1.432      1.27       -9999      1.499      -9999      -9999      -9999      -9999      -9999      1.445      -9999      -9999      40.217     -4999.418  -9999      0.1630285 
1231.6     -9999      481.33     1          3          -9999      2.311      2.337      2.312      1.516      1.693      1.88       1.699      1.359      -9999      1.499      -9999      -9999      -9999      -9999      -9999      1.496      -9999      -9999      41.487     -4999.406  -9999      0.1877234 
1231.8     -9999      472.44     1          3          -9999      2.083      2.235      2.135      1.541      1.541      1.88       2.067      1.359      -9999      1.372      -9999      -9999      -9999      -9999      -9999      1.53       -9999      -9999      42.206     -4999.397  -9999      0.2052917 
1232       -9999      472.44     1          3          -9999      1.88       2.184      2.135      1.592      1.49       1.88       2.004      1.41       -9999      1.321      -9999      -9999      -9999      -9999      -9999      1.53       -9999      -9999      42.587     -4999.392  -9999      0.2157628 
1232.2     -9999      480.695    1          3          -9999      1.727      2.134      2.033      1.617      1.439      1.935      2.004      1.359      -9999      1.295      -9999      -9999      -9999      -9999      -9999      1.498      -9999      -9999      42.249     -4999.397  -9999      0.2064319 
1232.4     -9999      492.76     1          3          -9999      1.702      2.083      1.855      1.643      1.414      2.067      1.915      1.46       -9999      1.245      -9999      -9999      -9999      -9999      -9999      1.454      -9999      -9999      41.487     -4999.406  -9999      0.1877234 
1232.6     -9999      499.11     1          3          -9999      1.676      1.981      1.855      1.668      1.414      2.067      1.864      1.613      -9999      1.245      -9999      -9999      -9999      -9999      -9999      1.432      -9999      -9999      40.09      -4999.419  -9999      0.1609624 
1232.8     -9999      500.38     1          3          -9999      1.778      1.956      1.728      1.617      1.414      2.129      1.864      1.626      -9999      1.143      -9999      -9999      -9999      -9999      -9999      1.427      -9999      -9999      39.074     -4999.427  -9999      0.1467633 
1233       -9999      494.03     1          3          -9999      1.854      2.007      1.55       1.566      1.414      2.159      2.017      1.638      -9999      1.016      -9999      -9999      -9999      -9999      -9999      1.449      -9999      -9999      38.65      -4999.429  -9999      0.1419561 
1233.2     -9999      488.95     1          3          -9999      1.905      2.007      1.677      1.541      1.389      2.113      2.156      1.702      -9999      1.092      -9999      -9999      -9999      -9999      -9999      1.468      -9999      -9999      39.455     -4999.424  -9999      0.1516231 
1233.4     -9999      482.6      1          3          -9999      1.905      1.981      2.033      1.516      1.49       2.082      1.864      1.689      -9999      1.295      -9999      -9999      -9999      -9999      -9999      1.491      -9999      -9999      40.725     -4999.414  -9999      0.171999  
1233.6     -9999      474.345    1          3          -9999      1.981      2.108      2.033      1.592      1.566      2.037      2.023      1.726      -9999      1.295      -9999      -9999      -9999      -9999      -9999      1.522      -9999      -9999      42.757     -4999.39   -9999      0.2207077 
1233.8     -9999      464.82     1          3          -9999      2.083      2.235      2.135      1.693      1.643      1.921      2.194      1.765      -9999      1.524      -9999      -9999      -9999      -9999      -9999      1.559      -9999      -9999      44.154     -4999.366  -9999      0.2681929 
1234       -9999      461.01     -9999      -9999      -9999      2.159      2.362      2.262      1.77       1.668      1.852      1.826      0.94       -9999      1.829      -9999      -9999      -9999      -9999      -9999      1.575      -9999      -9999      45.974     -4999.325  -9999      0.3505764 
1234.2     -9999      458.47     -9999      -9999      -9999      1.956      2.388      2.389      1.897      1.693      1.839      1.572      0.787      -9999      1.93       -9999      -9999      -9999      -9999      -9999      1.585      -9999      -9999      47.075     -4999.293  -9999      0.4132267 
1234.4     -9999      458.47     -9999      -9999      -9999      1.829      2.159      2.262      1.998      1.719      1.825      1.509      0.711      -9999      1.727      -9999      -9999      -9999      -9999      -9999      1.585      -9999      -9999      48.514     -4999.244  -9999      0.5114407 
1234.6     -9999      458.47     -9999      -9999      -9999      1.753      1.981      2.262      1.922      1.744      1.839      1.534      0.66       -9999      1.727      -9999      -9999      -9999      -9999      -9999      1.585      -9999      -9999      49.318     -4999.212  -9999      0.5750418 
1234.8     -9999      458.47     -9999      -9999      -9999      1.702      1.905      2.084      1.693      1.643      1.866      1.42       0.648      -9999      1.549      -9999      -9999      -9999      -9999      -9999      1.585      -9999      -9999      49.911     -4999.187  -9999      0.6262212 
1235       -9999      458.47     -9999      -9999      -9999      1.626      2.007      1.931      1.566      1.541      1.88       1.635      0.787      -9999      1.473      -9999      -9999      -9999      -9999      -9999      1.585      -9999      -9999      50.377     -9999      -9999      0.8       
1235.2     -9999      458.47     -9999      -9999      -9999      1.575      2.083      1.779      1.516      1.541      1.866      1.737      0.826      -9999      1.524      -9999      -9999      -9999      -9999      -9999      1.585      -9999      -9999      50.609     -9999      -9999      0.8       
1235.4     -9999      459.74     -9999      -9999      -9999      1.575      2.032      1.652      1.465      1.541      1.852      1.635      0.838      -9999      1.499      -9999      -9999      -9999      -9999      -9999      1.58       -9999      -9999      50.863     -9999      -9999      0.8       
