~Version
 VERS              .         2.0                           : CWLS LOG ASCII STANDARD - VERSION 2.0
 WRAP              .         NO                            : ONE LINE PER DEPTH STEP
 DLM               .         SPACE                         : DELIMITING CHARACTER(SPACE TAB OR COMMA)
~Well Information
#_______________________________________________________________________________
#
#PARAMETER_NAME    .UNIT     VALUE                         : DESCRIPTION
#_______________________________________________________________________________
STRT               .M        894                           : First reference value
STOP               .M        1248                          : Last reference value
STEP               .M        0.2                           : Step increment
NULL               .         -9999                         : Missing value
COMP               .                                       : Company
WELL               .         7334                          : Well name
FLD                .         Узень                         : Field
LOC                .                                       : Location
CNTY               .                                       : County
STAT               .                                       : State
CTRY               .                                       : Country
SRVC               .                                       : Service Company
DATE               .                                       : Date
UWI                .                                       : Unique Well ID
API                .                                       : 
Block              .         7                             : 
Category           .         Нефтяная                      : 
Condition          .         В работе                      : 
Date               .         03.03.1983                    : 
EREF               .m        87.7                          : 100.8
Gor                .         14                            : 
Gorizont           .         14                            : 14
Interpretator      .         Кайсанов Е.К                  : 
Kupol              .         Основной                      : osnovnoi
Mud                .                                       : 
Mud_density        .                                       : 
Mud_resistivity    .                                       : 
NGDU               .         НГДУ-2                        : 
ORIGINALWELLNAME   .         7334                          : 
Spud_date          .         1983                          : 1961
Viscosity          .                                       : 
X                  .m        42733.9                       : 46154
Y                  .m        84668.93                      : 85761.93
YEAR               .         2019                          : 
Сдали_за_3_кв_2019 .         3                             : 
временно           .         \                             : 
~Parameter Information Block
#_______________________________________________________________________________
#
#PARAMETER_NAME    .UNIT     VALUE                         : DESCRIPTION
#_______________________________________________________________________________
SET                .         LQC_KAZNIPI_Petrel            : 
TLFamily_CALI      .         Caliper                       : 
TLFamily_CILD      .         Conductivity                  : 
TLFamily_COLL      .         Net Reservoir Flag            : 
TLFamily_CSAT      .         Fluid Code                    : 
TLFamily_DEPT      .         Measured Depth                : 
TLFamily_GR        .         Russian Gamma Ray             : 
TLFamily_GZ1       .         Gradient 045                  : 
TLFamily_GZ2       .         Gradient 105                  : 
TLFamily_GZ3       .         Gradient 225                  : 
TLFamily_GZ4       .         Gradient 425                  : 
TLFamily_GZ5       .         Gradient 850                  : 
TLFamily_LLS       .         Lateral Log Resistivity       : 
TLFamily_MINV      .         Micro Gradient Resistivity    : 
TLFamily_MNOR      .         Micro Resistivity             : 
TLFamily_NGLD      .         Neutron Far                   : 
TLFamily_OGZ3      .         Gradient Inverted 225         : 
TLFamily_PHIE      .         Effective Porosity            : 
TLFamily_PHIEN     .         Effective Porosity            : 
TLFamily_PHIT      .         Porosity                      : 
TLFamily_PRMB      .         Permeability                  : 
TLFamily_PRMB_DGR  .         Permeability                  : 
TLFamily_RT        .         Formation Resistivity         : 
TLFamily_SOIL_ARCHIE .         Oil Saturation                : 
TLFamily_SOIL_DW   .         Oil Saturation                : 
TLFamily_SP        .         Spontaneous Potential         : 
TLFamily_VSH_FIN   .         Shale Volume                  : 
TLFamily_VSH_GR    .         Shale Volume                  : 
TLFamily_VSH_SP    .         Shale Volume                  : 
~Curve Information
#_______________________________________________________________________________
#
#LOGNAME           .UNIT     LOG_ID                        : DESCRIPTION
#_______________________________________________________________________________
DEPT               .M                                      : Колонка глубины 
CALI               .м                                      : Каверномер 
CILD               .мСм/м                                  : Индукционный каротаж 
COLL               .unitless                               :  
CSAT               .unitless                               :  
GR                 .uR/h                                   : Гамма каротаж 
GZ1                .OHMM                                   :  
GZ2                .OHMM                                   :  
GZ3                .OHMM                                   :  
GZ4                .OHMM                                   :  
GZ5                .OHMM                                   :  
LLS                .Ohmm                                   : Боковой каротаж 
MINV               .Ohmm                                   : Микро-градиент зонд 
MNOR               .Ohmm                                   : Микро-потенциал зонд 
NGLD               .у.е.                                   : Показания зонда НГК-60 аппаратуры ДРСТ-3-90 
OGZ3               .Ohmm                                   :  
PHIE               .v/v                                    : Описание 
PHIEN              .v/v                                    :  
PHIT               .v/v                                    : Описание 
PRMB               .mD                                     :  
PRMB_DGR           .mD                                     :  
RT                 .ohmm                                   : Удельное электрическое сопротивление 
SOIL_ARCHIE        .v/v                                    :  
SOIL_DW            .v/v                                    :  
SP                 .мВ                                     : Потенциал самополяризации 
VSH_FIN            .v/v                                    : Описание 
VSH_GR             .v/v                                    : Shale volume 
VSH_SP             .v/v                                    : Shale Volume 
~Ascii
# ...
1096       0.249      337.82     -9999      -9999      5.358      3.302      4.801000000000001 3.125      2.938      2.913      2.555      1.157      0.76       1.273      2.54       0.2512881  0.2512881  0.3203798  126.3638   16.92786   2.557      0.5207049  0.600713   63.542     0.2093689  0.2043784  0.2143594 
1096.2     0.256      337.82     -9999      -9999      5.396      2.057      3.758999999999999 2.439      2.151      2.328      2.357      1.28       0.876      1.24       2.184      0.2626891  0.2626891  0.333824   205.4928   15.3534    2.557      0.538874   0.6173182  63.754     0.2155604  0.2126901  0.2184308 
1096.4     0.255      330.2      -9999      -9999      5.535      1.88       3.353      2.744      1.795      1.77       2.41       1.521      0.864      1.259      2.616      0.2470185  0.2470185  0.3260834  105.3269   10.74287   2.616      0.5186777  0.6064611  64.304     0.2395908  0.2460783  0.2331033 
1096.6     0.26       327.205    -9999      -9999      5.383      1.803      2.87       2.744      1.541      1.668      2.514      1.216      0.775      1.264      2.616      0.2457507  0.2457507  0.3240464  99.78295   15.87483   2.64       0.5185832  0.6059757  65.278     0.2372598  0.2098092  0.2647103 
1096.8     0.26       323.85     -9999      -9999      5.129      1.702      2.565      3.303      1.389      1.566      2.631      1.14       1.245      1.272      2.946      0.2456789  0.2456789  0.3207872  99.47795   30.486     2.668      0.5208389  0.6056862  66.082     0.2276011  0.1607335  0.2944686 
1097       0.253      312.42     -9999      -9999      5.036      1.702      2.515      3.811      1.414      1.541      3.158      2.207      1.854      1.296      3.250999999999999 0.2310692  0.2310692  0.3110096  53.34827   38.71348   2.765      0.5029577  0.5954001  67.098     0.2422436  0.1457931  0.3386941 
1097.2     0.244      284.48     -9999      -9999      4.926      2.184      3.124      4.192      1.592      1.795      3.848      3.401      1.676      1.339      3.657999999999999 0.2081012  0.2081012  0.2934914  20.03073   51.35594   3.036      0.4788794  0.582839   68.072     0.2587582  0.1299041  0.3876124 
1097.4     0.234      241.3      -9999      -9999      4.735      2.642      3.454      4.192      1.922      2.024      4.619      3.185      1.93       1.386      4.089      0.1812883  0.1812883  0.2743436  6.383472   83.88652   3.58       0.4560963  0.5769826  69.257     0.2819857  0.1063179  0.4576535 
1097.6     0.226      215.9      6          6          4.532      2.946      3.556      4.192      2.151      2.024      5.545      3.137      2.229      1.418      4.089      0.1613808  0.1613808  0.2613068  2.731      141.3131   4.001      0.4287028  0.5682356  70.189     0.3028061  0.08592568 0.5196866 
1097.8     0.226      190.5      6          6          4.583      2.896      3.250999999999999 3.836      2.074      1.897      6.561      3.096      2.489      1.45       3.607      0.1419052  0.1419052  0.24827    1.190109   123.9598   4.534      0.3974116  0.5597162  70.697     0.3223175  0.09064791 0.5539871 
1098       0.226      182.894    6          6          4.563      2.337      2.87       3.227      1.871      1.795      7.123      3.96       3.226      1.549      2.87       0.09650353 0.09650353 0.2079374  0.1716475  130.4954   4.73       0.1735028  0.4421298  71.162     0.3376783  0.08876589 0.5865908 
1098.2     0.216      176.53     6          6          4.545      2.007      2.845      3.024      1.719      1.719      7.594      3.96       2.997      1.611      3.327      0.06709518 0.06709518 0.1826786  0.04896925 136.6716   4.894      0          0.3198551  71.543     0.3502529  0.08710549 0.6134003 
1098.4     0.216      180.34     6          6          4.634      1.651      2.845      3.405      1.897      1.77       8.599      3.96       2.718      1.575      3.886000000000001 0.07383486 0.07383486 0.197345   0.06527679 108.7376   4.79       0          0.3677763  72.051     0.3742731  0.09562961 0.6529166 
1098.6     0.215      191.77     6          6          4.723      1.499      2.692      3.405      2.405      2.582      7.935      3.926      2.214      1.528      3.886000000000001 0.08524644 0.08524644 0.2164928  0.1062011  86.5129    4.505      0.05791619 0.4165544  72.517     0.3977163  0.1049879  0.6904446 
1098.8     0.221      211.455    6          6          5.256      1.753      3.073      4.217      3.268      3.649      5.043      3.883      1.575      1.494      4.469999999999999 0.08314683 0.08314683 0.2303444  0.09710445 21.99908   4.091      0          0.4063986  72.771     0.4460533  0.1836393  0.7084674 
1099       0.222      243.84     -9999      -9999      5.751      2.057      3.734      5.03       4.335      4.716000000000001 4.079      2.677      1.499      1.408      5.232      0.09662331 0.09662331 0.2653808  0.1725266  6.167736   3.543      0.05450326 0.448038   72.898     0.5113863  0.3086593  0.7141133 
1099.2     0.224      294.64     -9999      -9999      5.822      2.261      3.556      5.792      5.071999999999999 6.541      3.473      2.855      2.019      1.372      5.944      0.1098832  0.1098832  0.2800472  0.3037123  5.139371   2.932      0.07616479 0.4402009  72.813     0.5156484  0.3325262  0.6987705 
1099.4     0.224      334.01     -9999      -9999      5.917      2.692      3.708      6.605      5.757000000000001 8.593999999999999 2.81       2.962      1.847      1.363      6.655      0.1102711  0.1102711  0.2837138  0.3087786  4.026404   2.586      0.02309332 0.4096122  72.729     0.5255837  0.3673722  0.6837953 
1099.6     0.222      356.87     -9999      -9999      5.967      3.607      4.394      6.605      7.07       10.372     2.464      3.147      1.549      1.339      6.655      0.1198807  0.1198807  0.2934914  0.4651988  3.541043   2.42       0.06293528 0.4205723  72.602     0.5260932  0.3871556  0.6650307 
1099.8     0.22       373.38     -9999      -9999      5.891      4.75       6.528      7.391999999999999 8.848000000000001 11.642     2.098      1.42       0.673      1.313      7.239      0.1371135  0.1371135  0.3040838  0.9701343  4.304531   2.313      0.1485046  0.448523   72.559     0.5059708  0.3574877  0.6544539 
1100       0.223      384.81     -9999      -9999      5.955      5.842      11.811     7.265      9.737      11.642     2.098      1.07       0.787      1.283      8.000999999999998 0.1456553  0.1456553  0.3163058  1.396523   3.651908   2.245      0.1807729  0.4660995  72.602     0.5171226  0.3823125  0.6519327 
1100.2     0.225      393.7      -9999      -9999      6.057      6.984999999999999 12.827     6.249000000000001 9.228999999999999 10.753     2.098      0.797      0.876      1.262      3.81       0.1449193  0.1449193  0.3248612  1.353367   2.810068   2.194      0.1682294  0.4678471  72.813     0.5452784  0.4254888  0.6650681 
1100.4     0.229      398.78     -9999      -9999      6.158      6.248      11.049     5.233      9.102000000000002 9.102000000000002 2.113      1.001      0.648      1.227      3.048      0.1457257  0.1457257  0.3391202  1.400721   2.167853   2.167      0.1674155  0.4798661  73.237     0.586044   0.4730445  0.6990434 
1100.6     0.232      399.401    -9999      -9999      6.285      4.674000000000001 10.668     5.233      5.927      6.816      2.191      1.153      0.699      1.29       3.048      0.1009614  0.1009614  0.313454   0.2075906  1.56435    2.163      0          0.3759023  73.787     0.6439171  0.540457   0.7473773 
1100.8     0.231      400.05     -9999      -9999      6.64       4.42       11.303     4.217      3.968      4.53       2.306      1.302      0.742      1.304      2.718      0.04887609 0.04887609 0.3077504  0.02251448 0.6284274  2.16       0          0.2137065  74.21      0.7844676  0.7843201  0.7846151 
1101       0.231      392.43     -9999      -9999      6.628      4.115000000000001 8.763      4.065      2.836      3.259999999999999 2.428      1.458      0.787      1.316      2.235      0.04306768 0.04306768 0.3028616  0.01757421 0.6481025  2.201      0          0.1863322  74.676     0.7872543  0.7745087  0.8       
