~Version
 VERS              .         2.0                           : CWLS LOG ASCII STANDARD - VERSION 2.0
 WRAP              .         NO                            : ONE LINE PER DEPTH STEP
 DLM               .         SPACE                         : DELIMITING CHARACTER(SPACE TAB OR COMMA)
~Well Information
#_______________________________________________________________________________
#
#PARAMETER_NAME    .UNIT     VALUE                         : DESCRIPTION
#_______________________________________________________________________________
STRT               .M        894                           : First reference value
STOP               .M        1248                          : Last reference value
STEP               .M        0.2                           : Step increment
NULL               .         -9999                         : Missing value
COMP               .                                       : Company
WELL               .         7334                          : Well name
FLD                .         Узень                         : Field
LOC                .                                       : Location
CNTY               .                                       : County
STAT               .                                       : State
CTRY               .                                       : Country
SRVC               .                                       : Service Company
DATE               .                                       : Date
UWI                .                                       : Unique Well ID
API                .                                       : 
Block              .         7                             : 
Category           .         Нефтяная                      : 
Condition          .         В работе                      : 
Date               .         03.03.1983                    : 
EREF               .m        87.7                          : 100.8
Gor                .         14                            : 
Gorizont           .         14                            : 14
Interpretator      .         Кайсанов Е.К                  : 
Kupol              .         Основной                      : osnovnoi
Mud                .                                       : 
Mud_density        .                                       : 
Mud_resistivity    .                                       : 
NGDU               .         НГДУ-2                        : 
ORIGINALWELLNAME   .         7334                          : 
Spud_date          .         1983                          : 1961
Viscosity          .                                       : 
X                  .m        42733.9                       : 46154
Y                  .m        84668.93                      : 85761.93
YEAR               .         2019                          : 
Сдали_за_3_кв_2019 .         3                             : 
временно           .         \                             : 
~Parameter Information Block
#_______________________________________________________________________________
#
#PARAMETER_NAME    .UNIT     VALUE                         : DESCRIPTION
#_______________________________________________________________________________
SET                .         LQC_KAZNIPI_Petrel            : 
TLFamily_CALI      .         Caliper                       : 
TLFamily_CILD      .         Conductivity                  : 
TLFamily_COLL      .         Net Reservoir Flag            : 
TLFamily_CSAT      .         Fluid Code                    : 
TLFamily_DEPT      .         Measured Depth                : 
TLFamily_GR        .         Russian Gamma Ray             : 
TLFamily_GZ1       .         Gradient 045                  : 
TLFamily_GZ2       .         Gradient 105                  : 
TLFamily_GZ3       .         Gradient 225                  : 
TLFamily_GZ4       .         Gradient 425                  : 
TLFamily_GZ5       .         Gradient 850                  : 
TLFamily_LLS       .         Lateral Log Resistivity       : 
TLFamily_MINV      .         Micro Gradient Resistivity    : 
TLFamily_MNOR      .         Micro Resistivity             : 
TLFamily_NGLD      .         Neutron Far                   : 
TLFamily_OGZ3      .         Gradient Inverted 225         : 
TLFamily_PHIE      .         Effective Porosity            : 
TLFamily_PHIEN     .         Effective Porosity            : 
TLFamily_PHIT      .         Porosity                      : 
TLFamily_PRMB      .         Permeability                  : 
TLFamily_PRMB_DGR  .         Permeability                  : 
TLFamily_RT        .         Formation Resistivity         : 
TLFamily_SOIL_ARCHIE .         Oil Saturation                : 
TLFamily_SOIL_DW   .         Oil Saturation                : 
TLFamily_SP        .         Spontaneous Potential         : 
TLFamily_VSH_FIN   .         Shale Volume                  : 
TLFamily_VSH_GR    .         Shale Volume                  : 
TLFamily_VSH_SP    .         Shale Volume                  : 
~Curve Information
#_______________________________________________________________________________
#
#LOGNAME           .UNIT     LOG_ID                        : DESCRIPTION
#_______________________________________________________________________________
DEPT               .M                                      : Колонка глубины 
CALI               .м                                      : Каверномер 
CILD               .мСм/м                                  : Индукционный каротаж 
COLL               .unitless                               :  
CSAT               .unitless                               :  
GR                 .uR/h                                   : Гамма каротаж 
GZ1                .OHMM                                   :  
GZ2                .OHMM                                   :  
GZ3                .OHMM                                   :  
GZ4                .OHMM                                   :  
GZ5                .OHMM                                   :  
LLS                .Ohmm                                   : Боковой каротаж 
MINV               .Ohmm                                   : Микро-градиент зонд 
MNOR               .Ohmm                                   : Микро-потенциал зонд 
NGLD               .у.е.                                   : Показания зонда НГК-60 аппаратуры ДРСТ-3-90 
OGZ3               .Ohmm                                   :  
PHIE               .v/v                                    : Описание 
PHIEN              .v/v                                    :  
PHIT               .v/v                                    : Описание 
PRMB               .mD                                     :  
PRMB_DGR           .mD                                     :  
RT                 .ohmm                                   : Удельное электрическое сопротивление 
SOIL_ARCHIE        .v/v                                    :  
SOIL_DW            .v/v                                    :  
SP                 .мВ                                     : Потенциал самополяризации 
VSH_FIN            .v/v                                    : Описание 
VSH_GR             .v/v                                    : Shale volume 
VSH_SP             .v/v                                    : Shale Volume 
~Ascii
# ...
981.6      0.256      304.8      -9999      -9999      4.126      2.896      3.174999999999999 3.251999999999999 2.633      2.709      2.893      1.077      1.143      1.257      2.565      0.1642876  0.1642876  0.3268982  3.091449   2.123439   2.834      0.3387119  0.5552659  71.374     0.4927596  0.4770599  0.5084593 
981.8      0.26       313.69     -9999      -9999      4.507      3.226      3.403999999999999 2.998      2.633      2.709      2.446      0.531      0.533      1.197      2.261      0.1558656  0.1558656  0.3513422  2.158573   0.9013927  2.754      0.2983322  0.5599113  71.374     0.5923533  0.6768996  0.5078071 
982        0.267      328.93     -9999      -9999      4.71       2.946      3.556      2.871      2.43       2.633      2.257      0.492      0.464      1.124      2.134      0.1654016  0.1654016  0.3810824  3.241884   0.571008   2.626      0.3186513  0.5810876  71.374     0.6535782  0.8        0.5071563 
982.2      0.269      328.93     -9999      -9999      4.989      2.616      3.378      2.617      2.252      2.532      2.207      0.454      0.635      1.095      1.905      0.1768063  0.1768063  0.392897   5.272777   0.3048887  2.626      0.3570926  0.5991262  71.416     0.6548203  0.8        0.5096407 
982.4      0.269      326.388    -9999      -9999      4.735      1.981      3.250999999999999 2.693      2.201      2.455      2.224      0.658      0.521      1.126      1.956      0.1637527  0.1637527  0.3802676  3.021732   0.5397896  2.647      0.3152441  0.5806348  71.459     0.6561056  0.8        0.5122111 
982.6      0.264      323.85     -9999      -9999      4.685      1.981      3.277      2.693      2.176      2.328      2.24       0.505      0.483      1.149      1.956      0.1544469  0.1544469  0.3708974  2.031841   0.604032   2.668      0.2821137  0.5664006  71.501     0.6559105  0.7971033  0.5147176 
982.8      0.246      326.39     -9999      -9999      4.71       1.88       3.15       2.947      2.176      2.303      2.34       0.543      0.775      1.192      2.057      0.1365595  0.1365595  0.3533792  0.9474816  0.571008   2.647      0.1979065  0.5305225  71.501     0.6570294  0.8        0.5140589 
983        0.243      331.47     -9999      -9999      4.837      1.956      2.972      3.074      2.176      2.303      2.428      0.924      0.673      1.182      2.108      0.1407421  0.1407421  0.3574532  1.132514   0.4291416  2.606      0.2129634  0.5353832  71.501     0.6567002  0.8        0.5134004 
983.2      0.25       332.74     -9999      -9999      4.685      2.007      2.794      3.176000000000001 2.201      2.354      2.464      0.683      0.813      1.188      2.108      0.1388842  0.1388842  0.3550088  1.046239   0.604032   2.596      0.2023638  0.5301939  71.501     0.654923   0.7971033  0.5127426 
983.4      0.25       328.93     -9999      -9999      4.659      2.032      2.667      3.405      2.252      2.379      2.481      0.607      0.813      1.196      2.159      0.1388364  0.1388364  0.3517496  1.044108   0.6404046  2.626      0.206415   0.530068   71.501     0.6451914  0.7782968  0.5120861 
983.6      0.254      321.31     -9999      -9999      4.685      1.981      2.692      3.405      2.303      2.405      2.593      0.518      0.902      1.184      2.159      0.1407304  0.1407304  0.3566384  1.13195    0.604032   2.688      0.2242667  0.5418444  71.501     0.6542665  0.7971033  0.5114298 
983.8      0.244      328.93     -9999      -9999      4.519      2.184      2.87       3.455000000000001 2.379      2.354      2.631      0.581      0.737      1.183      2.235      0.1593208  0.1593208  0.3570458  2.501305   0.8773914  2.626      0.2960573  0.5574765  71.543     0.5991666  0.6844003  0.5139329 
984        0.214      340.36     -9999      -9999      4.634      2.286      3.023      3.278      2.354      2.328      2.518      0.556      0.546      1.142      2.337      0.1630186  0.1630186  0.3737492  2.928588   0.6774421  2.538      0.2988593  0.5663196  71.586     0.6385776  0.7606321  0.5165231 
984.2      0.214      349.25     -9999      -9999      4.647      2.286      3.073      3.074      2.379      2.201      2.375      0.531      0.521      1.149      2.261      0.1582428  0.1582428  0.3708974  2.388907   0.6579231  2.473      0.2716513  0.5536414  71.628     0.6444077  0.769767   0.5190483 
984.4      0.214      354.33     -9999      -9999      4.532      2.21       2.997      2.846      2.354      2.151      2.306      0.442      0.495      1.151      2.134      0.1697389  0.1697389  0.3700826  3.900626   0.8521109  2.438      0.3102092  0.5614549  71.67      0.6071021  0.6926197  0.5215845 
984.6      0.214      355.6      -9999      -9999      4.583      2.108      2.87       2.846      2.303      2.125      2.257      0.454      0.495      1.121      2.134      0.1760482  0.1760482  0.3823046  5.105022   0.759773   2.429      0.3306298  0.5753302  71.713     0.6250194  0.7258299  0.5242089 
984.8      0.238      350.52     -9999      -9999      4.735      2.007      2.769      2.693      2.252      2.074      2.223      0.454      0.495      1.081      2.032      0.179684   0.179684   0.3986006  5.961309   0.5397896  2.465      0.3469659  0.5924271  71.755     0.6633837  0.8        0.5267674 
985        0.253      342.9      -9999      -9999      4.862      1.88       2.692      2.846      2.201      2.074      2.306      0.454      0.597      1.099      1.956      0.1729939  0.1729939  0.3912674  4.48152    0.4056793  2.519      0.3318537  0.586276   71.713     0.6614348  0.8        0.5228695 
985.2      0.26       335.28     -9999      -9999      4.926      1.854      2.667      3.024      2.201      2.176      2.41       0.543      0.749      1.108      2.083      0.1699788  0.1699788  0.3876008  3.940737   0.3512962  2.577      0.328752   0.5858301  71.67      0.6594606  0.8        0.5189213 
985.4      0.26       332.74     -9999      -9999      4.812      1.829      2.692      2.998      2.227      2.201      2.464      0.531      0.711      1.141      2.261      0.156644   0.156644   0.3741566  2.231443   0.4539607  2.596      0.2817295  0.5651181  71.67      0.6591289  0.8        0.5182577 
985.6      0.27       339.09     -9999      -9999      4.748      2.007      2.718      2.998      2.227      2.201      2.428      0.543      0.686      1.151      2.261      0.1521396  0.1521396  0.3700826  1.841418   0.5242365  2.547      0.256625   0.5531427  71.713     0.6604334  0.8        0.5208668 
985.8      0.27       350.52     -9999      -9999      4.824      2.057      2.718      2.871      2.227      2.227      2.392      0.48       0.521      1.169      2.311      0.1443866  0.1443866  0.3627494  1.322966   0.4418734  2.465      0.2099382  0.5311027  71.755     0.6617054  0.8        0.5234108 
986        0.26       350.52     -9999      -9999      4.85       2.007      2.743      2.846      2.252      2.252      2.375      0.493      0.572      1.138      2.184      0.1565944  0.1565944  0.3753788  2.226719   0.4167766  2.465      0.2638594  0.5545795  71.797     0.6629832  0.8        0.5259663 
986.2      0.243      344.17     -9999      -9999      4.875      2.032      2.743      2.922      2.252      2.227      2.41       0.467      0.699      1.116      2.134      0.165121   0.165121   0.3843416  3.203311   0.3939904  2.51       0.3030218  0.5735382  71.84      0.6643049  0.8        0.5286096 
986.4      0.243      336.55     -9999      -9999      4.786      1.956      2.743      2.998      2.227      2.201      2.464      0.569      0.876      1.099      2.311      0.1716215  0.1716215  0.3912674  4.226723   0.4812966  2.566      0.3330137  0.5888638  71.882     0.6655938  0.8        0.5311876 
986.6      0.254      331.47     -9999      -9999      4.786      1.981      2.718      2.998      2.201      2.176      2.574      0.62       0.724      1.119      2.311      0.1635852  0.1635852  0.3831194  3.000222   0.4812966  2.606      0.3095944  0.5791737  71.882     0.6652551  0.8        0.5305103 
