~Version
 VERS              .         2.0                           : CWLS LOG ASCII STANDARD - VERSION 2.0
 WRAP              .         NO                            : ONE LINE PER DEPTH STEP
 DLM               .         SPACE                         : DELIMITING CHARACTER(SPACE TAB OR COMMA)
~Well Information
#_______________________________________________________________________________
#
#PARAMETER_NAME    .UNIT     VALUE                         : DESCRIPTION
#_______________________________________________________________________________
STRT               .M        894                           : First reference value
STOP               .M        1248                          : Last reference value
STEP               .M        0.2                           : Step increment
NULL               .         -9999                         : Missing value
COMP               .                                       : Company
WELL               .         7334                          : Well name
FLD                .         Узень                         : Field
LOC                .                                       : Location
CNTY               .                                       : County
STAT               .                                       : State
CTRY               .                                       : Country
SRVC               .                                       : Service Company
DATE               .                                       : Date
UWI                .                                       : Unique Well ID
API                .                                       : 
Block              .         7                             : 
Category           .         Нефтяная                      : 
Condition          .         В работе                      : 
Date               .         03.03.1983                    : 
EREF               .m        87.7                          : 100.8
Gor                .         14                            : 
Gorizont           .         14                            : 14
Interpretator      .         Кайсанов Е.К                  : 
Kupol              .         Основной                      : osnovnoi
Mud                .                                       : 
Mud_density        .                                       : 
Mud_resistivity    .                                       : 
NGDU               .         НГДУ-2                        : 
ORIGINALWELLNAME   .         7334                          : 
Spud_date          .         1983                          : 1961
Viscosity          .                                       : 
X                  .m        42733.9                       : 46154
Y                  .m        84668.93                      : 85761.93
YEAR               .         2019                          : 
Сдали_за_3_кв_2019 .         3                             : 
временно           .         \                             : 
~Parameter Information Block
#_______________________________________________________________________________
#
#PARAMETER_NAME    .UNIT     VALUE                         : DESCRIPTION
#_______________________________________________________________________________
SET                .         LQC_KAZNIPI_Petrel            : 
TLFamily_CALI      .         Caliper                       : 
TLFamily_CILD      .         Conductivity                  : 
TLFamily_COLL      .         Net Reservoir Flag            : 
TLFamily_CSAT      .         Fluid Code                    : 
TLFamily_DEPT      .         Measured Depth                : 
TLFamily_GR        .         Russian Gamma Ray             : 
TLFamily_GZ1       .         Gradient 045                  : 
TLFamily_GZ2       .         Gradient 105                  : 
TLFamily_GZ3       .         Gradient 225                  : 
TLFamily_GZ4       .         Gradient 425                  : 
TLFamily_GZ5       .         Gradient 850                  : 
TLFamily_LLS       .         Lateral Log Resistivity       : 
TLFamily_MINV      .         Micro Gradient Resistivity    : 
TLFamily_MNOR      .         Micro Resistivity             : 
TLFamily_NGLD      .         Neutron Far                   : 
TLFamily_OGZ3      .         Gradient Inverted 225         : 
TLFamily_PHIE      .         Effective Porosity            : 
TLFamily_PHIEN     .         Effective Porosity            : 
TLFamily_PHIT      .         Porosity                      : 
TLFamily_PRMB      .         Permeability                  : 
TLFamily_PRMB_DGR  .         Permeability                  : 
TLFamily_RT        .         Formation Resistivity         : 
TLFamily_SOIL_ARCHIE .         Oil Saturation                : 
TLFamily_SOIL_DW   .         Oil Saturation                : 
TLFamily_SP        .         Spontaneous Potential         : 
TLFamily_VSH_FIN   .         Shale Volume                  : 
TLFamily_VSH_GR    .         Shale Volume                  : 
TLFamily_VSH_SP    .         Shale Volume                  : 
~Curve Information
#_______________________________________________________________________________
#
#LOGNAME           .UNIT     LOG_ID                        : DESCRIPTION
#_______________________________________________________________________________
DEPT               .M                                      : Колонка глубины 
CALI               .м                                      : Каверномер 
CILD               .мСм/м                                  : Индукционный каротаж 
COLL               .unitless                               :  
CSAT               .unitless                               :  
GR                 .uR/h                                   : Гамма каротаж 
GZ1                .OHMM                                   :  
GZ2                .OHMM                                   :  
GZ3                .OHMM                                   :  
GZ4                .OHMM                                   :  
GZ5                .OHMM                                   :  
LLS                .Ohmm                                   : Боковой каротаж 
MINV               .Ohmm                                   : Микро-градиент зонд 
MNOR               .Ohmm                                   : Микро-потенциал зонд 
NGLD               .у.е.                                   : Показания зонда НГК-60 аппаратуры ДРСТ-3-90 
OGZ3               .Ohmm                                   :  
PHIE               .v/v                                    : Описание 
PHIEN              .v/v                                    :  
PHIT               .v/v                                    : Описание 
PRMB               .mD                                     :  
PRMB_DGR           .mD                                     :  
RT                 .ohmm                                   : Удельное электрическое сопротивление 
SOIL_ARCHIE        .v/v                                    :  
SOIL_DW            .v/v                                    :  
SP                 .мВ                                     : Потенциал самополяризации 
VSH_FIN            .v/v                                    : Описание 
VSH_GR             .v/v                                    : Shale volume 
VSH_SP             .v/v                                    : Shale Volume 
~Ascii
# ...
1049.2     0.245      351.79     -9999      -9999      5.701      1.803      2.388      2.363      1.795      1.668      2.34       0.747      0.711      1.119      2.007      0.2067144  0.2067144  0.3831194  18.88039   1.477033   2.456      0.4210062  0.6034486  67.564     0.5345606  0.5532818  0.5158393 
1049.4     0.245      342.9      -9999      -9999      5.624      1.803      2.337      2.465      1.77       1.668      2.375      0.95       0.724      1.123      1.981      0.2089631  0.2089631  0.3814898  20.78073   1.664591   2.519      0.4332131  0.609082   67.606     0.5228083  0.5269228  0.5186938 
1049.6     0.242      334.01     -9999      -9999      5.713      1.88       2.311      2.465      1.77       1.693      2.446      0.937      0.762      1.155      1.981      0.190394   0.190394   0.368453   9.412763   1.449772   2.586      0.3928855  0.5913481  67.649     0.5395727  0.5575067  0.5216388 
1049.8     0.244      326.39     -9999      -9999      5.548      1.93       2.337      2.566      1.77       1.693      2.481      1.204      1.041      1.182      2.083      0.1880545  0.1880545  0.3574532  8.518898   1.873054   2.647      0.3929901  0.5865436  67.691     0.5133294  0.5021377  0.5245211 
1050       0.232      327.66     -9999      -9999      5.523      1.956      2.388      2.541      1.77       1.693      2.536      1.763      1.524      1.208      2.21       0.1777379  0.1777379  0.3468608  5.486495   1.947181   2.636      0.361169   0.5686471  67.776     0.5124937  0.4942422  0.5307453 
1050.2     0.221      332.74     -9999      -9999      5.459      1.93       2.438      2.643      1.744      1.693      2.67       2.55       0.94       1.199      2.184      0.1836222  0.1836222  0.3505274  7.051588   2.150592   2.596      0.3745646  0.5735434  67.86      0.5057733  0.4745912  0.5369554 
1050.4     0.221      332.74     -9999      -9999      5.751      1.88       2.413      2.795      1.744      1.693      2.612      0.391      0.445      1.206      2.057      0.1637981  0.1637981  0.3476756  3.027589   1.366716   2.596      0.3091308  0.5521818  67.945     0.5572045  0.5711     0.543309  
1050.6     0.233      327.66     -9999      -9999      5.764      1.803      2.413      2.795      1.795      1.719      2.428      0.708      0.775      1.206      2.057      0.1630754  0.1630754  0.3476756  2.935684   1.339409   2.636      0.3114232  0.5548474  67.945     0.5593947  0.575826   0.5429634 
1050.8     0.239      327.66     -9999      -9999      5.624      1.88       2.489      2.922      1.82       1.77       2.34       0.81       1.029      1.194      2.083      0.1760903  0.1760903  0.3525644  5.114189   1.664591   2.636      0.3559661  0.5714138  67.945     0.5347701  0.5269228  0.5426175 
1051       0.239      334.01     -9999      -9999      5.574      2.134      2.743      2.871      1.846      1.82       2.34       0.683      0.851      1.21       2.21       0.171792   0.171792   0.346046   4.257579   1.798953   2.586      0.3360139  0.558114   67.987     0.5280424  0.5104827  0.5456021 
1051.2     0.234      334.01     -9999      -9999      5.51       2.515      2.946      2.744      1.897      1.795      2.446      0.715      0.914      1.202      2.362      0.1778922  0.1778922  0.3493052  5.522717   1.986879   2.586      0.3558891  0.5665152  68.03      0.5194334  0.4901859  0.5486808 
1051.4     0.234      334.01     -9999      -9999      5.586      2.413      2.87       2.77       1.922      1.795      2.464      0.594      1.118      1.204      2.286      0.1725881  0.1725881  0.3484904  4.40461    1.765748   2.586      0.3386821  0.5608067  68.072     0.5330374  0.5143809  0.5516939 
1051.6     0.246      335.28     -9999      -9999      5.751      2.21       2.743      2.77       1.947      1.77       2.41       0.861      0.991      1.179      2.286      0.1734722  0.1734722  0.3586754  4.573869   1.366716   2.577      0.3405406  0.5686419  68.072     0.5612218  0.5711     0.5513437 
1051.8     0.248      344.17     -9999      -9999      6.005      2.21       2.896      2.82       1.973      1.77       2.428      0.493      0.902      1.164      2.134      0.1642962  0.1642962  0.3647864  3.092587   0.9213395  2.51       0.2999754  0.5585112  67.987     0.6075461  0.6708767  0.5442154 
1052       0.232      355.6      -9999      -9999      5.802      2.159      2.997      2.922      1.998      1.744      2.41       0.543      0.762      1.132      1.956      0.1924047  0.1924047  0.3778232  10.25557   1.262675   2.429      0.3804713  0.5864764  67.86      0.5618743  0.589866   0.5338826 
1052.2     0.237      369.57     -9999      -9999      6.005      2.057      2.819      2.973      2.024      1.744      2.306      0.569      0.724      1.114      1.88       0.1891045  0.1891045  0.3851564  8.909071   0.9213395  2.338      0.3596943  0.5806853  67.649     0.5940967  0.6708767  0.5173166 
1052.4     0.237      382.27     -9999      -9999      6.082      2.159      2.743      3.1        1.973      1.744      2.191      0.467      0.483      1.117      1.956      0.185015   0.185015   0.3839342  7.483148   0.8175288  2.26       0.3369105  0.5690892  67.437     0.6027855  0.7044368  0.5011342 
1052.6     0.25       391.16     -9999      -9999      6.183      2.21       2.794      3.1        1.973      1.719      2.098      0.48       0.432      1.1        1.956      0.1863404  0.1863404  0.39086    7.918341   0.6988825  2.208      0.3337824  0.5700157  67.268     0.6197563  0.751016   0.4884967 
1052.8     0.258      391.16     -9999      -9999      6.031      2.235      2.819      3.074      1.998      1.719      1.978      0.416      0.546      1.094      1.93       0.2017163  0.2017163  0.3933044  15.25576   0.8848902  2.208      0.3782359  0.5844889  67.141     0.5805699  0.6820261  0.4791138 
1053       0.254      393.7      -9999      -9999      5.993      2.261      2.87       2.897      1.998      1.693      1.935      0.467      0.762      1.116      1.803      0.1959836  0.1959836  0.3843416  11.94674   0.9386652  2.194      0.3605192  0.5724913  67.098     0.5707818  0.6657925  0.4757712 
1053.2     0.247      400.05     -9999      -9999      6.005      2.261      2.946      2.668      1.973      1.693      1.949      0.543      0.572      1.112      1.702      0.1973109  0.1973109  0.3859712  12.64254   0.9213395  2.16       0.3595911  0.5713761  67.056     0.571698   0.6708767  0.4725192 
1053.4     0.247      406.4      -9999      -9999      5.955      2.032      2.946      2.541      1.947      1.668      1.993      0.48       0.572      1.14       1.6        0.1884221  0.1884221  0.374564   8.65353    0.9957087  2.126      0.3283755  0.5520331  67.141     0.5640662  0.6499453  0.4781872 
1053.6     0.261      407.67     -9999      -9999      5.98       1.778      2.743      2.541      1.897      1.668      2.037      0.48       0.368      1.127      1.6        0.1910715  0.1910715  0.3798602  9.688724   0.9578026  2.119      0.3354661  0.5575366  67.225     0.5720869  0.6603281  0.4838457 
1053.8     0.268      405.13     -9999      -9999      6.145      1.702      2.515      2.516      1.846      1.643      2.052      0.518      0.533      1.123      1.549      0.1787132  0.1787132  0.3814898  5.71952    0.7413537  2.132      0.2976354  0.5486807  67.395     0.6144746  0.7331403  0.4958089 
1054       0.272      400.05     -9999      -9999      6.285      1.651      2.438      2.516      1.795      1.668      2.067      0.442      0.622      1.114      1.626      0.1693423  0.1693423  0.3851564  3.835207   0.5965285  2.16       0.2683961  0.5451796  67.564     0.6539821  0.8        0.5079643 
1054.2     0.272      392.43     -9999      -9999      6.488      1.524      2.388      2.541      1.77       1.643      2.052      0.454      0.648      1.13       1.727      0.1596993  0.1596993  0.378638   2.542002   0.4352703  2.201      0.2368312  0.5345662  67.818     0.6634507  0.8        0.5269014 
