~Version
 VERS              .         2.0                           : CWLS LOG ASCII STANDARD - VERSION 2.0
 WRAP              .         NO                            : ONE LINE PER DEPTH STEP
 DLM               .         SPACE                         : DELIMITING CHARACTER(SPACE TAB OR COMMA)
~Well Information
#_______________________________________________________________________________
#
#PARAMETER_NAME    .UNIT     VALUE                         : DESCRIPTION
#_______________________________________________________________________________
STRT               .M        906                           : First reference value
STOP               .M        1237.2                        : Last reference value
STEP               .M        0.2                           : Step increment
NULL               .         -9999                         : Missing value
COMP               .                                       : Company
WELL               .         7426                          : Well name
FLD                .         Узень                         : Field
LOC                .                                       : Location
CNTY               .                                       : County
STAT               .                                       : State
CTRY               .                                       : Country
SRVC               .                                       : Service Company
DATE               .                                       : Date
UWI                .                                       : Unique Well ID
API                .                                       : 
Block              .         7                             : 
Category           .         Нефтяная                      : 
Condition          .         В работе                      : 
Date               .         29.11.1986                    : 
EREF               .m        94.6                          : 100.8
Gorizont           .         15                            : 14
Interpretator      .         Алпанова Н.К.                 : 
Kupol              .         основной                      : osnovnoi
Moii_15_vosst      .         15_vosst                      : 
Mud                .                                       : 
Mud_density        .                                       : 
Mud_resistivity    .                                       : 
Mud_density        .                                       : 
Mud_resistivity    .                                       : 
NGDU               .         НГДУ-2                        : 
ORIGINALWELLNAME   .         7426                          : 
Spud_date          .         1986                          : 1961
Spud_date          .         1986                          : 1961
Viscosity          .                                       : 
X                  .m        41923.4                       : 46154
Y                  .m        84853.93                      : 85761.93
YEAR               .         2018                          : 
~Parameter Information Block
#_______________________________________________________________________________
#
#PARAMETER_NAME    .UNIT     VALUE                         : DESCRIPTION
#_______________________________________________________________________________
SET                .         LQC_KAZNIPI_Petrel            : 
TLFamily_CALI      .         Caliper                       : 
TLFamily_CILD      .         Conductivity                  : 
TLFamily_COLL      .         Net Reservoir Flag            : 
TLFamily_CSAT      .         Fluid Code                    : 
TLFamily_DEPT      .         Measured Depth                : 
TLFamily_GR        .         Russian Gamma Ray             : 
TLFamily_GZ1       .         Gradient 045                  : 
TLFamily_GZ2       .         Gradient 105                  : 
TLFamily_GZ3       .         Gradient 225                  : 
TLFamily_GZ4       .         Gradient 425                  : 
TLFamily_GZ5       .         Gradient 850                  : 
TLFamily_LLS       .         Lateral Log Resistivity       : 
TLFamily_MINV      .         Micro Gradient Resistivity    : 
TLFamily_MNOR      .         Micro Resistivity             : 
TLFamily_NGLD      .         Neutron Far                   : 
TLFamily_OGZ       .         Gradient Inverted 225         : 
TLFamily_PHIE      .         Effective Porosity            : 
TLFamily_PHIEN     .         Effective Porosity            : 
TLFamily_PHIT      .         Porosity                      : 
TLFamily_PRMB      .         Permeability                  : 
TLFamily_PRMB_DGR  .         Permeability                  : 
TLFamily_RT        .         Formation Resistivity         : 
TLFamily_SOIL_ARCHIE .         Oil Saturation                : 
TLFamily_SOIL_DW   .         Oil Saturation                : 
TLFamily_SP        .         Spontaneous Potential         : 
TLFamily_VSH_FIN   .         Shale Volume                  : 
TLFamily_VSH_GR    .         Shale Volume                  : 
TLFamily_VSH_SP    .         Shale Volume                  : 
~Curve Information
#_______________________________________________________________________________
#
#LOGNAME           .UNIT     LOG_ID                        : DESCRIPTION
#_______________________________________________________________________________
DEPT               .M                                      : Колонка глубины 
CALI               .м                                      : Каверномер 
CILD               .мСм/м                                  : Индукционный каротаж 
COLL               .unitless                               :  
CSAT               .unitless                               :  
GR                 .мкР/ч                                  : Гамма каротаж 
GZ1                .Ом·м                                   :  
GZ2                .Ом·м                                   :  
GZ3                .Ом·м                                   :  
GZ4                .Ом·м                                   :  
GZ5                .Ом·м                                   :  
LLS                .Ом·м                                   : Боковой каротаж 
MINV               .Ом·м                                   : Микро-градиент зонд 
MNOR               .Ом·м                                   : Микро-потенциал зонд 
NGLD               .у.е.                                   : Показания зонда НГК-60 аппаратуры ДРСТ-3-90 
OGZ                .Ом·м                                   :  
PHIE               .м3/м3                                  : Описание 
PHIEN              .v/v                                    :  
PHIT               .м3/м3                                  : Описание 
PRMB               .mD                                     :  
PRMB_DGR           .mD                                     :  
RT                 .ohmm                                   : Description 
SOIL_ARCHIE        .v/v                                    :  
SOIL_DW            .v/v                                    :  
SP                 .мВ                                     : Потенциал самополяризации 
VSH_FIN            .unitless                               : Описание 
VSH_GR             .unitless                               : Shale volume 
VSH_SP             .unitless                               : Shale Volume 
~Ascii
# ...
1160.6     0.21       475.803    1          2          9.299398   2.972      3.429      3.688      1.93       1.6        3.407      1.28       1.422      1.346834   1.575      0.2379253  0.2379253  0.3106075  71.46792000000001 6.163141   3.407      0.5606787  0.6396527  52.676     0.2202491  0.3087533  0.131745  
1160.8     0.21       481        1          2          9.517305   3.226      3.658      3.18       2.134      1.575      3.802      1.204      1.435      1.348899   1.6        0.2313025  0.2313025  0.3099765  53.88169   4.828218   3.802      0.5723341  0.6544356  54.017     0.2384061  0.3411153  0.1356969 
1161       0.211      489.89     1          2          9.764863   3.556000000000001 3.988      2.799      2.413      1.549      3.286      1.293      1.346      1.354239   1.6        0.2205545  0.2205545  0.3083447  34.0692    3.658861   3.286      0.5226602  0.6197135  57.573     0.2660309  0.3820157  0.1500461 
1161.2     0.211      488.62     1          2          10.03688   3.505      3.861      2.545      2.565      1.549      2.313      1.509      1.524      1.362045   1.676      0.2073024  0.2073024  0.305959   19.35986   2.697758   2.313      0.4059471  0.5329022  60.283     0.2989594  0.4326347  0.1652841 
1161.4     0.219      486.08     1          2          10.3254    3.073      3.15       2.291      2.489      1.575      1.871      1.661      1.88       1.371152   1.753      0.1901076  0.1901076  0.3031759  9.29847    1.952691   1.871      0.2923846  0.4591321  63.754     0.3426312  0.4936723  0.1915901 
1161.6     0.223      482.27     -9999      -9999      10.62201   2.388      2.616      2.291      2.261      1.549      1.941      1.153      1.257      1.38022    1.753      0.1702507  0.1702507  0.3004048  3.986707   1.400648   1.941      0.2343338  0.4419949  66.929     0.3944062  0.5654096  0.2234028 
1161.8     0.223      477.19     -9999      -9999      10.91571   1.702      2.591      2.164      2.286      1.499      2.089      1.61       1.689      1.387956   1.702      0.1586151  0.1586151  0.2980408  2.427135   1.596709   2.089      0.2241872  0.4443099  72.962     0.4225022  0.5359575  0.3090468 
1162       0.225      472.11     -9999      -9999      11.19642   1.651      2.718      2.162      2.464      1.549      2.213      1.267      0.965      1.393456   1.6        0.13447    0.13447    0.2963597  0.8666998  1.184548   2.213      0.1280952  0.4228638  76.454     0.490575   0.6054524  0.3756976 
1162.2     0.225      469.57     -9999      -9999      11.45414   1.88       2.997      2.16       2.692      1.626      2.279      1.775      1.295      1.396155   1.448      0.117483   0.117483   0.295535   0.41998    0.9005409  2.279      0.03269925 0.4011572  77.682     0.5395514  0.6771609  0.401942  
1162.4     0.233      468.935    -9999      -9999      11.68      2.057      2.921      1.957      2.845      1.727      2.159      2.105      1.422      1.39605    1.321      0.1023907  0.1023907  0.2955672  0.2206388  0.7082184  2.159      0          0.353943   78.655     0.5853833000000001 0.7469575000000001 0.4238091 
1162.6     0.237      473.38     -9999      -9999      11.86603   1.803      2.489      1.957      2.718      1.854      2.042      1.318      0.952      1.39351    1.321      0.09026136 0.09026136 0.2963434  0.1315277  0.5810766000000001 2.042      0          0.3076422  79.714     0.6244912  0.8        0.4489824 
1162.8     0.231      482.27     -9999      -9999      12.0032    1.6        2.134      2.008      2.515      2.057      1.817      1.153      0.775      1.389119   1.194      0.09015813 0.09015813 0.2976853  0.13095    0.5021927000000001 1.817      0          0.2679493  80.095     0.6288701  0.8        0.4577401 
1163       0.228      486.769    -9999      -9999      12.08618   1.473      1.981      2.109      2.413      2.235      1.765      1.039      0.648      1.3836     1.143      0.0927274  0.0927274  0.2993717  0.1461149  0.4597678  1.765      0          0.2669666  79.925     0.626195   0.8        0.4523898 
1163.2     0.228      491.16     -9999      -9999      12.11418   1.397      1.956      2.211      2.438      2.464      1.831      0.988      0.419      1.377325   1.092      0.09517376 0.09517376 0.3012895  0.1621836  0.4462763  1.831      0          0.2896101  79.756     0.6245931  0.8        0.4491862 
1163.4     0.227      497.51     -9999      -9999      12.09176   1.422      1.803      2.185      2.845      2.769      1.927      1.242      0.597      1.370136   1.168      0.09807415999999999 0.09807415999999999 0.3034863  0.1835395  0.4570487  1.927      0          0.3178409  79.544     0.6224612000000001 0.8        0.4449224 
1163.6     0.22       498.78     -9999      -9999      12.02985   1.575      1.88       2.185      3.174999999999999 3.099      2.058      1.255      0.711      1.361607   1.168      0.1008502  0.1008502  0.3060929  0.2066089  0.4881559  2.058      0          0.3498519  79.46      0.6219474  0.8        0.4438948 
1163.8     0.219      498.78     -9999      -9999      11.94524   1.905      2.515      2.185      3.531      3.429      2.313      0.988      0.838      1.35118    1.346      0.1038585  0.1038585  0.3092795  0.2348925  0.5341285  2.313      0          0.3970199  79.46      0.622488   0.8        0.4449759 
1164       0.226      500.05     -9999      -9999      11.85559   2.362      3.023      2.49       3.658      3.734      2.636      1.775      0.508      1.338779   1.651      0.1071195  0.1071195  0.3130691  0.2699421  0.5875658  2.636      0.02088302 0.4456156  79.544     0.6240899  0.8        0.4481797 
1164.2     0.226      503.86     -9999      -9999      11.77634   2.057      2.388      2.846      3.556000000000001 3.835      1.804      1.178      0.991      1.324898   2.184      0.1146674  0.1146674  0.3173111  0.3724574  0.6392446000000001 1.804      0          0.3513476  79.544     0.6140719  0.7788732  0.4492706 
1164.4     0.233      507.67     -9999      -9999      11.71715   1.702      2.032      2.77       2.388      3.302000000000001 1.739      0.62       0.546      1.310657   2.565      0.1231587  0.1231587  0.3216633  0.5350017  0.6807809  1.739      0          0.3615523  79.29      0.6015291  0.7591067  0.4439515 
1164.6     0.24       515.29     -9999      -9999      11.67945   1.499      1.753      2.77       1.905      2.718      1.831      1.331      1.27       1.297406   2.565      0.1326651  0.1326651  0.3257127  0.8024856  0.7086385  1.831      0.03573235 0.3991398  78.401     0.5849928  0.7467765  0.4232091 
1164.8     0.232      524.18     -9999      -9999      11.6578    1.448      1.93       2.109      1.626      2.21       1.804      1.318      0.546      1.286411   2.261      0.140285   0.140285   0.3290727  1.110649   0.7251426  1.804      0.07508773000000001 0.4107911  77.555     0.572084   0.7397891  0.4043787 
1165       0.232      527.99     -9999      -9999      11.64319   1.473      1.93       1.779      1.397      1.956      1.702      0.785      0.648      1.278389   1.956      0.1482968  0.1482968  0.3315242  1.563058   0.736497   1.702      0.09436290999999999 0.4085566  76.2       0.5552344  0.7351105  0.3753583 
1165.2     0.233      530.53     -9999      -9999      11.62552   1.422      1.753      1.474      1.219      1.88       1.804      0.975      0.47       1.273317   1.854      0.1557646  0.1557646  0.3330742  2.149295   0.7504711  1.804      0.1556757  0.4376802  74.676     0.537302   0.7294903  0.3451136 
1165.4     0.225      533.705    -9999      -9999      11.59941   1.346      1.626      1.271      1.092      1.93       1.969      0.848      0.648      1.27071    1.753      0.161264   0.161264   0.3338711  2.71743    0.7716032  1.969      0.2137714  0.4695893  73.562     0.5230519  0.7212651  0.3248386 
1165.6     0.22       535.61     -9999      -9999      11.56383   1.448      1.854      1.271      1.118      2.032      2.134      1.089      0.927      1.270053   1.753      0.1664679  0.1664679  0.3340718  3.39271    0.8013719  2.134      0.2635629  0.4968485  72.432     0.5078907  0.710202   0.3055794 
