~Version
 VERS              .         2.0                           : CWLS LOG ASCII STANDARD - VERSION 2.0
 WRAP              .         NO                            : ONE LINE PER DEPTH STEP
 DLM               .         SPACE                         : DELIMITING CHARACTER(SPACE TAB OR COMMA)
~Well Information
#_______________________________________________________________________________
#
#PARAMETER_NAME    .UNIT     VALUE                         : DESCRIPTION
#_______________________________________________________________________________
STRT               .M        906                           : First reference value
STOP               .M        1237.2                        : Last reference value
STEP               .M        0.2                           : Step increment
NULL               .         -9999                         : Missing value
COMP               .                                       : Company
WELL               .         7426                          : Well name
FLD                .         Узень                         : Field
LOC                .                                       : Location
CNTY               .                                       : County
STAT               .                                       : State
CTRY               .                                       : Country
SRVC               .                                       : Service Company
DATE               .                                       : Date
UWI                .                                       : Unique Well ID
API                .                                       : 
Block              .         7                             : 
Category           .         Нефтяная                      : 
Condition          .         В работе                      : 
Date               .         29.11.1986                    : 
EREF               .m        94.6                          : 100.8
Gorizont           .         15                            : 14
Interpretator      .         Алпанова Н.К.                 : 
Kupol              .         основной                      : osnovnoi
Moii_15_vosst      .         15_vosst                      : 
Mud                .                                       : 
Mud_density        .                                       : 
Mud_resistivity    .                                       : 
Mud_density        .                                       : 
Mud_resistivity    .                                       : 
NGDU               .         НГДУ-2                        : 
ORIGINALWELLNAME   .         7426                          : 
Spud_date          .         1986                          : 1961
Spud_date          .         1986                          : 1961
Viscosity          .                                       : 
X                  .m        41923.4                       : 46154
Y                  .m        84853.93                      : 85761.93
YEAR               .         2018                          : 
~Parameter Information Block
#_______________________________________________________________________________
#
#PARAMETER_NAME    .UNIT     VALUE                         : DESCRIPTION
#_______________________________________________________________________________
SET                .         LQC_KAZNIPI_Petrel            : 
TLFamily_CALI      .         Caliper                       : 
TLFamily_CILD      .         Conductivity                  : 
TLFamily_COLL      .         Net Reservoir Flag            : 
TLFamily_CSAT      .         Fluid Code                    : 
TLFamily_DEPT      .         Measured Depth                : 
TLFamily_GR        .         Russian Gamma Ray             : 
TLFamily_GZ1       .         Gradient 045                  : 
TLFamily_GZ2       .         Gradient 105                  : 
TLFamily_GZ3       .         Gradient 225                  : 
TLFamily_GZ4       .         Gradient 425                  : 
TLFamily_GZ5       .         Gradient 850                  : 
TLFamily_LLS       .         Lateral Log Resistivity       : 
TLFamily_MINV      .         Micro Gradient Resistivity    : 
TLFamily_MNOR      .         Micro Resistivity             : 
TLFamily_NGLD      .         Neutron Far                   : 
TLFamily_OGZ       .         Gradient Inverted 225         : 
TLFamily_PHIE      .         Effective Porosity            : 
TLFamily_PHIEN     .         Effective Porosity            : 
TLFamily_PHIT      .         Porosity                      : 
TLFamily_PRMB      .         Permeability                  : 
TLFamily_PRMB_DGR  .         Permeability                  : 
TLFamily_RT        .         Formation Resistivity         : 
TLFamily_SOIL_ARCHIE .         Oil Saturation                : 
TLFamily_SOIL_DW   .         Oil Saturation                : 
TLFamily_SP        .         Spontaneous Potential         : 
TLFamily_VSH_FIN   .         Shale Volume                  : 
TLFamily_VSH_GR    .         Shale Volume                  : 
TLFamily_VSH_SP    .         Shale Volume                  : 
~Curve Information
#_______________________________________________________________________________
#
#LOGNAME           .UNIT     LOG_ID                        : DESCRIPTION
#_______________________________________________________________________________
DEPT               .M                                      : Колонка глубины 
CALI               .м                                      : Каверномер 
CILD               .мСм/м                                  : Индукционный каротаж 
COLL               .unitless                               :  
CSAT               .unitless                               :  
GR                 .мкР/ч                                  : Гамма каротаж 
GZ1                .Ом·м                                   :  
GZ2                .Ом·м                                   :  
GZ3                .Ом·м                                   :  
GZ4                .Ом·м                                   :  
GZ5                .Ом·м                                   :  
LLS                .Ом·м                                   : Боковой каротаж 
MINV               .Ом·м                                   : Микро-градиент зонд 
MNOR               .Ом·м                                   : Микро-потенциал зонд 
NGLD               .у.е.                                   : Показания зонда НГК-60 аппаратуры ДРСТ-3-90 
OGZ                .Ом·м                                   :  
PHIE               .м3/м3                                  : Описание 
PHIEN              .v/v                                    :  
PHIT               .м3/м3                                  : Описание 
PRMB               .mD                                     :  
PRMB_DGR           .mD                                     :  
RT                 .ohmm                                   : Description 
SOIL_ARCHIE        .v/v                                    :  
SOIL_DW            .v/v                                    :  
SP                 .мВ                                     : Потенциал самополяризации 
VSH_FIN            .unitless                               : Описание 
VSH_GR             .unitless                               : Shale volume 
VSH_SP             .unitless                               : Shale Volume 
~Ascii
# ...
1140.6     0.213      144.45     1          2          8.718518   4.039000000000001 7.595      6.863000000000001 6.579      5.994000000000001 6.026      1.356      1.791      1.383233   9.271000000000001 0.2393787  0.2393787  0.2994841  76.03831   11.81436   6.026      0.6656031  0.723955   47.159     0.1821376  0.2367082  0.127567  
1140.8     0.213      144.45     1          2          8.669589   3.937      7.315      6.863000000000001 6.374999999999999 5.893      5.939      1.318      1.562      1.385271   9.779      0.239603   0.239603   0.2988612  76.76913   12.48001   5.939      0.6635877  0.7217147  47.244     0.1795703  0.2314691  0.1276716 
1141       0.213      145.72     1          2          8.625691   3.861      7.087      6.863000000000001 6.172000000000001 5.842      5.896      1.216      1.575      1.389782   11.176     0.2389504  0.2389504  0.2974825  74.66193   13.10907   5.896      0.6616359000000001 0.7196314  47.371     0.17737    0.2268675  0.1278724 
1141.2     0.211      146.99     1          2          8.584551   3.886000000000001 6.984999999999999 6.736      5.969      5.867      5.896      1.305      1.753      1.397475   12.573     0.2372478  0.2372478  0.2951317  69.43263   13.72737   5.896      0.6595220000000001 0.7174913  47.54      0.1754054  0.222638   0.1281729 
1141.4     0.21       149.53     1          2          8.540331   3.912      6.96       6.609000000000001 5.817      5.918      5.583      1.293      1.549      1.409832   13.589     0.2341732  0.2341732  0.2913555  60.89946   14.42452   5.583      0.6467031  0.7058967  47.667     0.1732797  0.2181798  0.1283796 
1141.6     0.21       150.165    1          2          8.487664   3.785      6.730999999999999 6.609000000000001 5.663999999999999 5.969      5.441      1.242      1.511      1.428439   13.589     0.2293256  0.2293256  0.2856691  49.52502   15.30116   5.441      0.6358312  0.6959988  47.752     0.1707378  0.2129863  0.1284892 
1141.8     0.21       146.99     1          2          8.419651   3.556000000000001 6.374999999999999 6.609000000000001 5.512000000000001 6.223      5.602      1.216      1.422      1.454909   14.732     0.2222946  0.2222946  0.2775798  36.69386   16.51255   5.602      0.6309050000000001 0.6913546  47.837     0.1675307  0.206462   0.1285995 
1142       0.21       143.18     1          2          8.330613   3.277      5.944      6.482      5.715      6.528      5.441      1.216      1.41       1.49036    16.002     0.2127689  0.2127689  0.2667461  24.44297   18.24452   5.441      0.6112706  0.673555   48.006     0.1635673  0.198222   0.1289127 
1142.2     0.208      136.83     1          2          8.21826    2.896      5.537      6.355000000000001 6.070999999999999 6.883      5.245      1.229      1.448      1.534433   17.399     0.2008684  0.2008684  0.2532773  14.71394   20.69161   5.245      0.58419    0.6489835  48.218     0.1588146  0.1882918  0.1293374 
1142.4     0.206      131.75     1          2          8.085468   3.073      5.359      6.736      6.528      7.29       5.602      1.255      1.549      1.584512   17.78000000000001 0.1873589  0.1873589  0.2379731  8.269885   24.01041   5.602      0.5716385000000001 0.6373998  48.345     0.1533763  0.1771948  0.1295579 
1142.6     0.21       126.67     1          2          7.941128   4.013      6.579      6.736      6.933999999999999 7.823      6.115      1.509      1.765      1.635678   17.78000000000001 0.1736065  0.1736065  0.2223368  4.600146   28.2243    6.115      0.5606717  0.6272439  48.345     0.1476674  0.1658732  0.1294616 
1142.8     0.217      121.59     6          6          7.800694   5.715      7.772      7.879      7.569      8.547000000000001 7.342      2.131      2.654      1.681231   16.383     0.1614732  0.1614732  0.2084159  2.741784   33.03294   7.342      0.5705364000000001 0.6359052  48.175     0.1422508  0.1555526  0.1289489 
1143       0.217      113.97     6          6          7.685704   7.391      21.336     9.276      9.651999999999999 9.144      13.768     2.969      3.073      1.713739   15.24      0.1529846  0.1529846  0.1984813  1.908993   37.57434   13.768     0.6648671  0.7202078  47.879     0.1378687  0.147582   0.1281553 
1143.2     0.222      111.43     6          6          7.618266   8.763      24.63800000000001 10.546     10.795     9.271000000000001 47.711     3.464      3.073      1.727336   14.097     0.1497561  0.1497561  0.1943262  1.66343    40.52298   47.711     0.8094534  0.8464742  47.413     0.1350609  0.1430988  0.127023  
1143.4     0.222      108.89     6          6          7.61318    8.890000000000001 25.4       12.197     10.795     9.144      90.787     3.159      3.086      1.719292   12.065     0.1524005  0.1524005  0.1967843  1.862024   40.75452   90.787     0.8612396  0.8903211  47.075     0.1344963  0.1427663  0.1262263 
1143.6     0.217      107.62     6          6          7.67487    7.492999999999999 23.114     12.197     9.779      8.890000000000001 88.818     3.622      2.975      1.69119    12.065     0.1604398  0.1604398  0.2053725  2.623574   38.03317   88.818     0.865943   0.8941353  46.736     0.1361595  0.1468524  0.1254666 
1143.8     0.211      108.89     6          6          7.795238   6.223      18.161     13.721     8.509000000000002 8.382000000000001 62.532     4.061      2.87       1.648547   9.525      0.1721795  0.1721795  0.218404   4.328531   33.23545   62.532     0.8513745  0.8818117  46.524     0.140074   0.1551649  0.1249832 
1144       0.211      110.16     6          6          7.955165   5.207      14.986     14.61      8.000999999999998 8.000999999999998 14.491     3.083      2.108      1.599261   8.000999999999998 0.1853363  0.1853363  0.2334658  7.586392   27.78397   14.491     0.7231624  0.7709941  46.44      0.1458471  0.1669417  0.1247526 
1144.2     0.211      112.7      6          6          8.130047   4.444999999999999 12.7       14.356     7.620000000000001 7.620000000000001 8.944      1.432      1.346      1.551145   7.492999999999999 0.1977191  0.1977191  0.2481702  12.86458   22.8408    8.944      0.6718265  0.7261915  46.567     0.152882   0.1808452  0.1249188 
1144.4     0.211      116.51     1          2          8.295972   3.937      11.176     14.61      7.239      7.112      6.875      1.14       1.403      1.510032   6.857999999999999 0.2078757  0.2078757  0.2607342  19.83906   18.96645   6.875      0.6445542  0.702834   46.778     0.160177   0.1951057  0.1252484 
1144.6     0.21       119.05     1          2          8.434606   3.81       9.906000000000001 14.61      6.730999999999999 6.730999999999999 6.532      1.127      1.372      1.478703   6.857999999999999 0.2153     0.2153     0.2703083  27.22925   16.23822   6.532      0.6468737  0.7058098  46.948     0.166692   0.2078792  0.1255048 
1144.8     0.209      122.86     1          2          8.53406    3.682999999999999 9.144      14.737     6.628999999999999 6.35       6.437      1.026      1.346      1.457018   6.477000000000001 0.2203157  0.2203157  0.2769353  33.72399   14.52619   6.437      0.6514982  0.7105936  47.032     0.1715747  0.2175549  0.1255946 
1145       0.209      125.4      1          2          8.591529   3.682999999999999 8.509000000000002 13.975     6.655      6.604      5.853      1.204      1.651      1.442781   6.477000000000001 0.2236951  0.2236951  0.2812861  38.95236   13.62049   5.853      0.6403914000000001 0.7011471  47.117     0.1745183  0.2233498  0.1256869 
1145.2     0.21       130.48     1          2          8.609921   3.682999999999999 8.000999999999998 12.578     6.730999999999999 6.477000000000001 5.644      1.343      1.549      1.433269   6.35       0.2262331  0.2262331  0.2841931  43.40535   13.34273   5.644      0.6377795000000001 0.6989037  47.329     0.1756366  0.2252367  0.1260364 
1145.4     0.21       134.29     1          2          8.598354   4.089      7.747000000000001 11.054     6.730999999999999 6.502      5.685      1.077      1.283      1.426166   6.223      0.2285411  0.2285411  0.2863637  47.89534   13.51674   5.685      0.6421849  0.7025836  47.54      0.1752201  0.2240482  0.1263921 
