~Version
 VERS              .         2.0                           : CWLS LOG ASCII STANDARD - VERSION 2.0
 WRAP              .         NO                            : ONE LINE PER DEPTH STEP
 DLM               .         SPACE                         : DELIMITING CHARACTER(SPACE TAB OR COMMA)
~Well Information
#_______________________________________________________________________________
#
#PARAMETER_NAME    .UNIT     VALUE                         : DESCRIPTION
#_______________________________________________________________________________
STRT               .M        906                           : First reference value
STOP               .M        1237.2                        : Last reference value
STEP               .M        0.2                           : Step increment
NULL               .         -9999                         : Missing value
COMP               .                                       : Company
WELL               .         7426                          : Well name
FLD                .         Узень                         : Field
LOC                .                                       : Location
CNTY               .                                       : County
STAT               .                                       : State
CTRY               .                                       : Country
SRVC               .                                       : Service Company
DATE               .                                       : Date
UWI                .                                       : Unique Well ID
API                .                                       : 
Block              .         7                             : 
Category           .         Нефтяная                      : 
Condition          .         В работе                      : 
Date               .         29.11.1986                    : 
EREF               .m        94.6                          : 100.8
Gorizont           .         15                            : 14
Interpretator      .         Алпанова Н.К.                 : 
Kupol              .         основной                      : osnovnoi
Moii_15_vosst      .         15_vosst                      : 
Mud                .                                       : 
Mud_density        .                                       : 
Mud_resistivity    .                                       : 
Mud_density        .                                       : 
Mud_resistivity    .                                       : 
NGDU               .         НГДУ-2                        : 
ORIGINALWELLNAME   .         7426                          : 
Spud_date          .         1986                          : 1961
Spud_date          .         1986                          : 1961
Viscosity          .                                       : 
X                  .m        41923.4                       : 46154
Y                  .m        84853.93                      : 85761.93
YEAR               .         2018                          : 
~Parameter Information Block
#_______________________________________________________________________________
#
#PARAMETER_NAME    .UNIT     VALUE                         : DESCRIPTION
#_______________________________________________________________________________
SET                .         LQC_KAZNIPI_Petrel            : 
TLFamily_CALI      .         Caliper                       : 
TLFamily_CILD      .         Conductivity                  : 
TLFamily_COLL      .         Net Reservoir Flag            : 
TLFamily_CSAT      .         Fluid Code                    : 
TLFamily_DEPT      .         Measured Depth                : 
TLFamily_GR        .         Russian Gamma Ray             : 
TLFamily_GZ1       .         Gradient 045                  : 
TLFamily_GZ2       .         Gradient 105                  : 
TLFamily_GZ3       .         Gradient 225                  : 
TLFamily_GZ4       .         Gradient 425                  : 
TLFamily_GZ5       .         Gradient 850                  : 
TLFamily_LLS       .         Lateral Log Resistivity       : 
TLFamily_MINV      .         Micro Gradient Resistivity    : 
TLFamily_MNOR      .         Micro Resistivity             : 
TLFamily_NGLD      .         Neutron Far                   : 
TLFamily_OGZ       .         Gradient Inverted 225         : 
TLFamily_PHIE      .         Effective Porosity            : 
TLFamily_PHIEN     .         Effective Porosity            : 
TLFamily_PHIT      .         Porosity                      : 
TLFamily_PRMB      .         Permeability                  : 
TLFamily_PRMB_DGR  .         Permeability                  : 
TLFamily_RT        .         Formation Resistivity         : 
TLFamily_SOIL_ARCHIE .         Oil Saturation                : 
TLFamily_SOIL_DW   .         Oil Saturation                : 
TLFamily_SP        .         Spontaneous Potential         : 
TLFamily_VSH_FIN   .         Shale Volume                  : 
TLFamily_VSH_GR    .         Shale Volume                  : 
TLFamily_VSH_SP    .         Shale Volume                  : 
~Curve Information
#_______________________________________________________________________________
#
#LOGNAME           .UNIT     LOG_ID                        : DESCRIPTION
#_______________________________________________________________________________
DEPT               .M                                      : Колонка глубины 
CALI               .м                                      : Каверномер 
CILD               .мСм/м                                  : Индукционный каротаж 
COLL               .unitless                               :  
CSAT               .unitless                               :  
GR                 .мкР/ч                                  : Гамма каротаж 
GZ1                .Ом·м                                   :  
GZ2                .Ом·м                                   :  
GZ3                .Ом·м                                   :  
GZ4                .Ом·м                                   :  
GZ5                .Ом·м                                   :  
LLS                .Ом·м                                   : Боковой каротаж 
MINV               .Ом·м                                   : Микро-градиент зонд 
MNOR               .Ом·м                                   : Микро-потенциал зонд 
NGLD               .у.е.                                   : Показания зонда НГК-60 аппаратуры ДРСТ-3-90 
OGZ                .Ом·м                                   :  
PHIE               .м3/м3                                  : Описание 
PHIEN              .v/v                                    :  
PHIT               .м3/м3                                  : Описание 
PRMB               .mD                                     :  
PRMB_DGR           .mD                                     :  
RT                 .ohmm                                   : Description 
SOIL_ARCHIE        .v/v                                    :  
SOIL_DW            .v/v                                    :  
SP                 .мВ                                     : Потенциал самополяризации 
VSH_FIN            .unitless                               : Описание 
VSH_GR             .unitless                               : Shale volume 
VSH_SP             .unitless                               : Shale Volume 
~Ascii
# ...
1228.2     0.208      418.77     1          2          8.415843   2.235      2.235      2.135      2.057      0.66       2.364      1.61       1.524      1.407947   -9999      0.2322129  0.2322129  0.2919313  56.0149    22.80385   2.364      0.4747402  0.5534449  -9999      0.180965   0.1809648  -9999     
1228.4     0.21       417.5      1          2          8.422699   2.134      2.21       2.16       2.032      0.6860000000000001 2.347      1.572      1.549      1.405103   -9999      0.232904   0.232904   0.2928006  57.69059   22.63817   2.347      0.4743207  0.5531608  -9999      0.181505   0.1815045  -9999     
1228.6     0.209      421.31     1          2          8.432919   2.083      2.286      2.16       2.007      0.787      2.313      1.534      1.473      1.402071   -9999      0.2335641  0.2335641  0.2937271  59.33795   22.39342   2.313      0.4720118  0.551246   -9999      0.182312   0.1823119  -9999     
1228.8     0.208      430.2      1          2          8.442576   2.083      2.464      2.185      2.007      0.889      2.296      1.483      1.372      1.39929    -9999      0.2341611  0.2341611  0.2945769  60.8682    22.16455   2.296      0.4713575  0.5508233  -9999      0.183078   0.1830782  -9999     
1229       0.21       437.82     1          2          8.451202   -9999      2.489      2.211      1.981      0.991      2.263      1.452      1.391      1.396865   -9999      0.2346756  0.2346756  0.295318   62.21842   21.96213   2.263      0.4687702  0.5486348  -9999      0.183765   0.1837654  -9999     
1229.2     0.211      446.71     1          2          8.461518   -9999      2.464      2.236      1.981      1.118      2.246      1.42       1.41       1.394768   -9999      0.235044   0.235044   0.295959   63.20373   21.72246   2.246      0.467615   0.5477965  -9999      0.184591   0.1845906  -9999     
1229.4     -0.049     456.87     1          2          8.478746   -9999      2.438      2.262      -9999      1.194      2.23       1.28       1.295      1.393141   -9999      0.2350837  0.2350837  0.2964561  63.31099   21.32803   2.23       0.4659046  0.5466491  -9999      0.185977   0.185977   -9999     
1229.6     -0.049     475.92     1          2          8.506523   -9999      -9999      2.262      -9999      1.27       2.213      1.305      1.27       1.392287   -9999      0.2345998  0.2345998  0.296717   62.01756   20.70711   2.213      0.4630202  0.5447462  -9999      0.188234   0.1882343  -9999     
1229.8     -9999      493.7      1          2          8.547667   -9999      -9999      2.287      -9999      1.499      2.198      1.229      1.206      1.392377   -9999      0.2334525  0.2334525  0.2966897  59.05606   19.82046   2.198      0.4589987  0.5422246  -9999      0.191628   0.1916282  -9999     
1230       -9999      508.94     1          2          8.602366   -9999      -9999      2.338      -9999      1.829      2.198      1.166      1.13       1.393202   -9999      0.23168    0.23168    0.2964375  54.7562    18.70018   2.198      0.4553955  0.5405247  -9999      0.196235   0.1962353  -9999     
1230.2     -9999      530.53     1          2          8.668814   -9999      -9999      2.363      -9999      2.184      2.134      1.255      1.143      1.394323   -9999      0.2294412  0.2294412  0.2960949  49.76971   17.42413   2.134      0.4431012  0.5314606  -9999      0.201981   0.2019811  -9999     
1230.4     -9999      553.39     -9999      -9999      8.743562   -9999      -9999      2.414      -9999      1.981      1.955      1.356      1.257      1.395013   -9999      0.2270308  0.2270308  0.295884   44.90751   16.09245   1.955      0.4143672  0.5080979  -9999      0.208646   0.208646   -9999     
1230.6     -9999      572.44     -9999      -9999      8.823691   -9999      -9999      -9999      -9999      1.803      1.752      1.47       1.054      1.392801   -9999      0.2252685  0.2252685  0.2965601  41.65602   14.77772   1.752      0.3792514  0.4793671  -9999      0.216035   0.2160352  -9999     
1230.8     -9999      592.76     -9999      -9999      8.905867   -9999      -9999      -9999      -9999      1.778      1.676      1.369      1.283      -9999      -9999      -9999      -9999      -9999      -9999      -9999      1.676      -9999      -9999      -9999      0.223885   0.2238849  -9999     
1231       -9999      604.19     -9999      -9999      8.986768   -9999      -9999      -9999      -9999      1.803      1.739      1.432      1.334      -9999      -9999      -9999      -9999      -9999      -9999      -9999      1.739      -9999      -9999      -9999      0.231891   0.2318914  -9999     
1231.2     -9999      611.81     -9999      -9999      9.062992   -9999      -9999      -9999      -9999      1.753      1.778      1.343      1.41       -9999      -9999      -9999      -9999      -9999      -9999      -9999      1.778      -9999      -9999      -9999      0.239697   0.239697   -9999     
1231.4     -9999      618.16     -9999      -9999      9.13       -9999      -9999      -9999      -9999      1.676      1.778      1.305      1.283      -9999      -9999      -9999      -9999      -9999      -9999      -9999      1.778      -9999      -9999      -9999      0.246775   0.2467754  -9999     
1231.6     -9999      620.7      -9999      -9999      9.172686   -9999      -9999      -9999      -9999      1.575      1.778      1.255      1.232      -9999      -9999      -9999      -9999      -9999      -9999      -9999      1.778      -9999      -9999      -9999      0.251393   0.2513932  -9999     
1231.8     -9999      620.7      -9999      -9999      -9999      -9999      -9999      -9999      -9999      1.524      1.778      1.496      1.422      -9999      -9999      -9999      -9999      -9999      -9999      -9999      1.778      -9999      -9999      -9999      -9999      -9999      -9999     
1232       -9999      619.43     -9999      -9999      -9999      -9999      -9999      -9999      -9999      1.524      1.778      1.483      1.346      -9999      -9999      -9999      -9999      -9999      -9999      -9999      1.778      -9999      -9999      -9999      -9999      -9999      -9999     
1232.2     -9999      615.327    -9999      -9999      -9999      -9999      -9999      -9999      -9999      1.575      1.79       1.572      1.473      -9999      -9999      -9999      -9999      -9999      -9999      -9999      1.79       -9999      -9999      -9999      -9999      -9999      -9999     
1232.4     -9999      610.54     -9999      -9999      -9999      -9999      -9999      -9999      -9999      1.626      1.797      1.432      1.384      -9999      -9999      -9999      -9999      -9999      -9999      -9999      1.797      -9999      -9999      -9999      -9999      -9999      -9999     
1232.6     -9999      604.19     -9999      -9999      -9999      -9999      -9999      -9999      -9999      1.626      1.804      1.445      1.359      -9999      -9999      -9999      -9999      -9999      -9999      -9999      1.804      -9999      -9999      -9999      -9999      -9999      -9999     
1232.8     -9999      596.57     -9999      -9999      -9999      -9999      -9999      -9999      -9999      1.626      1.79       1.369      1.232      -9999      -9999      -9999      -9999      -9999      -9999      -9999      1.79       -9999      -9999      -9999      -9999      -9999      -9999     
1233       -9999      587.68     -9999      -9999      -9999      -9999      -9999      -9999      -9999      -9999      1.778      1.534      1.372      -9999      -9999      -9999      -9999      -9999      -9999      -9999      1.778      -9999      -9999      -9999      -9999      -9999      -9999     
1233.2     -9999      577.52     -9999      -9999      -9999      -9999      -9999      -9999      -9999      -9999      1.765      1.496      1.321      -9999      -9999      -9999      -9999      -9999      -9999      -9999      1.765      -9999      -9999      -9999      -9999      -9999      -9999     
