~Version
 VERS              .         2.0                           : CWLS LOG ASCII STANDARD - VERSION 2.0
 WRAP              .         NO                            : ONE LINE PER DEPTH STEP
 DLM               .         SPACE                         : DELIMITING CHARACTER(SPACE TAB OR COMMA)
~Well Information
#_______________________________________________________________________________
#
#PARAMETER_NAME    .UNIT     VALUE                         : DESCRIPTION
#_______________________________________________________________________________
STRT               .M        906                           : First reference value
STOP               .M        1237.2                        : Last reference value
STEP               .M        0.2                           : Step increment
NULL               .         -9999                         : Missing value
COMP               .                                       : Company
WELL               .         7426                          : Well name
FLD                .         Узень                         : Field
LOC                .                                       : Location
CNTY               .                                       : County
STAT               .                                       : State
CTRY               .                                       : Country
SRVC               .                                       : Service Company
DATE               .                                       : Date
UWI                .                                       : Unique Well ID
API                .                                       : 
Block              .         7                             : 
Category           .         Нефтяная                      : 
Condition          .         В работе                      : 
Date               .         29.11.1986                    : 
EREF               .m        94.6                          : 100.8
Gorizont           .         15                            : 14
Interpretator      .         Алпанова Н.К.                 : 
Kupol              .         основной                      : osnovnoi
Moii_15_vosst      .         15_vosst                      : 
Mud                .                                       : 
Mud_density        .                                       : 
Mud_resistivity    .                                       : 
Mud_density        .                                       : 
Mud_resistivity    .                                       : 
NGDU               .         НГДУ-2                        : 
ORIGINALWELLNAME   .         7426                          : 
Spud_date          .         1986                          : 1961
Spud_date          .         1986                          : 1961
Viscosity          .                                       : 
X                  .m        41923.4                       : 46154
Y                  .m        84853.93                      : 85761.93
YEAR               .         2018                          : 
~Parameter Information Block
#_______________________________________________________________________________
#
#PARAMETER_NAME    .UNIT     VALUE                         : DESCRIPTION
#_______________________________________________________________________________
SET                .         LQC_KAZNIPI_Petrel            : 
TLFamily_CALI      .         Caliper                       : 
TLFamily_CILD      .         Conductivity                  : 
TLFamily_COLL      .         Net Reservoir Flag            : 
TLFamily_CSAT      .         Fluid Code                    : 
TLFamily_DEPT      .         Measured Depth                : 
TLFamily_GR        .         Russian Gamma Ray             : 
TLFamily_GZ1       .         Gradient 045                  : 
TLFamily_GZ2       .         Gradient 105                  : 
TLFamily_GZ3       .         Gradient 225                  : 
TLFamily_GZ4       .         Gradient 425                  : 
TLFamily_GZ5       .         Gradient 850                  : 
TLFamily_LLS       .         Lateral Log Resistivity       : 
TLFamily_MINV      .         Micro Gradient Resistivity    : 
TLFamily_MNOR      .         Micro Resistivity             : 
TLFamily_NGLD      .         Neutron Far                   : 
TLFamily_OGZ       .         Gradient Inverted 225         : 
TLFamily_PHIE      .         Effective Porosity            : 
TLFamily_PHIEN     .         Effective Porosity            : 
TLFamily_PHIT      .         Porosity                      : 
TLFamily_PRMB      .         Permeability                  : 
TLFamily_PRMB_DGR  .         Permeability                  : 
TLFamily_RT        .         Formation Resistivity         : 
TLFamily_SOIL_ARCHIE .         Oil Saturation                : 
TLFamily_SOIL_DW   .         Oil Saturation                : 
TLFamily_SP        .         Spontaneous Potential         : 
TLFamily_VSH_FIN   .         Shale Volume                  : 
TLFamily_VSH_GR    .         Shale Volume                  : 
TLFamily_VSH_SP    .         Shale Volume                  : 
~Curve Information
#_______________________________________________________________________________
#
#LOGNAME           .UNIT     LOG_ID                        : DESCRIPTION
#_______________________________________________________________________________
DEPT               .M                                      : Колонка глубины 
CALI               .м                                      : Каверномер 
CILD               .мСм/м                                  : Индукционный каротаж 
COLL               .unitless                               :  
CSAT               .unitless                               :  
GR                 .мкР/ч                                  : Гамма каротаж 
GZ1                .Ом·м                                   :  
GZ2                .Ом·м                                   :  
GZ3                .Ом·м                                   :  
GZ4                .Ом·м                                   :  
GZ5                .Ом·м                                   :  
LLS                .Ом·м                                   : Боковой каротаж 
MINV               .Ом·м                                   : Микро-градиент зонд 
MNOR               .Ом·м                                   : Микро-потенциал зонд 
NGLD               .у.е.                                   : Показания зонда НГК-60 аппаратуры ДРСТ-3-90 
OGZ                .Ом·м                                   :  
PHIE               .м3/м3                                  : Описание 
PHIEN              .v/v                                    :  
PHIT               .м3/м3                                  : Описание 
PRMB               .mD                                     :  
PRMB_DGR           .mD                                     :  
RT                 .ohmm                                   : Description 
SOIL_ARCHIE        .v/v                                    :  
SOIL_DW            .v/v                                    :  
SP                 .мВ                                     : Потенциал самополяризации 
VSH_FIN            .unitless                               : Описание 
VSH_GR             .unitless                               : Shale volume 
VSH_SP             .unitless                               : Shale Volume 
~Ascii
# ...
1032.2     0.249      290.5      -9999      -9999      7.120474   2.565      4.166      3.608      3.785      2.87       2.435      0.543      0.635      1.320226   3.835      0.1871867  0.1871867  0.3187389  8.209372   6.834073   2.435      0.366191   0.5370405  74.21      0.398643   0.2959966  0.5012894 
1032.4     0.226      289.23     -9999      -9999      6.932588   3.404      5.080000000000001 3.582      4.013      2.997      2.697      0.493      0.731      1.343406   3.835      0.1833072  0.1833072  0.311655   6.957474   8.262207999999999 2.697      0.3847476  0.5503775  74.253     0.3889329  0.273926   0.5039397 
1032.6     0.226      279.705    -9999      -9999      6.73263    4.191      5.156000000000001 3.582      3.607      2.946      5.082      2.245      2.553      1.364533   3.835      0.1795964  0.1795964  0.3051987  5.939074   10.11131   5.082      0.534768   0.6655901  74.38      0.3806132  0.2522422  0.5089842 
1032.8     0.221      261.29     -9999      -9999      6.538846   3.734      4.521      3.405      3.174999999999999 2.769      9.908      3.934      2.426      1.381081   4.267      0.1764983  0.1764983  0.3001417  5.203979   12.29733   9.908      0.654707   0.7563987  74.591     0.3746768  0.2328671  0.5164866 
1033       0.225      247.32     -9999      -9999      6.365341   2.896      4.242      3.354      2.845      2.565      6.071      2.283      0.94       1.391922   5.182      0.1743777  0.1743777  0.2968288  4.753972   14.65275   6.071      0.5608789  0.6852008  74.845     0.3710638  0.2167857  0.5253419 
1033.2     0.23       242.24     -9999      -9999      6.219175   2.642      4.674000000000001 3.658999999999999 2.769      2.362      3.484      1.674      2.781      1.397541   5.639      0.1735207  0.1735207  0.2951114  4.583346   16.98379   3.484      0.4276973  0.5821761  75.099     0.3684567  0.2041033  0.5328101 
1033.4     0.228      237.16     -9999      -9999      6.09938    2.845      5.004      4.065      2.845      2.311      2.818      2.855      1.041      1.399722   5.156000000000001 0.1738557  0.1738557  0.2944449  4.649297   19.16824   2.818      0.3688496  0.5351433  75.226     0.3654217  0.1942643  0.5365791 
1033.6     0.228      233.35     -9999      -9999      6.000287   3.15       4.953      4.065      2.997      2.362      3.191      0.823      2.146      1.400563   5.156000000000001 0.1742566  0.1742566  0.2941879  4.729478   21.18605   3.191      0.4058063  0.5633278  75.353     0.3634282  0.1864849  0.5403715 
1033.8     0.225      230.81     -9999      -9999      5.918507   3.15       4.902      4.014      3.073      2.438      3.887      2.982      1.638      1.40142    4.623      0.1743855  0.1743855  0.2939259  4.755549   23.01032   3.887      0.4586997  0.6042543  75.48      0.3622437  0.1803     0.5441875000000001
1034       0.223      229.54     -9999      -9999      5.854872   3.226      4.521      3.557      3.073      2.464      4.433      2.423      2.68       1.402599   4.140000000000001 0.1735252  0.1735252  0.2935659  4.584223   24.53784   4.433      0.4888812  0.6284211  75.734     0.3637597  0.1756296  0.5518898 
1034.2     0.225      228.27     -9999      -9999      5.814997   3.556000000000001 5.029      3.328      2.997      2.438      4.121      2.69       2.019      1.403597   4.191      0.1719722  0.1719722  0.2932608  4.290431   25.54627   4.121      0.466916   0.6129873  76.073     0.3675411  0.1727649  0.5623173 
1034.4     0.224      225.73     -9999      -9999      5.805063   3.505      5.333999999999999 3.506      2.87       2.438      4.805      2.372      2.139      1.403672   4.368999999999999 0.1707584  0.1707584  0.293238   4.073973   25.80387   4.805      0.5009094  0.6405625  76.327     0.3711502  0.1720585  0.5702419 
1034.6     0.224      224.46     -9999      -9999      5.827373   3.226      4.928      3.506      2.718      2.565      4.499      2.88       2.464      1.402483   4.368999999999999 0.1699806  0.1699806  0.2936013  3.941038   25.22892   4.499      0.483207   0.6281437  76.496     0.3746083  0.173649   0.5755676 
1034.8     0.223      224.46     -9999      -9999      5.878849   2.845      4.648      3.684      2.692      2.616      3.261      2.283      1.638      1.399998   4.318      0.1699005  0.1699005  0.2943607  3.927601   23.95073   3.261      0.3987134  0.5638235  76.539     0.3771522  0.177375   0.5769295 
1035       0.224      223.19     -9999      -9999      5.95084    2.997      4.928      3.862000000000001 2.946      2.642      3.612      2.563      1.74       1.396297   4.115000000000001 0.1701493  0.1701493  0.2954915  3.969495   22.271     3.612      0.4276071  0.5867557  76.539     0.3798249  0.1827204  0.5769295 
1035.2     0.225      223.19     -9999      -9999      6.033577   3.378      5.588000000000001 3.963      3.099      2.642      4.369      2.486      1.803      1.391211   3.912      0.170882   0.170882   0.297046   4.095498   20.48553   4.369      0.4784552  0.6260836  76.496     0.3823153  0.189063   0.5755676 
1035.4     0.225      223.19     -9999      -9999      6.119797   3.708      5.715      4.116      2.921      2.616      5.245      2.182      2.527      1.384278   4.039000000000001 0.1720905  0.1720905  0.2991648  4.312128   18.77702   5.245      0.5242447  0.661143   76.454     0.3850735  0.195907   0.5742401 
1035.6     0.225      224.46     -9999      -9999      6.206458   3.429      5.156000000000001 4.116      2.819      2.565      5.207      3.274      1.626      1.37498    4.039000000000001 0.1739743  0.1739743  0.3020062  4.672879   17.20334   5.207      0.5271239  0.6633     76.412     0.3879754  0.2030356  0.5729152 
1035.8     0.226      225.73     -9999      -9999      6.291647   3.226      5.105      4.37       2.718      2.464      3.587      2.677      2.108      1.36346    4.318      0.1767378  0.1767378  0.3055265  5.257392   15.78499   3.587      0.444429   0.5996685  76.327     0.390269   0.210296   0.5702419 
1036       0.225      228.27     -9999      -9999      6.370224   3.048      5.258      4.700000000000001 2.642      2.362      3.238      2.994      1.918      1.351275   4.368999999999999 0.1799744  0.1799744  0.3092503  6.035607   14.58065   3.238      0.4262323  0.5847157  76.2       0.3917451  0.2172227  0.5662675 
1036.2     0.228      232.08     -9999      -9999      6.431626   2.565      4.75       4.979000000000001 2.489      2.311      3.693      3.413      0.66       1.340933   4.166      0.1833015  0.1833015  0.3124108  6.955785   13.70385   3.693      0.4691016  0.6163184  75.988     0.3912404  0.2227939  0.5596868 
1036.4     0.237      235.89     -9999      -9999      6.461505   2.21       4.013      5.157000000000001 2.565      2.362      3.168      0.747      1.029      1.335393   4.039000000000001 0.1853965  0.1853965  0.3141039  7.60591    13.29648   3.168      0.4351112  0.5889543  75.819     0.3900224  0.2255564  0.5544885000000001
1036.6     0.237      238.43     -9999      -9999      6.445197   2.235      3.531      5.157000000000001 2.794      2.413      2.6        0.569      1.041      1.337024   4.039000000000001 0.1870557  0.1870557  0.3136053  8.163634999999999 13.51731   2.6        0.3850197  0.5474491  75.438     0.3834837  0.2240444  0.542923  
1036.8     0.233      242.24     -9999      -9999      6.373548   2.565      3.682999999999999 4.979000000000001 3.023      2.489      2.638      0.924      2.21       1.346842   4.089      0.1870052  0.1870052  0.310605   8.146065999999999 14.53178   2.638      0.3890491  0.5480713  75.057     0.3745447  0.2175207  0.5315688 
1037       0.225      244.78     -9999      -9999      6.24576    2.946      3.912      4.649000000000001 3.15       2.591      3.098      2.944      3.023      1.364351   4.216      0.1859412  0.1859412  0.3052542  7.784671   16.53381   3.098      0.4306138  0.5776395  74.549     0.3615546  0.2063535  0.5167557 
1037.2     0.224      246.05     -9999      -9999      6.071416   3.200000000000001 4.089      4.649000000000001 3.15       2.667      3.83       2.182      1.702      1.388113   4.242      0.1826392  0.1826392  0.2979926  6.762053   19.71737   3.83       0.4764512  0.6118427  74.21      0.3495559  0.1920367  0.5070752 
