~Version
 VERS              .         2.0                           : CWLS LOG ASCII STANDARD - VERSION 2.0
 WRAP              .         NO                            : ONE LINE PER DEPTH STEP
 DLM               .         SPACE                         : DELIMITING CHARACTER(SPACE TAB OR COMMA)
~Well Information
#_______________________________________________________________________________
#
#PARAMETER_NAME    .UNIT     VALUE                         : DESCRIPTION
#_______________________________________________________________________________
STRT               .M        906                           : First reference value
STOP               .M        1237.2                        : Last reference value
STEP               .M        0.2                           : Step increment
NULL               .         -9999                         : Missing value
COMP               .                                       : Company
WELL               .         7426                          : Well name
FLD                .         Узень                         : Field
LOC                .                                       : Location
CNTY               .                                       : County
STAT               .                                       : State
CTRY               .                                       : Country
SRVC               .                                       : Service Company
DATE               .                                       : Date
UWI                .                                       : Unique Well ID
API                .                                       : 
Block              .         7                             : 
Category           .         Нефтяная                      : 
Condition          .         В работе                      : 
Date               .         29.11.1986                    : 
EREF               .m        94.6                          : 100.8
Gorizont           .         15                            : 14
Interpretator      .         Алпанова Н.К.                 : 
Kupol              .         основной                      : osnovnoi
Moii_15_vosst      .         15_vosst                      : 
Mud                .                                       : 
Mud_density        .                                       : 
Mud_resistivity    .                                       : 
Mud_density        .                                       : 
Mud_resistivity    .                                       : 
NGDU               .         НГДУ-2                        : 
ORIGINALWELLNAME   .         7426                          : 
Spud_date          .         1986                          : 1961
Spud_date          .         1986                          : 1961
Viscosity          .                                       : 
X                  .m        41923.4                       : 46154
Y                  .m        84853.93                      : 85761.93
YEAR               .         2018                          : 
~Parameter Information Block
#_______________________________________________________________________________
#
#PARAMETER_NAME    .UNIT     VALUE                         : DESCRIPTION
#_______________________________________________________________________________
SET                .         LQC_KAZNIPI_Petrel            : 
TLFamily_CALI      .         Caliper                       : 
TLFamily_CILD      .         Conductivity                  : 
TLFamily_COLL      .         Net Reservoir Flag            : 
TLFamily_CSAT      .         Fluid Code                    : 
TLFamily_DEPT      .         Measured Depth                : 
TLFamily_GR        .         Russian Gamma Ray             : 
TLFamily_GZ1       .         Gradient 045                  : 
TLFamily_GZ2       .         Gradient 105                  : 
TLFamily_GZ3       .         Gradient 225                  : 
TLFamily_GZ4       .         Gradient 425                  : 
TLFamily_GZ5       .         Gradient 850                  : 
TLFamily_LLS       .         Lateral Log Resistivity       : 
TLFamily_MINV      .         Micro Gradient Resistivity    : 
TLFamily_MNOR      .         Micro Resistivity             : 
TLFamily_NGLD      .         Neutron Far                   : 
TLFamily_OGZ       .         Gradient Inverted 225         : 
TLFamily_PHIE      .         Effective Porosity            : 
TLFamily_PHIEN     .         Effective Porosity            : 
TLFamily_PHIT      .         Porosity                      : 
TLFamily_PRMB      .         Permeability                  : 
TLFamily_PRMB_DGR  .         Permeability                  : 
TLFamily_RT        .         Formation Resistivity         : 
TLFamily_SOIL_ARCHIE .         Oil Saturation                : 
TLFamily_SOIL_DW   .         Oil Saturation                : 
TLFamily_SP        .         Spontaneous Potential         : 
TLFamily_VSH_FIN   .         Shale Volume                  : 
TLFamily_VSH_GR    .         Shale Volume                  : 
TLFamily_VSH_SP    .         Shale Volume                  : 
~Curve Information
#_______________________________________________________________________________
#
#LOGNAME           .UNIT     LOG_ID                        : DESCRIPTION
#_______________________________________________________________________________
DEPT               .M                                      : Колонка глубины 
CALI               .м                                      : Каверномер 
CILD               .мСм/м                                  : Индукционный каротаж 
COLL               .unitless                               :  
CSAT               .unitless                               :  
GR                 .мкР/ч                                  : Гамма каротаж 
GZ1                .Ом·м                                   :  
GZ2                .Ом·м                                   :  
GZ3                .Ом·м                                   :  
GZ4                .Ом·м                                   :  
GZ5                .Ом·м                                   :  
LLS                .Ом·м                                   : Боковой каротаж 
MINV               .Ом·м                                   : Микро-градиент зонд 
MNOR               .Ом·м                                   : Микро-потенциал зонд 
NGLD               .у.е.                                   : Показания зонда НГК-60 аппаратуры ДРСТ-3-90 
OGZ                .Ом·м                                   :  
PHIE               .м3/м3                                  : Описание 
PHIEN              .v/v                                    :  
PHIT               .м3/м3                                  : Описание 
PRMB               .mD                                     :  
PRMB_DGR           .mD                                     :  
RT                 .ohmm                                   : Description 
SOIL_ARCHIE        .v/v                                    :  
SOIL_DW            .v/v                                    :  
SP                 .мВ                                     : Потенциал самополяризации 
VSH_FIN            .unitless                               : Описание 
VSH_GR             .unitless                               : Shale volume 
VSH_SP             .unitless                               : Shale Volume 
~Ascii
# ...
1099.8     0.225      224.46     6          6          8.518058   4.140000000000001 7.492999999999999 4.573      3.581      3.174999999999999 4.212      3.858      2.667      1.580748   4.039000000000001 0.1021982  0.1021982  0.2391233  0.2188345  9.081451   4.212      0.1697806  0.4698412  76.285     0.4149248  0.2635526  0.5662971 
1100       0.225      227        6          6          8.503914   3.607      6.374999999999999 4.903      3.023      2.972      5.602      2.512      1.867      1.572212   3.759      0.1039274  0.1039274  0.2417322  0.235584   9.186213   5.602      0.2843087  0.5462536  76.539     0.4175902  0.2623212  0.5728592 
1100.2     0.221      229.54     6          6          8.539618   2.946      5.385      4.776      2.769      2.819      5.983      3.655      3.01       1.551231   3.759      0.1085101  0.1085101  0.2481438  0.2864361  8.924057   5.983      0.3316645  0.5749694  76.835     0.4231326  0.2654409  0.5808244 
1100.4     0.232      239.7      6          6          8.626076   2.515      4.775      4.522      2.718      2.667      4.003      2.867      3.213      1.52064    3.099      0.1159307  0.1159307  0.2574923  0.3930749  8.319808   4.003      0.2381392  0.5046684  77.004     0.4289745  0.27315    0.5847991 
1100.6     0.232      249.86     6          6          8.757732   2.54       5.156000000000001 4.522      2.794      2.515      3.214      1.991      1.46       1.48455    3.099      0.1245153  0.1245153  0.2685215  0.5668696  7.477319   3.214      0.2064133  0.4757567  77.131     0.4363823  0.2853215  0.5874431 
1100.8     0.232      260.02     6          6          8.921804   2.794      5.156000000000001 4.395      2.819      2.464      2.859      2.474      1.803      1.447412   2.515      0.133696   0.133696   0.2798709  0.8385583  6.545795   2.859      0.2119769  0.4726779  77.089     0.4429542  0.3012517  0.5846567 
1101       0.236      270.18     -9999      -9999      9.101065   2.718      4.674000000000001 4.395      2.794      2.464      3.286      1.864      0.876      1.413035   2.464      0.1418462  0.1418462  0.2903766  1.187119   5.660174   3.286      0.2988877  0.5299448  77.004     0.4500922  0.3196749  0.5805094 
1101.2     0.247      277.8      -9999      -9999      9.276886   2.972      4.674000000000001 4.597999999999999 2.743      2.464      3.887      2.017      1.892      1.384046   2.489      0.1488798  0.1488798  0.2992356  1.602409   4.908043   3.887      0.3787727  0.5835414  76.793     0.4556234  0.3388388  0.5724081 
1101.4     0.235      289.23     -9999      -9999      9.434515   2.896      4.469999999999999 4.827      2.591      2.464      3.535      2.626      2.273      1.360997   2.388      0.1538164  0.1538164  0.3062792  1.977928   4.319108   3.535      0.3686686  0.5748729  76.666     0.4620085  0.3569945  0.5670225 
1101.6     0.241      294.241    -9999      -9999      9.567643   2.489      4.089      4.827      2.438      2.413      3.433      2.334      1.638      1.342997   2.388      0.1575441  0.1575441  0.3117802  2.318764   3.877114   3.433      0.3731453  0.5772164  76.539     0.4673823  0.3730839  0.5616807 
1101.8     0.241      296.668    -9999      -9999      9.680035   2.235      3.658      5.03       2.438      2.362      3.192      2.88       1.638      1.327901   2.235      0.1602706  0.1602706  0.3163935  2.604701   3.539371   3.192      0.3609856  0.5683506  76.496     0.4730996  0.3872303  0.5589690000000001
1102       0.24       299.39     -9999      -9999      9.78112    2.032      3.454      4.903      2.438      2.337      2.922      2.245      1.575      1.313334   2.108      0.1629878  0.1629878  0.320845   2.924738   3.260809   2.922      0.3436081  0.5555948  76.454     0.4783552  0.4004112  0.5562991000000001
1102.2     0.239      310.82     -9999      -9999      9.883045   2.007      3.250999999999999 4.446      2.565      2.362      2.544      2.309      1.626      1.297612   1.981      0.1655385  0.1655385  0.3256499  3.260869   3.002127   2.544      0.3089305  0.5308694  76.496     0.4851858  0.414156   0.5562157 
1102.4     0.244      322.25     -9999      -9999      9.994181   1.981      3.099      3.887      2.565      2.311      2.263      1.521      1.219      1.280072   1.981      0.1683458  0.1683458  0.33101    3.675625   2.743399   2.263      0.2805265  0.5107423  76.539     0.4929219  0.429681   0.5561628 
1102.6     0.256      333.68     -9999      -9999      10.11487   1.956      2.896      3.887      2.54       2.286      2.246      0.962      0.851      1.261111   1.981      0.1710503  0.1710503  0.3368044  4.124998   2.48763    2.246      0.2879288  0.5170794  76.623     0.5022852  0.4471998  0.5573705 
1102.8     0.258      346.38     -9999      -9999      10.24088   1.956      2.794      3.481      2.565      2.261      2.47       1.458      1.283      1.24192    2.007      0.1735663  0.1735663  0.3426692  4.592257   2.245974   2.47       0.3276033  0.5469142  76.708     0.5124332  0.4662553  0.5586112 
1103       0.258      357.81     -9999      -9999      10.36394   1.956      2.743      3.278000000000001 2.616      2.235      2.47       2.093      0.902      1.223935   2.032      0.1756577  0.1756577  0.3481654  5.020714   2.032666   2.47       0.3345814  0.5533901  76.793     0.5227506  0.4856468  0.5598544 
1103.2     0.249      366.7      -9999      -9999      10.47746   1.956      2.692      3.1        2.667      2.21       2.381      1.867      0.965      1.208295   1.93       0.1775956  0.1775956  0.3529451  5.453297   1.853894   2.381      0.3294613  0.5508195  76.793     0.5313622  0.5042502  0.5584742 
1103.4     0.244      375.59     -9999      -9999      10.5776    1.956      2.642      3.024      2.692      2.21       2.347      1.635      1.029      1.195822   2.032      0.1790473  0.1790473  0.3567568  5.801609   1.709294   2.347      0.32969    0.5519633  76.75      0.5385137  0.5212515  0.5557760000000001
1103.6     0.246      380.67     -9999      -9999      10.66465   1.981      2.692      3.024      2.667      2.21       2.347      1.661      1.372      1.186992   2.032      0.1796688  0.1796688  0.3594552  5.957442   1.592792   2.347      0.3317099  0.5546302  76.708     0.5448073  0.5364953  0.5531194 
1103.8     0.254      385.75     -9999      -9999      10.74109   1.981      2.667      2.947      2.642      2.235      2.33       1.343      1.092      1.18194    2.134      0.1791689  0.1791689  0.360999   5.831767   1.497065   2.33       0.3277969  0.5537096  76.708     0.5510004  0.5502469  0.5517539 
1104       0.254      388.29     -9999      -9999      10.80874   1.981      2.642      2.795      2.591      2.21       2.313      1.94       1.245      1.180534   2.21       0.1775554  0.1775554  0.3614287  5.443965   1.417145   2.313      0.3201478  0.5508466  76.75      0.5571917  0.5627126  0.5516708 
1104.2     0.252      388.29     -9999      -9999      10.86749   1.981      2.667      2.693      2.54       2.21       2.381      1.47       0.965      1.182343   2.286      0.174976   0.174976   0.3608761  4.876827   1.351212   2.381      0.3207263  0.5544029  76.835     0.5633337000000001 0.5737668  0.5529007 
1104.4     0.253      389.56     -9999      -9999      10.915     1.981      2.743      2.643      2.489      2.184      2.435      1.686      1.003      1.18687    2.337      0.1718879  0.1718879  0.3594926  4.275034   1.30014    2.435      0.3173322  0.5553163  76.92      0.5684989  0.5828652  0.5541326 
1104.6     0.254      390.216    -9999      -9999      10.94817   1.956      2.718      2.643      2.413      2.184      2.443      1.839      0.991      1.193349   2.337      0.1688596  0.1688596  0.3575124  3.75706    1.265642   2.443      0.3077478  0.5515041  76.962     0.5716752000000001 0.589301   0.5540494 
1104.8     0.256      390.83     -9999      -9999      10.96338   1.93       2.692      2.617      2.337      2.134      2.452      1.724      1.08       1.201008   2.388      0.1662537  0.1662537  0.355172   3.361858   1.25012    2.452      0.2995166  0.5478417  76.962     0.5724798  0.5922778  0.5526817000000001
