~Version
 VERS              .         2.0                           : CWLS LOG ASCII STANDARD - VERSION 2.0
 WRAP              .         NO                            : ONE LINE PER DEPTH STEP
 DLM               .         SPACE                         : DELIMITING CHARACTER(SPACE TAB OR COMMA)
~Well Information
#_______________________________________________________________________________
#
#PARAMETER_NAME    .UNIT     VALUE                         : DESCRIPTION
#_______________________________________________________________________________
STRT               .M        906                           : First reference value
STOP               .M        1237.2                        : Last reference value
STEP               .M        0.2                           : Step increment
NULL               .         -9999                         : Missing value
COMP               .                                       : Company
WELL               .         7426                          : Well name
FLD                .         Узень                         : Field
LOC                .                                       : Location
CNTY               .                                       : County
STAT               .                                       : State
CTRY               .                                       : Country
SRVC               .                                       : Service Company
DATE               .                                       : Date
UWI                .                                       : Unique Well ID
API                .                                       : 
Block              .         7                             : 
Category           .         Нефтяная                      : 
Condition          .         В работе                      : 
Date               .         29.11.1986                    : 
EREF               .m        94.6                          : 100.8
Gorizont           .         15                            : 14
Interpretator      .         Алпанова Н.К.                 : 
Kupol              .         основной                      : osnovnoi
Moii_15_vosst      .         15_vosst                      : 
Mud                .                                       : 
Mud_density        .                                       : 
Mud_resistivity    .                                       : 
Mud_density        .                                       : 
Mud_resistivity    .                                       : 
NGDU               .         НГДУ-2                        : 
ORIGINALWELLNAME   .         7426                          : 
Spud_date          .         1986                          : 1961
Spud_date          .         1986                          : 1961
Viscosity          .                                       : 
X                  .m        41923.4                       : 46154
Y                  .m        84853.93                      : 85761.93
YEAR               .         2018                          : 
~Parameter Information Block
#_______________________________________________________________________________
#
#PARAMETER_NAME    .UNIT     VALUE                         : DESCRIPTION
#_______________________________________________________________________________
SET                .         LQC_KAZNIPI_Petrel            : 
TLFamily_CALI      .         Caliper                       : 
TLFamily_CILD      .         Conductivity                  : 
TLFamily_COLL      .         Net Reservoir Flag            : 
TLFamily_CSAT      .         Fluid Code                    : 
TLFamily_DEPT      .         Measured Depth                : 
TLFamily_GR        .         Russian Gamma Ray             : 
TLFamily_GZ1       .         Gradient 045                  : 
TLFamily_GZ2       .         Gradient 105                  : 
TLFamily_GZ3       .         Gradient 225                  : 
TLFamily_GZ4       .         Gradient 425                  : 
TLFamily_GZ5       .         Gradient 850                  : 
TLFamily_LLS       .         Lateral Log Resistivity       : 
TLFamily_MINV      .         Micro Gradient Resistivity    : 
TLFamily_MNOR      .         Micro Resistivity             : 
TLFamily_NGLD      .         Neutron Far                   : 
TLFamily_OGZ       .         Gradient Inverted 225         : 
TLFamily_PHIE      .         Effective Porosity            : 
TLFamily_PHIEN     .         Effective Porosity            : 
TLFamily_PHIT      .         Porosity                      : 
TLFamily_PRMB      .         Permeability                  : 
TLFamily_PRMB_DGR  .         Permeability                  : 
TLFamily_RT        .         Formation Resistivity         : 
TLFamily_SOIL_ARCHIE .         Oil Saturation                : 
TLFamily_SOIL_DW   .         Oil Saturation                : 
TLFamily_SP        .         Spontaneous Potential         : 
TLFamily_VSH_FIN   .         Shale Volume                  : 
TLFamily_VSH_GR    .         Shale Volume                  : 
TLFamily_VSH_SP    .         Shale Volume                  : 
~Curve Information
#_______________________________________________________________________________
#
#LOGNAME           .UNIT     LOG_ID                        : DESCRIPTION
#_______________________________________________________________________________
DEPT               .M                                      : Колонка глубины 
CALI               .м                                      : Каверномер 
CILD               .мСм/м                                  : Индукционный каротаж 
COLL               .unitless                               :  
CSAT               .unitless                               :  
GR                 .мкР/ч                                  : Гамма каротаж 
GZ1                .Ом·м                                   :  
GZ2                .Ом·м                                   :  
GZ3                .Ом·м                                   :  
GZ4                .Ом·м                                   :  
GZ5                .Ом·м                                   :  
LLS                .Ом·м                                   : Боковой каротаж 
MINV               .Ом·м                                   : Микро-градиент зонд 
MNOR               .Ом·м                                   : Микро-потенциал зонд 
NGLD               .у.е.                                   : Показания зонда НГК-60 аппаратуры ДРСТ-3-90 
OGZ                .Ом·м                                   :  
PHIE               .м3/м3                                  : Описание 
PHIEN              .v/v                                    :  
PHIT               .м3/м3                                  : Описание 
PRMB               .mD                                     :  
PRMB_DGR           .mD                                     :  
RT                 .ohmm                                   : Description 
SOIL_ARCHIE        .v/v                                    :  
SOIL_DW            .v/v                                    :  
SP                 .мВ                                     : Потенциал самополяризации 
VSH_FIN            .unitless                               : Описание 
VSH_GR             .unitless                               : Shale volume 
VSH_SP             .unitless                               : Shale Volume 
~Ascii
# ...
990.8      0.224      277.8      -9999      -9999      7.13724    3.174999999999999 4.648      3.481      3.15       2.54       4.181      3.236      2.108      1.400747   2.946      0.1591683  0.1591683  0.2941318  2.485088   6.719316959381104 4.181      0.4336105  0.6045734  77.893     0.4089803  0.2980504  0.5199103000000001
991        0.216      276.53     -9999      -9999      7.20559    3.378      4.877      3.684      3.277      2.54       4.305      3.109      2.413      1.403357   3.099      0.1551273  0.1551273  0.2933341  2.091666   6.271100044250488 4.305      0.4286713  0.605727   78.274     0.4188085  0.3065718  0.5310453000000001
991.2000000000001 0.217      276.53     -9999      -9999      7.323152   3.353      4.648      3.862000000000001 3.174999999999999 2.515      4.212      3.388      2.654      1.396666   3.200000000000001 0.1525738  0.1525738  0.2953789  1.875838   5.568970203399658 4.212      0.4143813  0.6005225  78.698     0.4327427  0.3218025  0.543683  
991.4      0.219      280.34     -9999      -9999      7.481315   2.845      4.242      4.039999999999999 2.946      2.515      3.458      3.134      2.946      1.381146   2.972      0.1524677  0.1524677  0.3001218  1.867367   4.74675178527832 3.458      0.3571986  0.5632865  78.952     0.4474365  0.3434938  0.5513793 
991.6      0.225      286.69     -9999      -9999      7.662593   2.362      3.962      4.039999999999999 2.794      2.54       2.717      3.299      1.587      1.358745   2.972      0.1536283  0.1536283  0.3069677  1.96213    3.952564001083374 2.717      0.2849165  0.5155233  79.206     0.4646646  0.3701592  0.5591701 
991.8      0.225      294.31     -9999      -9999      7.844585   2.235      3.734      4.039999999999999 2.743      2.515      2.47       1.953      0.635      1.332585   2.743      0.1562134  0.1562134  0.3149621  2.190834   3.288882970809937 2.47       0.2629974  0.5030548  79.333     0.4810566  0.3990121  0.5631011 
992        0.235      301.93     -9999      -9999      8.007422   2.337      3.581      3.76       2.769      2.438      2.452      0.696      0.457      1.305834   2.489      0.1593839  0.1593839  0.3231372  2.508043   2.790098905563355 2.452      0.2732926  0.5128203  79.417     0.496222   0.4267296  0.5657144 
992.2000000000001 0.243      308.28     -9999      -9999      8.136609   2.286      3.48       3.608      2.87       2.464      2.525      0.531      0.724      1.280924   2.311      0.1633591  0.1633591  0.3307498  2.971423   2.448791980743408 2.525      0.2984436  0.5312067  79.375     0.5072445  0.4500825  0.5644065 
992.4      0.242      318.44     -9999      -9999      8.223145   2.311      3.404      3.481      2.87       2.489      2.619      0.581      0.94       1.259247   2.21       0.1677205  0.1677205  0.3373741  3.578894   2.243846893310547 2.619      0.3260196  0.5498611  79.29      0.5141017  0.4664359  0.5617675 
992.6      0.247      326.06     -9999      -9999      8.264367   2.413      3.277      3.481      2.896      2.54       2.717      0.696      0.902      1.241174   2.21       0.1721384  0.1721384  0.3428971  4.320942   2.152339935302734 2.717      0.3523712  0.5668002  79.248     0.5174506  0.4744337  0.5604675 
992.8      0.247      334.95     -9999      -9999      8.263499   2.235      2.972      3.506      2.87       2.515      2.717      0.467      0.686      1.226297   2.134      0.1771458  0.1771458  0.3474437  5.349678   2.154227018356323 2.717      0.3683448  0.5750157  79.163     0.5160542  0.4742639  0.5578445 
993        0.252      342.57     -9999      -9999      8.228754   2.032      2.845      3.608      2.794      2.489      2.525      0.48       0.876      1.21393    2.184      0.1826817  0.1826817  0.3512228  6.774328   2.231168985366821 2.525      0.3635324  0.5672516  79.036     0.5107307  0.4675162  0.5539453 
993.2000000000001 0.244      351.46     -9999      -9999      8.170857   1.956      2.946      3.506      2.667      2.438      2.381      0.569      0.635      1.203406   2.311      0.1885684  0.1885684  0.3544392  8.707660000000001 2.365531921386719 2.381      0.3635751  0.5622649  78.867     0.5026391  0.456485   0.5487931 
993.4      0.245      359.08     -9999      -9999      8.104049   2.083      3.048      3.201000000000001 2.565      2.388      2.638      0.454      0.635      1.19434    2.362      0.1938108  0.1938108  0.3572097  10.88941   2.530663967132568 2.638      0.4077768  0.590512   78.782     0.4951483  0.4440788  0.5462177 
993.6      0.256      365.43     -9999      -9999      8.040889   2.134      2.896      3.201000000000001 2.54       2.311      2.776      0.581      0.826      1.186954   2.362      0.197952   0.197952   0.3594669  12.99302   2.697365045547485 2.776      0.4323291  0.6056284  78.782     0.4894391  0.4326604  0.5462177 
993.8      0.256      371.78     -9999      -9999      7.987926   1.981      2.642      3.049      2.438      2.235      2.544      0.632      0.8        1.181955   2.261      0.2008075  0.2008075  0.3609947  14.67576   2.845587015151978 2.544      0.4159292  0.5914044  78.825     0.4854157  0.4233121  0.5475193 
994        0.263      379.4      -9999      -9999      7.945727   1.778      2.388      2.897      2.286      2.184      2.103      0.556      0.572      1.180513   2.21       0.2020325  0.2020325  0.3614354  15.46286   2.969494104385376 2.103      0.3647235  0.5520068  78.909     0.483039   0.4160085  0.5500696000000001
994.2000000000001 0.265      385.75     -9999      -9999      7.909451   1.549      2.184      2.643      2.108      2.108      1.817      0.467      0.317      1.183993   2.261      0.2015607  0.2015607  0.3603719  15.15484   3.080312013626099 1.817      0.3182299  0.5167308  78.994     0.4812459  0.4098308  0.552661  
994.4      0.269      393.37     -9999      -9999      7.874055   1.372      2.134      2.439      1.88       2.032      1.79       0.416      0.203      1.193521   2.261      0.1991996  0.1991996  0.35746    13.70305   3.192429065704346 1.79       0.3063408  0.5084232  79.079     0.4795771  0.4038914  0.5552628 
994.6      0.276      400.99     -9999      -9999      7.837924   1.372      2.057      2.439      1.88       2.057      1.941      0.442      0.102      1.209192   2.261      0.1949701  0.1949701  0.3526708  11.44135   3.311084985733032 1.941      0.3196089  0.5200178  79.163     0.477881   0.3979174  0.5578445 
994.8      0.276      403.53     -9999      -9999      7.806573   1.422      2.286      2.262      2.032      2.134      2.166      0.454      0.267      1.229778   2.134      0.1893039  0.1893039  0.3463798  8.98514    3.417607069015503 2.166      0.3369262  0.5352867  79.206     0.4759878  0.3928055  0.5591701 
995        0.263      390.83     -9999      -9999      7.795013   1.702      2.616      2.16       2.311      2.311      2.581      0.581      0.394      1.252833   2.108      0.1823523  0.1823523  0.3393341  6.679834   3.45774507522583 2.581      0.3690595  0.5625672  79.248     0.4757024  0.3909373  0.5604675 
995.2000000000001 0.237      373.05     -9999      -9999      7.820117   2.286      2.896      2.236      2.54       2.515      3.286      0.835      0.737      1.275002   2.311      0.1746919  0.1746919  0.3325595  4.818101   3.371172904968262 3.286      0.4152024  0.6009018  79.29      0.4783867  0.3950058  0.5617675 
995.4      0.225      354        -9999      -9999      7.894149   2.616      3.174999999999999 2.439      2.667      2.718      4.032      1.505      1.242      1.29279    2.515      0.1670149  0.1670149  0.3271233  3.472799   3.128289937973023 4.032      0.4475297  0.6296607  79.333     0.4851769  0.4072526  0.5631011 
995.6      0.218      340.03     -9999      -9999      8.019963   2.921      3.454      2.439      2.642      2.692      4.243      2.182      1.753      1.303559   2.515      0.159714   0.159714   0.3238324  2.543598   2.75498104095459 4.243      0.4391834  0.6304333  79.417     0.4973284  0.4289425  0.5657144 
