~Version
 VERS              .         2.0                           : CWLS LOG ASCII STANDARD - VERSION 2.0
 WRAP              .         NO                            : ONE LINE PER DEPTH STEP
 DLM               .         SPACE                         : DELIMITING CHARACTER(SPACE TAB OR COMMA)
~Well Information
#_______________________________________________________________________________
#
#PARAMETER_NAME    .UNIT     VALUE                         : DESCRIPTION
#_______________________________________________________________________________
STRT               .M        906                           : First reference value
STOP               .M        1237.2                        : Last reference value
STEP               .M        0.2                           : Step increment
NULL               .         -9999                         : Missing value
COMP               .                                       : Company
WELL               .         7426                          : Well name
FLD                .         Узень                         : Field
LOC                .                                       : Location
CNTY               .                                       : County
STAT               .                                       : State
CTRY               .                                       : Country
SRVC               .                                       : Service Company
DATE               .                                       : Date
UWI                .                                       : Unique Well ID
API                .                                       : 
Block              .         7                             : 
Category           .         Нефтяная                      : 
Condition          .         В работе                      : 
Date               .         29.11.1986                    : 
EREF               .m        94.6                          : 100.8
Gorizont           .         15                            : 14
Interpretator      .         Алпанова Н.К.                 : 
Kupol              .         основной                      : osnovnoi
Moii_15_vosst      .         15_vosst                      : 
Mud                .                                       : 
Mud_density        .                                       : 
Mud_resistivity    .                                       : 
Mud_density        .                                       : 
Mud_resistivity    .                                       : 
NGDU               .         НГДУ-2                        : 
ORIGINALWELLNAME   .         7426                          : 
Spud_date          .         1986                          : 1961
Spud_date          .         1986                          : 1961
Viscosity          .                                       : 
X                  .m        41923.4                       : 46154
Y                  .m        84853.93                      : 85761.93
YEAR               .         2018                          : 
~Parameter Information Block
#_______________________________________________________________________________
#
#PARAMETER_NAME    .UNIT     VALUE                         : DESCRIPTION
#_______________________________________________________________________________
SET                .         LQC_KAZNIPI_Petrel            : 
TLFamily_CALI      .         Caliper                       : 
TLFamily_CILD      .         Conductivity                  : 
TLFamily_COLL      .         Net Reservoir Flag            : 
TLFamily_CSAT      .         Fluid Code                    : 
TLFamily_DEPT      .         Measured Depth                : 
TLFamily_GR        .         Russian Gamma Ray             : 
TLFamily_GZ1       .         Gradient 045                  : 
TLFamily_GZ2       .         Gradient 105                  : 
TLFamily_GZ3       .         Gradient 225                  : 
TLFamily_GZ4       .         Gradient 425                  : 
TLFamily_GZ5       .         Gradient 850                  : 
TLFamily_LLS       .         Lateral Log Resistivity       : 
TLFamily_MINV      .         Micro Gradient Resistivity    : 
TLFamily_MNOR      .         Micro Resistivity             : 
TLFamily_NGLD      .         Neutron Far                   : 
TLFamily_OGZ       .         Gradient Inverted 225         : 
TLFamily_PHIE      .         Effective Porosity            : 
TLFamily_PHIEN     .         Effective Porosity            : 
TLFamily_PHIT      .         Porosity                      : 
TLFamily_PRMB      .         Permeability                  : 
TLFamily_PRMB_DGR  .         Permeability                  : 
TLFamily_RT        .         Formation Resistivity         : 
TLFamily_SOIL_ARCHIE .         Oil Saturation                : 
TLFamily_SOIL_DW   .         Oil Saturation                : 
TLFamily_SP        .         Spontaneous Potential         : 
TLFamily_VSH_FIN   .         Shale Volume                  : 
TLFamily_VSH_GR    .         Shale Volume                  : 
TLFamily_VSH_SP    .         Shale Volume                  : 
~Curve Information
#_______________________________________________________________________________
#
#LOGNAME           .UNIT     LOG_ID                        : DESCRIPTION
#_______________________________________________________________________________
DEPT               .M                                      : Колонка глубины 
CALI               .м                                      : Каверномер 
CILD               .мСм/м                                  : Индукционный каротаж 
COLL               .unitless                               :  
CSAT               .unitless                               :  
GR                 .мкР/ч                                  : Гамма каротаж 
GZ1                .Ом·м                                   :  
GZ2                .Ом·м                                   :  
GZ3                .Ом·м                                   :  
GZ4                .Ом·м                                   :  
GZ5                .Ом·м                                   :  
LLS                .Ом·м                                   : Боковой каротаж 
MINV               .Ом·м                                   : Микро-градиент зонд 
MNOR               .Ом·м                                   : Микро-потенциал зонд 
NGLD               .у.е.                                   : Показания зонда НГК-60 аппаратуры ДРСТ-3-90 
OGZ                .Ом·м                                   :  
PHIE               .м3/м3                                  : Описание 
PHIEN              .v/v                                    :  
PHIT               .м3/м3                                  : Описание 
PRMB               .mD                                     :  
PRMB_DGR           .mD                                     :  
RT                 .ohmm                                   : Description 
SOIL_ARCHIE        .v/v                                    :  
SOIL_DW            .v/v                                    :  
SP                 .мВ                                     : Потенциал самополяризации 
VSH_FIN            .unitless                               : Описание 
VSH_GR             .unitless                               : Shale volume 
VSH_SP             .unitless                               : Shale Volume 
~Ascii
# ...
945.8      0.218      146.99     -9999      -9999      5.193465   4.75       8.382000000000001 7.116999999999999 5.613      5.080000000000001 5.02       2.664      2.21       1.848598   8.636000000000001 0.04564321 0.04564321 0.1572683  0.01961467 47.85887145996094 5.02       0          0.1544811  74.803     0.338258   0.1336994  0.5428165 
946        0.22       146.99     -9999      -9999      5.165313   3.785      7.747000000000001 6.863000000000001 5.207      4.902      6.251      3.756      3.607      1.856303   7.873999999999999 0.04285401 0.04285401 0.1549139  0.01741479 49.23920822143555 6.251      0          0.2186324  74.845     0.3395754  0.1321561  0.5469946999999999
946.2000000000001 0.22       143.18     -9999      -9999      5.133771   3.404      7.747000000000001 6.609000000000001 5.333999999999999 4.953      11.468     3.998      3.594      1.860119   7.366      0.04105896 0.04105896 0.1537475  0.01613131 50.83316040039063 11.468     0          0.4121137  74.93      0.3414805  0.130448   0.5525131 
946.4      0.216      139.37     -9999      -9999      5.107066   4.064      8.890000000000001 7.116999999999999 5.994000000000001 5.156000000000001 17.524     2.753      2.731      1.857927   7.366      0.04104617 0.04104617 0.1544175  0.01612251 52.22293090820313 17.524     0.05876825 0.5257812  75.015     0.3435494  0.1290191  0.5580797 
946.6      0.216      136.83     -9999      -9999      5.097059   4.826000000000001 10.287     7.116999999999999 6.426000000000001 5.359      20.886     2.956      3.048      1.847191   7.366      0.0437085  0.0437085  0.1576984  0.01806115 52.75342178344727 20.886     0.1793513  0.5803432  75.057     0.3454238  0.1284878  0.5623599 
946.8      0.217      136.83     -9999      -9999      5.115439   5.842      10.668     8.006      6.552999999999999 5.461      5.939      3.388      2.375      1.826334   7.873999999999999 0.04964215 0.04964215 0.1640725  0.02326221 51.78313064575195 5.939      0          0.2651003  75.015     0.3467586  0.1294655  0.5640517 
947        0.216      138.1      -9999      -9999      5.167104   5.893      9.779      8.895      6.172000000000001 5.41       6.677      3.871      2.413      1.795532   8.127999999999998 0.05853618 0.05853618 0.1734855  0.03399304 49.15021896362305 6.677      0          0.3683556  74.93      0.3483313  0.1322537  0.5644088 
947.2000000000001 0.217      140.64     -9999      -9999      5.251543   5.131      10.16      9.911      5.842      5.232      6.925      2.842      2.146      1.757052   7.873999999999999 0.06989388000000001 0.06989388000000001 0.1852449  0.05517754 45.13219833374023 6.925      0.08467617 0.4415265  74.761     0.3495485  0.1369406  0.5621564 
947.4      0.216      143.18     -9999      -9999      5.360209   4.572000000000001 10.541     10.038     5.537      5.029      5.441      2.448      1.803      1.714382   7.112      0.08205426 0.08205426 0.198285   0.09268343 40.44084167480469 5.441      0.108639   0.4307511  74.634     0.3522142  0.1432174  0.561211  
947.6      0.216      148.26     -9999      -9999      5.480165   4.267      9.398      10.038     5.283000000000001 4.801000000000001 5.441      2.22       1.791      1.671465   7.112      0.09391239 0.09391239 0.2114002  0.1536892  35.82625961303711 5.441      0.2075044  0.4799027  74.549     0.3560238  0.1504811  0.5615666 
947.8      0.217      153.34     -9999      -9999      5.600853   3.759      8.509000000000002 9.276      5.029      4.623      5.323      2.499      2.591      1.631836   6.604      0.1042616  0.1042616  0.2235108  0.238966   31.71476936340332 5.323      0.2689911  0.5117047  74.549     0.3613613  0.1581609  0.5645617000000001
948        0.216      155.88     -9999      -9999      5.713164   3.607      7.873999999999999 8.513999999999999 4.75       4.42       5.769      2.651      2.159      1.598448   6.35       0.1130119  0.1130119  0.2337142  0.3470671  28.31369018554688 5.769      0.3437921  0.5575182  74.591     0.3657646  0.1656592  0.5658699 
948.2000000000001 0.217      160.96     -9999      -9999      5.810565   3.886000000000001 7.620000000000001 8.132999999999999 4.674000000000001 4.368999999999999 5.17       2.093      2.007      1.573388   6.096      0.1191117  0.1191117  0.2413726  0.4501906  25.66086959838867 5.17       0.3400682  0.5509207  74.676     0.3704875  0.1724494  0.5685255 
948.4      0.217      162.23     -9999      -9999      5.889091   3.962      7.366      8.132999999999999 4.674000000000001 4.343      4.805      3.464      1.892      1.557933   5.715      0.1224583  0.1224583  0.2460957  0.5192578  23.7042407989502 4.805      0.3332861  0.5445738  74.761     0.3746588  0.1781258  0.5711918 
948.6      0.217      166.04     -9999      -9999      5.945317   3.734      7.366      8.132999999999999 4.826000000000001 4.444999999999999 5.602      2.994      3.302      1.552458   5.715      0.123224   0.123224   0.2477689  0.5364937  22.39558029174805 5.602      0.3829708  0.5809742  74.803     0.377409   0.1823047  0.5725133 
948.8      0.219      169.85     -9999      -9999      5.974884   4.013      6.984999999999999 8.26       5.004      4.572000000000001 4.984      2.944      1.93       1.556236   5.588000000000001 0.1219182  0.1219182  0.2466142  0.5074337  21.73666000366211 4.984      0.3421039  0.5526487  74.761     0.3778666  0.1845414  0.5711918 
949        0.219      169.85     -9999      -9999      5.974595   3.785      6.35       8.26       5.055000000000001 4.699000000000001 4.061      3.896      2.4        1.56741    5.461      0.1189471  0.1189471  0.2431995  0.4470401  21.74301910400391 4.061      0.2600061  0.4953846  74.676     0.3765224  0.1845194  0.5685255 
949.2000000000001 0.217      172.39     -9999      -9999      5.946208   3.277      5.715      7.752      4.928      4.902      4.632      3.985      3.226      1.583059   5.359      0.1153886  0.1153886  0.2384172  0.3840916  22.37541961669922 4.632      0.2856597  0.5160934  74.507     0.3728139  0.1823717  0.5632561 
949.4      0.217      173.66     -9999      -9999      5.893315   2.87       5.283000000000001 6.989999999999999 5.004      5.131      7.841      3.731      2.235      1.599725   5.333999999999999 0.1115936  0.1115936  0.2333241  0.3266953  23.60331916809082 7.841      0.425514   0.6182333  74.38      0.3688801  0.1784364  0.5593238 
949.6      0.217      172.39     -9999      -9999      5.826457   3.353      6.248      6.989999999999999 5.512000000000001 5.359      7.396      2.575      2.4        1.614095   5.333999999999999 0.1088651  0.1088651  0.2289325  0.2908068  25.25226974487305 7.396      0.3966768  0.5984985  74.21      0.3638406  0.1735834  0.5540978 
949.8      0.216      173.66     -9999      -9999      5.758741   3.912      6.172000000000001 7.229000000000001 6.325000000000001 5.588000000000001 6.115      2.055      1.905      1.623679   5.461      0.1073647  0.1073647  0.2260037  0.2727803  27.03981971740723 6.115      0.3323315  0.55255    74.083     0.359512   0.1688026  0.5502214 
950        0.217      172.39     -9999      -9999      5.70238    4.039000000000001 6.502      7.468999999999999 6.552999999999999 5.817      7.288      2.55       2.108      1.62722    5.563      0.1073436  0.1073436  0.2249217  0.2725344  28.62376976013184 7.288      0.3850046  0.588885   73.999     0.3562973  0.1649241  0.5476704 
950.2000000000001 0.219      172.39     -9999      -9999      5.665713   4.318      6.604      7.697000000000001 6.655      6.019999999999999 5.769      1.839      2.045      1.624626   6.299      0.1085446  0.1085446  0.2257143  0.2868588  29.70371055603027 5.769      0.3203317  0.5408736  73.999     0.3550596  0.1624488  0.5476704 
950.4      0.219      172.39     -9999      -9999      5.650883   4.216      6.909      7.799      6.604      6.019999999999999 6.875      2.026      2.805      1.617225   6.502      0.1107595  0.1107595  0.2279759  0.3152771  30.15199089050293 6.875      0.3849481  0.5852159  74.041     0.3552014  0.1614582  0.5489447 
