~Version
 VERS              .         2.0                           : CWLS LOG ASCII STANDARD - VERSION 2.0
 WRAP              .         NO                            : ONE LINE PER DEPTH STEP
 DLM               .         SPACE                         : DELIMITING CHARACTER(SPACE TAB OR COMMA)
~Well Information
#_______________________________________________________________________________
#
#PARAMETER_NAME    .UNIT     VALUE                         : DESCRIPTION
#_______________________________________________________________________________
STRT               .M        906                           : First reference value
STOP               .M        1237.2                        : Last reference value
STEP               .M        0.2                           : Step increment
NULL               .         -9999                         : Missing value
COMP               .                                       : Company
WELL               .         7426                          : Well name
FLD                .         Узень                         : Field
LOC                .                                       : Location
CNTY               .                                       : County
STAT               .                                       : State
CTRY               .                                       : Country
SRVC               .                                       : Service Company
DATE               .                                       : Date
UWI                .                                       : Unique Well ID
API                .                                       : 
Block              .         7                             : 
Category           .         Нефтяная                      : 
Condition          .         В работе                      : 
Date               .         29.11.1986                    : 
EREF               .m        94.6                          : 100.8
Gorizont           .         15                            : 14
Interpretator      .         Алпанова Н.К.                 : 
Kupol              .         основной                      : osnovnoi
Moii_15_vosst      .         15_vosst                      : 
Mud                .                                       : 
Mud_density        .                                       : 
Mud_resistivity    .                                       : 
Mud_density        .                                       : 
Mud_resistivity    .                                       : 
NGDU               .         НГДУ-2                        : 
ORIGINALWELLNAME   .         7426                          : 
Spud_date          .         1986                          : 1961
Spud_date          .         1986                          : 1961
Viscosity          .                                       : 
X                  .m        41923.4                       : 46154
Y                  .m        84853.93                      : 85761.93
YEAR               .         2018                          : 
~Parameter Information Block
#_______________________________________________________________________________
#
#PARAMETER_NAME    .UNIT     VALUE                         : DESCRIPTION
#_______________________________________________________________________________
SET                .         LQC_KAZNIPI_Petrel            : 
TLFamily_CALI      .         Caliper                       : 
TLFamily_CILD      .         Conductivity                  : 
TLFamily_COLL      .         Net Reservoir Flag            : 
TLFamily_CSAT      .         Fluid Code                    : 
TLFamily_DEPT      .         Measured Depth                : 
TLFamily_GR        .         Russian Gamma Ray             : 
TLFamily_GZ1       .         Gradient 045                  : 
TLFamily_GZ2       .         Gradient 105                  : 
TLFamily_GZ3       .         Gradient 225                  : 
TLFamily_GZ4       .         Gradient 425                  : 
TLFamily_GZ5       .         Gradient 850                  : 
TLFamily_LLS       .         Lateral Log Resistivity       : 
TLFamily_MINV      .         Micro Gradient Resistivity    : 
TLFamily_MNOR      .         Micro Resistivity             : 
TLFamily_NGLD      .         Neutron Far                   : 
TLFamily_OGZ       .         Gradient Inverted 225         : 
TLFamily_PHIE      .         Effective Porosity            : 
TLFamily_PHIEN     .         Effective Porosity            : 
TLFamily_PHIT      .         Porosity                      : 
TLFamily_PRMB      .         Permeability                  : 
TLFamily_PRMB_DGR  .         Permeability                  : 
TLFamily_RT        .         Formation Resistivity         : 
TLFamily_SOIL_ARCHIE .         Oil Saturation                : 
TLFamily_SOIL_DW   .         Oil Saturation                : 
TLFamily_SP        .         Spontaneous Potential         : 
TLFamily_VSH_FIN   .         Shale Volume                  : 
TLFamily_VSH_GR    .         Shale Volume                  : 
TLFamily_VSH_SP    .         Shale Volume                  : 
~Curve Information
#_______________________________________________________________________________
#
#LOGNAME           .UNIT     LOG_ID                        : DESCRIPTION
#_______________________________________________________________________________
DEPT               .M                                      : Колонка глубины 
CALI               .м                                      : Каверномер 
CILD               .мСм/м                                  : Индукционный каротаж 
COLL               .unitless                               :  
CSAT               .unitless                               :  
GR                 .мкР/ч                                  : Гамма каротаж 
GZ1                .Ом·м                                   :  
GZ2                .Ом·м                                   :  
GZ3                .Ом·м                                   :  
GZ4                .Ом·м                                   :  
GZ5                .Ом·м                                   :  
LLS                .Ом·м                                   : Боковой каротаж 
MINV               .Ом·м                                   : Микро-градиент зонд 
MNOR               .Ом·м                                   : Микро-потенциал зонд 
NGLD               .у.е.                                   : Показания зонда НГК-60 аппаратуры ДРСТ-3-90 
OGZ                .Ом·м                                   :  
PHIE               .м3/м3                                  : Описание 
PHIEN              .v/v                                    :  
PHIT               .м3/м3                                  : Описание 
PRMB               .mD                                     :  
PRMB_DGR           .mD                                     :  
RT                 .ohmm                                   : Description 
SOIL_ARCHIE        .v/v                                    :  
SOIL_DW            .v/v                                    :  
SP                 .мВ                                     : Потенциал самополяризации 
VSH_FIN            .unitless                               : Описание 
VSH_GR             .unitless                               : Shale volume 
VSH_SP             .unitless                               : Shale Volume 
~Ascii
# ...
1053       0.251      414.96     -9999      -9999      9.687599   1.702      2.362      1.906      1.6        1.499      2.058      0.696      0.851      1.151043   2.108      0.2227205  0.2227205  0.3704412  37.36652   3.517726   2.058      0.4104839  0.5707449  74.21      0.4476383  0.3882014  0.5070752 
1053.2     0.266      414.96     -9999      -9999      9.735551   1.829      2.565      1.982      1.6        1.524      2.013      1.216      1.105      1.150742   2.032      0.2223788  0.2223788  0.3705331  36.82582   3.383563   2.013      0.4035388  0.5657715  74.083     0.4489526  0.3944146  0.5034905 
1053.4     0.267      414.96     -9999      -9999      9.799043   1.93       2.515      2.058      1.626      1.524      2.213      1.026      0.813      1.152322   1.956      0.2207081  0.2207081  0.3700503  34.29312   3.21376    2.213      0.4257113  0.5842828  74.041     0.4525523  0.4027946  0.50231   
1053.6     0.256      413.69     -9999      -9999      9.868082   1.981      2.489      2.058      1.626      1.549      2.416      2.093      1.473      1.155559   1.956      0.2183765  0.2183765  0.3690613  31.04712   3.038778   2.416      0.4437613  0.5997983  73.999     0.4566205  0.412109   0.501132  
1053.8     0.256      407.34     -9999      -9999      9.936764   1.727      2.261      2.084      1.575      1.575      2.525      1.458      1.003      1.159762   2.007      0.2153334  0.2153334  0.3677767  27.2681    2.874156   2.525      0.4484612  0.605511   74.041     0.4619494  0.4215888  0.50231   
1054       0.258      402.26     -9999      -9999      9.999764   1.575      2.108      2.084      1.549      1.575      2.347      0.785      0.445      1.164104   2.083      0.2119499  0.2119499  0.3664499  23.60398   2.731004   2.347      0.4212848  0.5873443  74.168     0.4681817  0.4304762  0.5058872 
1054.2     0.265      397.18     -9999      -9999      10.05461   1.6        2.362      2.109      1.549      1.6        2.103      1.051      1.054      1.168026   2.007      0.208456   0.208456   0.3652514  20.33611   2.612194   2.103      0.3818073  0.5603126  74.38      0.4751377  0.4383661  0.5119092 
1054.4     0.27       400.99     -9999      -9999      10.10076   1.651      2.413      2.185      1.6        1.6        1.912      1.458      0.876      1.171429   1.905      0.2057018  0.2057018  0.3642113  18.08237   2.516247   1.912      0.3460279  0.5356432  74.507     0.4803317  0.445116   0.5155475000000001
1054.6     0.262      409.88     -9999      -9999      10.14256   1.727      2.235      2.185      1.626      1.626      2.058      2.055      1.219      1.174583   1.905      0.2035148  0.2035148  0.3632473  16.47198   2.432377   2.058      0.3623154  0.5498043  74.549     0.484038   0.4513203  0.5167557 
1054.8     0.262      413.69     -9999      -9999      10.18899   1.803      2.159      2.185      1.676      1.626      2.263      1.953      0.991      1.177759   1.956      0.2011908  0.2011908  0.3622768  14.91761   2.342496   2.263      0.3839753  0.5680333  74.591     0.4881396  0.4583128  0.5179664000000001
1055       0.253      412.42     -9999      -9999      10.25113   1.88       2.134      2.16       1.676      1.626      2.364      1.63       1.111      1.181277   2.007      0.198138   0.198138   0.3612017  13.09647   2.227379   2.364      0.3883783  0.5740473  74.676     0.4941326  0.4678409  0.5204243 
1055.2     0.259      409.88     -9999      -9999      10.33694   1.88       2.311      2.16       1.676      1.651      2.263      1.305      1.232      1.185253   2.108      0.1942908  0.1942908  0.3599866  11.11463   2.077661   2.263      0.3649643  0.5603889  74.761     0.5021084  0.4813243  0.5228925 
1055.4     0.26       407.34     -9999      -9999      10.44885   1.905      2.438      2.211      1.651      1.651      2.47       2.27       0.787      1.18945    2.134      0.1898081  0.1898081  0.358704   9.180469   1.897414   2.47       0.3780012  0.5744378  74.803     0.5118056  0.4994952  0.524116  
1055.6     0.254      404.8      -9999      -9999      10.5814    1.829      2.438      2.211      1.626      1.676      2.416      2.017      1.232      1.193634   2.134      0.1846292  0.1846292  0.3574253  7.361029   1.704038   2.416      0.3561889  0.5641103  74.845     0.5236247000000001 0.5219073  0.5253419 
1055.8     0.254      402.26     -9999      -9999      10.72207   1.626      2.337      2.211      1.626      1.676      2.313      1.94       1.194      1.197464   2.134      0.1787385  0.1787385  0.3562549  5.725707   1.520333   2.313      0.3240688  0.5479912  74.972     0.5379284  0.5467924  0.5290644 
1056       0.26       402.26     -9999      -9999      10.85461   1.575      2.159      2.16       1.651      1.702      2.198      1.724      0.978      1.200694   2.057      0.1730858  0.1730858  0.3552679  4.499107   1.365403   2.198      0.2880469  0.5297658  75.099     0.5520672  0.5713243  0.5328101 
1056.2     0.265      402.26     -9999      -9999      10.96546   1.727      2.388      2.135      1.651      1.702      2.072      1.534      1.181      1.203151   1.981      0.1681886  0.1681886  0.354517   3.651053   1.248022   2.072      0.2495207  0.5097145  75.226     0.5646317  0.5926844  0.5365791 
1056.4     0.26       403.53     -9999      -9999      11.04741   1.829      2.489      2.16       1.676      1.727      2.15       1.648      0.648      1.204824   1.956      0.1647756  0.1647756  0.3540058  3.156465   1.167771   2.15       0.2491343  0.5145033  75.269     0.573425   0.6089895  0.5378605 
1056.6     0.263      406.07     -9999      -9999      11.09969   1.778      2.337      2.16       1.676      1.753      2.364      2.22       1.664      1.205753   1.956      0.16253    0.16253    0.3537217  2.868187   1.119299   2.364      0.2732004  0.5343633  75.311     0.579369   0.6196234000000001 0.5391147 
1056.8     0.263      406.07     -9999      -9999      11.12883   1.676      2.108      2.185      1.702      1.753      2.23       2.029      1.054      1.206062   2.032      0.1612372  0.1612372  0.3536276  2.71433    1.093162   2.23       0.2478098  0.5190547  75.353     0.5830011000000001 0.6256306  0.5403715 
1057       0.255      407.34     -9999      -9999      11.14262   1.778      2.184      2.262      1.676      1.778      2.103      1.674      1.308      1.205901   2.134      0.1606009  0.1606009  0.3536766  2.641653   1.081      2.103      0.2241576  0.5040519  75.396     0.5850781000000001 0.6284952  0.541661  
1057.2     0.258      408.61     -9999      -9999      11.1504    1.778      2.261      2.312      1.702      1.753      2.103      1.953      0.826      1.205385   2.108      0.160491   0.160491   0.3538343  2.629308   1.074202   2.103      0.2236952  0.5040625  75.396     0.5858886  0.6301162  0.541661  
1057.4     0.261      408.61     -9999      -9999      11.15676   1.829      2.413      2.338      1.753      1.727      2.279      1.293      1.143      1.204809   2.057      0.1606609  0.1606609  0.3540104  2.648428   1.06868    2.279      0.2531172  0.5239342  75.353     0.5859076  0.6314437000000001 0.5403715 
1057.6     0.261      407.34     -9999      -9999      11.16486   1.88       2.515      2.338      1.803      1.702      2.313      0.708      0.381      1.204473   2.057      0.160691   0.160691   0.3541132  2.651828   1.061679   2.313      0.2584104  0.5275651  75.311     0.5861277  0.6331407  0.5391147 
1057.8     0.261      407.34     -9999      -9999      11.17417   1.753      2.515      2.389      1.778      1.676      2.246      1.597      0.851      1.204773   2.032      0.1604837  0.1604837  0.3540213  2.628489   1.053699   2.246      0.2472645  0.5202601  75.269     0.5864773  0.6350941  0.5378605 
1058       0.263      406.07     -9999      -9999      11.18083   1.6        2.159      2.338      1.753      1.651      2.246      0.912      0.66       1.205934   2.083      0.160315   0.160315   0.3536665  2.609642   1.048019   2.246      0.2465745  0.51977    75.184     0.5859138  0.6364976  0.5353301 
