~Version
 VERS              .         2.0                           : CWLS LOG ASCII STANDARD - VERSION 2.0
 WRAP              .         NO                            : ONE LINE PER DEPTH STEP
 DLM               .         SPACE                         : DELIMITING CHARACTER(SPACE TAB OR COMMA)
~Well Information
#_______________________________________________________________________________
#
#PARAMETER_NAME    .UNIT     VALUE                         : DESCRIPTION
#_______________________________________________________________________________
STRT               .M        906                           : First reference value
STOP               .M        1237.2                        : Last reference value
STEP               .M        0.2                           : Step increment
NULL               .         -9999                         : Missing value
COMP               .                                       : Company
WELL               .         7426                          : Well name
FLD                .         Узень                         : Field
LOC                .                                       : Location
CNTY               .                                       : County
STAT               .                                       : State
CTRY               .                                       : Country
SRVC               .                                       : Service Company
DATE               .                                       : Date
UWI                .                                       : Unique Well ID
API                .                                       : 
Block              .         7                             : 
Category           .         Нефтяная                      : 
Condition          .         В работе                      : 
Date               .         29.11.1986                    : 
EREF               .m        94.6                          : 100.8
Gorizont           .         15                            : 14
Interpretator      .         Алпанова Н.К.                 : 
Kupol              .         основной                      : osnovnoi
Moii_15_vosst      .         15_vosst                      : 
Mud                .                                       : 
Mud_density        .                                       : 
Mud_resistivity    .                                       : 
Mud_density        .                                       : 
Mud_resistivity    .                                       : 
NGDU               .         НГДУ-2                        : 
ORIGINALWELLNAME   .         7426                          : 
Spud_date          .         1986                          : 1961
Spud_date          .         1986                          : 1961
Viscosity          .                                       : 
X                  .m        41923.4                       : 46154
Y                  .m        84853.93                      : 85761.93
YEAR               .         2018                          : 
~Parameter Information Block
#_______________________________________________________________________________
#
#PARAMETER_NAME    .UNIT     VALUE                         : DESCRIPTION
#_______________________________________________________________________________
SET                .         LQC_KAZNIPI_Petrel            : 
TLFamily_CALI      .         Caliper                       : 
TLFamily_CILD      .         Conductivity                  : 
TLFamily_COLL      .         Net Reservoir Flag            : 
TLFamily_CSAT      .         Fluid Code                    : 
TLFamily_DEPT      .         Measured Depth                : 
TLFamily_GR        .         Russian Gamma Ray             : 
TLFamily_GZ1       .         Gradient 045                  : 
TLFamily_GZ2       .         Gradient 105                  : 
TLFamily_GZ3       .         Gradient 225                  : 
TLFamily_GZ4       .         Gradient 425                  : 
TLFamily_GZ5       .         Gradient 850                  : 
TLFamily_LLS       .         Lateral Log Resistivity       : 
TLFamily_MINV      .         Micro Gradient Resistivity    : 
TLFamily_MNOR      .         Micro Resistivity             : 
TLFamily_NGLD      .         Neutron Far                   : 
TLFamily_OGZ       .         Gradient Inverted 225         : 
TLFamily_PHIE      .         Effective Porosity            : 
TLFamily_PHIEN     .         Effective Porosity            : 
TLFamily_PHIT      .         Porosity                      : 
TLFamily_PRMB      .         Permeability                  : 
TLFamily_PRMB_DGR  .         Permeability                  : 
TLFamily_RT        .         Formation Resistivity         : 
TLFamily_SOIL_ARCHIE .         Oil Saturation                : 
TLFamily_SOIL_DW   .         Oil Saturation                : 
TLFamily_SP        .         Spontaneous Potential         : 
TLFamily_VSH_FIN   .         Shale Volume                  : 
TLFamily_VSH_GR    .         Shale Volume                  : 
TLFamily_VSH_SP    .         Shale Volume                  : 
~Curve Information
#_______________________________________________________________________________
#
#LOGNAME           .UNIT     LOG_ID                        : DESCRIPTION
#_______________________________________________________________________________
DEPT               .M                                      : Колонка глубины 
CALI               .м                                      : Каверномер 
CILD               .мСм/м                                  : Индукционный каротаж 
COLL               .unitless                               :  
CSAT               .unitless                               :  
GR                 .мкР/ч                                  : Гамма каротаж 
GZ1                .Ом·м                                   :  
GZ2                .Ом·м                                   :  
GZ3                .Ом·м                                   :  
GZ4                .Ом·м                                   :  
GZ5                .Ом·м                                   :  
LLS                .Ом·м                                   : Боковой каротаж 
MINV               .Ом·м                                   : Микро-градиент зонд 
MNOR               .Ом·м                                   : Микро-потенциал зонд 
NGLD               .у.е.                                   : Показания зонда НГК-60 аппаратуры ДРСТ-3-90 
OGZ                .Ом·м                                   :  
PHIE               .м3/м3                                  : Описание 
PHIEN              .v/v                                    :  
PHIT               .м3/м3                                  : Описание 
PRMB               .mD                                     :  
PRMB_DGR           .mD                                     :  
RT                 .ohmm                                   : Description 
SOIL_ARCHIE        .v/v                                    :  
SOIL_DW            .v/v                                    :  
SP                 .мВ                                     : Потенциал самополяризации 
VSH_FIN            .unitless                               : Описание 
VSH_GR             .unitless                               : Shale volume 
VSH_SP             .unitless                               : Shale Volume 
~Ascii
# ...
1079       0.252      373.05     -9999      -9999      10.25118   1.956      2.388      2.566      1.956      1.778      2.182      2.182      1.156      1.283178   2.896      0.1496511  0.1496511  0.3300608  1.655993   2.227302   2.182      0.1890977  0.47798    78.02      0.5466961  0.4678475  0.6255447 
1079.2     0.249      366.7      -9999      -9999      9.983704   2.261      2.769      2.49       2.083      1.829      2.119      1.14       0.546      1.288179   3.15       0.1544245  0.1544245  0.3285324  2.029897   2.766808   2.119      0.2000502  0.4749964  78.063     0.5275998  0.4281929  0.6270068 
1079.4     0.249      354        -9999      -9999      9.710692   2.337      2.87       2.414      2.21       1.854      2.581      1.115      0.889      1.29427    3.250999999999999 0.1589113  0.1589113  0.3266712  2.457998   3.452463   2.581      0.2887317  0.5277936  78.02      0.5083631  0.3911813  0.6255447 
1079.6     0.247      336.22     -9999      -9999      9.440497   2.032      2.438      2.414      2.083      1.829      3.121      2.143      1.575      1.301988   3.250999999999999 0.1627862  0.1627862  0.3243124  2.899708   4.298205   3.121      0.3629055  0.5726246  77.893     0.4894733  0.3577024  0.6212441 
1079.8     0.235      328.6      -9999      -9999      9.17796    2.235      2.362      2.465      1.956      1.778      2.901      2.791      1.765      1.312033   3.48       0.1655686  0.1655686  0.3212427  3.265052   5.318003   2.901      0.3503332  0.5570253  77.724     0.4717396  0.3279192  0.61556   
1080       0.229      318.44     -9999      -9999      8.925208   2.311      2.743      2.389      1.981      1.778      2.435      2.334      1.245      1.325011   3.835      0.1671128  0.1671128  0.3172765  3.487321   6.527752   2.435      0.3003736  0.5145537  77.512     0.4550416  0.3015914  0.6084918 
1080.2     0.236      309.55     -9999      -9999      8.683874   2.159      2.997      2.236      2.057      1.956      2.506      1.699      1.981      1.341398   3.607      0.1666202  0.1666202  0.3122687  3.414817   7.938848   2.506      0.3079692  0.5162535  77.385     0.4413593  0.2784281  0.6042905 
1080.4     0.239      300.66     -9999      -9999      8.457278   2.337      3.15       2.211      2.184      2.057      3.261      1.14       0.648      1.36097    3.505      0.1641884  0.1641884  0.3062877  3.078398   9.540274999999999 3.261      0.3805345  0.5684351  77.343     0.430604   0.2583014  0.6029066 
1080.6     0.231      290.5      -9999      -9999      8.250155   2.845      3.658      2.211      2.311      2.21       3.286      2.74       1.613      1.382502   3.505      0.1604331  0.1604331  0.2997074  2.622822   11.28512   3.286      0.370186   0.5603972  77.343     0.4220431  0.2411797  0.6029066 
1080.8     0.227      280.34     -9999      -9999      8.069027   3.073      3.785      2.414      2.438      2.362      3.383      1.966      1.435      1.403882   3.708      0.1562161  0.1562161  0.2931737  2.191085   13.07064   3.383      0.3641439  0.5562951  77.343     0.4150231  0.2271397  0.6029066 
1081       0.228      272.72     -9999      -9999      7.919858   3.124      4.267      2.668      2.565      2.54       4.337      2.245      2.057      1.422881   3.937      0.1522162  0.1522162  0.2873676  1.847444   14.75134   4.337      0.4211815  0.599279   77.343     0.4095497  0.2161928  0.6029066 
1081.2     0.228      262.56     -9999      -9999      7.807664   3.302000000000001 4.978000000000001 2.973      2.667      2.616      3.858      2.804      1.791      1.437554   3.988      0.1490332  0.1490332  0.2828836  1.612924   16.1564    3.858      0.3771445  0.5674867  77.343     0.4056075  0.2083084  0.6029066 
1081.4     0.227      252.4      -9999      -9999      7.731624   3.353      4.978000000000001 3.303      2.794      2.667      3.693      2.804      2.946      1.447039   3.937      0.146989   0.146989   0.2799849  1.478262   17.18401   3.693      0.3565434  0.5527431  77.343     0.4030177  0.2031289  0.6029066 
1081.6     0.223      246.05     -9999      -9999      7.684912   3.174999999999999 4.902      3.303      2.718      2.718      4.212      1.712      1.473      1.451758   3.937      0.1460614  0.1460614  0.2785428  1.420918   17.84743   4.212      0.3917042  0.5788449  77.343     0.4014588  0.2000111  0.6029066 
1081.8     0.223      242.24     -9999      -9999      7.654679   2.997      4.521      3.608      2.565      2.692      3.83       2.588      1.918      1.453175   4.013      0.145957   0.145957   0.2781097  1.414607   18.2904    3.83       0.363555   0.557798   77.343     0.4004627  0.1980188  0.6029066 
1082       0.223      239.7      -9999      -9999      7.626777   2.819      4.191      3.887      2.515      2.692      3.238      2.994      2.019      1.453071   4.191      0.1465172  0.1465172  0.2781415  1.448813   18.70897   3.238      0.3136724  0.5198195  77.301     0.3988615  0.1961976  0.6015253 
1082.2     0.223      238.43     -9999      -9999      7.58948    3.099      4.623      4.09       2.515      2.718      3.383      2.55       1.511      1.45263    4.064      0.1472823  0.1472823  0.2782764  1.496871   19.28348   3.383      0.3306804  0.5313128  77.258     0.3969517  0.1937894  0.6001139 
1082.4     0.223      237.16     -9999      -9999      7.540537   3.48       5.385      3.963      2.794      2.794      3.944      3.007      1.549      1.451957   3.734      0.148229   0.148229   0.278482   1.558541   20.06422   3.944      0.3806433  0.5672014  77.216     0.3947061  0.1906741  0.5987381000000001
1082.6     0.224      237.16     -9999      -9999      7.485994   3.632      5.131      3.963      2.819      2.921      4.598      3.718      2.299      1.45005    3.734      0.1493749  0.1493749  0.2790648  1.636603   20.97159   4.598      0.4275205  0.6008726  77.216     0.3929997  0.1872613  0.5987381000000001
1082.8     0.224      239.7      -9999      -9999      7.439631   3.353      4.902      4.116      2.769      2.946      5.245      2.918      1.689      1.445375   3.505      0.1512742  0.1512742  0.2804934  1.774697   21.77508   5.245      0.4677081  0.629295   77.216     0.3915732  0.1844083  0.5987381000000001
1083       0.222      242.24     -9999      -9999      7.417881   3.250999999999999 5.182      4.294      2.718      2.972      3.973      3.566      2.972      1.436588   3.378      0.1539923  0.1539923  0.2831788  1.992824   22.16254   3.973      0.4029376  0.5794703  77.216     0.3914743  0.183085   0.5998636000000001
1083.2     0.222      246.05     -9999      -9999      7.431277   2.972      5.080000000000001 4.446      2.845      2.946      3.261      3.02       1.968      1.423024   3.124      0.1580443  0.1580443  0.2873239  2.368764   21.92309   3.261      0.359612   0.5445706  77.174     0.3917562  0.183899   0.5996135 
1083.4     0.225      249.86     -9999      -9999      7.482602   3.124      5.385      4.548      2.946      2.946      3.719      2.067      2.337      1.405058   2.794      0.1630614  0.1630614  0.2928144  2.933936   21.02936   3.719      0.4140792  0.5835539  77.131     0.3931908  0.1870511  0.5993306000000001
1083.6     0.227      253.67     -9999      -9999      7.565295   3.023      4.699000000000001 4.548      2.921      2.946      3.509      3.071      1.448      1.384025   2.794      0.1691317  0.1691317  0.2992419  3.800908   19.66541   3.509      0.4167442  0.5829294  77.004     0.3942733  0.1922437  0.596303  
1083.8     0.228      258.75     -9999      -9999      7.669515   2.769      4.368999999999999 4.649000000000001 2.946      2.946      3.774      1.953      1.143      1.361786   2.616      0.1755363  0.1755363  0.3060381  4.994779   18.07167   3.774      0.4542889  0.6090507  76.835     0.39546    0.1989939  0.5919262 
1084       0.229      266.37     -9999      -9999      7.785635   2.845      4.699000000000001 4.623999999999999 2.921      2.946      3.053      1.902      2.438      1.339928   2.667      0.1820977  0.1820977  0.3127182  6.607677   16.44761   3.053      0.4161658  0.5771582  76.581     0.3958196  0.2067944  0.5848448000000001
