~Version
 VERS              .         2.0                           : CWLS LOG ASCII STANDARD - VERSION 2.0
 WRAP              .         NO                            : ONE LINE PER DEPTH STEP
 DLM               .         SPACE                         : DELIMITING CHARACTER(SPACE TAB OR COMMA)
~Well Information
#_______________________________________________________________________________
#
#PARAMETER_NAME    .UNIT     VALUE                         : DESCRIPTION
#_______________________________________________________________________________
STRT               .M        906                           : First reference value
STOP               .M        1237.2                        : Last reference value
STEP               .M        0.2                           : Step increment
NULL               .         -9999                         : Missing value
COMP               .                                       : Company
WELL               .         7426                          : Well name
FLD                .         Узень                         : Field
LOC                .                                       : Location
CNTY               .                                       : County
STAT               .                                       : State
CTRY               .                                       : Country
SRVC               .                                       : Service Company
DATE               .                                       : Date
UWI                .                                       : Unique Well ID
API                .                                       : 
Block              .         7                             : 
Category           .         Нефтяная                      : 
Condition          .         В работе                      : 
Date               .         29.11.1986                    : 
EREF               .m        94.6                          : 100.8
Gorizont           .         15                            : 14
Interpretator      .         Алпанова Н.К.                 : 
Kupol              .         основной                      : osnovnoi
Moii_15_vosst      .         15_vosst                      : 
Mud                .                                       : 
Mud_density        .                                       : 
Mud_resistivity    .                                       : 
Mud_density        .                                       : 
Mud_resistivity    .                                       : 
NGDU               .         НГДУ-2                        : 
ORIGINALWELLNAME   .         7426                          : 
Spud_date          .         1986                          : 1961
Spud_date          .         1986                          : 1961
Viscosity          .                                       : 
X                  .m        41923.4                       : 46154
Y                  .m        84853.93                      : 85761.93
YEAR               .         2018                          : 
~Parameter Information Block
#_______________________________________________________________________________
#
#PARAMETER_NAME    .UNIT     VALUE                         : DESCRIPTION
#_______________________________________________________________________________
SET                .         LQC_KAZNIPI_Petrel            : 
TLFamily_CALI      .         Caliper                       : 
TLFamily_CILD      .         Conductivity                  : 
TLFamily_COLL      .         Net Reservoir Flag            : 
TLFamily_CSAT      .         Fluid Code                    : 
TLFamily_DEPT      .         Measured Depth                : 
TLFamily_GR        .         Russian Gamma Ray             : 
TLFamily_GZ1       .         Gradient 045                  : 
TLFamily_GZ2       .         Gradient 105                  : 
TLFamily_GZ3       .         Gradient 225                  : 
TLFamily_GZ4       .         Gradient 425                  : 
TLFamily_GZ5       .         Gradient 850                  : 
TLFamily_LLS       .         Lateral Log Resistivity       : 
TLFamily_MINV      .         Micro Gradient Resistivity    : 
TLFamily_MNOR      .         Micro Resistivity             : 
TLFamily_NGLD      .         Neutron Far                   : 
TLFamily_OGZ       .         Gradient Inverted 225         : 
TLFamily_PHIE      .         Effective Porosity            : 
TLFamily_PHIEN     .         Effective Porosity            : 
TLFamily_PHIT      .         Porosity                      : 
TLFamily_PRMB      .         Permeability                  : 
TLFamily_PRMB_DGR  .         Permeability                  : 
TLFamily_RT        .         Formation Resistivity         : 
TLFamily_SOIL_ARCHIE .         Oil Saturation                : 
TLFamily_SOIL_DW   .         Oil Saturation                : 
TLFamily_SP        .         Spontaneous Potential         : 
TLFamily_VSH_FIN   .         Shale Volume                  : 
TLFamily_VSH_GR    .         Shale Volume                  : 
TLFamily_VSH_SP    .         Shale Volume                  : 
~Curve Information
#_______________________________________________________________________________
#
#LOGNAME           .UNIT     LOG_ID                        : DESCRIPTION
#_______________________________________________________________________________
DEPT               .M                                      : Колонка глубины 
CALI               .м                                      : Каверномер 
CILD               .мСм/м                                  : Индукционный каротаж 
COLL               .unitless                               :  
CSAT               .unitless                               :  
GR                 .мкР/ч                                  : Гамма каротаж 
GZ1                .Ом·м                                   :  
GZ2                .Ом·м                                   :  
GZ3                .Ом·м                                   :  
GZ4                .Ом·м                                   :  
GZ5                .Ом·м                                   :  
LLS                .Ом·м                                   : Боковой каротаж 
MINV               .Ом·м                                   : Микро-градиент зонд 
MNOR               .Ом·м                                   : Микро-потенциал зонд 
NGLD               .у.е.                                   : Показания зонда НГК-60 аппаратуры ДРСТ-3-90 
OGZ                .Ом·м                                   :  
PHIE               .м3/м3                                  : Описание 
PHIEN              .v/v                                    :  
PHIT               .м3/м3                                  : Описание 
PRMB               .mD                                     :  
PRMB_DGR           .mD                                     :  
RT                 .ohmm                                   : Description 
SOIL_ARCHIE        .v/v                                    :  
SOIL_DW            .v/v                                    :  
SP                 .мВ                                     : Потенциал самополяризации 
VSH_FIN            .unitless                               : Описание 
VSH_GR             .unitless                               : Shale volume 
VSH_SP             .unitless                               : Shale Volume 
~Ascii
# ...
1011.4     0.242      356.54     -9999      -9999      8.483019   2.108      2.896      2.338      1.778      1.829      2.416      0.797      1.003      1.213171   2.743      0.1688994  0.1688994  0.3514551  3.763443   1.725835   2.416      0.304271   0.5442423  80.095     0.5531989000000001 0.5192057  0.5871921 
1011.6     0.244      348.92     -9999      -9999      8.445516   2.235      2.946      2.338      1.854      1.905      2.697      0.607      0.724      1.224659   2.743      0.1676028  0.1676028  0.3479443  3.560973   1.792462   2.697      0.3348313  0.5646724  79.925     0.5464895  0.5112367  0.5817422 
1011.8     0.247      342.57     -9999      -9999      8.406381   2.311      3.048      2.389      1.88       1.88       2.859      0.683      1.054      1.237674   2.667      0.1656431  0.1656431  0.3439669  3.275445   1.864732   2.859      0.3461282  0.5722536  79.798     0.5403751  0.5030514  0.5776989 
1012       0.242      337.49     -9999      -9999      8.371901   2.311      3.15       2.49       1.854      1.88       2.818      0.696      1.08       1.251762   2.743      0.1631729  0.1631729  0.3396616  2.947924   1.930818   2.818      0.3330096  0.5632881  79.671     0.5348142  0.4959484  0.57368   
1012.2     0.242      332.41     -9999      -9999      8.346945   2.311      3.226      2.566      1.905      1.854      2.757      0.785      1.041      1.2661     2.845      0.1598475  0.1598475  0.3352799  2.558127   1.980104   2.757      0.313931   0.5514171  79.629     0.5316131  0.49087    0.5723562 
1012.4     0.24       326.06     -9999      -9999      8.332408   2.388      3.250999999999999 2.643      1.956      1.854      2.736      0.531      0.787      1.279907   2.845      0.1561124  0.1561124  0.3310606  2.181415   2.009392   2.736      0.297139   0.5420554  79.629     0.530146   0.4879358  0.5723562 
1012.6     0.234      320.98     -9999      -9999      8.325316   2.362      3.200000000000001 2.643      2.007      1.829      2.757      0.899      1.219      1.292588   2.845      0.1529129  0.1529129  0.3271852  1.903162   2.023837   2.757      0.2869107  0.5368353  79.544     0.528098   0.4865108  0.5696852 
1012.8     0.23       318.44     -9999      -9999      8.320273   2.337      3.302000000000001 2.744      2.057      1.803      2.838      0.721      1.283      1.303744   2.896      0.1503256  0.1503256  0.3237759  1.704327   2.034171   2.838      0.2860013  0.5375354  79.417     0.5256072000000001 0.4855     0.5657144 
1013       0.234      315.9      -9999      -9999      8.310226   2.438      3.327      2.82       2.083      1.905      2.818      0.747      1.003      1.313303   2.946      0.1488153  0.1488153  0.3208546  1.598003   2.054919   2.818      0.2772997  0.5314888  79.206     0.5213313000000001 0.4834924  0.5591701 
1013.2     0.234      314.63     -9999      -9999      8.291918   2.413      3.327      2.82       2.057      1.905      2.776      1.369      1.448      1.321388   2.972      0.1478066  0.1478066  0.3183837  1.530718   2.093272   2.776      0.2678653  0.5244614  79.036     0.5169003  0.4798553  0.5539453 
1013.4     0.23       312.09     -9999      -9999      8.267019   2.388      3.277      2.82       2.057      1.905      2.922      0.924      1.067      1.328101   3.048      0.1472035  0.1472035  0.3163322  1.491846   2.146582   2.922      0.2827155  0.5339065  78.909     0.5125113  0.474953   0.5500696000000001
1013.6     0.223      309.55     -9999      -9999      8.23788    2.464      3.302000000000001 2.82       2.032      1.93       2.859      0.708      0.838      1.333851   3.048      0.1472273  0.1472273  0.314575   1.493363   2.210698   2.859      0.2754435  0.5271928  78.74      0.5071141  0.4692792  0.5449491 
1013.8     0.228      308.28     -9999      -9999      8.207049   2.464      3.378      2.82       2.032      1.905      2.776      0.899      1.676      1.339142   3.073      0.1476389  0.1476389  0.3129582  1.519811   2.280621   2.776      0.2671412  0.5191468  78.528     0.5009673  0.4633499  0.5385846 
1014       0.233      305.74     -9999      -9999      8.17348    2.438      3.429      2.82       2.007      1.905      2.901      1.839      1.638      1.34442    3.124      0.1489376  0.1489376  0.3113453  1.60636    2.359274   2.901      0.2875873  0.5296774  78.147     0.4921448  0.456979   0.5273106 
1014.2     0.233      304.47     -9999      -9999      8.129602   2.438      3.404      2.871      1.981      1.854      2.944      1.343      1.676      1.350195   3.174999999999999 0.1507485  0.1507485  0.3095803  1.735348   2.466183   2.944      0.2998977  0.5336328  77.682     0.4813084  0.4487838  0.5138331 
1014.4     0.228      301.93     -9999      -9999      8.06441    2.362      3.277      2.897      1.956      1.829      2.859      1.204      1.334      1.357064   3.302000000000001 0.1523983  0.1523983  0.3074814  1.861845   2.634037   2.859      0.2969029  0.5267355  77.301     0.4699489  0.436878   0.5030198 
1014.6     0.226      300.66     -9999      -9999      7.96337    2.362      3.226      2.897      1.956      1.829      2.757      0.873      1.27       1.365725   3.302000000000001 0.1550203  0.1550203  0.3048346  2.082137   2.917047   2.757      0.295361   0.5186592  76.793     0.4539828  0.4190466  0.488919  
1014.8     0.225      298.12     -9999      -9999      7.813171   2.337      3.277      2.922      1.981      1.854      2.638      1.775      1.676      1.377208   3.505      0.1581207  0.1581207  0.3013251  2.376492   3.394906   2.638      0.2929204  0.508204   76.242     0.4339528  0.3938759  0.4740297 
1015       0.224      294.31     -9999      -9999      7.607272   2.286      3.15       2.897      1.981      1.93       2.717      2.55       1.778      1.392555   3.708      0.1623609  0.1623609  0.2966353  2.847575   4.179708   2.717      0.3185324  0.515779   75.396     0.4068924  0.3618092  0.4519755 
1015.2     0.224      287.96     -9999      -9999      7.34666    2.261      3.023      2.897      2.083      2.007      2.966      2.601      1.422      1.412491   3.912      0.1661782  0.1661782  0.2905427  3.351056   5.438301   2.966      0.3591083  0.5349631  74.464     0.3768619  0.3249376  0.4287863 
1015.4     0.225      282.88     -9999      -9999      7.041232   2.337      3.277      2.897      2.21       2.083      2.901      2.398      1.892      1.43699    4.089      0.1676988  0.1676988  0.2830558  3.575586   7.403536   2.901      0.3575267  0.5240509  73.787     0.3495664  0.2864793  0.4126536 
1015.6     0.223      276.53     -9999      -9999      6.708886   2.565      3.581      2.897      2.311      2.184      3.214      3.109      2.845      1.46514    4.089      0.1675599  0.1675599  0.2744533  3.554468   10.35673   3.214      0.3872446  0.5392151  73.152     0.3239193  0.2497841  0.3980544 
1015.8     0.221      270.18     -9999      -9999      6.372586   2.87       3.912      2.947      2.438      2.261      4.032      3.274      2.248      1.4951     4.191      0.1654562  0.1654562  0.2652973  3.249441   14.5459    4.032      0.4429995  0.5780329  72.686     0.3025488  0.2174345  0.3876632 
1016       0.222      263.83     -9999      -9999      6.056522   3.174999999999999 4.064      3.024      2.54       2.337      4.181      2.728      2.718      1.524164   4.013      0.1633709  0.1633709  0.2564153  2.972917   20.01623   4.181      0.4463213  0.5749485  72.009     0.281953   0.1908606  0.3730453 
1016.2     0.222      261.294    -9999      -9999      5.782768   2.972      4.166      3.125      2.667      2.413      3.915      3.49       2.019      1.548987   3.835      0.1611847  0.1611847  0.2488297  2.708251   26.39151   3.915      0.4222361  0.5503814  71.416     0.2655911  0.1704837  0.3606984 
1016.4     0.223      258.75     -9999      -9999      5.56974    2.946      4.572000000000001 3.303      2.769      2.489      3.719      2.715      2.184      1.565984   3.607      0.1596285  0.1596285  0.2436352  2.534339   32.72723   3.719      0.4031197  0.5310257  71.035     0.2545658  0.1561443  0.3529873 
