~Version
 VERS              .         2.0                           : CWLS LOG ASCII STANDARD - VERSION 2.0
 WRAP              .         NO                            : ONE LINE PER DEPTH STEP
 DLM               .         SPACE                         : DELIMITING CHARACTER(SPACE TAB OR COMMA)
~Well Information
#_______________________________________________________________________________
#
#PARAMETER_NAME    .UNIT     VALUE                         : DESCRIPTION
#_______________________________________________________________________________
STRT               .M        906                           : First reference value
STOP               .M        1237.2                        : Last reference value
STEP               .M        0.2                           : Step increment
NULL               .         -9999                         : Missing value
COMP               .                                       : Company
WELL               .         7426                          : Well name
FLD                .         Узень                         : Field
LOC                .                                       : Location
CNTY               .                                       : County
STAT               .                                       : State
CTRY               .                                       : Country
SRVC               .                                       : Service Company
DATE               .                                       : Date
UWI                .                                       : Unique Well ID
API                .                                       : 
Block              .         7                             : 
Category           .         Нефтяная                      : 
Condition          .         В работе                      : 
Date               .         29.11.1986                    : 
EREF               .m        94.6                          : 100.8
Gorizont           .         15                            : 14
Interpretator      .         Алпанова Н.К.                 : 
Kupol              .         основной                      : osnovnoi
Moii_15_vosst      .         15_vosst                      : 
Mud                .                                       : 
Mud_density        .                                       : 
Mud_resistivity    .                                       : 
Mud_density        .                                       : 
Mud_resistivity    .                                       : 
NGDU               .         НГДУ-2                        : 
ORIGINALWELLNAME   .         7426                          : 
Spud_date          .         1986                          : 1961
Spud_date          .         1986                          : 1961
Viscosity          .                                       : 
X                  .m        41923.4                       : 46154
Y                  .m        84853.93                      : 85761.93
YEAR               .         2018                          : 
~Parameter Information Block
#_______________________________________________________________________________
#
#PARAMETER_NAME    .UNIT     VALUE                         : DESCRIPTION
#_______________________________________________________________________________
SET                .         LQC_KAZNIPI_Petrel            : 
TLFamily_CALI      .         Caliper                       : 
TLFamily_CILD      .         Conductivity                  : 
TLFamily_COLL      .         Net Reservoir Flag            : 
TLFamily_CSAT      .         Fluid Code                    : 
TLFamily_DEPT      .         Measured Depth                : 
TLFamily_GR        .         Russian Gamma Ray             : 
TLFamily_GZ1       .         Gradient 045                  : 
TLFamily_GZ2       .         Gradient 105                  : 
TLFamily_GZ3       .         Gradient 225                  : 
TLFamily_GZ4       .         Gradient 425                  : 
TLFamily_GZ5       .         Gradient 850                  : 
TLFamily_LLS       .         Lateral Log Resistivity       : 
TLFamily_MINV      .         Micro Gradient Resistivity    : 
TLFamily_MNOR      .         Micro Resistivity             : 
TLFamily_NGLD      .         Neutron Far                   : 
TLFamily_OGZ       .         Gradient Inverted 225         : 
TLFamily_PHIE      .         Effective Porosity            : 
TLFamily_PHIEN     .         Effective Porosity            : 
TLFamily_PHIT      .         Porosity                      : 
TLFamily_PRMB      .         Permeability                  : 
TLFamily_PRMB_DGR  .         Permeability                  : 
TLFamily_RT        .         Formation Resistivity         : 
TLFamily_SOIL_ARCHIE .         Oil Saturation                : 
TLFamily_SOIL_DW   .         Oil Saturation                : 
TLFamily_SP        .         Spontaneous Potential         : 
TLFamily_VSH_FIN   .         Shale Volume                  : 
TLFamily_VSH_GR    .         Shale Volume                  : 
TLFamily_VSH_SP    .         Shale Volume                  : 
~Curve Information
#_______________________________________________________________________________
#
#LOGNAME           .UNIT     LOG_ID                        : DESCRIPTION
#_______________________________________________________________________________
DEPT               .M                                      : Колонка глубины 
CALI               .м                                      : Каверномер 
CILD               .мСм/м                                  : Индукционный каротаж 
COLL               .unitless                               :  
CSAT               .unitless                               :  
GR                 .мкР/ч                                  : Гамма каротаж 
GZ1                .Ом·м                                   :  
GZ2                .Ом·м                                   :  
GZ3                .Ом·м                                   :  
GZ4                .Ом·м                                   :  
GZ5                .Ом·м                                   :  
LLS                .Ом·м                                   : Боковой каротаж 
MINV               .Ом·м                                   : Микро-градиент зонд 
MNOR               .Ом·м                                   : Микро-потенциал зонд 
NGLD               .у.е.                                   : Показания зонда НГК-60 аппаратуры ДРСТ-3-90 
OGZ                .Ом·м                                   :  
PHIE               .м3/м3                                  : Описание 
PHIEN              .v/v                                    :  
PHIT               .м3/м3                                  : Описание 
PRMB               .mD                                     :  
PRMB_DGR           .mD                                     :  
RT                 .ohmm                                   : Description 
SOIL_ARCHIE        .v/v                                    :  
SOIL_DW            .v/v                                    :  
SP                 .мВ                                     : Потенциал самополяризации 
VSH_FIN            .unitless                               : Описание 
VSH_GR             .unitless                               : Shale volume 
VSH_SP             .unitless                               : Shale Volume 
~Ascii
# ...
970.6      0.235      299.39     -9999      -9999      6.545077   2.718      3.531      3.151      2.489      2.515      3.535      2.867      2.896      1.376011   3.302000000000001 0.1702574  0.1702574  0.301691   3.987847   12.22017955780029 3.535      0.4221098  0.5875923  79.333     0.3982837  0.2334662  0.5631011 
970.8      0.231      295.58     -9999      -9999      6.504918   2.337      3.378      3.049      2.489      2.54       3.31       1.064      1.46       1.382789   3.327      0.1690388  0.1690388  0.2996196  3.785887   12.72603988647461 3.31       0.4002571  0.5708097  79.29      0.3956994  0.2296313  0.5617675 
971        0.222      290.5      -9999      -9999      6.489203   2.337      3.200000000000001 3.1        2.438      2.565      2.736      1.089      1.334      1.388586   3.353      0.1677267  0.1677267  0.2978483  3.579845   12.92965030670166 2.736      0.3397228  0.5247738  79.248     0.3943076  0.2281478  0.5604675 
971.2000000000001 0.232      286.69     -9999      -9999      6.498615   2.362      3.682999999999999 3.049      2.286      2.642      3.214      0.823      1.054      1.393808   3.302000000000001 0.1657697  0.1657697  0.2962521  3.293176   12.80731010437012 3.214      0.381485   0.5580646  79.29      0.3954013  0.2290351  0.5617675 
971.4      0.222      282.88     -9999      -9999      6.530095   2.667      4.140000000000001 2.922      2.515      2.692      3.261      0.607      0.813      1.398281   3.327      0.1636889  0.1636889  0.2948852  3.013516   12.40651035308838 3.261      0.3788886  0.5578355  79.333     0.3975646  0.2320281  0.5631011 
971.6      0.219      279.07     -9999      -9999      6.577782   2.946      4.394      2.922      2.718      2.769      4.091      2.359      3.124      1.40168    3.327      0.1612373  0.1612373  0.2938465  2.714334   11.82310962677002 4.091      0.4341971  0.6020305  79.46      0.4018464  0.2366367  0.5670561 
971.8      0.224      273.99     -9999      -9999      6.63327    2.997      3.708      2.947      2.845      2.642      3.484      2.804      0.94       1.403565   3.277      0.1588829  0.1588829  0.2932705  2.455014   11.17870998382568 3.484      0.3820393  0.5657427  79.629     0.4072354  0.2421146  0.5723562 
972        0.237      270.18     -9999      -9999      6.687362   2.489      3.81       3.227      2.667      2.565      2.859      0.937      0.559      1.403492   3.073      0.1571223  0.1571223  0.2932928  2.277429   10.58434963226318 2.859      0.3153504  0.5185508  79.798     0.4126377  0.2475766  0.5776989 
972.2000000000001 0.225      268.91     -9999      -9999      6.733579   2.718      4.318      3.430000000000001 2.54       2.54       3.56       1.001      1.295      1.401159   3.073      0.156382   0.156382   0.2940057  2.206644   10.10161972045898 3.56       0.3797539  0.5683919  79.925     0.4170415  0.2523409  0.5817422 
972.4      0.223      268.91     -9999      -9999      6.76922    2.769      4.140000000000001 3.354      2.54       2.565      4.032      2.664      2.921      1.396257   3.226      0.1570369  0.1570369  0.2955039  2.269145   9.744450569152832 4.032      0.4170785  0.5963548  79.968     0.4195971  0.2560776  0.5831166 
972.6      0.223      270.18     -9999      -9999      6.797581   2.616      3.759      3.354      2.591      2.565      3.31       1.839      1.334      1.388299   3.226      0.1585272  0.1585272  0.2979357  2.418059   9.469278335571289 3.31       0.3657658  0.5583531  80.052     0.42245    0.2590905  0.5858095 
972.8      0.229      271.45     -9999      -9999      6.823553   2.718      4.089      3.405      2.565      2.515      3.01       1.051      1.029      1.377174   3.174999999999999 0.1614666  0.1614666  0.3013355  2.741017   9.224103927612305 3.01       0.3473763  0.5433453  80.052     0.4238451  0.2618806  0.5858095 
973        0.221      271.45     -9999      -9999      6.851023   2.819      4.115000000000001 3.506      2.54       2.489      4.003      3.528      2.629      1.363105   2.921      0.1654964  0.1654964  0.3056352  3.255018   8.971694946289063 4.003      0.4412277  0.6111823  80.01      0.4246631  0.2648645  0.5844617 
973.2000000000001 0.224      270.18     -9999      -9999      6.878958   2.845      4.089      3.684      2.565      2.438      3.383      1.547      1.372      1.34693    2.794      0.1703818  0.1703818  0.3105783  4.009053   8.722091674804688 3.383      0.4104424  0.5859055  79.925     0.4248379  0.2679337  0.5817422 
973.4      0.224      271.45     -9999      -9999      6.903364   2.819      4.039000000000001 3.811      2.616      2.438      3.098      2.169      2.235      1.330223   2.769      0.1752612  0.1752612  0.3156839  4.936514   8.509713172912598 3.098      0.4005105  0.5762665  79.883     0.4255234  0.2706443  0.5804024 
973.6      0.215      275.26     -9999      -9999      6.91763    2.54       3.708      3.811      2.591      2.362      3.01       1.178      1.6        1.314828   2.769      0.1794814  0.1794814  0.3203887  5.910018   8.387978553771973 3.01       0.4048119  0.5779283  79.925     0.4269918  0.2722414  0.5817422 
973.8      0.22       279.07     -9999      -9999      6.916146   2.311      3.505      3.735      2.54       2.362      2.6        0.569      0.813      1.302555   2.769      0.1832593  0.1832593  0.3241391  6.943295   8.400558471679688 2.6        0.3739386  0.5527468  79.925     0.4269085  0.2720748  0.5817422 
974        0.225      285.42     -9999      -9999      6.896699   2.235      3.607      3.582      2.464      2.388      2.399      1.255      0.762      1.294684   2.743      0.1857966  0.1857966  0.3265446  7.736805   8.567193031311035 2.399      0.3575883  0.5389766  79.968     0.426509   0.2699013  0.5831166 
974.2000000000001 0.225      290.5      -9999      -9999      6.861046   2.311      3.505      3.430000000000001 2.438      2.565      2.88       1.293      2.045      1.291612   2.667      0.1873855  0.1873855  0.3274834  8.279266   8.881324768066406 2.88       0.4147375  0.5813751  79.968     0.4245391  0.2659617  0.5831166 
974.4      0.228      296.85     -9999      -9999      6.815668   2.388      3.327      3.379      2.489      2.616      3.076      0.747      1.257      1.292932   2.616      0.1875739  0.1875739  0.3270801  8.346057999999999 9.297854423522949 3.076      0.4330398  0.5947915  80.01      0.4227461  0.2610305  0.5844617 
974.6      0.228      301.93     -9999      -9999      6.769715   2.388      3.099      3.379      2.489      2.591      2.638      0.873      0.965      1.297927   2.616      0.1868558  0.1868558  0.3255534  8.09432    9.739574432373047 2.638      0.3886236  0.5605381  80.01      0.4202958  0.2561299  0.5844617 
974.8      0.237      307.01     -9999      -9999      6.73251    2.261      3.023      3.354      2.464      2.438      2.717      0.569      0.775      1.305623   2.667      0.1851476  0.1851476  0.3232016  7.525579   10.11254024505615 2.717      0.3921884  0.563489   80.01      0.4183457  0.2522297  0.5844617 
975        0.237      308.28     -9999      -9999      6.712936   2.083      2.819      3.328      2.438      2.362      2.416      0.747      0.61       1.314808   2.794      0.183124   0.183124   0.3203948  6.903343   10.31445026397705 2.416      0.3515825  0.5326207  79.925     0.415972   0.2502017  0.5817422 
975.2000000000001 0.233      308.28     -9999      -9999      6.717027   2.134      2.896      3.201000000000001 2.489      2.413      2.488      0.924      1.194      1.324219   2.87       0.1808455  0.1808455  0.3175188  6.26405    10.2719202041626 2.488      0.3534443  0.5346167  79.798     0.4141615  0.2506242  0.5776989 
975.4      0.231      305.74     -9999      -9999      6.745738   2.388      3.174999999999999 3.049      2.591      2.515      3.334      2.347      1.981      1.332463   2.819      0.1784965  0.1784965  0.3149992  5.666901   9.978328704833984 3.334      0.429966   0.5939403  79.671     0.4136447  0.2536095  0.57368   
