~Version
 VERS              .         2.0                           : CWLS LOG ASCII STANDARD - VERSION 2.0
 WRAP              .         NO                            : ONE LINE PER DEPTH STEP
 DLM               .         SPACE                         : DELIMITING CHARACTER(SPACE TAB OR COMMA)
~Well Information
#_______________________________________________________________________________
#
#PARAMETER_NAME    .UNIT     VALUE                         : DESCRIPTION
#_______________________________________________________________________________
STRT               .M        906                           : First reference value
STOP               .M        1237.2                        : Last reference value
STEP               .M        0.2                           : Step increment
NULL               .         -9999                         : Missing value
COMP               .                                       : Company
WELL               .         7426                          : Well name
FLD                .         Узень                         : Field
LOC                .                                       : Location
CNTY               .                                       : County
STAT               .                                       : State
CTRY               .                                       : Country
SRVC               .                                       : Service Company
DATE               .                                       : Date
UWI                .                                       : Unique Well ID
API                .                                       : 
Block              .         7                             : 
Category           .         Нефтяная                      : 
Condition          .         В работе                      : 
Date               .         29.11.1986                    : 
EREF               .m        94.6                          : 100.8
Gorizont           .         15                            : 14
Interpretator      .         Алпанова Н.К.                 : 
Kupol              .         основной                      : osnovnoi
Moii_15_vosst      .         15_vosst                      : 
Mud                .                                       : 
Mud_density        .                                       : 
Mud_resistivity    .                                       : 
Mud_density        .                                       : 
Mud_resistivity    .                                       : 
NGDU               .         НГДУ-2                        : 
ORIGINALWELLNAME   .         7426                          : 
Spud_date          .         1986                          : 1961
Spud_date          .         1986                          : 1961
Viscosity          .                                       : 
X                  .m        41923.4                       : 46154
Y                  .m        84853.93                      : 85761.93
YEAR               .         2018                          : 
~Parameter Information Block
#_______________________________________________________________________________
#
#PARAMETER_NAME    .UNIT     VALUE                         : DESCRIPTION
#_______________________________________________________________________________
SET                .         LQC_KAZNIPI_Petrel            : 
TLFamily_CALI      .         Caliper                       : 
TLFamily_CILD      .         Conductivity                  : 
TLFamily_COLL      .         Net Reservoir Flag            : 
TLFamily_CSAT      .         Fluid Code                    : 
TLFamily_DEPT      .         Measured Depth                : 
TLFamily_GR        .         Russian Gamma Ray             : 
TLFamily_GZ1       .         Gradient 045                  : 
TLFamily_GZ2       .         Gradient 105                  : 
TLFamily_GZ3       .         Gradient 225                  : 
TLFamily_GZ4       .         Gradient 425                  : 
TLFamily_GZ5       .         Gradient 850                  : 
TLFamily_LLS       .         Lateral Log Resistivity       : 
TLFamily_MINV      .         Micro Gradient Resistivity    : 
TLFamily_MNOR      .         Micro Resistivity             : 
TLFamily_NGLD      .         Neutron Far                   : 
TLFamily_OGZ       .         Gradient Inverted 225         : 
TLFamily_PHIE      .         Effective Porosity            : 
TLFamily_PHIEN     .         Effective Porosity            : 
TLFamily_PHIT      .         Porosity                      : 
TLFamily_PRMB      .         Permeability                  : 
TLFamily_PRMB_DGR  .         Permeability                  : 
TLFamily_RT        .         Formation Resistivity         : 
TLFamily_SOIL_ARCHIE .         Oil Saturation                : 
TLFamily_SOIL_DW   .         Oil Saturation                : 
TLFamily_SP        .         Spontaneous Potential         : 
TLFamily_VSH_FIN   .         Shale Volume                  : 
TLFamily_VSH_GR    .         Shale Volume                  : 
TLFamily_VSH_SP    .         Shale Volume                  : 
~Curve Information
#_______________________________________________________________________________
#
#LOGNAME           .UNIT     LOG_ID                        : DESCRIPTION
#_______________________________________________________________________________
DEPT               .M                                      : Колонка глубины 
CALI               .м                                      : Каверномер 
CILD               .мСм/м                                  : Индукционный каротаж 
COLL               .unitless                               :  
CSAT               .unitless                               :  
GR                 .мкР/ч                                  : Гамма каротаж 
GZ1                .Ом·м                                   :  
GZ2                .Ом·м                                   :  
GZ3                .Ом·м                                   :  
GZ4                .Ом·м                                   :  
GZ5                .Ом·м                                   :  
LLS                .Ом·м                                   : Боковой каротаж 
MINV               .Ом·м                                   : Микро-градиент зонд 
MNOR               .Ом·м                                   : Микро-потенциал зонд 
NGLD               .у.е.                                   : Показания зонда НГК-60 аппаратуры ДРСТ-3-90 
OGZ                .Ом·м                                   :  
PHIE               .м3/м3                                  : Описание 
PHIEN              .v/v                                    :  
PHIT               .м3/м3                                  : Описание 
PRMB               .mD                                     :  
PRMB_DGR           .mD                                     :  
RT                 .ohmm                                   : Description 
SOIL_ARCHIE        .v/v                                    :  
SOIL_DW            .v/v                                    :  
SP                 .мВ                                     : Потенциал самополяризации 
VSH_FIN            .unitless                               : Описание 
VSH_GR             .unitless                               : Shale volume 
VSH_SP             .unitless                               : Shale Volume 
~Ascii
# ...
925.8      0.212      435.28     1          3          3.059544   1.956      1.829      2.033      1.27       1.27       2.33       1.293      1.029      1.476348   1.829      0.2285708  0.2285708  0.2710281  47.95616912841797 6266.66015625 2.33       0.4562615  0.5204517  60.452     0.1286584  0.02       0.2373168 
926        0.212      434.01     1          3          3.041381   2.057      1.88       1.957      1.245      1.27       2.33       1.255      1.219      1.473094   1.829      0.2295652  0.2295652  0.2720225  50.03359985351563 6423.587890625 2.33       0.4583133  0.5223423  60.452     0.1286584  0.02       0.2373168 
926.2000000000001 0.212      434.01     1          3          3.03387    1.981      1.93       1.957      1.219      1.245      2.246      1.077      0.889      1.468212   1.753      0.2310573  0.2310573  0.2735146  53.32115936279297 6489.625   2.246      0.4520001  0.5163532  60.452     0.1286584  0.02       0.2373168 
926.4      0.212      434.01     1          3          3.035648   1.93       1.93       2.008      1.27       1.245      2.23       1.394      1.27       1.462635   1.753      0.2327615  0.2327615  0.2752187  57.34096145629883 6473.93701171875 2.23       0.4536664  0.5178595  60.452     0.1286584  0.02       0.2373168 
926.6      0.212      435.28     1          3          3.044969   1.854      1.93       2.008      1.295      1.219      2.435      1.178      1.105      1.457348   1.753      0.2344636  0.2344636  0.2768345  61.65859985351563 6392.27880859375 2.435      0.4790707  0.5415729  60.41      0.1283965  0.02       0.236793  
926.8      0.213      436.55     1          3          3.060318   1.88       1.956      2.033      1.295      1.219      2.347      1.089      1.054      1.453119   1.778      0.2358442  0.2358442  0.2781268  65.39804077148438 6260.06298828125 2.347      0.4726976  0.5354668  60.367     0.1281292  0.02       0.2362584 
927        0.213      437.82     1          3          3.080889   2.032      1.905      2.033      1.321      1.219      2.246      1.267      0.914      1.450523   1.88       0.2366376  0.2366376  0.2789203  67.64897155761719 6087.1328125 2.246      0.4632725  0.5265903  60.367     0.1281292  0.02       0.2362584 
927.2000000000001 0.213      439.09     1          3          3.1059     2.057      1.854      1.982      1.372      1.194      2.399      1.229      1.143      1.44984    1.854      0.2367579  0.2367579  0.2791288  67.99690246582031 5883.3017578125 2.399      0.479847   0.5422309  60.41      0.1283965  0.02       0.236793  
927.4      0.213      436.55     1          3          3.134457   1.981      1.905      1.931      1.422      1.194      2.313      1.242      1.168      1.451083   1.803      0.2362916  0.2362916  0.2787489  66.65801239013672 5658.9111328125 2.313      0.4699501  0.5330422  60.452     0.1286584  0.02       0.2373168 
927.6      0.213      435.28     1          3          3.165098   1.956      1.905      1.931      1.372      1.168      2.213      1.14       1.029      1.453791   1.803      0.2352885  0.2352885  0.2779215  63.86629104614258 5427.65087890625 2.213      0.4568334  0.5209265  60.537     0.129191   0.02       0.2383819 
927.8      0.214      434.01     1          3          3.196805   1.956      1.905      1.881      1.168      1.194      2.213      1.115      0.889      1.457384   1.803      0.2340157  0.2340157  0.2768235  60.49188995361328 5198.2890625 2.213      0.4542613  0.518727   60.621     0.1297205  0.02       0.239441  
928        0.215      430.2      1          3          3.228636   1.956      1.905      1.855      1.168      1.194      2.381      1.394      1.372      1.461167   1.829      0.2326707  0.2326707  0.2756675  57.11946105957031 4977.77490234375 2.381      0.4700282  0.5337584  60.706     0.1302934  0.02006741 0.2405193 
928.2000000000001 0.216      428.93     1          3          3.259813   1.956      1.905      1.881      1.168      1.194      2.581      0.937      1.016      1.464472   1.829      0.2316027  0.2316027  0.2746575  54.57612991333008 4770.8701171875 2.581      0.4876635  0.5503628  60.706     0.1304688  0.02041833 0.2405193 
928.4      0.215      427.66     1          3          3.289526   1.956      2.083      1.881      1.27       1.219      2.619      1.712      1.473      1.466898   1.829      0.230805   0.230805   0.2739159  52.7505989074707 4581.68701171875 2.619      0.489634   0.5522864  60.706     0.1306389  0.02075847 0.2405193 
928.6      0.215      427.66     1          3          3.316999   2.108      2.286      1.881      1.448      1.219      2.619      1.039      1.13       1.468159   1.829      0.2302786  0.2302786  0.2735305  51.57947158813477 4413.44384765625 2.619      0.488618   0.5514891  60.748     0.1310663  0.02107803 0.2410546 
928.8      0.216      427.66     1          3          3.341259   2.311      2.464      1.881      1.422      1.219      2.119      1.407      1.346      1.468141   1.778      0.2301462  0.2301462  0.273536   51.28897857666016 4270.02587890625 2.119      0.4348843  0.5012577  60.791     0.1314843  0.02136428 0.2416043 
929        0.216      427.66     1          3          3.363052   2.286      2.261      1.982      1.397      1.168      2.042      1.102      1.194      1.466968   1.854      0.2302839  0.2302839  0.2738947  51.59104919433594 4145.1689453125 2.042      0.4252822  0.4924535  60.875     0.1321539  0.02162475 0.2426831 
929.2000000000001 0.215      427.66     1          3          3.382768   1.93       1.88       2.109      1.321      1.143      2.246      1.191      1.257      1.464648   1.981      0.2307723  0.2307723  0.2746036  52.6768913269043 4035.35791015625 2.246      0.4514106  0.5172057  60.96      0.1328223  0.02186313 0.2437814 
929.4      0.214      425.12     1          3          3.402326   1.829      1.854      2.033      1.27       1.067      2.488      1.14       1.092      1.461314   2.134      0.2315692  0.2315692  0.2756224  54.49821853637695 3929.301025390625 2.488      0.4786985  0.5429321  61.045     0.1334943  0.02210219 0.2448865 
929.6      0.214      418.77     1          3          3.42285    1.981      1.981      2.033      1.245      1.016      2.246      1.064      0.914      1.457304   2.134      0.2327529  0.2327529  0.2768479  57.32004928588867 3821.0048828125 2.246      0.4554787  0.521202   61.045     0.1336212  0.02235587 0.2448865 
929.8      0.212      412.42     1          3          3.444343   2.007      2.057      1.881      1.245      0.991      2.134      1.305      1.295      1.453233   2.057      0.2339526  0.2339526  0.2780919  60.32918930053711 3710.794921875 2.134      0.4447417  0.5111319  61.045     0.1337556  0.02262465 0.2448865 
930        0.212      406.07     1          3          3.464842   1.854      1.88       1.855      1.219      0.991      2.435      1.674      1.257      1.450084   2.184      0.2347817  0.2347817  0.2790543  62.50067901611328 3608.64208984375 2.435      0.4796854  0.5439381  61.087     0.1341595  0.02288401 0.2454351 
930.2000000000001 0.215      397.18     1          3          3.482291   2.032      2.007      1.83       1.143      0.991      2.198      1.051      1.003      1.449134   2.438      0.2346683  0.2346683  0.2793447  62.19905090332031 3523.908935546875 2.198      0.4538429  0.520169   61.256     0.1353831  0.02310712 0.247659  
930.4      0.219      387.02     1          3          3.493981   1.956      1.88       1.804      1.041      1.016      1.969      1.089      1.448      1.451767   2.794      0.2335602  0.2335602  0.2785401  59.327880859375 3468.256103515625 1.969      0.422529   0.4911703  61.383     0.1363029  0.02325781 0.249348  
930.6      0.219      376.86     1          3          3.499666   1.905      1.575      1.804      1.041      1.016      2.246      1.509      1.283      1.458943   2.794      0.2310735  0.2310735  0.2763469  53.35813903808594 3441.510009765625 2.246      0.4520337  0.5192285  61.51      0.1371919  0.02333144 0.2510523 
