~Version
 VERS              .         2.0                           : CWLS LOG ASCII STANDARD - VERSION 2.0
 WRAP              .         NO                            : ONE LINE PER DEPTH STEP
 DLM               .         SPACE                         : DELIMITING CHARACTER(SPACE TAB OR COMMA)
~Well Information
#_______________________________________________________________________________
#
#PARAMETER_NAME    .UNIT     VALUE                         : DESCRIPTION
#_______________________________________________________________________________
STRT               .M        906                           : First reference value
STOP               .M        1237.2                        : Last reference value
STEP               .M        0.2                           : Step increment
NULL               .         -9999                         : Missing value
COMP               .                                       : Company
WELL               .         7426                          : Well name
FLD                .         Узень                         : Field
LOC                .                                       : Location
CNTY               .                                       : County
STAT               .                                       : State
CTRY               .                                       : Country
SRVC               .                                       : Service Company
DATE               .                                       : Date
UWI                .                                       : Unique Well ID
API                .                                       : 
Block              .         7                             : 
Category           .         Нефтяная                      : 
Condition          .         В работе                      : 
Date               .         29.11.1986                    : 
EREF               .m        94.6                          : 100.8
Gorizont           .         15                            : 14
Interpretator      .         Алпанова Н.К.                 : 
Kupol              .         основной                      : osnovnoi
Moii_15_vosst      .         15_vosst                      : 
Mud                .                                       : 
Mud_density        .                                       : 
Mud_resistivity    .                                       : 
Mud_density        .                                       : 
Mud_resistivity    .                                       : 
NGDU               .         НГДУ-2                        : 
ORIGINALWELLNAME   .         7426                          : 
Spud_date          .         1986                          : 1961
Spud_date          .         1986                          : 1961
Viscosity          .                                       : 
X                  .m        41923.4                       : 46154
Y                  .m        84853.93                      : 85761.93
YEAR               .         2018                          : 
~Parameter Information Block
#_______________________________________________________________________________
#
#PARAMETER_NAME    .UNIT     VALUE                         : DESCRIPTION
#_______________________________________________________________________________
SET                .         LQC_KAZNIPI_Petrel            : 
TLFamily_CALI      .         Caliper                       : 
TLFamily_CILD      .         Conductivity                  : 
TLFamily_COLL      .         Net Reservoir Flag            : 
TLFamily_CSAT      .         Fluid Code                    : 
TLFamily_DEPT      .         Measured Depth                : 
TLFamily_GR        .         Russian Gamma Ray             : 
TLFamily_GZ1       .         Gradient 045                  : 
TLFamily_GZ2       .         Gradient 105                  : 
TLFamily_GZ3       .         Gradient 225                  : 
TLFamily_GZ4       .         Gradient 425                  : 
TLFamily_GZ5       .         Gradient 850                  : 
TLFamily_LLS       .         Lateral Log Resistivity       : 
TLFamily_MINV      .         Micro Gradient Resistivity    : 
TLFamily_MNOR      .         Micro Resistivity             : 
TLFamily_NGLD      .         Neutron Far                   : 
TLFamily_OGZ       .         Gradient Inverted 225         : 
TLFamily_PHIE      .         Effective Porosity            : 
TLFamily_PHIEN     .         Effective Porosity            : 
TLFamily_PHIT      .         Porosity                      : 
TLFamily_PRMB      .         Permeability                  : 
TLFamily_PRMB_DGR  .         Permeability                  : 
TLFamily_RT        .         Formation Resistivity         : 
TLFamily_SOIL_ARCHIE .         Oil Saturation                : 
TLFamily_SOIL_DW   .         Oil Saturation                : 
TLFamily_SP        .         Spontaneous Potential         : 
TLFamily_VSH_FIN   .         Shale Volume                  : 
TLFamily_VSH_GR    .         Shale Volume                  : 
TLFamily_VSH_SP    .         Shale Volume                  : 
~Curve Information
#_______________________________________________________________________________
#
#LOGNAME           .UNIT     LOG_ID                        : DESCRIPTION
#_______________________________________________________________________________
DEPT               .M                                      : Колонка глубины 
CALI               .м                                      : Каверномер 
CILD               .мСм/м                                  : Индукционный каротаж 
COLL               .unitless                               :  
CSAT               .unitless                               :  
GR                 .мкР/ч                                  : Гамма каротаж 
GZ1                .Ом·м                                   :  
GZ2                .Ом·м                                   :  
GZ3                .Ом·м                                   :  
GZ4                .Ом·м                                   :  
GZ5                .Ом·м                                   :  
LLS                .Ом·м                                   : Боковой каротаж 
MINV               .Ом·м                                   : Микро-градиент зонд 
MNOR               .Ом·м                                   : Микро-потенциал зонд 
NGLD               .у.е.                                   : Показания зонда НГК-60 аппаратуры ДРСТ-3-90 
OGZ                .Ом·м                                   :  
PHIE               .м3/м3                                  : Описание 
PHIEN              .v/v                                    :  
PHIT               .м3/м3                                  : Описание 
PRMB               .mD                                     :  
PRMB_DGR           .mD                                     :  
RT                 .ohmm                                   : Description 
SOIL_ARCHIE        .v/v                                    :  
SOIL_DW            .v/v                                    :  
SP                 .мВ                                     : Потенциал самополяризации 
VSH_FIN            .unitless                               : Описание 
VSH_GR             .unitless                               : Shale volume 
VSH_SP             .unitless                               : Shale Volume 
~Ascii
906.0      0.24       234.62     -9999      -9999      -9999      2.972      3.708      4.547999858856201 4.343      4.953      4.059      0.848      0.419      -9999      3.759000062942505 -9999      -9999      -9999      -9999      -9999      4.059      -9999      -9999      68.072     -9999      0.7473704  0.800000011920929
906.2000000000001 0.231      237.16     -9999      -9999      -9999      2.794      4.166      4.369999885559082 3.988      5.029      4.031      1.267      0.953      -9999      3.785000085830689 -9999      -9999      -9999      -9999      -9999      4.031      -9999      -9999      67.183     -9999      0.378959   0.800000011920929
906.4      0.225      239.7      -9999      -9999      -9999      3.073      4.850999999999999 4.421000003814697 4.013      5.156000000000001 3.973      2.182      2.121      -9999      3.581000089645386 -9999      -9999      -9999      -9999      -9999      3.973      -9999      -9999      66.548     -4999.333984375 -9999      0.3318538 
906.6      0.221      239.7      -9999      -9999      -9999      3.454      5.512000000000001 4.421000003814697 4.267      5.333999999999999 4.421      2.299      1.991      -9999      3.581000089645386 -9999      -9999      -9999      -9999      -9999      4.421      -9999      -9999      65.744     -4999.3408203125 -9999      0.3171429 
906.8      0.221      239.7      -9999      -9999      -9999      4.242      6.528      4.852000236511231 4.521      5.486      4.666      2.512      1.753      -9999      3.404000043869019 -9999      -9999      -9999      -9999      -9999      4.666      -9999      -9999      64.643     -4999.35107421875 -9999      0.2981564 
907        0.217      239.7      -9999      -9999      -9999      4.597      6.706      5.208000000000001 4.826000000000001 5.436000000000001 5.726      2.811      1.718      -9999      3.631999969482422 -9999      -9999      -9999      -9999      -9999      5.726      -9999      -9999      63.034     -4999.36376953125 -9999      0.2727261 
907.2000000000001 0.215      244.78     -9999      -9999      -9999      4.42       6.325000000000001 4.979000000000001 4.444999999999999 4.877      4.499      3.274      1.664      -9999      3.937000036239624 -9999      -9999      -9999      -9999      -9999      4.499      -9999      -9999      61.722     -4999.373046875 -9999      0.2539317 
907.4      0.216      257.48     -9999      -9999      -9999      3.378      4.902      4.649000000000001 3.556000000000001 4.013      4.125      2.98       2.32       -9999      3.785000085830689 -9999      -9999      -9999      -9999      -9999      4.125      -9999      -9999      61.087     -4999.376953125 -9999      0.2454351 
907.6      0.217      276.53     -9999      -9999      -9999      2.565      4.115000000000001 4.649000000000001 2.642      3.124      3.587      2.778      2.769      -9999      3.785000085830689 -9999      -9999      -9999      -9999      -9999      3.587      -9999      -9999      60.791     -4999.37890625 -9999      0.2416043 
907.8      0.217      290.5      -9999      -9999      -9999      2.21       3.581      4.344      1.753      2.261      3.924      1.229      1.88       -9999      3.428999900817871 -9999      -9999      -9999      -9999      -9999      3.924      -9999      -9999      60.494     -4999.380859375 -9999      0.2378423 
908        0.214      299.39     -9999      -9999      3.587985   2.591      3.988      3.887      1.778      2.083      5.037      0.81       0.813      1.684556   3.098999977111816 0.1649732  0.1649732  0.2073996  3.183186054229736 3051.527099609375 5.037      0.4969554  -9999      60.071     0.1285648  0.02450584 0.2326237 
908.2000000000001 0.212      305.74     6          6          3.530528   2.108      2.769      3.379      1.854      2.159      6.701      1.303      1.082      1.703888   2.591000080108643 0.1597794  0.1597794  0.2014919  2.550700902938843 3299.8720703125 6.701      0.5475892  0.6096169  59.775     0.1264017  0.02373529 0.229068  
908.4      0.212      308.28     6          6          3.558764   1.803      2.057      3.303      1.626      2.388      6.548      1.902      1.41       1.724769   2.437999963760376 0.1536673  0.1536673  0.1951107  1.965391993522644 3175.39892578125 6.548      0.5268559  0.5909961  59.605     0.1255861  0.02411088 0.2270612 
908.6      0.21       308.28     6          6          3.658911   1.753      1.93       3.303      1.499      2.667      3.565      2.499      2.375      1.74405    2.437999963760376 0.1476282  0.1476282  0.1892183  1.519114971160889 2770.5869140625 3.565      0.348271   0.4261644  59.563     0.1260305  0.02549161 0.2265694 
908.8      0.21       303.2      6          6          3.816785   1.854      2.54       3.151      1.803      3.023      2.818      2.143      1.676      1.758421   2.66700005531311 0.1428506  0.1428506  0.1848266  1.239076018333435 2234.6279296875 2.818      0.2510876  0.3366268  59.563     0.1272     0.02783056 0.2265694 
909        0.207      291.77     6          6          4.013046   2.388      3.099      3.430000000000001 2.565      3.353      2.658      1.597      1.778      1.765064   3.098999977111816 0.1402909  0.1402909  0.1827964  1.110926985740662 1710.552978515625 2.658      0.2180426  0.3073307  59.563     0.1288045  0.03103964 0.2265694 
909.2000000000001 0.209      277.8      6          6          4.222558   2.972      3.48       3.862000000000001 3.15       3.556000000000001 2.838      1.216      1.22       1.762565   3.607000112533569 0.1404218  0.1404218  0.1835601  1.117148041725159 1285.973022460938 2.838      0.2423368  0.3315421  59.563     0.1307221  0.03487476 0.2265694 
909.4      0.21       266.37     6          6          4.416911   3.531      3.937      4.421      3.327      3.607      2.757      1.255      1.295      1.751395   4.342999935150147 0.1431788  0.1431788  0.1869738  1.256538987159729 986.9420776367188 2.757      0.2448676  0.334459   59.563     0.1327121  0.03885483 0.2265694 
909.6      0.21       256.21     6          6          4.570872   4.115000000000001 4.394      4.421      3.200000000000001 3.404      2.648      1.419      1.238      1.733621   4.342999935150147 0.1479562  0.1479562  0.1924054  1.540514945983887 800.2750244140625 2.648      0.2521251  0.341224   59.605     0.1346945  0.04232771 0.2270612 
909.8      0.21       248.59     6          6          4.667202   3.962      4.902      4.395      3.200000000000001 3.073      3.535      1.223      1.073      1.712481   5.409999847412109 0.1538672  0.1538672  0.1988657  1.982220053672791 701.8922119140625 3.535      0.3688502  0.4497727  59.69      0.1363591  0.04465675 0.2280614 
910        0.212      242.24     6          6          4.699114   3.759      5.436000000000001 4.116      3.099      2.743      6.026      1.959      1.587      1.691561   5.333999999999999 0.1598801  0.1598801  0.205259   2.56168007850647 672.043701171875 6.026      0.5247386000000001 0.5928421  59.817     0.137512   0.04545624 0.2295678 
910.2000000000001 0.211      237.16     6          6          4.671258   3.682999999999999 5.994000000000001 3.862000000000001 2.921      2.692      6.637      2.283      2.4        1.673758   4.343      0.1652683  0.1652683  0.2106996  3.223495960235596 698.0258178710938 6.637      0.5587213  0.6231591  59.902     0.1376708  0.04475759 0.230584  
910.4      0.215      234.62     6          6          4.595028   3.505      6.070999999999999 3.633      2.845      2.616      4.805      1.687      1.702      1.660548   3.734      0.1695283  0.1695283  0.2147364  3.865742921829224 774.3792724609375 4.805      0.4977568  0.5666134  59.944     0.1369943  0.04290007 0.2310885 
910.6      0.214      233.35     6          6          4.484884   3.531      5.867      3.633      2.845      2.591      4.531      1.381      1.556      1.651784   3.734      0.1727105  0.1727105  0.2174148  4.427669048309326 899.6898193359375 4.531      0.4920211  0.560347   59.902     0.1354677  0.04035149 0.230584  
