~Version
 VERS              .         2.0                           : CWLS LOG ASCII STANDARD - VERSION 2.0
 WRAP              .         NO                            : ONE LINE PER DEPTH STEP
 DLM               .         SPACE                         : DELIMITING CHARACTER(SPACE TAB OR COMMA)
~Well Information
#_______________________________________________________________________________
#
#PARAMETER_NAME    .UNIT     VALUE                         : DESCRIPTION
#_______________________________________________________________________________
STRT               .M        906                           : First reference value
STOP               .M        1237.2                        : Last reference value
STEP               .M        0.2                           : Step increment
NULL               .         -9999                         : Missing value
COMP               .                                       : Company
WELL               .         7426                          : Well name
FLD                .         Узень                         : Field
LOC                .                                       : Location
CNTY               .                                       : County
STAT               .                                       : State
CTRY               .                                       : Country
SRVC               .                                       : Service Company
DATE               .                                       : Date
UWI                .                                       : Unique Well ID
API                .                                       : 
Block              .         7                             : 
Category           .         Нефтяная                      : 
Condition          .         В работе                      : 
Date               .         29.11.1986                    : 
EREF               .m        94.6                          : 100.8
Gorizont           .         15                            : 14
Interpretator      .         Алпанова Н.К.                 : 
Kupol              .         основной                      : osnovnoi
Moii_15_vosst      .         15_vosst                      : 
Mud                .                                       : 
Mud_density        .                                       : 
Mud_resistivity    .                                       : 
Mud_density        .                                       : 
Mud_resistivity    .                                       : 
NGDU               .         НГДУ-2                        : 
ORIGINALWELLNAME   .         7426                          : 
Spud_date          .         1986                          : 1961
Spud_date          .         1986                          : 1961
Viscosity          .                                       : 
X                  .m        41923.4                       : 46154
Y                  .m        84853.93                      : 85761.93
YEAR               .         2018                          : 
~Parameter Information Block
#_______________________________________________________________________________
#
#PARAMETER_NAME    .UNIT     VALUE                         : DESCRIPTION
#_______________________________________________________________________________
SET                .         LQC_KAZNIPI_Petrel            : 
TLFamily_CALI      .         Caliper                       : 
TLFamily_CILD      .         Conductivity                  : 
TLFamily_COLL      .         Net Reservoir Flag            : 
TLFamily_CSAT      .         Fluid Code                    : 
TLFamily_DEPT      .         Measured Depth                : 
TLFamily_GR        .         Russian Gamma Ray             : 
TLFamily_GZ1       .         Gradient 045                  : 
TLFamily_GZ2       .         Gradient 105                  : 
TLFamily_GZ3       .         Gradient 225                  : 
TLFamily_GZ4       .         Gradient 425                  : 
TLFamily_GZ5       .         Gradient 850                  : 
TLFamily_LLS       .         Lateral Log Resistivity       : 
TLFamily_MINV      .         Micro Gradient Resistivity    : 
TLFamily_MNOR      .         Micro Resistivity             : 
TLFamily_NGLD      .         Neutron Far                   : 
TLFamily_OGZ       .         Gradient Inverted 225         : 
TLFamily_PHIE      .         Effective Porosity            : 
TLFamily_PHIEN     .         Effective Porosity            : 
TLFamily_PHIT      .         Porosity                      : 
TLFamily_PRMB      .         Permeability                  : 
TLFamily_PRMB_DGR  .         Permeability                  : 
TLFamily_RT        .         Formation Resistivity         : 
TLFamily_SOIL_ARCHIE .         Oil Saturation                : 
TLFamily_SOIL_DW   .         Oil Saturation                : 
TLFamily_SP        .         Spontaneous Potential         : 
TLFamily_VSH_FIN   .         Shale Volume                  : 
TLFamily_VSH_GR    .         Shale Volume                  : 
TLFamily_VSH_SP    .         Shale Volume                  : 
~Curve Information
#_______________________________________________________________________________
#
#LOGNAME           .UNIT     LOG_ID                        : DESCRIPTION
#_______________________________________________________________________________
DEPT               .M                                      : Колонка глубины 
CALI               .м                                      : Каверномер 
CILD               .мСм/м                                  : Индукционный каротаж 
COLL               .unitless                               :  
CSAT               .unitless                               :  
GR                 .мкР/ч                                  : Гамма каротаж 
GZ1                .Ом·м                                   :  
GZ2                .Ом·м                                   :  
GZ3                .Ом·м                                   :  
GZ4                .Ом·м                                   :  
GZ5                .Ом·м                                   :  
LLS                .Ом·м                                   : Боковой каротаж 
MINV               .Ом·м                                   : Микро-градиент зонд 
MNOR               .Ом·м                                   : Микро-потенциал зонд 
NGLD               .у.е.                                   : Показания зонда НГК-60 аппаратуры ДРСТ-3-90 
OGZ                .Ом·м                                   :  
PHIE               .м3/м3                                  : Описание 
PHIEN              .v/v                                    :  
PHIT               .м3/м3                                  : Описание 
PRMB               .mD                                     :  
PRMB_DGR           .mD                                     :  
RT                 .ohmm                                   : Description 
SOIL_ARCHIE        .v/v                                    :  
SOIL_DW            .v/v                                    :  
SP                 .мВ                                     : Потенциал самополяризации 
VSH_FIN            .unitless                               : Описание 
VSH_GR             .unitless                               : Shale volume 
VSH_SP             .unitless                               : Shale Volume 
~Ascii
# ...
1186.6     0.212      149.53     1          2          8.454871   4.775      9.245999999999999 4.092      3.785      4.775      9.21       1.534      1.702      1.293521   6.604      0.2730909  0.2730909  0.3269001  320.2311   21.87659   9.21       0.7590714  0.8021199  49.742     0.1630582  0.1840585  0.1420579 
1186.8     0.212      150.8      1          2          8.469968   5.080000000000001 11.176     4.196      3.912      4.801000000000001 9.21       1.569      1.849      1.287065   5.715      0.2741761  0.2741761  0.3288731  335.4015   21.5281    9.21       0.7599022  0.8031351  50.715     0.1657483  0.1852693  0.1462274 
1187       0.212      155.88     1          2          8.564563   5.232      11.43      4.704      4.039000000000001 4.826000000000001 9.483      1.597      1.968      1.280667   4.699000000000001 0.2736107  0.2736107  0.3308282  327.4098   19.46744   9.483      0.7627447000000001 0.8064791  52.239     0.1733864  0.1930396  0.1537332 
1187.2     0.212      160.368    1          2          8.740816   5.055000000000001 11.176     5.719999999999999 4.013      4.801000000000001 7.841      1.509      1.943      1.274097   4.064      0.2719727  0.2719727  0.3328358  305.3181   16.13952   7.841      0.7392429  0.7873762  53.425     0.1844337  0.2083973  0.1604701 
1187.4     0.213      164.77     1          2          8.995253   4.850999999999999 11.049     6.863000000000001 4.013      4.75       8.253      1.445      1.803      1.267439   3.682999999999999 0.2684994  0.2684994  0.3348705  263.2807   12.31279   8.253      0.7425688  0.7923496  54.822     0.2011245  0.2327476  0.1695014 
1187.6     0.214      185.09     1          2          9.315952   4.953      11.684     6.863000000000001 4.191      4.674000000000001 9.556      1.724      2.095      1.261348   3.682999999999999 0.2613595  0.2613595  0.3367321  194.165    8.75413    9.556      0.7539744  0.805441   57.362     0.2284019  0.2675329  0.189271  
1187.8     0.214      215.57     1          2          9.683023   5.309      12.446     8.386999999999999 4.469999999999999 4.546999999999999 5.644      1.432      1.93       1.256788   3.556000000000001 0.2482905  0.2482905  0.3381256  111.1989   5.924461   5.644      0.6706186  0.7419555  61.383     0.2722274  0.3137732  0.2306815 
1188       0.217      238.43     1          2          10.06969   5.639      11.811     9.784000000000001 4.724000000000001 4.318      2.399      1.432      1.283      1.25521    3.429      0.2247021  0.2247021  0.3386078  40.66171   3.926754   2.399      0.4631963  0.5878553  67.331     0.3451689  0.3711508  0.319187  
1188.2     0.217      258.75     -9999      -9999      10.4446    5.613      9.906000000000001 11.562     4.953      4.039000000000001 2.435      1.405      1.414      1.257818   3.302000000000001 0.2021692  0.2021692  0.3378109  15.55331   2.635391   2.435      0.4155469  0.5723712  70.654     0.4110354  0.4367864  0.3852845 
1188.4     0.223      286.69     -9999      -9999      10.77566   4.293      7.873999999999999 10.546     4.572000000000001 3.607      2.452      1.369      1.587      1.265014   3.048      0.1845654  0.1845654  0.3356118  7.341029   1.853175   2.452      0.3693464  0.5563469  71.797     0.4577164  0.5043301  0.4111027 
1188.6     0.23       309.55     -9999      -9999      11.03421   2.819      6.096      10.546     4.115000000000001 3.124      2.381      1.229      1.245      1.276181   3.048      0.1667284  0.1667284  0.332199   3.430618   1.407622   2.381      0.3014079  0.528577   72.94      0.5014262  0.5642641000000001 0.4385883 
1188.8     0.228      329.87     -9999      -9999      11.19939   2.261      4.444999999999999 8.006      3.429      2.718      2.296      1.826      1.689      1.289785   2.794      0.1546133  0.1546133  0.3280417  2.046314   1.180809   2.296      0.241131   0.501942   73.11      0.5255404  0.6062346  0.4448462 
1189       0.223      337.49     -9999      -9999      11.25912   2.057      3.302000000000001 5.847      2.769      2.184      2.263      2.448      1.867      1.303687   2.413      0.1486273  0.1486273  0.3237933  1.585245   1.108121   2.263      0.2092256  0.4865943  72.813     0.5308061  0.6221681  0.4394442 
1189.2     0.223      338.76     -9999      -9999      11.2119    1.981      2.54       4.450000000000001 2.235      1.854      2.182      0.664      0.8        1.31615    2.032      0.1501446  0.1501446  0.3199846  1.691219   1.165206   2.182      0.202668   0.4753395  71.924     0.5146667  0.6095366  0.4197968 
1189.4     0.223      345.11     -9999      -9999      11.06855   1.905      2.032      3.434000000000001 1.854      1.626      2.134      0.62       0.501      1.326054   1.968      0.1549682  0.1549682  0.3169578  2.077523   1.357122   2.134      0.2161886  0.472788   71.384     0.4908773  0.5727451  0.4090095 
1189.6     0.22       351.46     -9999      -9999      10.85283   1.778      2.032      3.434000000000001 1.651      1.346      2.452      0.797      0.699      1.333318   1.968      0.1630108  0.1630108  0.314738   2.927617   1.707143   2.452      0.2973086  0.5156421  70.824     0.4597792  0.5215196  0.3980389 
1189.8     0.217      352.73     1          2          10.59826   1.626      2.337      2.926      1.676      1.219      3.383      0.848      0.635      1.338622   1.905      0.1758552  0.1758552  0.3131171  5.063167   2.238041   3.383      0.4344352  0.5985212  69.215     0.4159455  0.4669295  0.3649615 
1190       0.217      350.19     1          2          10.34284   1.753      2.413      2.418      1.829      1.245      4.666      0.784      0.921      1.342961   1.803      0.194384   0.194384   0.3117911  11.15889   2.936652   4.666      0.5542801000000001 0.6707824  65.278     0.3557793  0.417902   0.2936566 
1190.2     0.217      345.11     1          2          10.12708   2.235      2.845      2.418      2.134      1.422      5.602      1.166      1.283      1.346999   1.956      0.2074144  0.2074144  0.3105571  19.4525    3.694196   5.602      0.6134005  0.7067049  61.849     0.3125537  0.3805194  0.2445879 
1190.4     0.214      337.49     1          2          9.983457   2.718      3.353      2.672      2.54       1.575      5.561      1.521      1.575      1.35076    2.286      0.2192714  0.2192714  0.3094078  32.25496   4.303951   5.561      0.630401   0.7116765  56.578     0.2731407  0.3575074  0.188774  
1190.6     0.211      334.95     1          2          9.930651   3.277      3.708      2.672      3.023      1.702      5.094      1.47       1.626      1.353896   2.286      0.2209036  0.2209036  0.3084494  34.58035   4.552609   5.094      0.61735    0.6991311  55.584     0.2652902  0.3494013  0.1811792 
1190.8     0.211      337.49     1          2          9.970915   3.682999999999999 4.242      3.369      3.48       1.753      4.911      1.508      1.423      1.355963   2.591      0.2155876  0.2155876  0.3078177  27.56538   4.361749   4.911      0.6023769  0.6900929  57.997     0.2794851  0.3555653  0.2034049 
1191       0.211      350.19     1          2          10.08862   3.734      5.156000000000001 4.065      3.708      1.702      4.911      1.572      1.575      1.356858   2.87       0.2072365  0.2072365  0.3075441  19.30548   3.848462   4.911      0.5884572  0.6848345  60.664     0.3039623  0.3742156  0.233709  
1191.2     0.212      366.7      1          2          10.25466   3.988      5.842      3.76       3.861      1.6        4.598      1.928      1.892      1.357287   2.743      0.1957332  0.1957332  0.307413   11.81985   3.225435   4.598      0.5538946  0.6664991  63.585     0.3384236  0.4021987  0.2746485 
1191.4     0.218      379.4      -9999      -9999      10.43286   4.115000000000001 5.918      3.354      3.759      1.524      2.23       0.975      1.283      1.358596   2.464      0.1763426  0.1763426  0.3070131  5.169519   2.668519   2.23       0.3139264  0.5001625  68.199     0.3959712  0.434564   0.3573785 
1191.6     0.227      388.29     -9999      -9999      10.58627   3.174999999999999 4.572000000000001 3.354      3.404      1.397      2.15       1.775      1.715      1.362206   2.464      0.1638934  0.1638934  0.3059098  3.039921   2.266766   2.15       0.2561101  0.4748268  69.935     0.4303525  0.4645043  0.3962007 
