~Version
 VERS              .         2.0                           : CWLS LOG ASCII STANDARD - VERSION 2.0
 WRAP              .         NO                            : ONE LINE PER DEPTH STEP
 DLM               .         SPACE                         : DELIMITING CHARACTER(SPACE TAB OR COMMA)
~Well Information
#_______________________________________________________________________________
#
#PARAMETER_NAME    .UNIT     VALUE                         : DESCRIPTION
#_______________________________________________________________________________
STRT               .M        906                           : First reference value
STOP               .M        1237.2                        : Last reference value
STEP               .M        0.2                           : Step increment
NULL               .         -9999                         : Missing value
COMP               .                                       : Company
WELL               .         7426                          : Well name
FLD                .         Узень                         : Field
LOC                .                                       : Location
CNTY               .                                       : County
STAT               .                                       : State
CTRY               .                                       : Country
SRVC               .                                       : Service Company
DATE               .                                       : Date
UWI                .                                       : Unique Well ID
API                .                                       : 
Block              .         7                             : 
Category           .         Нефтяная                      : 
Condition          .         В работе                      : 
Date               .         29.11.1986                    : 
EREF               .m        94.6                          : 100.8
Gorizont           .         15                            : 14
Interpretator      .         Алпанова Н.К.                 : 
Kupol              .         основной                      : osnovnoi
Moii_15_vosst      .         15_vosst                      : 
Mud                .                                       : 
Mud_density        .                                       : 
Mud_resistivity    .                                       : 
Mud_density        .                                       : 
Mud_resistivity    .                                       : 
NGDU               .         НГДУ-2                        : 
ORIGINALWELLNAME   .         7426                          : 
Spud_date          .         1986                          : 1961
Spud_date          .         1986                          : 1961
Viscosity          .                                       : 
X                  .m        41923.4                       : 46154
Y                  .m        84853.93                      : 85761.93
YEAR               .         2018                          : 
~Parameter Information Block
#_______________________________________________________________________________
#
#PARAMETER_NAME    .UNIT     VALUE                         : DESCRIPTION
#_______________________________________________________________________________
SET                .         LQC_KAZNIPI_Petrel            : 
TLFamily_CALI      .         Caliper                       : 
TLFamily_CILD      .         Conductivity                  : 
TLFamily_COLL      .         Net Reservoir Flag            : 
TLFamily_CSAT      .         Fluid Code                    : 
TLFamily_DEPT      .         Measured Depth                : 
TLFamily_GR        .         Russian Gamma Ray             : 
TLFamily_GZ1       .         Gradient 045                  : 
TLFamily_GZ2       .         Gradient 105                  : 
TLFamily_GZ3       .         Gradient 225                  : 
TLFamily_GZ4       .         Gradient 425                  : 
TLFamily_GZ5       .         Gradient 850                  : 
TLFamily_LLS       .         Lateral Log Resistivity       : 
TLFamily_MINV      .         Micro Gradient Resistivity    : 
TLFamily_MNOR      .         Micro Resistivity             : 
TLFamily_NGLD      .         Neutron Far                   : 
TLFamily_OGZ       .         Gradient Inverted 225         : 
TLFamily_PHIE      .         Effective Porosity            : 
TLFamily_PHIEN     .         Effective Porosity            : 
TLFamily_PHIT      .         Porosity                      : 
TLFamily_PRMB      .         Permeability                  : 
TLFamily_PRMB_DGR  .         Permeability                  : 
TLFamily_RT        .         Formation Resistivity         : 
TLFamily_SOIL_ARCHIE .         Oil Saturation                : 
TLFamily_SOIL_DW   .         Oil Saturation                : 
TLFamily_SP        .         Spontaneous Potential         : 
TLFamily_VSH_FIN   .         Shale Volume                  : 
TLFamily_VSH_GR    .         Shale Volume                  : 
TLFamily_VSH_SP    .         Shale Volume                  : 
~Curve Information
#_______________________________________________________________________________
#
#LOGNAME           .UNIT     LOG_ID                        : DESCRIPTION
#_______________________________________________________________________________
DEPT               .M                                      : Колонка глубины 
CALI               .м                                      : Каверномер 
CILD               .мСм/м                                  : Индукционный каротаж 
COLL               .unitless                               :  
CSAT               .unitless                               :  
GR                 .мкР/ч                                  : Гамма каротаж 
GZ1                .Ом·м                                   :  
GZ2                .Ом·м                                   :  
GZ3                .Ом·м                                   :  
GZ4                .Ом·м                                   :  
GZ5                .Ом·м                                   :  
LLS                .Ом·м                                   : Боковой каротаж 
MINV               .Ом·м                                   : Микро-градиент зонд 
MNOR               .Ом·м                                   : Микро-потенциал зонд 
NGLD               .у.е.                                   : Показания зонда НГК-60 аппаратуры ДРСТ-3-90 
OGZ                .Ом·м                                   :  
PHIE               .м3/м3                                  : Описание 
PHIEN              .v/v                                    :  
PHIT               .м3/м3                                  : Описание 
PRMB               .mD                                     :  
PRMB_DGR           .mD                                     :  
RT                 .ohmm                                   : Description 
SOIL_ARCHIE        .v/v                                    :  
SOIL_DW            .v/v                                    :  
SP                 .мВ                                     : Потенциал самополяризации 
VSH_FIN            .unitless                               : Описание 
VSH_GR             .unitless                               : Shale volume 
VSH_SP             .unitless                               : Shale Volume 
~Ascii
# ...
1207.4     0.218      422.863    -9999      -9999      11.02469   1.93       2.464      2.058      1.651      2.337      1.958      1.559      1.181      1.24507    2.032      0.1767291  0.1767291  0.3417068  5.255438   1.421934   1.958      0.2721325  0.5004776  73.575     0.4999324  0.5619379  0.4379269 
1207.6     0.219      424.63     -9999      -9999      10.99993   1.88       2.489      2.058      1.499      2.083      1.885      1.763      0.749      1.254559   2.032      0.1754894  0.1754894  0.3388067  4.984803   1.459892   1.885      0.2544817  0.4868365  73.279     0.494901   0.5559254  0.4338766 
1207.8     0.218      426.39     -9999      -9999      10.89671   1.88       2.438      1.855      1.448      1.93       2.103      1.724      0.978      1.265334   1.854      0.1768564  0.1768564  0.3355138  5.284049   1.629305   2.103      0.2965709  0.5127453  72.989     0.4807802  0.5315529  0.4300075 
1208       0.218      430.2      -9999      -9999      10.71018   1.981      2.413      1.754      1.422      1.854      2.088      1.966      0.813      1.278531   1.651      0.1803335  0.1803335  0.331481   6.128757   1.986863   2.088      0.3060718  0.5111543  72.686     0.4580226  0.4901876  0.4258576 
1208.2     0.218      432.092    -9999      -9999      10.44321   1.981      2.388      1.83       1.448      1.854      2.072      1.813      0.902      1.295149   1.524      0.1885011  0.1885011  0.3264025  8.682732   2.639309   2.072      0.329919   0.5133154  71.416     0.417883   0.4365216  0.3992444 
1208.4     0.22       434.01     -9999      -9999      10.10796   1.981      2.362      2.109      1.448      1.956      2.065      1.801      0.94       1.315127   1.575      0.2016601  0.2016601  0.320297   15.21923   3.770106   2.065      0.3671617  0.5201858  68.538     0.3595058  0.3773721  0.3416396 
1208.6     0.223      435.28     -9999      -9999      9.724903   1.956      2.311      2.109      1.473      2.032      2.058      1.953      0.838      1.337343   1.575      0.2169941  0.2169941  0.3135079  29.2695    5.666344   2.058      0.4053462  0.527653   63.881     0.292466   0.3195328  0.2653992 
1208.8     0.219      435.28     -9999      -9999      9.321807   1.981      2.261      2.312      1.575      2.159      2.027      1.42       0.966      1.359704   1.778      0.2262031  0.2262031  0.3066744  43.35      8.699785   2.027      0.4223881  0.5261377  60.156     0.2438522  0.268214   0.2194905 
1209       0.212      435.28     1          2          8.929935   2.007      2.311      2.566      1.676      2.261      2.072      1.369      1.816      1.379861   2.032      0.2331686  0.2331686  0.3005144  58.34528   13.19865   2.072      0.4432124  0.5317515  56.092     0.2040783  0.2262375  0.1819191 
1209.2     0.212      435.28     1          2          8.579938   2.489      2.565      2.82       1.803      2.311      2.381      1.381      1.549      1.39584    2.337      0.2369037  0.2369037  0.2956314  68.42102   19.15166   2.381      0.485543   0.5619849  53.086     0.1779627  0.194333   0.1615924 
1209.4     0.21       435.28     1          2          8.298052   2.946      3.124      2.744      1.981      2.311      2.973      1.381      1.676      1.40658    2.464      0.2405262  0.2405262  0.2923492  79.85209   25.84762   2.973      0.5425375  0.6080155  49.107     0.1570394  0.1719396  0.1421392 
1209.6     0.208      435.28     1          2          8.100772   3.429      3.682999999999999 2.744      2.032      2.235      3.478      1.559      1.905      1.412088   2.464      0.2425961  0.2425961  0.2906659  87.22192   31.88244   3.478      0.5781664  0.6377072  46.524     0.1456663  0.1578207  0.1335119 
1209.8     0.209      437.82     1          2          7.996364   3.658      4.013      2.312      1.905      2.057      4.433      1.28       1.105      1.413001   2.057      0.244106   0.244106   0.290387   93.02376   35.62719   4.433      0.6255887999999999 0.6797665  45         0.1402453  0.1508238  0.1296668 
1210       0.21       440.308    1          2          7.985201   3.226      3.861      1.855      1.6        1.803      3.719      1.381      0.965      1.410314   1.778      0.245331   0.245331   0.2912081  98.01282999999999 36.05274   3.719      0.595194   0.6516849  44.154     0.1390217  0.1500943  0.127949  
1210.2     0.21       441.63     1          2          8.061872   2.692      3.378      1.525      1.295      1.499      2.88       1.331      1.092      1.404777   1.372      0.2462463  0.2462463  0.2929001  101.9146   33.2293    2.88       0.5450724  0.606127   43.857     0.1413753  0.1551766  0.127574  
1210.4     0.209      449.25     1          2          8.217688   2.388      2.819      1.296      0.965      1.27       2.563      1.331      1.206      1.396715   1.041      0.246704   0.246704   0.295364   103.9236   28.15423   2.563      0.5202608  0.5848103  44.281     0.1474546  0.1660417  0.1288676 
1210.6     0.209      465.76     1          2          8.440095   2.159      2.464      1.296      0.737      1.092      2.296      1.293      1.016      1.386244   1.041      0.2465726  0.2465726  0.2985638  103.343    22.22313   2.296      0.4946101  0.5639412  45.424     0.157549   0.182881   0.132217  
1210.8     0.209      486.047    1          2          8.710284   2.083      2.286      1.169      0.66       0.914      1.927      1.343      0.902      1.373574   0.991      0.2454667  0.2454667  0.3024359  98.58181   16.67226   1.927      0.4491502  0.5266318  47.54      0.1726339  0.2056521  0.1396158 
1211       0.209      525.45     1          2          9.00238    1.956      2.083      1.296      0.889      0.914      1.831      1.661      1.422      1.35953    1.219      0.2424043  0.2424043  0.3067277  86.51148000000001 12.2198    1.831      0.4295778  0.5157461  51.012     0.1949193  0.2334692  0.1563694 
1211.2     0.214      552.12     -9999      -9999      9.281065   1.88       1.905      1.576      1.067      1.041      1.79       1.483      1.562      1.345488   1.575      0.2352155  0.2352155  0.3110189  63.66783   9.085082999999999 1.79       0.4081674  0.5079618  56.261     0.2297072  0.2635096  0.1959047 
1211.4     0.217      574.98     -9999      -9999      9.508846   1.803      1.727      1.881      1.27       1.168      1.752      1.648      1.181      1.333479   1.956      0.2239387  0.2239387  0.3146887  39.35912   7.130302   1.752      0.376042   0.4958107  61.595     0.2750001  0.2909121  0.2590882 
1211.6     0.215      622.605    -9999      -9999      9.650376   1.93       1.702      1.881      1.473      1.321      1.726      2.385      1.943      1.325622   1.956      0.2136069  0.2136069  0.31709    25.33236   6.133801   1.726      0.3452598  0.4843203  65.151     0.3135853  0.3093555  0.3178151 
1211.8     0.215      644.83     -9999      -9999      9.6826     2.134      1.803      2.211      1.676      1.448      1.726      1.724      1.219      1.323281   2.337      0.2111555  0.2111555  0.3178055  22.81757   5.927129   1.726      0.3386444  0.4825574  65.828     0.3231818  0.3137155  0.3326481 
1212       0.216      610.54     -9999      -9999      9.603091   2.21       1.956      2.439      1.88       1.6        1.844      1.839      1.105      1.32689    2.565      0.2200808  0.2200808  0.3167025  33.38782   6.450191   1.844      0.3815591  0.5068435  62.78      0.2927932  0.303067   0.2825194 
1212.2     0.214      581.33     -9999      -9999      9.428955   2.184      2.032      2.49       1.981      1.702      2.013      1.356      1.118      1.335501   2.667      0.2262178  0.2262178  0.3140709  43.37703   7.762701   2.013      0.4205391  0.5310681  60.514     0.2662216  0.2809909  0.2514524 
1212.4     0.211      550.85     -9999      -9999      9.194052   2.235      2.083      2.338      1.93       1.727      2.365      1.661      1.499      1.34699    2.769      0.2353953  0.2353953  0.3105598  64.15797000000001 9.966063   2.365      0.4810336  0.571705   56.092     0.2277712  0.2537369  0.2018055 
