~Version
 VERS              .         2.0                           : CWLS LOG ASCII STANDARD - VERSION 2.0
 WRAP              .         NO                            : ONE LINE PER DEPTH STEP
 DLM               .         SPACE                         : DELIMITING CHARACTER(SPACE TAB OR COMMA)
~Well Information
#_______________________________________________________________________________
#
#PARAMETER_NAME    .UNIT     VALUE                         : DESCRIPTION
#_______________________________________________________________________________
STRT               .M        906                           : First reference value
STOP               .M        1237.2                        : Last reference value
STEP               .M        0.2                           : Step increment
NULL               .         -9999                         : Missing value
COMP               .                                       : Company
WELL               .         7426                          : Well name
FLD                .         Узень                         : Field
LOC                .                                       : Location
CNTY               .                                       : County
STAT               .                                       : State
CTRY               .                                       : Country
SRVC               .                                       : Service Company
DATE               .                                       : Date
UWI                .                                       : Unique Well ID
API                .                                       : 
Block              .         7                             : 
Category           .         Нефтяная                      : 
Condition          .         В работе                      : 
Date               .         29.11.1986                    : 
EREF               .m        94.6                          : 100.8
Gorizont           .         15                            : 14
Interpretator      .         Алпанова Н.К.                 : 
Kupol              .         основной                      : osnovnoi
Moii_15_vosst      .         15_vosst                      : 
Mud                .                                       : 
Mud_density        .                                       : 
Mud_resistivity    .                                       : 
Mud_density        .                                       : 
Mud_resistivity    .                                       : 
NGDU               .         НГДУ-2                        : 
ORIGINALWELLNAME   .         7426                          : 
Spud_date          .         1986                          : 1961
Spud_date          .         1986                          : 1961
Viscosity          .                                       : 
X                  .m        41923.4                       : 46154
Y                  .m        84853.93                      : 85761.93
YEAR               .         2018                          : 
~Parameter Information Block
#_______________________________________________________________________________
#
#PARAMETER_NAME    .UNIT     VALUE                         : DESCRIPTION
#_______________________________________________________________________________
SET                .         LQC_KAZNIPI_Petrel            : 
TLFamily_CALI      .         Caliper                       : 
TLFamily_CILD      .         Conductivity                  : 
TLFamily_COLL      .         Net Reservoir Flag            : 
TLFamily_CSAT      .         Fluid Code                    : 
TLFamily_DEPT      .         Measured Depth                : 
TLFamily_GR        .         Russian Gamma Ray             : 
TLFamily_GZ1       .         Gradient 045                  : 
TLFamily_GZ2       .         Gradient 105                  : 
TLFamily_GZ3       .         Gradient 225                  : 
TLFamily_GZ4       .         Gradient 425                  : 
TLFamily_GZ5       .         Gradient 850                  : 
TLFamily_LLS       .         Lateral Log Resistivity       : 
TLFamily_MINV      .         Micro Gradient Resistivity    : 
TLFamily_MNOR      .         Micro Resistivity             : 
TLFamily_NGLD      .         Neutron Far                   : 
TLFamily_OGZ       .         Gradient Inverted 225         : 
TLFamily_PHIE      .         Effective Porosity            : 
TLFamily_PHIEN     .         Effective Porosity            : 
TLFamily_PHIT      .         Porosity                      : 
TLFamily_PRMB      .         Permeability                  : 
TLFamily_PRMB_DGR  .         Permeability                  : 
TLFamily_RT        .         Formation Resistivity         : 
TLFamily_SOIL_ARCHIE .         Oil Saturation                : 
TLFamily_SOIL_DW   .         Oil Saturation                : 
TLFamily_SP        .         Spontaneous Potential         : 
TLFamily_VSH_FIN   .         Shale Volume                  : 
TLFamily_VSH_GR    .         Shale Volume                  : 
TLFamily_VSH_SP    .         Shale Volume                  : 
~Curve Information
#_______________________________________________________________________________
#
#LOGNAME           .UNIT     LOG_ID                        : DESCRIPTION
#_______________________________________________________________________________
DEPT               .M                                      : Колонка глубины 
CALI               .м                                      : Каверномер 
CILD               .мСм/м                                  : Индукционный каротаж 
COLL               .unitless                               :  
CSAT               .unitless                               :  
GR                 .мкР/ч                                  : Гамма каротаж 
GZ1                .Ом·м                                   :  
GZ2                .Ом·м                                   :  
GZ3                .Ом·м                                   :  
GZ4                .Ом·м                                   :  
GZ5                .Ом·м                                   :  
LLS                .Ом·м                                   : Боковой каротаж 
MINV               .Ом·м                                   : Микро-градиент зонд 
MNOR               .Ом·м                                   : Микро-потенциал зонд 
NGLD               .у.е.                                   : Показания зонда НГК-60 аппаратуры ДРСТ-3-90 
OGZ                .Ом·м                                   :  
PHIE               .м3/м3                                  : Описание 
PHIEN              .v/v                                    :  
PHIT               .м3/м3                                  : Описание 
PRMB               .mD                                     :  
PRMB_DGR           .mD                                     :  
RT                 .ohmm                                   : Description 
SOIL_ARCHIE        .v/v                                    :  
SOIL_DW            .v/v                                    :  
SP                 .мВ                                     : Потенциал самополяризации 
VSH_FIN            .unitless                               : Описание 
VSH_GR             .unitless                               : Shale volume 
VSH_SP             .unitless                               : Shale Volume 
~Ascii
# ...
1120.4     0.23       563.55     -9999      -9999      10.99576   1.168      1.727      1.91       1.905      0.406      1.778      1.318      0.914      1.270689   2.032      0.1452978  0.1452978  0.3338775  1.37539    0.921496   1.778      0.08406834000000001 0.4194911  72.898     0.5714537  0.6708303  0.472077  
1120.6     0.227      573.71     -9999      -9999      11.1172    1.245      1.905      1.91       2.286      0.406      2.027      1.204      0.591      1.250576   2.032      0.1452036  0.1452036  0.3400239  1.369877   0.8042883  2.027      0.1382191  0.4623911  72.813     0.5903645  0.7091493  0.4715797 
1120.8     0.227      581.33     -9999      -9999      11.18526   1.143      1.626      2.037      2.057      0.381      2.182      1.14       0.648      1.236039   2.54       0.1465768  0.1465768  0.3444666  1.452501   0.7452409  2.182      0.1743049  0.4878455  72.602     0.5996659  0.7315764  0.4677556 
1121       0.228      586.41     -9999      -9999      11.20598   1.194      1.295      1.783      1.803      0.381      1.955      0.721      0.356      1.226033   3.023      0.1492967  0.1492967  0.3475244  1.631158   0.7281446  1.955      0.1444356  0.4655795  72.348     0.6006899  0.7385421  0.4628378 
1121.2     0.226      585.775    -9999      -9999      11.18596   1.168      1.168      1.402      1.575      0.356      1.726      0.937      0.597      1.220398   3.073      0.153654   0.153654   0.3492463  1.964281   0.7446621  1.726      0.1153708  0.4390217  71.924     0.5927039  0.7318084  0.4535993 
1121.4     0.222      567.36     -9999      -9999      11.13036   1.219      1.194      1.148      1.397      0.33       1.665      1.02       0.87       1.219622   3.099      0.1583234  0.1583234  0.3494835  2.397127   0.7925209  1.665      0.1234616  0.4354368  71.628     0.579273   0.7134301  0.4451159 
1121.6     0.221      553.39     -9999      -9999      11.04388   1.422      1.549      1.148      1.27       0.279      2.013      0.683      0.394      1.224154   3.099      0.1645878  0.1645878  0.3480987  3.131292   0.8731389000000001 2.013      0.2248032  0.4927613  70.908     0.5560936  0.6857594  0.4264277 
1121.8     0.223      534.34     -9999      -9999      10.92904   1.549      1.803      1.021      1.27       0.254      1.998      0.848      0.279      1.234041   4.013      0.1719152  0.1719152  0.3450772  4.280009   0.9930146  1.998      0.2510363  0.4965488  69.765     0.5247332  0.6506647  0.3988017 
1122       0.223      511.48     -9999      -9999      10.78872   1.524      1.803      0.894      1.321      0.254      1.844      1.051      0.991      1.248868   4.572000000000001 0.1813543  0.1813543  0.3405459  6.401474   1.162038   1.844      0.257683   0.4824992  67.733     0.4823987  0.6102145  0.3545831 
1122.2     0.218      468.3      -9999      -9999      10.62372   1.778      1.829      0.894      1.346      0.279      1.885      0.747      0.66       1.26795    5.004      0.1900409  0.1900409  0.3347144  9.272062   1.397963   1.885      0.2946402  0.4921736  65.447     0.4384046  0.5658528  0.3109563 
1122.4     0.216      403.53     1          2          10.43804   1.88       1.88       1.021      1.372      0.3049999999999999 2.409      1.013      0.927      1.290454   5.41       0.1952699  0.1952699  0.3278374  11.58856   1.721209   2.409      0.3860185  0.5500084  63.839     0.4017198  0.519775   0.2836646 
1122.6     0.213      371.78     1          2          10.23502   2.007      1.956      1.021      1.397      0.356      2.797      1.28       1.27       1.315416   5.41       0.1992895  0.1992895  0.320209   13.75573   2.160753   2.797      0.437641   0.5798985  62.23      0.3664227  0.4736784  0.259167  
1122.8     0.21       343.84     1          2          10.02117   2.083      2.032      1.275      1.397      0.432      3.01       1.318      1.321      1.341669   5.766      0.2018921  0.2018921  0.312186   15.37053   2.745658   3.01       0.4627843  0.5910163  60.748     0.3342239  0.4295366  0.2389113 
1123       0.21       320.98     1          2          9.805878   2.134      2.286      1.402      1.473      0.508      3.044      1.14       1.13       1.367932   6.172000000000001 0.204277   0.204277   0.3041599  17.01624   3.494552   3.044      0.4710464  0.5889471  58.843     0.3026754  0.3892506  0.2161003 
1123.2     0.21       287.96     1          2          9.597378   2.159      2.565      1.529      1.6        0.61       3.076      1.013      1.054      1.392548   6.706      0.205237   0.205237   0.2966372  17.72738   4.413977   3.076      0.4757808  0.5857961  57.319     0.2769704  0.3538413  0.2000996 
1123.4     0.21       261.29     1          2          9.404916   2.362      2.896      1.656      1.778      0.711      3.01       1.127      0.991      1.41386    7.925000000000001 0.2051207  0.2051207  0.2901243  17.63966   5.476034   3.01       0.4701564  0.5756741  56.388     0.2575869  0.3240215  0.1911523 
1123.6     0.21       239.7      1          2          9.235698   2.642      3.250999999999999 1.656      1.981      0.864      2.966      1.242      1.232      1.43052    7.925000000000001 0.2053708  0.2053708  0.2850332  17.82882   6.619016   2.966      0.4670483  0.5682898  55.457     0.2414013  0.2998864  0.1829161 
1123.8     0.21       221.92     1          2          9.092502   2.921      3.708      1.783      2.184      1.118      3.191      1.305      1.308      1.4418     9.144      0.2058853  0.2058853  0.2815858  18.22443   7.770712   3.191      0.4861462  0.5812446  54.864     0.2293953  0.2808725  0.177918  
1124       0.21       205.41     1          2          8.975492   3.226      4.166      2.291      2.413      1.702      3.587      1.47       1.626      1.447766   9.779      0.2073067  0.2073067  0.2797628  19.36335   8.859062   3.587      0.5164999  0.604663   54.229     0.2195641  0.2662344  0.1728939 
1124.2     0.21       188.9      1          2          8.881856   3.505      4.724000000000001 2.672      2.616      2.362      4.032      1.242      1.524      1.449152   10.922     0.2090203  0.2090203  0.2793392  20.8315    9.838832999999999 4.032      0.5455885  0.6280624  54.017     0.2130877  0.2550716  0.1711038 
1124.4     0.211      171.12     1          2          8.80861    3.734      5.283000000000001 3.18       2.921      2.845      4.734      1.305      1.334      1.447297   11.938     0.2110674  0.2110674  0.2799062  22.73207   10.68019   4.734      0.5821201  0.6585405  53.975     0.2086022  0.246667   0.1705373 
1124.6     0.21       158.42     1          2          8.752199   3.912      6.121      3.18       3.226      3.429      5.561      1.534      1.626      1.443529   11.938     0.2132018  0.2132018  0.2810576  24.89843   11.37689   5.561      0.6159102  0.687021   54.06      0.2056237  0.2403834  0.1708639 
1124.8     0.208      149.53     1          2          8.713216   4.064      6.730999999999999 3.561      3.505      4.039000000000001 5.853      1.458      1.702      1.439017   11.811     0.2151785  0.2151785  0.2824365  27.08855   11.88474   5.853      0.6280263  0.6969661  54.187     0.2038122  0.2361348  0.1714895 
1125       0.208      139.37     1          2          8.694392   4.191      7.341000000000001 4.069      3.632      4.444999999999999 6.026      1.432      1.537      1.434549   11.049     0.2168243  0.2168243  0.2838017  29.05834   12.13802   6.026      0.6355033  0.7031314  54.271     0.2029617  0.2341103  0.1718131 
1125.2     0.209      134.29     1          2          8.700673   4.191      7.823      4.577      3.658      4.775      6.532      1.42       1.6        1.430331   10.414     0.2182439  0.2182439  0.2850907  30.87202   12.05291   6.532      0.6510261000000001 0.7163872  54.102     0.202566   0.2347839  0.1703481 
1125.4     0.21       130.48     1          2          8.734535   4.191      8.089999999999998 4.958000000000001 3.658      5.004      7.288      1.204      1.626      1.426402   9.651999999999999 0.2191256  0.2191256  0.2862916  32.05504   11.60426   7.288      0.6696694  0.7326068  53.89      0.2035331  0.2384489  0.1686174 
