~Version
 VERS              .         2.0                           : CWLS LOG ASCII STANDARD - VERSION 2.0
 WRAP              .         NO                            : ONE LINE PER DEPTH STEP
 DLM               .         SPACE                         : DELIMITING CHARACTER(SPACE TAB OR COMMA)
~Well Information
#_______________________________________________________________________________
#
#PARAMETER_NAME    .UNIT     VALUE                         : DESCRIPTION
#_______________________________________________________________________________
STRT               .M        880                           : First reference value
STOP               .M        1186                          : Last reference value
STEP               .M        0.2                           : Step increment
NULL               .         -9999                         : Missing value
COMP               .                                       : Company
WELL               .         7844                          : Well name
FLD                .         Узень                         : Field
LOC                .                                       : Location
CNTY               .                                       : County
STAT               .                                       : State
CTRY               .                                       : Country
SRVC               .         UPGF                          : Service Company
DATE               .         01.06.1991                    : Date
UWI                .                                       : Unique Well ID
Block              .         7                             : 
Cartographic_reference_system .         GCS_WGS_1984                  : ESRI,PE_10_3_1- <?xml version="1.0" encoding="utf-16"?><ILateBoundCoordinateReferenceSystem name="GCS_WGS_1984"><AuthorityCode>EPSG,4326</AuthorityCode></ILateBoundCoordinateReferenceSystem>
Category           .         Нефтяная                      : 
Condition          .         Ликвидированная               : 
EREF               .m        93.6                          : 100.8
Gorizont           .         15                            : 14
HZCS               .GCS_WGS_1984 WGS_1984_EASE-Grid_2.0_Global : ESRI,PE_10_3_1- <?xml version="1.0" encoding="utf-16"?><ILateBoundCoordinateReferenceSystem name="WGS_1984_EASE-Grid_2.0_Global"><AuthorityCode>EPSG,6933</AuthorityCode></ILateBoundCoordinateReferenceSystem>
Interpretator      .         Сагынбаева А.Н.               : 
Kupol              .         основной                      : osnovnoi
LATI               .dega     0.6632616444                  : GCS_WGS_1984
LONG               .dega     0.4337798067                  : GCS_WGS_1984
Mud                .         глинистый                     : 
Mud_density        .         1,18                          : 
Mud_resistivity    .         0                             : 
NGDU               .         НГДУ-2                        : 
ORIGINALWELLNAME   .         7844                          : 
Spud_date          .         1991                          : 1961
Viscosity          .         40                            : 
X                  .m        41853.8                       : 46154
Y                  .m        84612.63                      : 85761.93
YEAR               .         2018                          : 
~Parameter Information Block
#_______________________________________________________________________________
#
#PARAMETER_NAME    .UNIT     VALUE                         : DESCRIPTION
#_______________________________________________________________________________
SET                .         LQC_KAZNIPI_Petrel            : 
TLFamily_CALI      .         Caliper                       : 
TLFamily_CILD      .         Conductivity                  : 
TLFamily_COLL      .         Net Reservoir Flag            : 
TLFamily_CSAT      .         Fluid Code                    : 
TLFamily_DEPT      .         Measured Depth                : 
TLFamily_GR        .         Russian Gamma Ray             : 
TLFamily_LLS       .         Lateral Log Resistivity       : 
TLFamily_MINV      .         Micro Gradient Resistivity    : 
TLFamily_MNOR      .         Micro Resistivity             : 
TLFamily_NGLD      .         Neutron Gamma                 : 
TLFamily_PHIE      .         Effective Porosity            : 
TLFamily_PHIEN     .         Effective Porosity            : 
TLFamily_PHIT      .         Porosity                      : 
TLFamily_PRMB      .         Permeability                  : 
TLFamily_PRMB_DGR  .         Permeability                  : 
TLFamily_RT        .         Formation Resistivity         : 
TLFamily_SOIL_ARCHIE .         Oil Saturation                : 
TLFamily_SOIL_DW   .         Oil Saturation                : 
TLFamily_SP        .         Spontaneous Potential         : 
TLFamily_VSH_FIN   .         Shale Volume                  : 
TLFamily_VSH_GR    .         Shale Volume                  : 
TLFamily_VSH_SP    .         Shale Volume                  : 
~Curve Information
#_______________________________________________________________________________
#
#LOGNAME           .UNIT     LOG_ID                        : DESCRIPTION
#_______________________________________________________________________________
DEPT               .M                                      : Колонка глубины 
CALI               .м                                      : Каверномер 
CILD               .мСм/м                                  : Индукционный каротаж 
COLL               .unitless                               : Описание 
CSAT               .unitless                               :  
GR                 .uR/h                                   : Гамма каротаж 
LLS                .Ohmm                                   : Боковой каротаж 
MINV               .Ohmm                                   : Микро-градиент зонд 
MNOR               .Ohmm                                   : Микро-потенциал зонд 
NGLD               .у.е.                                   : Показания зонда НГК-60 аппаратуры ДРСТ-3-90 
PHIE               .v/v                                    : Описание 
PHIEN              .v/v                                    :  
PHIT               .v/v                                    : Описание 
PRMB               .mD                                     :  
PRMB_DGR           .mD                                     :  
RT                 .ohmm                                   : УЭС пласта 
SOIL_ARCHIE        .v/v                                    :  
SOIL_DW            .v/v                                    :  
SP                 .мВ                                     : Потенциал самополяризации 
VSH_FIN            .v/v                                    : Описание 
VSH_GR             .v/v                                    : Shale volume 
VSH_SP             .v/v                                    : Shale Volume 
~Ascii
# ...
1019.2     0.25       456.56     -9999      -9999      7.188062   1.593      0.8        0.876      1.193502   0.1712906  0.1712906  0.3823455  4.167495   0.4927023  2.19       0.2803222  0.5481619  90.6553    0.6395604  0.8        0.4791208 
1019.4     0.258      456.56     -9999      -9999      7.216589   1.593      0.851      0.775      1.235793   0.1554438  0.1554438  0.3673408  2.120089   0.4815052  2.19       0.2168273  0.5196306  90.84408   0.6421122  0.8        0.4842244 
1019.6     0.258      459.1      -9999      -9999      7.030078   1.898      0.902      0.8        1.292156   0.1339826  0.1339826  0.3473431  0.8488693  0.5595961  2.178      0.1063334  0.473098   91.16791   0.6465468  0.8        0.4930937 
1019.8     0.266      455.29     -9999      -9999      6.677792   2.165      0.978      0.851      1.359715   0.1193075  0.1193075  0.3233733  0.4539649  0.7433019  2.196      0.01513363 0.427329   91.57345   0.6183812  0.732355   0.5044074 
1020       0.275      448.94     -9999      -9999      6.221988   3.143      2.565      1.727      1.435557   0.107154   0.107154   0.2964643  0.2703395  1.073209   2.227      0          0.3751808  92.01472   0.5736676  0.6303542  0.5169811 
1020.2     0.273      442.59     -9999      -9999      5.745569   3.166      2.794      2.603      1.517275   0.09125356 0.09125356 0.2674707  0.137213   1.5755     2.259      0          0.2983426  92.43079   0.5339915  0.538892   0.5290911 
1020.4     0.266      442.59     -9999      -9999      5.320065   2.637      2.4        2.235      1.604811   0.07024474 0.07024474 0.2364131  0.05600943 2.219898   2.259      0          0.1680217  92.75155   0.5035404  0.4684841  0.5385967 
1020.6     0.266      436.24     -9999      -9999      4.955179   2.543      1.816      1.803      1.700077   0.0444117  0.0444117  0.2026126  0.01861104 2.978743   2.292      0          0          92.90884   0.4793966  0.4154805  0.5433127 
1020.8     0.261      431.16     -9999      -9999      4.5991     3.585      1.956      1.981      1.802687   0.01592895 0.01592895 0.1662067  0.005523329 3.968728   2.319      0          0          92.83958   0.4553872  0.3695429  0.5412315 
1021       0.256      424.81     -9999      -9999      4.207127   4.465      2.286      2.845      1.905875   0.01       0          0.1295955  0.004289259 5.442909   2.354      0          0          92.51188   0.4281526  0.3248252  0.53148   
1021.2     0.251      419.73     -9999      -9999      3.811569   4.12       2.337      2.731      1.997797   0.01       0          0.09698162 0.004289259 7.486277   2.382      0          0          91.96602   0.400381   0.2851821  0.5155799 
1021.4     0.247      419.73     -9999      -9999      3.501228   4.631      2.311      2.616      2.067275   0.01       0          0.0723309  0.004289259 9.613389   2.382      0          0          91.2841    0.3769045  0.2574974  0.4963116 
1021.6     0.247      413.38     -9999      -9999      3.335323   5.683      2.426      3.048      2.105431   0.01       0          0.05879297 0.004289259 10.98851   2.419      0          0          90.50316   0.3594303  0.243817   0.4750435 
1021.8     0.251      410.84     -9999      -9999      3.308312   6.025      2.629      3.48       2.099985   0.01       0          0.06072536 0.004289259 11.23032   2.434      0          0          89.6132    0.3467416  0.2416596  0.4518237 
1022       0.251      407.03     -9999      -9999      3.389229   4.432      2.515      3.137      2.035595   0.01       0          0.08357083 0.004289259 10.52139   2.457      0          0          88.67353   0.3383182  0.2481804  0.428456  
1022.2     0.245      408.3      -9999      -9999      3.558598   4.304      2.616      3.251      1.908818   0.01772691 0.01772691 0.1285512  0.005963529 9.17907    2.449      0          0          87.86442   0.3358312  0.2624046  0.4092579 
1022.4     0.244      408.3      -9999      -9999      3.808941   3.692      2.553      2.629      1.742216   0.07496253 0.07496253 0.1876618  0.06849296 7.502145   2.449      0          0.0918437  87.37674   0.341513   0.2849356  0.3980903 
1022.6     0.244      412.11     -9999      -9999      4.132165   3.166      2.223      2.159      1.576589   0.1287477  0.1287477  0.2464264  0.6790135  5.781838   2.427      0.1205934  0.3719792  87.297     0.3566019  0.316911   0.3962928 
1022.8     0.245      415.92     -9999      -9999      4.514385   3.482      2.413      2.578      1.445411   0.167152   0.167152   0.2929683  3.493166   4.249122   2.404      0.2962984  0.4872334  87.59884   0.3812615  0.3593839  0.403139  
1023       0.244      418.46     -9999      -9999      4.932651   3.075      2.845      2.413      1.357835   0.1872298  0.1872298  0.32404    8.224463   3.033314   2.39       0.3607468  0.5373668  88.18405   0.4145766  0.4124119  0.4167413 
1023.2     0.244      424.81     -9999      -9999      5.353972   2.279      2.527      1.803      1.304511   0.1931307  0.1931307  0.3429593  10.57811   2.160063   2.354      0.3733448  0.5550544  88.91345   0.4540261  0.4737403  0.4343119 
1023.4     0.246      424.81     -9999      -9999      5.734041   1.94       1.537      1.232      1.27419    0.1904084  0.1904084  0.3537173  9.418526   1.590204   2.354      0.3655486  0.5608814  89.65536   0.4948756  0.5368516  0.4528996 
1023.6     0.246      437.51     -9999      -9999      6.021651   1.83       1.156      0.889      1.262411   0.1827986  0.1827986  0.3578967  6.808183   1.261237   2.286      0.3335009  0.5505209  90.35338   0.5306005  0.5901405  0.4710604 
1023.8     0.251      440.05     -9999      -9999      6.179467   1.817      1.168      1.016      1.268272   0.1725399  0.1725399  0.355817   4.395583   1.110621   2.272      0.2970932  0.5373709  91.02546   0.5553851  0.6215959  0.4891743 
1024       0.256      440.05     -9999      -9999      6.211095   2.262      1.092      0.889      1.288082   0.1614219  0.1614219  0.3487886  2.735789   1.082672   2.272      0.2551101  0.5196179  91.68137   0.5677779  0.6280988  0.507457  
1024.2     0.262      434.97     -9999      -9999      6.169699   3.533      1.816      1.892      1.312596   0.1512909  0.1512909  0.3400909  1.775958   1.119397   2.299      0.216207   0.5029035  92.27888   0.5721211  0.6196012  0.524641  
1024.4     0.269      434.97     -9999      -9999      6.131337   2.965      2.527      2.527      1.330743   0.1437348  0.1437348  0.3336522  1.286696   1.154542   2.299      0.18044    0.4872182  92.77125   0.5755072  0.611829   0.5391853 
1024.6     0.269      432.43     -9999      -9999      6.14372    2.229      1.905      1.93       1.337927   0.1388339  0.1388339  0.3311036  1.043994   1.143078   2.313      0.157702   0.4796705  93.16087   0.5826356  0.6143273  0.550944  
1024.8     0.274      432.43     -9999      -9999      6.190247   2.229      1.651      1.486      1.34115    0.1344822  0.1344822  0.3299599  0.8671499  1.101014   2.313      0.1340124  0.4724052  93.4854    0.5923567  0.6238048  0.5609085 
1025       0.27       436.24     -9999      -9999      6.200368   2.434      1.892      1.664      1.353311   0.1283533  0.1283533  0.3256452  0.6676872  1.092071   2.292      0.09423858 0.4563946  93.77152   0.5978541  0.6258858  0.5698224 
1025.2     0.262      434.97     -9999      -9999      6.097796   3.03       1.816      1.778      1.381619   0.1204015  0.1204015  0.3156016  0.4756488  1.186174   2.299      0.04372416 0.4333283  94.02802   0.5915155  0.6051136  0.5779173 
1025.4     0.256      434.97     -9999      -9999      5.853186   3.284      1.765      2.21       1.421082   0.1128514  0.1128514  0.3016     0.3446981  1.444625   2.299      0          0.4028967  94.26907   0.5719655  0.5583169  0.5856141 
1025.6     0.256      426.08     -9999      -9999      5.514202   3.237      1.956      2.248      1.458331   0.107993   0.107993   0.2883843  0.2801881  1.898412   2.347      0          0.382129   94.52533   0.5466405  0.4993879  0.5938931 
1025.8     0.258      426.08     -9999      -9999      5.178366   3.237      2.007      2.134      1.481649   0.1067393  0.1067393  0.280111   0.2656004  2.48842    2.347      0          0.3678324  94.82182   0.5253688  0.4471418  0.6035958 
