~Version
 VERS              .         2.0                           : CWLS LOG ASCII STANDARD - VERSION 2.0
 WRAP              .         NO                            : ONE LINE PER DEPTH STEP
 DLM               .         SPACE                         : DELIMITING CHARACTER(SPACE TAB OR COMMA)
~Well Information
#_______________________________________________________________________________
#
#PARAMETER_NAME    .UNIT     VALUE                         : DESCRIPTION
#_______________________________________________________________________________
STRT               .M        880                           : First reference value
STOP               .M        1186                          : Last reference value
STEP               .M        0.2                           : Step increment
NULL               .         -9999                         : Missing value
COMP               .                                       : Company
WELL               .         7844                          : Well name
FLD                .         Узень                         : Field
LOC                .                                       : Location
CNTY               .                                       : County
STAT               .                                       : State
CTRY               .                                       : Country
SRVC               .         UPGF                          : Service Company
DATE               .         01.06.1991                    : Date
UWI                .                                       : Unique Well ID
Block              .         7                             : 
Cartographic_reference_system .         GCS_WGS_1984                  : ESRI,PE_10_3_1- <?xml version="1.0" encoding="utf-16"?><ILateBoundCoordinateReferenceSystem name="GCS_WGS_1984"><AuthorityCode>EPSG,4326</AuthorityCode></ILateBoundCoordinateReferenceSystem>
Category           .         Нефтяная                      : 
Condition          .         Ликвидированная               : 
EREF               .m        93.6                          : 100.8
Gorizont           .         15                            : 14
HZCS               .GCS_WGS_1984 WGS_1984_EASE-Grid_2.0_Global : ESRI,PE_10_3_1- <?xml version="1.0" encoding="utf-16"?><ILateBoundCoordinateReferenceSystem name="WGS_1984_EASE-Grid_2.0_Global"><AuthorityCode>EPSG,6933</AuthorityCode></ILateBoundCoordinateReferenceSystem>
Interpretator      .         Сагынбаева А.Н.               : 
Kupol              .         основной                      : osnovnoi
LATI               .dega     0.6632616444                  : GCS_WGS_1984
LONG               .dega     0.4337798067                  : GCS_WGS_1984
Mud                .         глинистый                     : 
Mud_density        .         1,18                          : 
Mud_resistivity    .         0                             : 
NGDU               .         НГДУ-2                        : 
ORIGINALWELLNAME   .         7844                          : 
Spud_date          .         1991                          : 1961
Viscosity          .         40                            : 
X                  .m        41853.8                       : 46154
Y                  .m        84612.63                      : 85761.93
YEAR               .         2018                          : 
~Parameter Information Block
#_______________________________________________________________________________
#
#PARAMETER_NAME    .UNIT     VALUE                         : DESCRIPTION
#_______________________________________________________________________________
SET                .         LQC_KAZNIPI_Petrel            : 
TLFamily_CALI      .         Caliper                       : 
TLFamily_CILD      .         Conductivity                  : 
TLFamily_COLL      .         Net Reservoir Flag            : 
TLFamily_CSAT      .         Fluid Code                    : 
TLFamily_DEPT      .         Measured Depth                : 
TLFamily_GR        .         Russian Gamma Ray             : 
TLFamily_LLS       .         Lateral Log Resistivity       : 
TLFamily_MINV      .         Micro Gradient Resistivity    : 
TLFamily_MNOR      .         Micro Resistivity             : 
TLFamily_NGLD      .         Neutron Gamma                 : 
TLFamily_PHIE      .         Effective Porosity            : 
TLFamily_PHIEN     .         Effective Porosity            : 
TLFamily_PHIT      .         Porosity                      : 
TLFamily_PRMB      .         Permeability                  : 
TLFamily_PRMB_DGR  .         Permeability                  : 
TLFamily_RT        .         Formation Resistivity         : 
TLFamily_SOIL_ARCHIE .         Oil Saturation                : 
TLFamily_SOIL_DW   .         Oil Saturation                : 
TLFamily_SP        .         Spontaneous Potential         : 
TLFamily_VSH_FIN   .         Shale Volume                  : 
TLFamily_VSH_GR    .         Shale Volume                  : 
TLFamily_VSH_SP    .         Shale Volume                  : 
~Curve Information
#_______________________________________________________________________________
#
#LOGNAME           .UNIT     LOG_ID                        : DESCRIPTION
#_______________________________________________________________________________
DEPT               .M                                      : Колонка глубины 
CALI               .м                                      : Каверномер 
CILD               .мСм/м                                  : Индукционный каротаж 
COLL               .unitless                               : Описание 
CSAT               .unitless                               :  
GR                 .uR/h                                   : Гамма каротаж 
LLS                .Ohmm                                   : Боковой каротаж 
MINV               .Ohmm                                   : Микро-градиент зонд 
MNOR               .Ohmm                                   : Микро-потенциал зонд 
NGLD               .у.е.                                   : Показания зонда НГК-60 аппаратуры ДРСТ-3-90 
PHIE               .v/v                                    : Описание 
PHIEN              .v/v                                    :  
PHIT               .v/v                                    : Описание 
PRMB               .mD                                     :  
PRMB_DGR           .mD                                     :  
RT                 .ohmm                                   : УЭС пласта 
SOIL_ARCHIE        .v/v                                    :  
SOIL_DW            .v/v                                    :  
SP                 .мВ                                     : Потенциал самополяризации 
VSH_FIN            .v/v                                    : Описание 
VSH_GR             .v/v                                    : Shale volume 
VSH_SP             .v/v                                    : Shale Volume 
~Ascii
# ...
1039.6     0.289      488.31     -9999      -9999      9.57       1.604      1.346      1.334      1.146502   0.1762916  0.1762916  0.3990209  5.158305   0.6816419  2.048      0.275706   0.5499532  91.09435   0.6749372  0.758715   0.5911595 
1039.8     0.287      488.31     -9999      -9999      9.55685    1.701      1.435      1.308      1.160963   0.1717652  0.1717652  0.3938904  4.252717   0.6884477  2.048      0.2591102  0.541867   91.07613   0.6731065  0.7556433  0.5905696 
1040       0.289      489.58     -9999      -9999      9.548077   1.604      1.486      1.206      1.177223   0.1661843  0.1661843  0.3881212  3.351932   0.6930264  2.043      0.2366113  0.5313225  91.10397   0.6725358  0.7536007  0.591471  
1040.2     0.292      493.39     -9999      -9999      9.551003   1.558      1.143      1.041      1.192581   0.1602994  0.1602994  0.3826722  2.607904   0.6914957  2.027      0.2093475  0.5189022  91.16445   0.673857   0.7542815  0.5934324 
1040.4     0.291      493.39     -9999      -9999      9.559762   1.535      1.168      1.27       1.201133   0.1565003  0.1565003  0.3796381  2.217807   0.6869346  2.027      0.1926571  0.5121961  91.24422   0.6761752  0.7563224  0.596028  
1040.6     0.291      493.39     -9999      -9999      9.55593    1.513      1.092      1.105      1.196435   0.1578067  0.1578067  0.3813048  2.344882   0.6889266  2.027      0.1984811  0.5150278  91.33841   0.6772671  0.7554289  0.5991054 
1040.8     0.288      493.39     -9999      -9999      9.530344   1.535      1.27       1.13       1.177096   0.1650379  0.1650379  0.3881662  3.191983   0.7023738  2.027      0.229156   0.5283053  91.45105   0.6761462  0.7494892  0.6028032 
1041       0.286      492.12     -9999      -9999      9.497881   1.593      1.422      1.245      1.149603   0.175308   0.175308   0.3979207  4.946391   0.7198137  2.032      0.2694842  0.5464567  91.58263   0.6745839  0.7420205  0.6071473 
1041.2     0.282      492.12     -9999      -9999      9.485182   1.569      1.372      1.283      1.123852   0.1841673  0.1841673  0.4070575  7.217449   0.7267534  2.032      0.3001872  0.5610253  91.72058   0.6754247  0.7391191  0.6117303 
1041.4     0.279      492.12     -9999      -9999      9.500584   1.581      1.283      1.321      1.105993   0.1892079  0.1892079  0.4133938  8.948441   0.7183453  2.032      0.3164528  0.5696265  91.85019   0.6793511  0.7426394  0.6160628 
1041.6     0.279      492.12     -9999      -9999      9.515013   1.502      1.257      1.334      1.096929   0.1912142  0.1912142  0.4166097  9.74786    0.710557   2.032      0.3227036  0.5733984  91.9697    0.6830166  0.7459527  0.6200805 
1041.8     0.274      492.12     -9999      -9999      9.479342   1.491      1.168      1.257      1.096216   0.1921645  0.1921645  0.4168626  10.15103   0.7299672  2.032      0.3256215  0.5743554  92.08619   0.6809034  0.7377886  0.6240182 
1042       0.268      493.39     -9999      -9999      9.367757   1.524      1.156      1.283      1.104539   0.1927016  0.1927016  0.4139095  10.38628   0.7941767  2.027      0.3264809  0.572391   92.19841   0.6703269  0.7128224  0.6278313 
1042.2     0.265      493.39     -9999      -9999      9.203291   1.524      1.092      1.245      1.122238   0.1916904  0.1916904  0.40763    9.947846   0.8992538  2.027      0.3233874  0.5674477  92.29615   0.6543624  0.6775565  0.6311684 
1042.4     0.261      493.39     -9999      -9999      9.036161   1.513      1.27       1.245      1.147322   0.1879856  0.1879856  0.3987302  8.493906   1.020285   2.027      0.3117883  0.5582215  92.37099   0.6386201  0.6435063  0.6337337 
1042.6     0.261      498.47     -9999      -9999      8.906642   1.524      1.372      1.232      1.175002   0.1820512  0.1820512  0.3889094  6.594604   1.125175   2.006      0.2888231  0.5434685  92.41905   0.6268429  0.6183001  0.6353856 
1042.8     0.259      498.47     -9999      -9999      8.831289   1.689      1.499      1.245      1.197686   0.1762495  0.1762495  0.3808612  5.149043   1.191091   2.006      0.2684766  0.5317953  92.43627   0.6200353  0.6040922  0.6359783 
1043       0.259      497.2      -9999      -9999      8.812469   2.329      1.816      1.854      1.206556   0.1737673  0.1737673  0.3777139  4.631802   1.208149   2.011      0.2602485  0.5274337  92.42078   0.6180199  0.6005948  0.6354449 
1043.2     0.258      489.58     -9999      -9999      8.848968   1.954      1.334      1.308      1.197097   0.1762496  0.1762496  0.3810701  5.149059   1.175288   2.043      0.2747239  0.5362129  92.37702   0.6206684  0.6073959  0.6339408 
1043.4     0.257      489.58     -9999      -9999      8.923243   1.652      1.359      1.232      1.174721   0.1822391  0.1822391  0.3890088  6.64764    1.111151   2.043      0.2955294  0.5478697  92.31096   0.6265751  0.6214748  0.6316752 
1043.6     0.257      487.04     -9999      -9999      8.980428   1.604      1.308      1.283      1.153327   0.1884924  0.1884924  0.3965997  8.679482   1.064165   2.053      0.3174942  0.5600156  92.22449   0.6306283  0.6325363  0.6287205 
1043.8     0.254      487.04     -9999      -9999      8.939588   1.581      1.41       1.27       1.146634   0.1927562  0.1927562  0.3989742  10.41049   1.097513   2.053      0.3306623  0.5653551  92.12071   0.6249028  0.6246166  0.6251892 
1044       0.252      487.04     -9999      -9999      8.751022   1.628      1.549      1.308      1.16005    0.1944306  0.1944306  0.3942144  11.18112   1.265559   2.053      0.3356855  0.5635654  92.01157   0.6054052  0.5893167  0.6214936 
1044.2     0.251      483.23     -9999      -9999      8.441097   1.64       1.575      1.397      1.188869   0.1936232  0.1936232  0.3839892  10.80262   1.599471   2.069      0.3356977  0.5574555  91.91247   0.5768666  0.5355793  0.6181538 
1044.4     0.252      483.23     -9999      -9999      8.094215   1.739      1.499      1.473      1.222336   0.191175   0.191175   0.372115   9.731587   2.078723   2.069      0.3282948  0.5466155  91.82988   0.548303   0.4812239  0.6153822 
1044.6     0.252      474.34     -9999      -9999      7.802698   1.926      1.651      1.664      1.249431   0.1887714  0.1887714  0.3625019  8.783404   2.590901   2.108      0.3267772  0.5413261  91.76099   0.5264561  0.4398336  0.6130785 
1044.8     0.257      474.34     -9999      -9999      7.642075   2.197      2.184      2.019      1.263834   0.1874878  0.1874878  0.3573918  8.315467   2.925197   2.108      0.3227645  0.5360978  91.70322   0.5148607  0.4185694  0.6111521 
1045       0.259      471.8      -9999      -9999      7.658847   2.312      1.943      1.88       1.266287   0.1864954  0.1864954  0.3565214  7.97085    2.888362   2.12       0.3214368  0.5357662  91.66017   0.5152304  0.4207409  0.6097199 
1045.2     0.263      465.45     -9999      -9999      7.837784   2.213      1.753      1.918      1.262999   0.1838491  0.1838491  0.3576879  7.120158   2.523119   2.148      0.3171555  0.5371673  91.63693   0.5267842  0.4446205  0.6089479 
1045.4     0.261      465.45     -9999      -9999      8.077754   2.027      1.562      1.753      1.261158   0.1789053  0.1789053  0.3583412  5.766589   2.104738   2.148      0.3007502  0.5328021  91.62957   0.5437449  0.4787861  0.6087036 
1045.6     0.261      461.64     -9999      -9999      8.239359   1.726      1.587      1.549      1.264949   0.1735542  0.1735542  0.3569961  4.589893   1.862823   2.166      0.2848156  0.5282108  91.62365   0.5558845  0.5032619  0.6085071 
1045.8     0.256      461.64     -9999      -9999      8.243258   1.676      1.549      1.492      1.272944   0.1707104  0.1707104  0.3541594  4.065642   1.857343   2.166      0.2744503  0.5228796  91.60668   0.555906   0.5038677  0.6079443 
1046       0.252      464.18     -9999      -9999      8.128546   1.884      1.511      1.435      1.27793    0.1719733  0.1719733  0.3523906  4.290628   2.0255     2.154      0.2772112  0.5214168  91.58091   0.5467191  0.4863477  0.6070904 
1046.2     0.249      465.45     -9999      -9999      8.011834   2.149      1.689      1.778      1.2719     0.1770689  0.1770689  0.35453    5.332177   2.212219   2.148      0.2944383  0.5278478  91.55927   0.5377607  0.4691475  0.606374  
