~Version
 VERS              .         2.0                           : CWLS LOG ASCII STANDARD - VERSION 2.0
 WRAP              .         NO                            : ONE LINE PER DEPTH STEP
 DLM               .         SPACE                         : DELIMITING CHARACTER(SPACE TAB OR COMMA)
~Well Information
#_______________________________________________________________________________
#
#PARAMETER_NAME    .UNIT     VALUE                         : DESCRIPTION
#_______________________________________________________________________________
STRT               .M        880                           : First reference value
STOP               .M        1186                          : Last reference value
STEP               .M        0.2                           : Step increment
NULL               .         -9999                         : Missing value
COMP               .                                       : Company
WELL               .         7844                          : Well name
FLD                .         Узень                         : Field
LOC                .                                       : Location
CNTY               .                                       : County
STAT               .                                       : State
CTRY               .                                       : Country
SRVC               .         UPGF                          : Service Company
DATE               .         01.06.1991                    : Date
UWI                .                                       : Unique Well ID
Block              .         7                             : 
Cartographic_reference_system .         GCS_WGS_1984                  : ESRI,PE_10_3_1- <?xml version="1.0" encoding="utf-16"?><ILateBoundCoordinateReferenceSystem name="GCS_WGS_1984"><AuthorityCode>EPSG,4326</AuthorityCode></ILateBoundCoordinateReferenceSystem>
Category           .         Нефтяная                      : 
Condition          .         Ликвидированная               : 
EREF               .m        93.6                          : 100.8
Gorizont           .         15                            : 14
HZCS               .GCS_WGS_1984 WGS_1984_EASE-Grid_2.0_Global : ESRI,PE_10_3_1- <?xml version="1.0" encoding="utf-16"?><ILateBoundCoordinateReferenceSystem name="WGS_1984_EASE-Grid_2.0_Global"><AuthorityCode>EPSG,6933</AuthorityCode></ILateBoundCoordinateReferenceSystem>
Interpretator      .         Сагынбаева А.Н.               : 
Kupol              .         основной                      : osnovnoi
LATI               .dega     0.6632616444                  : GCS_WGS_1984
LONG               .dega     0.4337798067                  : GCS_WGS_1984
Mud                .         глинистый                     : 
Mud_density        .         1,18                          : 
Mud_resistivity    .         0                             : 
NGDU               .         НГДУ-2                        : 
ORIGINALWELLNAME   .         7844                          : 
Spud_date          .         1991                          : 1961
Viscosity          .         40                            : 
X                  .m        41853.8                       : 46154
Y                  .m        84612.63                      : 85761.93
YEAR               .         2018                          : 
~Parameter Information Block
#_______________________________________________________________________________
#
#PARAMETER_NAME    .UNIT     VALUE                         : DESCRIPTION
#_______________________________________________________________________________
SET                .         LQC_KAZNIPI_Petrel            : 
TLFamily_CALI      .         Caliper                       : 
TLFamily_CILD      .         Conductivity                  : 
TLFamily_COLL      .         Net Reservoir Flag            : 
TLFamily_CSAT      .         Fluid Code                    : 
TLFamily_DEPT      .         Measured Depth                : 
TLFamily_GR        .         Russian Gamma Ray             : 
TLFamily_LLS       .         Lateral Log Resistivity       : 
TLFamily_MINV      .         Micro Gradient Resistivity    : 
TLFamily_MNOR      .         Micro Resistivity             : 
TLFamily_NGLD      .         Neutron Gamma                 : 
TLFamily_PHIE      .         Effective Porosity            : 
TLFamily_PHIEN     .         Effective Porosity            : 
TLFamily_PHIT      .         Porosity                      : 
TLFamily_PRMB      .         Permeability                  : 
TLFamily_PRMB_DGR  .         Permeability                  : 
TLFamily_RT        .         Formation Resistivity         : 
TLFamily_SOIL_ARCHIE .         Oil Saturation                : 
TLFamily_SOIL_DW   .         Oil Saturation                : 
TLFamily_SP        .         Spontaneous Potential         : 
TLFamily_VSH_FIN   .         Shale Volume                  : 
TLFamily_VSH_GR    .         Shale Volume                  : 
TLFamily_VSH_SP    .         Shale Volume                  : 
~Curve Information
#_______________________________________________________________________________
#
#LOGNAME           .UNIT     LOG_ID                        : DESCRIPTION
#_______________________________________________________________________________
DEPT               .M                                      : Колонка глубины 
CALI               .м                                      : Каверномер 
CILD               .мСм/м                                  : Индукционный каротаж 
COLL               .unitless                               : Описание 
CSAT               .unitless                               :  
GR                 .uR/h                                   : Гамма каротаж 
LLS                .Ohmm                                   : Боковой каротаж 
MINV               .Ohmm                                   : Микро-градиент зонд 
MNOR               .Ohmm                                   : Микро-потенциал зонд 
NGLD               .у.е.                                   : Показания зонда НГК-60 аппаратуры ДРСТ-3-90 
PHIE               .v/v                                    : Описание 
PHIEN              .v/v                                    :  
PHIT               .v/v                                    : Описание 
PRMB               .mD                                     :  
PRMB_DGR           .mD                                     :  
RT                 .ohmm                                   : УЭС пласта 
SOIL_ARCHIE        .v/v                                    :  
SOIL_DW            .v/v                                    :  
SP                 .мВ                                     : Потенциал самополяризации 
VSH_FIN            .v/v                                    : Описание 
VSH_GR             .v/v                                    : Shale volume 
VSH_SP             .v/v                                    : Shale Volume 
~Ascii
# ...
899.8      0.265      236.22     -9999      -9999      7.46728    2.837      1.981      1.384      1.494555   -9999      -9999      -9999      -9999      -9999      4.233      -9999      -9999      99.00701   -9999      0.1233618  0.8       
900        0.258      227.33     -9999      -9999      7.110112   3.213      2.223      1.562      1.564227   0.06256252 0.06256252 0.2508124  0.04036153 0.9831094  4.399      0          0.4054615  98.93243   0.5704543  0.6533337  0.4875748 
900.2000000000001 0.251      219.71     -9999      -9999      6.84523    3.357      2.883      1.727      1.660983   0.04211247 0.04211247 0.2164834  0.01687264 1.324697   4.551      0          0.2708752  98.66054   0.5283967  0.5784286  0.4783647 
900.4      0.25       219.71     -9999      -9999      6.56928    4.18       3.175      2.565      1.780468   0.01385336 0.01385336 0.1740899  0.005055405 1.807356   4.551      0          0          98.15369   0.4855652  0.5095122  0.4616181 
900.6      0.25       209.55     -9999      -9999      6.178269   4.465      3.353      2.781      1.898568   0.01       0          0.132188   0.004289259 2.806923   4.772      0          0          97.36948   0.4312278  0.4256834  0.4367722 
900.8      0.253      191.77     6          6          5.64257    3.357      3.467      3.277      1.985904   0.01       0          0.1012012  0.004289259 5.130533   5.215      0          0          96.27287   0.3684503  0.33276    0.4041407 
901        0.252      173.99     6          6          5.014469   2.776      3.213      2.667      2.030807   0.01       0          0.0852695  0.004289259 10.4058    5.747      0          0          94.92825   0.3083334  0.2493026  0.3673642 
901.2000000000001 0.249      177.8      6          6          4.386992   4.336      2.413      2.07       2.047558   0.01       0          0.07932648 0.004289259 21.0903    5.624      0          0          93.49947   0.2594193  0.1868302  0.3320083 
901.4      0.245      177.8      6          6          3.851683   6.723      3.531      1.626      2.062456   0.01       0.0003046889 0.07404056 0.004289259 38.5323    5.624      0          0          92.09581   0.223442   0.1460727  0.3008114 
901.6      0.245      204.47     6          6          3.475852   7.896      4.851      4.483      2.093569   0.01       0          0.06300187 0.004289259 58.82863   4.891      0          0          90.68655   0.1978558  0.1228944  0.2728173 
901.8      0.242      214.63     6          6          3.290508   4.982      3.943      3.315      2.140489   0.01       0          0.04635455 0.004289259 72.47928   4.659      0          0          89.24026   0.1801005  0.1128566  0.2473445 
902        0.238      217.17     6          6          3.288298   3.692      2.68       2.756      2.1874     0.01       0          0.02971053 0.004289259 72.6598    4.605      0          0          87.87473   0.1694356  0.112742   0.2261292 
902.2000000000001 0.235      207.01     6          6          3.438515   2.879      2.794      2.476      2.215754   0.01       0          0.01965038 0.004289259 61.35432   4.831      0          0          86.76501   0.1657958  0.1208029  0.2107886 
902.4      0.233      207.01     6          6          3.694324   2.165      2.629      2.438      2.218453   0.01       0          0.01869299 0.004289259 46.00086   4.831      0          0          85.96635   0.1683109  0.1358787  0.2007432 
902.6      0.233      170.18     6          6          3.983366   1.998      2.737      3.023      2.202613   0.01       0          0.02431304 0.004289259 33.2229    5.876      0          0          85.39539   0.1746189  0.1551888  0.1940489 
902.8      0.232      162.56     6          6          4.214984   7.213      4.877      4.572      2.179015   0.01       0          0.03268559 0.004289259 25.59688   6.152      0          0          84.94469   0.1808336  0.1726253  0.1890419 
903        0.234      152.4      6          6          4.321743   7.448      4.115      4.458      2.152348   0.01       0          0.04214709 0.004289259 22.69795   6.562      0          0          84.56757   0.183172   0.1813091  0.1850348 
903.2000000000001 0.236      138.43     6          6          4.294821   6.822      3.778      3.969      2.121264   0.01       0          0.05317537 0.004289259 23.39646   7.224      0          0          84.25775   0.1804718  0.1790789  0.1818646 
903.4      0.238      138.43     6          6          4.178278   6.773      3.391      3.823      2.081507   0.01       0.009683323 0.06728116 0.004289259 26.67685   7.224      0          0          84.00327   0.1745389  0.1697367  0.1793411 
903.6      0.238      119.38     6          6          4.035453   7.34       3.505      3.937      2.029111   0.03041968 0.03041968 0.08587137 0.01024718 31.33064   8.377      0          0          83.77321   0.1680354  0.1589498  0.177121  
903.8      0.24       115.57     6          6          3.914274   8.621      3.874      4.166      1.965141   0.0548986  0.0548986  0.108568   0.02910806 35.91041   8.653      0          0.2354594  83.54031   0.1626345  0.150337   0.1749321 
904        0.241      118.11     6          6          3.82493    9.073      4.725      4.445      1.897097   0.08039507 0.08039507 0.13271    0.08635149 39.7105    8.467      0.2626765  0.4110554  83.30425   0.1585299  0.1442872  0.1727727 
904.2000000000001 0.24       129.54     6          6          3.748296   9.14       3.797      3.988      1.83463    0.1037045  0.1037045  0.1548732  0.2333552  43.28887   7.72       0.3831472  0.4924646  83.08518   0.1550567  0.1392923  0.170821  
904.4      0.239      129.54     6          6          3.66574    8.311      2.908      3.124      1.785916   0.1221064  0.1221064  0.1721571  0.5115235  47.50536   7.72       0.4649487  0.554076   82.90261   0.1516687  0.1341048  0.1692325 
904.6      0.239      167.64     6          6          3.572184   5.809      2.591      2.87       1.758778   0.1328688  0.1328688  0.1817854  0.8094887  52.78215   5.965      0.4389447  0.5255038  82.75876   0.1482321  0.1284592  0.168005  
904.8      0.238      186.69     6          6          3.4713     4.001      2.362      2.629      1.760656   0.1333246  0.1333246  0.1811192  0.8253771  59.13089   5.356      0.4116201  0.4988893  82.64236   0.1448322  0.1226375  0.167027  
905        0.237      200.66     6          6          3.374676   3.143      2.121      2.375      1.794687   0.12226    0.12226    0.169045   0.5148851  65.92638   4.984      0.3437061  0.4393345  82.54703   0.1417726  0.1173091  0.1662362 
905.2000000000001 0.235      212.09     6          6          3.298359   3.009      1.968      2.451      1.858138   0.1005057  0.1005057  0.1465325  0.2035951  71.8414    4.715      0.2010519  0.3203166  82.48003   0.1394752  0.1132647  0.1656858 
905.4      0.235      212.09     6          6          3.249211   3.19       2.095      2.438      1.943748   0.07058454 0.07058454 0.1161582  0.05682702 75.92869   4.715      0          0.09942976 82.45359   0.138102   0.1107342  0.1654699 
905.6      0.235      223.52     6          6          3.218845   3.914      2.007      2.515      2.038085   0.03734564 0.03734564 0.08268753 0.0137686  78.56941   4.474      0          0          82.46957   0.1373997  0.1091991  0.1656003 
905.8      0.234      213.36     6          6          3.19344    5.641      1.956      2.616      2.117917   0.01       0.009173833 0.05436294 0.004289259 80.84917   4.687      0          0          82.51131   0.1369367  0.1079311  0.1659423 
906        0.235      194.31     6          6          3.160776   9.62       2.057      2.819      2.155456   0.01       0          0.0410441  0.004289259 83.87778   5.146      0          0          82.54996   0.1362914  0.1063225  0.1662604 
906.2000000000001 0.237      185.42     6          6          3.110563   10.893     2.286      3.162      2.133821   0.01       0.00412699 0.04872022 0.004289259 88.7562    5.393      0          0          82.56273   0.135131   0.1038962  0.1663658 
