~Version
 VERS              .         2.0                           : CWLS LOG ASCII STANDARD - VERSION 2.0
 WRAP              .         NO                            : ONE LINE PER DEPTH STEP
 DLM               .         SPACE                         : DELIMITING CHARACTER(SPACE TAB OR COMMA)
~Well Information
#_______________________________________________________________________________
#
#PARAMETER_NAME    .UNIT     VALUE                         : DESCRIPTION
#_______________________________________________________________________________
STRT               .M        880                           : First reference value
STOP               .M        1186                          : Last reference value
STEP               .M        0.2                           : Step increment
NULL               .         -9999                         : Missing value
COMP               .                                       : Company
WELL               .         7844                          : Well name
FLD                .         Узень                         : Field
LOC                .                                       : Location
CNTY               .                                       : County
STAT               .                                       : State
CTRY               .                                       : Country
SRVC               .         UPGF                          : Service Company
DATE               .         01.06.1991                    : Date
UWI                .                                       : Unique Well ID
Block              .         7                             : 
Cartographic_reference_system .         GCS_WGS_1984                  : ESRI,PE_10_3_1- <?xml version="1.0" encoding="utf-16"?><ILateBoundCoordinateReferenceSystem name="GCS_WGS_1984"><AuthorityCode>EPSG,4326</AuthorityCode></ILateBoundCoordinateReferenceSystem>
Category           .         Нефтяная                      : 
Condition          .         Ликвидированная               : 
EREF               .m        93.6                          : 100.8
Gorizont           .         15                            : 14
HZCS               .GCS_WGS_1984 WGS_1984_EASE-Grid_2.0_Global : ESRI,PE_10_3_1- <?xml version="1.0" encoding="utf-16"?><ILateBoundCoordinateReferenceSystem name="WGS_1984_EASE-Grid_2.0_Global"><AuthorityCode>EPSG,6933</AuthorityCode></ILateBoundCoordinateReferenceSystem>
Interpretator      .         Сагынбаева А.Н.               : 
Kupol              .         основной                      : osnovnoi
LATI               .dega     0.6632616444                  : GCS_WGS_1984
LONG               .dega     0.4337798067                  : GCS_WGS_1984
Mud                .         глинистый                     : 
Mud_density        .         1,18                          : 
Mud_resistivity    .         0                             : 
NGDU               .         НГДУ-2                        : 
ORIGINALWELLNAME   .         7844                          : 
Spud_date          .         1991                          : 1961
Viscosity          .         40                            : 
X                  .m        41853.8                       : 46154
Y                  .m        84612.63                      : 85761.93
YEAR               .         2018                          : 
~Parameter Information Block
#_______________________________________________________________________________
#
#PARAMETER_NAME    .UNIT     VALUE                         : DESCRIPTION
#_______________________________________________________________________________
SET                .         LQC_KAZNIPI_Petrel            : 
TLFamily_CALI      .         Caliper                       : 
TLFamily_CILD      .         Conductivity                  : 
TLFamily_COLL      .         Net Reservoir Flag            : 
TLFamily_CSAT      .         Fluid Code                    : 
TLFamily_DEPT      .         Measured Depth                : 
TLFamily_GR        .         Russian Gamma Ray             : 
TLFamily_LLS       .         Lateral Log Resistivity       : 
TLFamily_MINV      .         Micro Gradient Resistivity    : 
TLFamily_MNOR      .         Micro Resistivity             : 
TLFamily_NGLD      .         Neutron Gamma                 : 
TLFamily_PHIE      .         Effective Porosity            : 
TLFamily_PHIEN     .         Effective Porosity            : 
TLFamily_PHIT      .         Porosity                      : 
TLFamily_PRMB      .         Permeability                  : 
TLFamily_PRMB_DGR  .         Permeability                  : 
TLFamily_RT        .         Formation Resistivity         : 
TLFamily_SOIL_ARCHIE .         Oil Saturation                : 
TLFamily_SOIL_DW   .         Oil Saturation                : 
TLFamily_SP        .         Spontaneous Potential         : 
TLFamily_VSH_FIN   .         Shale Volume                  : 
TLFamily_VSH_GR    .         Shale Volume                  : 
TLFamily_VSH_SP    .         Shale Volume                  : 
~Curve Information
#_______________________________________________________________________________
#
#LOGNAME           .UNIT     LOG_ID                        : DESCRIPTION
#_______________________________________________________________________________
DEPT               .M                                      : Колонка глубины 
CALI               .м                                      : Каверномер 
CILD               .мСм/м                                  : Индукционный каротаж 
COLL               .unitless                               : Описание 
CSAT               .unitless                               :  
GR                 .uR/h                                   : Гамма каротаж 
LLS                .Ohmm                                   : Боковой каротаж 
MINV               .Ohmm                                   : Микро-градиент зонд 
MNOR               .Ohmm                                   : Микро-потенциал зонд 
NGLD               .у.е.                                   : Показания зонда НГК-60 аппаратуры ДРСТ-3-90 
PHIE               .v/v                                    : Описание 
PHIEN              .v/v                                    :  
PHIT               .v/v                                    : Описание 
PRMB               .mD                                     :  
PRMB_DGR           .mD                                     :  
RT                 .ohmm                                   : УЭС пласта 
SOIL_ARCHIE        .v/v                                    :  
SOIL_DW            .v/v                                    :  
SP                 .мВ                                     : Потенциал самополяризации 
VSH_FIN            .v/v                                    : Описание 
VSH_GR             .v/v                                    : Shale volume 
VSH_SP             .v/v                                    : Shale Volume 
~Ascii
# ...
1141.6     0.232      167.64     1          2          6.643531   4.946      1.511      2.108      1.392551   0.2681192  0.2681192  0.3117229  259.0461   58.6404    5.965      0.6955977  0.7415859  61.66043   0.1321323  0.1230553  0.1412092 
1141.8     0.23       167.64     1          2          6.758171   4.874      1.555      2.159      1.3996     0.2648938  0.2648938  0.3092221  225.7535   51.89439   5.965      0.6923721  0.7390469  61.16406   0.134328   0.129352   0.139304  
1142       0.23       167.64     1          2          6.874283   4.768      1.6        2.21       1.408261   0.261054   0.261054   0.306149   191.6513   45.85242   5.965      0.6884348  0.7359099  60.59228   0.1366514  0.1360582  0.1372446 
1142.2     0.23       161.29     1          2          6.972672   4.874      1.448      2.134      1.418982   0.2566042  0.2566042  0.3023453  158.5223   41.28663   6.2        0.6894174  0.7371812  59.98437   0.1386094  0.1420121  0.1352068 
1142.4     0.231      161.29     1          2          7.036722   4.91       1.372      2.07       1.42937    0.2525651  0.2525651  0.2986596  133.4373   38.56161   6.2        0.6850959  0.7335308  59.38177   0.1396803  0.1460273  0.1333332 
1142.6     0.231      149.86     1          2          7.079587   4.768      1.486      2.07       1.436794   0.2497554  0.2497554  0.2960254  118.3679   36.83912   6.673      0.6927962  0.7406066  58.79699   0.1402122  0.1487777  0.1316467 
1142.8     0.231      149.86     1          2          7.13556    4.497      1.549      2.045      1.440341   0.2481455  0.2481455  0.2947671  110.5135   34.70523   6.673      0.6910611  0.7392552  58.22209   0.1412777  0.1524472  0.1301081 
1143       0.231      142.24     1          2          7.218369   4.838      1.562      2.032      1.439682   0.247687   0.247687   0.2950007  108.3733   31.77279   7.03       0.6980391  0.7458788  57.65808   0.1433748  0.1580429  0.1287068 
1143.2     0.231      123.19     1          2          7.304786   5.168      1.626      2.095      1.434233   0.248826   0.248826   0.296934   113.7677   28.97648   8.118      0.7188815  0.7648661  57.1194    0.1457819  0.1641013  0.1274625 
1143.4     0.231      123.19     1          2          7.36398    5.479      1.676      2.083      1.424547   0.251733   0.251733   0.3003707  128.7845   27.20442   8.118      0.7217111  0.767567   56.62152   0.147387   0.1683849  0.126389  
1143.6     0.231      110.49     1          2          7.391814   5.479      1.6        2.032      1.412913   0.255676   0.255676   0.3044983  152.3693   26.40905   9.051      0.7391171  0.7830309  56.15992   0.1479465  0.1704374  0.1254556 
1143.8     0.231      110.49     1          2          7.409456   5.559      1.486      2.007      1.402059   0.2594501  0.2594501  0.3083496  178.9794   25.91702   9.051      0.7424254  0.7859301  55.7153    0.1481803  0.1717514  0.1246092 
1144       0.231      104.14     1          2          7.434031   5.766      1.473      1.918      1.394175   0.2620675  0.2620675  0.3111466  200.1172   25.24685   9.602      0.751651   0.7941194  55.29322   0.1487246  0.1735986  0.1238506 
1144.2     0.231      91.44      1          2          7.459677   5.851      1.537      1.968      1.390977   0.2629818  0.2629818  0.3122814  208.0749   24.56594   10.936     0.7670658  0.8077726  54.93444   0.1493928  0.1755475  0.123238  
1144.4     0.231      91.44      1          2          7.464766   5.981      1.651      2.032      1.392637   0.2623967  0.2623967  0.3116925  202.9464   24.43302   10.936     0.7666135  0.8073817  54.68295   0.1493811  0.1759368  0.1228254 
1144.6     0.231      85.09      1          2          7.429394   6.159      1.6        2.045      1.39651    0.2615016  0.2615016  0.3103182  195.345    25.37196   11.752     0.7736908  0.8134456  54.548     0.147929   0.1732485  0.1226095 
1144.8     0.231      85.09      1          2          7.351805   6.249      1.549      2.032      1.398624   0.2617117  0.2617117  0.3095681  197.1028   27.55983   11.752     0.773849   0.8132492  54.50695   0.1450196  0.1674948  0.1225445 
1145       0.231      83.82      1          2          7.253181   6.341      1.537      1.981      1.397019   0.2634369  0.2634369  0.3101378  212.1531   30.61523   11.93      0.7767202  0.8153595  54.52899   0.1415177  0.1604561  0.1225793 
1145.2     0.231      87.63      1          2          7.166179   6.53       1.549      1.956      1.393192   0.2657629  0.2657629  0.3114954  234.2781   33.59068   11.412     0.773759   0.8123911  54.58846   0.1385833  0.1544928  0.1226738 
1145.4     0.23       87.63      1          2          7.115324   6.435      1.537      1.956      1.389899   0.2674683  0.2674683  0.312664   251.9529   35.46203   11.412     0.7750159  0.8133029  54.66922   0.1369568  0.1511103  0.1228033 
1145.6     0.23       97.79      1          2          7.105474   6.577      1.537      1.956      1.388137   0.2681734  0.2681734  0.313289   259.6447   35.83638   10.226     0.7636698  0.8032201  54.76854   0.136714   0.1504637  0.1229643 
1145.8     0.229      97.79      1          2          7.124985   6.204      1.549      1.956      1.386948   0.2683477  0.2683477  0.313711   261.5829   35.09868   10.226     0.7638035  0.8034266  54.9006    0.1374644  0.1517471  0.1231817 
1146       0.229      104.14     1          2          7.158066   5.724      1.537      1.956      1.385516   0.2684405  0.2684405  0.3142188  262.6193   33.88243   9.602      0.756794   0.7973581  55.08783   0.1387223  0.1539482  0.1234964 
1146.2     0.23       119.38     1          2          7.195937   5.244      1.562      1.981      1.385192   0.2680572  0.2680572  0.3143338  258.3611   32.54177   8.377      0.7403852  0.7829608  55.35406   0.1402322  0.1565071  0.1239573 
1146.4     0.23       119.38     1          2          7.237357   4.91       1.587      2.019      1.389932   0.265789   0.265789   0.3126522  234.5394   31.13609   8.377      0.7384567  0.7815027  55.7452    0.1420096  0.1593546  0.1246645 
1146.6     0.23       129.54     1          2          7.283409   4.597      1.422      1.918      1.404021   0.260063   0.260063   0.3076535  183.7199   29.64441   7.72       0.7230338  0.7681402  56.35624   0.1442135  0.1625814  0.1258456 
1146.8     0.232      129.54     1          2          7.336295   4.814      1.46       1.867      1.427863   0.2506478  0.2506478  0.2991943  122.9596   28.01932   7.72       0.7139941  0.7606735  57.29295   0.1471107  0.1663677  0.1278537 
1147       0.233      134.62     1          2          7.405231   6.159      1.41       1.854      1.455398   0.2395269  0.2395269  0.2894246  76.52047   26.03399   7.428      0.6970305  0.7464741  58.55109   0.1512052  0.1714359  0.1309745 
1147.2     0.233      170.18     1          2          7.512797   6.069      1.549      2.083      1.476969   0.2298194  0.2298194  0.2817712  50.57915   23.21344   5.876      0.6493981  0.7054013  59.9839    0.1574297  0.1796541  0.1352053 
1147.4     0.233      170.18     1          2          7.685752   5.205      1.727      2.273      1.485621   0.2235713  0.2235713  0.2787016  38.74733   19.30472   5.876      0.6408796  0.7000636  61.45851   0.1670615  0.1937023  0.1404207 
1147.6     0.233      242.57     1          2          7.927442   4.432      1.575      2.007      1.481234   0.2204959  0.2204959  0.2802581  33.98426   14.91987   4.123      0.5707759  0.6410034  63.01516   0.1810973  0.2151923  0.1470024 
1147.8     0.233      242.57     1          2          8.200449   3.26       1.549      1.892      1.470069   0.2184812  0.2184812  0.2842195  31.18602   11.15236   4.123      0.5673306  0.6425474  64.79684   0.1992071  0.242348   0.1560663 
1148       0.233      281.94     1          2          8.443883   2.398      1.74       2.172      1.460869   0.2152144  0.2152144  0.2874836  27.13009   8.603205   3.547      0.5295408  0.6147571  66.81476   0.2189974  0.2694394  0.1685554 
1148.2     0.233      340.36     1          2          8.619683   2.796      1.575      1.892      1.459387   0.2096557  0.2096557  0.2880096  21.40377   7.132919   2.938      0.4742126  0.5725399  68.8702    0.2374359  0.2908685  0.1840034 
