~Version
 VERS              .         2.0                           : CWLS LOG ASCII STANDARD - VERSION 2.0
 WRAP              .         NO                            : ONE LINE PER DEPTH STEP
 DLM               .         SPACE                         : DELIMITING CHARACTER(SPACE TAB OR COMMA)
~Well Information
#_______________________________________________________________________________
#
#PARAMETER_NAME    .UNIT     VALUE                         : DESCRIPTION
#_______________________________________________________________________________
STRT               .M        880                           : First reference value
STOP               .M        1186                          : Last reference value
STEP               .M        0.2                           : Step increment
NULL               .         -9999                         : Missing value
COMP               .                                       : Company
WELL               .         7844                          : Well name
FLD                .         Узень                         : Field
LOC                .                                       : Location
CNTY               .                                       : County
STAT               .                                       : State
CTRY               .                                       : Country
SRVC               .         UPGF                          : Service Company
DATE               .         01.06.1991                    : Date
UWI                .                                       : Unique Well ID
Block              .         7                             : 
Cartographic_reference_system .         GCS_WGS_1984                  : ESRI,PE_10_3_1- <?xml version="1.0" encoding="utf-16"?><ILateBoundCoordinateReferenceSystem name="GCS_WGS_1984"><AuthorityCode>EPSG,4326</AuthorityCode></ILateBoundCoordinateReferenceSystem>
Category           .         Нефтяная                      : 
Condition          .         Ликвидированная               : 
EREF               .m        93.6                          : 100.8
Gorizont           .         15                            : 14
HZCS               .GCS_WGS_1984 WGS_1984_EASE-Grid_2.0_Global : ESRI,PE_10_3_1- <?xml version="1.0" encoding="utf-16"?><ILateBoundCoordinateReferenceSystem name="WGS_1984_EASE-Grid_2.0_Global"><AuthorityCode>EPSG,6933</AuthorityCode></ILateBoundCoordinateReferenceSystem>
Interpretator      .         Сагынбаева А.Н.               : 
Kupol              .         основной                      : osnovnoi
LATI               .dega     0.6632616444                  : GCS_WGS_1984
LONG               .dega     0.4337798067                  : GCS_WGS_1984
Mud                .         глинистый                     : 
Mud_density        .         1,18                          : 
Mud_resistivity    .         0                             : 
NGDU               .         НГДУ-2                        : 
ORIGINALWELLNAME   .         7844                          : 
Spud_date          .         1991                          : 1961
Viscosity          .         40                            : 
X                  .m        41853.8                       : 46154
Y                  .m        84612.63                      : 85761.93
YEAR               .         2018                          : 
~Parameter Information Block
#_______________________________________________________________________________
#
#PARAMETER_NAME    .UNIT     VALUE                         : DESCRIPTION
#_______________________________________________________________________________
SET                .         LQC_KAZNIPI_Petrel            : 
TLFamily_CALI      .         Caliper                       : 
TLFamily_CILD      .         Conductivity                  : 
TLFamily_COLL      .         Net Reservoir Flag            : 
TLFamily_CSAT      .         Fluid Code                    : 
TLFamily_DEPT      .         Measured Depth                : 
TLFamily_GR        .         Russian Gamma Ray             : 
TLFamily_LLS       .         Lateral Log Resistivity       : 
TLFamily_MINV      .         Micro Gradient Resistivity    : 
TLFamily_MNOR      .         Micro Resistivity             : 
TLFamily_NGLD      .         Neutron Gamma                 : 
TLFamily_PHIE      .         Effective Porosity            : 
TLFamily_PHIEN     .         Effective Porosity            : 
TLFamily_PHIT      .         Porosity                      : 
TLFamily_PRMB      .         Permeability                  : 
TLFamily_PRMB_DGR  .         Permeability                  : 
TLFamily_RT        .         Formation Resistivity         : 
TLFamily_SOIL_ARCHIE .         Oil Saturation                : 
TLFamily_SOIL_DW   .         Oil Saturation                : 
TLFamily_SP        .         Spontaneous Potential         : 
TLFamily_VSH_FIN   .         Shale Volume                  : 
TLFamily_VSH_GR    .         Shale Volume                  : 
TLFamily_VSH_SP    .         Shale Volume                  : 
~Curve Information
#_______________________________________________________________________________
#
#LOGNAME           .UNIT     LOG_ID                        : DESCRIPTION
#_______________________________________________________________________________
DEPT               .M                                      : Колонка глубины 
CALI               .м                                      : Каверномер 
CILD               .мСм/м                                  : Индукционный каротаж 
COLL               .unitless                               : Описание 
CSAT               .unitless                               :  
GR                 .uR/h                                   : Гамма каротаж 
LLS                .Ohmm                                   : Боковой каротаж 
MINV               .Ohmm                                   : Микро-градиент зонд 
MNOR               .Ohmm                                   : Микро-потенциал зонд 
NGLD               .у.е.                                   : Показания зонда НГК-60 аппаратуры ДРСТ-3-90 
PHIE               .v/v                                    : Описание 
PHIEN              .v/v                                    :  
PHIT               .v/v                                    : Описание 
PRMB               .mD                                     :  
PRMB_DGR           .mD                                     :  
RT                 .ohmm                                   : УЭС пласта 
SOIL_ARCHIE        .v/v                                    :  
SOIL_DW            .v/v                                    :  
SP                 .мВ                                     : Потенциал самополяризации 
VSH_FIN            .v/v                                    : Описание 
VSH_GR             .v/v                                    : Shale volume 
VSH_SP             .v/v                                    : Shale Volume 
~Ascii
# ...
1100.8     0.244      440.05     -9999      -9999      8.276306   2.416      2.019      1.816      1.320216   0.1415175  0.1415175  0.3373874  1.170592   1.811542   2.272      0.1646491  0.4848402  93.62585   0.5935452  0.5090312  0.6780592 
1101       0.242      440.05     -9999      -9999      8.177123   2.506      2.095      1.994      1.329112   0.1691539  0.1691539  0.334231   3.804504   6.775262   2.272      0.284854   0.5155041  93.64418   0.5002336  0.297043   0.7034242 
1101.2     0.24       434.97     -9999      -9999      8.01313    2.58       2.413      2.057      1.338795   0.169426   0.169426   0.3307957  3.848924   8.180919   2.299      0.2898028  0.515593   93.63187   0.4889989  0.2750342  0.7029637 
1101.4     0.238      434.97     -9999      -9999      7.825675   2.756      2.489      2.019      1.352682   0.1685588  0.1685588  0.3258683  3.709157   10.14827   2.299      0.2866213  0.5101437  93.59338   0.4766956  0.2518667  0.7015245 
1101.6     0.238      432.43     -9999      -9999      7.654346   3.008      2.527      2.146      1.371064   0.1656345  0.1656345  0.3193464  3.274244   12.35751   2.313      0.2777251  0.5021788  93.53063   0.4657937  0.2324033  0.6991841 
1101.8     0.238      432.43     -9999      -9999      7.538602   3.008      2.438      2.184      1.390579   0.16131    0.16131    0.3124226  2.722766   14.11619   2.313      0.2608894  0.4902513  93.43746   0.4579169  0.2201132  0.6957206 
1102       0.24       433.7      -9999      -9999      7.525084   2.965      2.299      2.146      1.407156   0.1564378  0.1564378  0.3065411  2.211896   14.33727   2.306      0.2397999  0.4773308  93.30976   0.4548586  0.2187209  0.6909963 
1102.2     0.239      432.43     -9999      -9999      7.636558   2.796      2.019      2.134      1.419208   0.1511708  0.1511708  0.3022649  1.766887   12.6128    2.313      0.2178962  0.4666043  93.15349   0.4578609  0.2304709  0.6852509 
1102.4     0.237      432.43     -9999      -9999      7.825081   2.599      2.019      1.981      1.430573   0.1446948  0.1446948  0.2982329  1.340467   10.1552    2.313      0.1874955  0.4530708  92.97501   0.465267   0.2517965  0.6787375 
1102.6     0.237      433.7      -9999      -9999      7.974686   2.312      1.994      1.791      1.451698   0.1354009  0.1354009  0.2907375  0.9018034  8.550588   2.306      0.1379072  0.4293167  92.77      0.4707169  0.2701153  0.6713186 
1102.8     0.237      433.7      -9999      -9999      7.970517   2.134      1.905      1.676      1.496119   0.1211342  0.1211342  0.2749768  0.4907472  8.591663   2.306      0.05012001 0.3838814  92.53204   0.4661896  0.2695872  0.6627921 
1103       0.238      433.7      -9999      -9999      7.775015   2.118      1.968      1.689      1.572359   0.09949968 0.09949968 0.2479269  0.1950444  10.75684   2.306      0          0.2928039  92.27297   0.4497795  0.2459477  0.6536112 
1103.2     0.24       427.35     -9999      -9999      7.444685   2.398      2.134      1.791      1.675784   0.07006832 0.07006832 0.211232   0.05558958 15.7256    2.34       0          0.1185232  92.02484   0.4277687  0.2106199  0.6449175 
1103.4     0.244      427.35     -9999      -9999      7.099144   3.508      2.311      1.981      1.786107   0.03731213 0.03731213 0.1720894  0.01374894 23.39505   2.34       0          0          91.81812   0.4084159  0.1790833  0.6377485 
1103.6     0.244      418.46     -9999      -9999      6.876953   5.641      2.54       2.553      1.872801   0.01040289 0.01040289 0.1413301  0.004363599 30.20343   2.39       0          0          91.65539   0.3967491  0.1613459  0.6321524 
1103.8     0.249      418.46     -9999      -9999      6.882646   9.007      2.705      3.48       1.908341   0.01       0          0.1287208  0.004289259 30.00641   2.39       0          0          91.50298   0.3943631  0.1617776  0.6269487 
1104       0.251      413.38     -9999      -9999      7.141398   9.761      2.235      3.213      1.882991   0.01       0.005174474 0.1377149  0.004289259 22.28577   2.419      0          0          91.31573   0.4016378  0.182671   0.6206046 
1104.2     0.247      413.38     -9999      -9999      7.607491   8.876      1.994      2.972      1.808576   0.02558045 0.02558045 0.1641172  0.008336238 13.04138   2.419      0          0          91.06725   0.4198084  0.2273476  0.6122693 
1104.4     0.242      413.38     -9999      -9999      8.2052     5.6        2.095      2.794      1.708181   0.05077421 0.05077421 0.1997375  0.02441291 6.560067   2.419      0          0          90.75177   0.4514038  0.3009839  0.6018237 
1104.6     0.242      427.35     -9999      -9999      8.836814   3.03       2.057      2.007      1.603691   0.07287429 0.07287429 0.2368104  0.06265657 3.173696   2.34       0          0.1934199  90.3484    0.4967761  0.4048632  0.588689  
1104.8     0.239      427.35     -9999      -9999      9.37876    2.118      1.676      1.626      1.512497   0.08870991 0.08870991 0.2691662  0.1231065  1.70212    2.34       0          0.3067085  89.8096    0.5468373  0.5221474  0.5715272 
1105       0.235      433.7      -9999      -9999      9.727132   2.103      1.664      1.676      1.446989   0.1001635  0.1001635  0.2924084  0.2006456  1.140408   2.306      0          0.365643   89.12043   0.5825601  0.6149141  0.5502061 
1105.2     0.232      441.32     -9999      -9999      9.850562   2.149      1.689      1.676      1.411769   0.1103582  0.1103582  0.3049042  0.3099275  0.9895459  2.266      0          0.3980232  88.35944   0.5895333  0.6515951  0.5274716 
1105.4     0.235      441.32     -9999      -9999      9.776529   2.295      1.765      1.651      1.403094   0.1204054  0.1204054  0.3079822  0.4757271  1.077452   2.266      0.03724098 0.4202235  87.66632   0.5684146  0.6293395  0.5074897 
1105.6     0.235      445.13     -9999      -9999      9.547464   2.879      1.727      1.562      1.410422   0.1307733  0.1307733  0.3053823  0.7402802  1.402046   2.247      0.1005234  0.432049   87.15038   0.5291182  0.5651793  0.4930572 
1105.8     0.237      445.13     -9999      -9999      9.223194   2.837      1.803      1.854      1.418953   0.1421997  0.1421997  0.3023555  1.205152   2.035443   2.247      0.1638102  0.4461469  86.86614   0.4853204  0.4853761  0.4852648 
1106       0.235      450.21     -9999      -9999      8.898462   2.118      1.753      2.184      1.416448   0.1545022  0.1545022  0.3032443  2.036638   2.956559   2.221      0.2178481  0.4612928  86.84599   0.4507336  0.4167507  0.4847165 
1106.2     0.234      456.56     -9999      -9999      8.667531   1.689      1.397      1.486      1.402566   0.1654016  0.1654016  0.3081697  3.241875   3.855516   2.19       0.2580558  0.4768461  87.08758   0.4326308  0.3739359  0.4913257 
1106.4     0.234      456.56     -9999      -9999      8.566684   1.857      1.054      1.168      1.390856   0.1703938  0.1703938  0.3123242  4.011107   4.329442   2.19       0.2770244  0.4870954  87.52637   0.4300922  0.3566463  0.503538  
1106.6     0.234      451.48     -9999      -9999      8.572857   2.124      1.232      1.334      1.397363   0.1653524  0.1653524  0.3100155  3.23509    4.298826   2.215      0.2618063  0.4816373  88.0707    0.4383728  0.3576813  0.5190642 
1106.8     0.235      451.48     -9999      -9999      8.643242   2.363      1.753      1.791      1.426615   0.1502576  0.1502576  0.2996372  1.699395   3.96469    2.215      0.1976215  0.4507169  88.63591   0.4526652  0.3696966  0.5356339 
1107       0.237      445.13     -9999      -9999      8.731417   2.716      1.74       1.499      1.469019   0.1301867  0.1301867  0.2845921  0.7219899  3.582503   2.247      0.09699459 0.4053874  89.12912   0.4678952  0.3853198  0.5504706 
1107.2     0.24       442.59     -9999      -9999      8.789052   2.676      1.689      1.638      1.509627   0.1123738  0.1123738  0.2701843  0.3377488  3.352828   2.259      0          0.3528452  89.4573    0.4782136  0.395887   0.5605402 
1107.4     0.243      442.59     -9999      -9999      8.785717   2.756      1.689      1.918      1.536784   0.1022666  0.1022666  0.2605489  0.2194741  3.365707   2.259      0          0.3145972  89.56949   0.4796433  0.3952677  0.564019  
