~Version
 VERS              .         2.0                           : CWLS LOG ASCII STANDARD - VERSION 2.0
 WRAP              .         NO                            : ONE LINE PER DEPTH STEP
 DLM               .         SPACE                         : DELIMITING CHARACTER(SPACE TAB OR COMMA)
~Well Information
#_______________________________________________________________________________
#
#PARAMETER_NAME    .UNIT     VALUE                         : DESCRIPTION
#_______________________________________________________________________________
STRT               .M        880                           : First reference value
STOP               .M        1186                          : Last reference value
STEP               .M        0.2                           : Step increment
NULL               .         -9999                         : Missing value
COMP               .                                       : Company
WELL               .         7844                          : Well name
FLD                .         Узень                         : Field
LOC                .                                       : Location
CNTY               .                                       : County
STAT               .                                       : State
CTRY               .                                       : Country
SRVC               .         UPGF                          : Service Company
DATE               .         01.06.1991                    : Date
UWI                .                                       : Unique Well ID
Block              .         7                             : 
Cartographic_reference_system .         GCS_WGS_1984                  : ESRI,PE_10_3_1- <?xml version="1.0" encoding="utf-16"?><ILateBoundCoordinateReferenceSystem name="GCS_WGS_1984"><AuthorityCode>EPSG,4326</AuthorityCode></ILateBoundCoordinateReferenceSystem>
Category           .         Нефтяная                      : 
Condition          .         Ликвидированная               : 
EREF               .m        93.6                          : 100.8
Gorizont           .         15                            : 14
HZCS               .GCS_WGS_1984 WGS_1984_EASE-Grid_2.0_Global : ESRI,PE_10_3_1- <?xml version="1.0" encoding="utf-16"?><ILateBoundCoordinateReferenceSystem name="WGS_1984_EASE-Grid_2.0_Global"><AuthorityCode>EPSG,6933</AuthorityCode></ILateBoundCoordinateReferenceSystem>
Interpretator      .         Сагынбаева А.Н.               : 
Kupol              .         основной                      : osnovnoi
LATI               .dega     0.6632616444                  : GCS_WGS_1984
LONG               .dega     0.4337798067                  : GCS_WGS_1984
Mud                .         глинистый                     : 
Mud_density        .         1,18                          : 
Mud_resistivity    .         0                             : 
NGDU               .         НГДУ-2                        : 
ORIGINALWELLNAME   .         7844                          : 
Spud_date          .         1991                          : 1961
Viscosity          .         40                            : 
X                  .m        41853.8                       : 46154
Y                  .m        84612.63                      : 85761.93
YEAR               .         2018                          : 
~Parameter Information Block
#_______________________________________________________________________________
#
#PARAMETER_NAME    .UNIT     VALUE                         : DESCRIPTION
#_______________________________________________________________________________
SET                .         LQC_KAZNIPI_Petrel            : 
TLFamily_CALI      .         Caliper                       : 
TLFamily_CILD      .         Conductivity                  : 
TLFamily_COLL      .         Net Reservoir Flag            : 
TLFamily_CSAT      .         Fluid Code                    : 
TLFamily_DEPT      .         Measured Depth                : 
TLFamily_GR        .         Russian Gamma Ray             : 
TLFamily_LLS       .         Lateral Log Resistivity       : 
TLFamily_MINV      .         Micro Gradient Resistivity    : 
TLFamily_MNOR      .         Micro Resistivity             : 
TLFamily_NGLD      .         Neutron Gamma                 : 
TLFamily_PHIE      .         Effective Porosity            : 
TLFamily_PHIEN     .         Effective Porosity            : 
TLFamily_PHIT      .         Porosity                      : 
TLFamily_PRMB      .         Permeability                  : 
TLFamily_PRMB_DGR  .         Permeability                  : 
TLFamily_RT        .         Formation Resistivity         : 
TLFamily_SOIL_ARCHIE .         Oil Saturation                : 
TLFamily_SOIL_DW   .         Oil Saturation                : 
TLFamily_SP        .         Spontaneous Potential         : 
TLFamily_VSH_FIN   .         Shale Volume                  : 
TLFamily_VSH_GR    .         Shale Volume                  : 
TLFamily_VSH_SP    .         Shale Volume                  : 
~Curve Information
#_______________________________________________________________________________
#
#LOGNAME           .UNIT     LOG_ID                        : DESCRIPTION
#_______________________________________________________________________________
DEPT               .M                                      : Колонка глубины 
CALI               .м                                      : Каверномер 
CILD               .мСм/м                                  : Индукционный каротаж 
COLL               .unitless                               : Описание 
CSAT               .unitless                               :  
GR                 .uR/h                                   : Гамма каротаж 
LLS                .Ohmm                                   : Боковой каротаж 
MINV               .Ohmm                                   : Микро-градиент зонд 
MNOR               .Ohmm                                   : Микро-потенциал зонд 
NGLD               .у.е.                                   : Показания зонда НГК-60 аппаратуры ДРСТ-3-90 
PHIE               .v/v                                    : Описание 
PHIEN              .v/v                                    :  
PHIT               .v/v                                    : Описание 
PRMB               .mD                                     :  
PRMB_DGR           .mD                                     :  
RT                 .ohmm                                   : УЭС пласта 
SOIL_ARCHIE        .v/v                                    :  
SOIL_DW            .v/v                                    :  
SP                 .мВ                                     : Потенциал самополяризации 
VSH_FIN            .v/v                                    : Описание 
VSH_GR             .v/v                                    : Shale volume 
VSH_SP             .v/v                                    : Shale Volume 
~Ascii
880.0      0.231      298.45     -9999      -9999      -9999      13.865     4.89       4.61       -9999      -9999      -9999      -9999      -9999      -9999      3.351      -9999      -9999      -9999      -9999      0.07798945 0.8       
880.2000000000001 0.23       321.31     -9999      -9999      -9999      8.434      4.75       4.153      -9999      -9999      -9999      -9999      -9999      -9999      3.112      -9999      -9999      -9999      -9999      0.09088962 0.8       
880.4      0.23       321.31     -9999      -9999      -9999      3.166      3.785      3.213      -9999      -9999      -9999      -9999      -9999      -9999      3.112      -9999      -9999      -9999      -9999      0.1058528  0.8       
880.6      0.23       347.98     -9999      -9999      -9999      2.181      2.502      2.261      -9999      -9999      -9999      -9999      -9999      -9999      2.874      -9999      -9999      -9999      -9999      0.1058528  0.8       
880.8      0.23       364.49     -9999      -9999      -9999      2.134      2.324      2.019      -9999      -9999      -9999      -9999      -9999      -9999      2.744      -9999      -9999      -9999      -9999      0.1192273  0.8       
881        0.23       379.73     -9999      -9999      7.068963   2.295      2.248      2.07       1.417231   -9999      -9999      -9999      -9999      -9999      2.633      -9999      -9999      89.19727   -9999      0.1254407  0.8       
881.2000000000001 0.23       394.97     -9999      -9999      7.135754   2.181      2.68       2.654      1.430931   -9999      -9999      -9999      -9999      -9999      2.532      -9999      -9999      89.01322   -9999      0.1276398  0.8       
881.4      0.23       394.97     -9999      -9999      7.193554   2.042      2.476      2.134      1.453859   -9999      -9999      -9999      -9999      -9999      2.532      -9999      -9999      88.90644   -9999      0.1342916  0.8       
881.6      0.23       394.97     -9999      -9999      7.25229    1.983      2.261      1.943      1.481779   -9999      -9999      -9999      -9999      -9999      2.532      -9999      -9999      88.90212   -9999      0.1342916  0.8       
881.8      0.229      388.62     -9999      -9999      7.314827   2.134      2.235      1.943      1.511588   -9999      -9999      -9999      -9999      -9999      2.573      -9999      -9999      88.99976   -9999      0.14129    0.8       
882        0.23       377.19     -9999      -9999      7.369295   2.58       2.286      2.083      1.538024   -9999      -9999      -9999      -9999      -9999      2.651      -9999      -9999      89.17833   -9999      0.1564001  0.8       
882.2000000000001 0.231      358.14     -9999      -9999      7.388412   3.143      2.603      2.146      1.553917   -9999      -9999      -9999      -9999      -9999      2.792      -9999      -9999      89.4065    -9999      0.1591419  0.8       
882.4      0.232      358.14     -9999      -9999      7.343576   3.801      2.388      1.943      1.555117   -9999      -9999      -9999      -9999      -9999      2.792      -9999      -9999      89.6562    -9999      0.1618237  0.8       
882.6      0.232      309.88     -9999      -9999      7.234163   4.597      2.464      2.146      1.543702   -9999      -9999      -9999      -9999      -9999      3.227      -9999      -9999      89.90968   -9999      0.1618237  0.8       
882.8      0.233      325.12     -9999      -9999      7.107234   5.399      4.623      3.683      1.526805   -9999      -9999      -9999      -9999      -9999      3.076      -9999      -9999      90.14452   -9999      0.1006097  0.8       
883        0.235      335.28     -9999      -9999      7.025671   5.244      5.017      4.077      1.511997   -9999      -9999      -9999      -9999      -9999      2.983      -9999      -9999      90.32087   -9999      0.1040986  0.8       
883.2000000000001 0.237      325.12     -9999      -9999      7.005437   3.914      4.407      4.191      1.502595   -9999      -9999      -9999      -9999      -9999      3.076      -9999      -9999      90.39986   -9999      0.1192273  0.8       
883.4      0.235      325.12     -9999      -9999      7.003124   2.618      3.353      3.238      1.496809   -9999      -9999      -9999      -9999      -9999      3.076      -9999      -9999      90.37168   -9999      0.1254407  0.8       
883.6      0.235      317.5      -9999      -9999      6.964761   2.262      2.629      2.286      1.490994   -9999      -9999      -9999      -9999      -9999      3.15       -9999      -9999      90.25261   -9999      0.1254407  0.8       
883.8      0.235      328.93     -9999      -9999      6.872326   2.879      3.645      2.769      1.482792   -9999      -9999      -9999      -9999      -9999      3.04       -9999      -9999      90.06463   -9999      0.1113692  0.8       
884        0.235      342.9      -9999      -9999      6.749597   3.886      4.293      3.632      1.472513   -9999      -9999      -9999      -9999      -9999      2.916      -9999      -9999      89.83198   -9999      0.09723767 0.8       
884.2000000000001 0.237      354.33     -9999      -9999      6.637604   2.879      3.277      2.667      1.463323   -9999      -9999      -9999      -9999      -9999      2.822      -9999      -9999      89.58728   -9999      0.08349229 0.8       
884.4      0.238      354.33     -9999      -9999      6.566254   2.434      2.553      2.184      1.461716   -9999      -9999      -9999      -9999      -9999      2.822      -9999      -9999      89.36185   -9999      0.08349229 0.8       
884.6      0.238      361.95     -9999      -9999      6.538888   2.346      2.527      2.146      1.475997   -9999      -9999      -9999      -9999      -9999      2.763      -9999      -9999      89.17725   -9999      0.08349229 0.8       
884.8      0.237      368.3      -9999      -9999      6.539344   2.295      2.4        2.057      1.512107   -9999      -9999      -9999      -9999      -9999      2.715      -9999      -9999      89.05715   -9999      0.08632993 0.8       
885        0.236      373.38     -9999      -9999      6.546525   2.246      2.223      2.019      1.568382   -9999      -9999      -9999      -9999      -9999      2.678      -9999      -9999      89.032     -9999      0.08632993 0.8       
885.2000000000001 0.235      372.11     -9999      -9999      6.538733   2.149      2.184      1.956      1.635306   -9999      -9999      -9999      -9999      -9999      2.687      -9999      -9999      89.11093   -9999      0.0878434  0.8       
885.4      0.234      372.11     -9999      -9999      6.48807    2.118      2.299      1.956      1.702041   -9999      -9999      -9999      -9999      -9999      2.687      -9999      -9999      89.26557   -9999      0.0878434  0.8       
885.6      0.234      313.69     -9999      -9999      6.362938   2.118      2.235      1.956      1.762329   -9999      -9999      -9999      -9999      -9999      3.188      -9999      -9999      89.45789   -9999      0.0878434  0.8       
885.8      0.234      271.78     -9999      -9999      6.160229   2.58       2.248      1.968      1.809853   -9999      -9999      -9999      -9999      -9999      3.679      -9999      -9999      89.67233   -9999      0.07669702 0.8       
886        0.233      241.3      -9999      -9999      5.936762   7.076      2.794      2.299      1.832099   -9999      -9999      -9999      -9999      -9999      4.144      -9999      -9999      89.90792   -9999      0.05016938 0.8       
886.2000000000001 0.233      220.98     -9999      -9999      5.786727   10.813     4.724      4.14       1.816545   -9999      -9999      -9999      -9999      -9999      4.525      -9999      -9999      90.15807   -9999      0.03821969 0.8       
886.4      0.235      220.98     -9999      -9999      5.770273   12.067     4.991      4.585      1.763572   -9999      -9999      -9999      -9999      -9999      4.525      -9999      -9999      90.40935   -9999      0.049305   0.8       
