~Version
 VERS              .         2.0                           : CWLS LOG ASCII STANDARD - VERSION 2.0
 WRAP              .         NO                            : ONE LINE PER DEPTH STEP
 DLM               .         SPACE                         : DELIMITING CHARACTER(SPACE TAB OR COMMA)
~Well Information
#_______________________________________________________________________________
#
#PARAMETER_NAME    .UNIT     VALUE                         : DESCRIPTION
#_______________________________________________________________________________
STRT               .M        880                           : First reference value
STOP               .M        1186                          : Last reference value
STEP               .M        0.2                           : Step increment
NULL               .         -9999                         : Missing value
COMP               .                                       : Company
WELL               .         7844                          : Well name
FLD                .         Узень                         : Field
LOC                .                                       : Location
CNTY               .                                       : County
STAT               .                                       : State
CTRY               .                                       : Country
SRVC               .         UPGF                          : Service Company
DATE               .         01.06.1991                    : Date
UWI                .                                       : Unique Well ID
Block              .         7                             : 
Cartographic_reference_system .         GCS_WGS_1984                  : ESRI,PE_10_3_1- <?xml version="1.0" encoding="utf-16"?><ILateBoundCoordinateReferenceSystem name="GCS_WGS_1984"><AuthorityCode>EPSG,4326</AuthorityCode></ILateBoundCoordinateReferenceSystem>
Category           .         Нефтяная                      : 
Condition          .         Ликвидированная               : 
EREF               .m        93.6                          : 100.8
Gorizont           .         15                            : 14
HZCS               .GCS_WGS_1984 WGS_1984_EASE-Grid_2.0_Global : ESRI,PE_10_3_1- <?xml version="1.0" encoding="utf-16"?><ILateBoundCoordinateReferenceSystem name="WGS_1984_EASE-Grid_2.0_Global"><AuthorityCode>EPSG,6933</AuthorityCode></ILateBoundCoordinateReferenceSystem>
Interpretator      .         Сагынбаева А.Н.               : 
Kupol              .         основной                      : osnovnoi
LATI               .dega     0.6632616444                  : GCS_WGS_1984
LONG               .dega     0.4337798067                  : GCS_WGS_1984
Mud                .         глинистый                     : 
Mud_density        .         1,18                          : 
Mud_resistivity    .         0                             : 
NGDU               .         НГДУ-2                        : 
ORIGINALWELLNAME   .         7844                          : 
Spud_date          .         1991                          : 1961
Viscosity          .         40                            : 
X                  .m        41853.8                       : 46154
Y                  .m        84612.63                      : 85761.93
YEAR               .         2018                          : 
~Parameter Information Block
#_______________________________________________________________________________
#
#PARAMETER_NAME    .UNIT     VALUE                         : DESCRIPTION
#_______________________________________________________________________________
SET                .         LQC_KAZNIPI_Petrel            : 
TLFamily_CALI      .         Caliper                       : 
TLFamily_CILD      .         Conductivity                  : 
TLFamily_COLL      .         Net Reservoir Flag            : 
TLFamily_CSAT      .         Fluid Code                    : 
TLFamily_DEPT      .         Measured Depth                : 
TLFamily_GR        .         Russian Gamma Ray             : 
TLFamily_LLS       .         Lateral Log Resistivity       : 
TLFamily_MINV      .         Micro Gradient Resistivity    : 
TLFamily_MNOR      .         Micro Resistivity             : 
TLFamily_NGLD      .         Neutron Gamma                 : 
TLFamily_PHIE      .         Effective Porosity            : 
TLFamily_PHIEN     .         Effective Porosity            : 
TLFamily_PHIT      .         Porosity                      : 
TLFamily_PRMB      .         Permeability                  : 
TLFamily_PRMB_DGR  .         Permeability                  : 
TLFamily_RT        .         Formation Resistivity         : 
TLFamily_SOIL_ARCHIE .         Oil Saturation                : 
TLFamily_SOIL_DW   .         Oil Saturation                : 
TLFamily_SP        .         Spontaneous Potential         : 
TLFamily_VSH_FIN   .         Shale Volume                  : 
TLFamily_VSH_GR    .         Shale Volume                  : 
TLFamily_VSH_SP    .         Shale Volume                  : 
~Curve Information
#_______________________________________________________________________________
#
#LOGNAME           .UNIT     LOG_ID                        : DESCRIPTION
#_______________________________________________________________________________
DEPT               .M                                      : Колонка глубины 
CALI               .м                                      : Каверномер 
CILD               .мСм/м                                  : Индукционный каротаж 
COLL               .unitless                               : Описание 
CSAT               .unitless                               :  
GR                 .uR/h                                   : Гамма каротаж 
LLS                .Ohmm                                   : Боковой каротаж 
MINV               .Ohmm                                   : Микро-градиент зонд 
MNOR               .Ohmm                                   : Микро-потенциал зонд 
NGLD               .у.е.                                   : Показания зонда НГК-60 аппаратуры ДРСТ-3-90 
PHIE               .v/v                                    : Описание 
PHIEN              .v/v                                    :  
PHIT               .v/v                                    : Описание 
PRMB               .mD                                     :  
PRMB_DGR           .mD                                     :  
RT                 .ohmm                                   : УЭС пласта 
SOIL_ARCHIE        .v/v                                    :  
SOIL_DW            .v/v                                    :  
SP                 .мВ                                     : Потенциал самополяризации 
VSH_FIN            .v/v                                    : Описание 
VSH_GR             .v/v                                    : Shale volume 
VSH_SP             .v/v                                    : Shale Volume 
~Ascii
# ...
1060       0.239      447.67     -9999      -9999      8.80655    2.398      1.994      2.057      1.334592   0.1291005  0.1291005  0.3322867  0.6893059  1.213564   2.234      0.08790097 0.4575776  92.31847   0.6157158  0.5994992  0.6319324 
1060.2     0.239      448.94     -9999      -9999      8.937714   2.398      2.057      2.07       1.324671   0.1287289  0.1287289  0.3358068  0.6784686  1.099068   2.227      0.08426086 0.459819   92.28427   0.6275088  0.6242555  0.630762  
1060.4     0.238      448.94     -9999      -9999      9.120421   2.398      2.095      2.095      1.303644   0.1300885  0.1300885  0.3432671  0.718973   0.9573569  2.227      0.09260203 0.4693821  92.30694   0.6459956  0.6604537  0.6315376 
1060.6     0.238      450.21     -9999      -9999      9.310736   2.134      2.223      2.273      1.28024    0.1313911  0.1313911  0.351571   0.760045   0.8291387  2.221      0.09930228 0.478626   92.37965   0.6672118  0.7003924  0.6340311 
1060.8     0.244      450.21     -9999      -9999      9.462016   1.87       2.095      2.019      1.264612   0.1308058  0.1308058  0.3571156  0.7413074  0.7395855  2.221      0.09579322 0.4830383  92.48677   0.6857874  0.7338555  0.6377194 
1061       0.249      455.29     -9999      -9999      9.56162    1.701      1.803      1.74       1.262408   0.1271389  0.1271389  0.3578975  0.6339853  0.6859714  2.196      0.06818511 0.4756046  92.60413   0.6992683  0.756756   0.6417807 
1061.2     0.256      462.91     -9999      -9999      9.621793   1.689      1.587      1.473      1.272399   0.1206799  0.1206799  0.3543528  0.4813296  0.6554834  2.16       0.01730273 0.4580423  92.70428   0.7080997  0.7709356  0.6452638 
1061.4     0.259      462.91     -9999      -9999      9.658079   1.843      1.537      1.448      1.28821    0.1132262  0.1132262  0.348743   0.3502528  0.6377572  2.16       0          0.4401888  92.77577   0.7136872  0.7796144  0.6477599 
1061.6     0.259      464.18     -9999      -9999      9.690145   1.898      1.727      1.575      1.301536   0.1068796  0.1068796  0.3440151  0.2671947  0.6224923  2.154      0          0.4231512  92.8346    0.7185925  0.7873651  0.6498199 
1061.8     0.263      464.18     -9999      -9999      9.739648   1.94       1.727      1.651      1.304983   0.1032078  0.1032078  0.3427919  0.2284638  0.5996401  2.154      0          0.4149692  92.91212   0.7260125  0.7994822  0.6525427 
1062       0.261      464.18     -9999      -9999      9.814692   1.898      1.803      1.715      1.295342   0.1058602  0.1058602  0.3462127  0.2558267  0.5665876  2.154      0          0.4237324  93.02946   0.7283409  0.8        0.6566819 
1062.2     0.256      462.91     -9999      -9999      9.904149   1.884      1.74       1.715      1.277129   0.1114208  0.1114208  0.3526745  0.324296   0.5295584  2.16       0          0.4412674  93.18335   0.7310719  0.8        0.6621438 
1062.4     0.254      462.91     -9999      -9999      9.985434   1.884      1.702      1.651      1.262002   0.1157638  0.1157638  0.3580417  0.3902877  0.4980151  2.16       0          0.4539545  93.35696   0.7341755  0.8        0.668351  
1062.6     0.254      464.18     -9999      -9999      10.02947   1.94       1.74       1.715      1.261137   0.1149608  0.1149608  0.3583488  0.3771465  0.4817183  2.154      0          0.4522054  93.54364   0.7375394  0.8        0.6750788 
1062.8     0.26       464.18     -9999      -9999      10.00806   1.998      1.88       1.74       1.276235   0.1083672  0.1083672  0.3529919  0.2846966  0.4895755  2.154      0          0.43556    93.7498    0.7412869  0.8        0.6825738 
1063       0.268      462.91     -9999      -9999      9.918069   2.118      2.007      1.727      1.298049   0.09928161 0.09928161 0.3452522  0.1932388  0.5240183  2.16       0          0.4110628  93.97207   0.7453655  0.8        0.690731  
1063.2     0.272      459.1      -9999      -9999      9.796639   2.922      1.93       1.715      1.314315   0.09219189 0.09219189 0.339481   0.1428156  0.5743681  2.178      0          0.392332   94.18772   0.749361   0.8        0.6987219 
1063.4     0.267      459.1      -9999      -9999      9.693593   2.451      2.083      1.854      1.319086   0.09128563 0.09128563 0.3377881  0.1374009  0.6208724  2.178      0          0.3883279  94.37576   0.7469773  0.7882032  0.7057514 
1063.6     0.267      455.29     -9999      -9999      9.625382   2.312      2.184      2.057      1.314477   0.09461616 0.09461616 0.3394234  0.1583722  0.6537083  2.196      0          0.3998151  94.53873   0.7418401  0.7717898  0.7118905 
1063.8     0.262      455.29     -9999      -9999      9.571474   1.969      1.956      1.727      1.304885   0.09916142 0.09916142 0.3428269  0.1922508  0.6808829  2.196      0          0.4129054  94.69192   0.7383803  0.7590601  0.7177005 
1064       0.258      456.56     -9999      -9999      9.514945   1.926      1.753      1.651      1.291979   0.1049885  0.1049885  0.3474058  0.2464901  0.7105932  2.19       0          0.4282163  94.83752   0.7345979  0.7459371  0.7232586 
1064.2     0.258      459.1      -9999      -9999      9.461292   1.926      1.727      1.664      1.276432   0.1117358  0.1117358  0.3529221  0.3286817  0.7399899  2.178      0          0.4443707  94.96214   0.7308676  0.7336917  0.7280436 
1064.4     0.259      459.1      -9999      -9999      9.412796   1.954      1.842      1.676      1.260593   0.1185645  0.1185645  0.3585417  0.4398044  0.7676064  2.178      0.00592823 0.4611435  95.05462   0.7272038  0.7227962  0.7316114 
1064.6     0.259      459.1      -9999      -9999      9.346819   1.969      1.854      1.689      1.2474     0.1252475  0.1252475  0.3632226  0.5848517  0.8068397  2.178      0.05228797 0.4757347  95.11738   0.7211366  0.7082327  0.7340405 
1064.8     0.259      459.1      -9999      -9999      9.237026   2.057      1.842      1.638      1.239219   0.1317956  0.1317956  0.3661251  0.7732735  0.8766233  2.178      0.09343176 0.4876686  95.15587   0.7100893  0.6846451  0.7355335 
1065       0.261      457.83     -9999      -9999      9.092093   2.246      2.083      1.803      1.237215   0.1373676  0.1373676  0.3668361  0.9807066  0.9780685  2.184      0.1266721  0.4964625  95.16818   0.6953591  0.6547066  0.7360117 
1065.2     0.263      455.29     -9999      -9999      8.958131   2.246      2.273      1.981      1.238847   0.1412773  0.1412773  0.366257   1.158663   1.082244   2.196      0.1499485  0.5023587  95.15018   0.6817565  0.6282001  0.7353129 
1065.4     0.263      455.29     -9999      -9999      8.875194   2.103      2.337      2.019      1.238332   0.144381   0.144381   0.3664397  1.322647   1.15223    2.196      0.1658855  0.5064023  95.10292   0.6729053  0.6123303  0.7334803 
1065.6     0.263      454.02     -9999      -9999      8.837778   2.012      2.121      1.829      1.234209   0.1474608  0.1474608  0.3679027  1.508307   1.185266   2.203      0.1823012  0.5121856  95.03126   0.6680058  0.6053028  0.7307088 
1065.8     0.255      454.02     -9999      -9999      8.80161    1.983      1.93       1.715      1.234278   0.1491262  0.1491262  0.3678783  1.619339   1.218101   2.203      0.1902605  0.5141558  94.93979   0.662885   0.5985862  0.7271837 
1066       0.248      455.29     -9999      -9999      8.716744   1.94       1.905      1.74       1.248674   0.14723    0.14723    0.3627703  1.493531   1.298763   2.196      0.179961   0.5067436  94.83566   0.6531526  0.5831175  0.7231876 
1066.2     0.247      455.29     -9999      -9999      8.554604   1.843      1.816      1.664      1.279748   0.1415666  0.1415666  0.3517453  1.173045   1.468021   2.196      0.1514614  0.4897305  94.72983   0.6369053  0.5546663  0.7191443 
1066.4     0.255      455.29     -9999      -9999      8.333117   1.48       1.689      1.562      1.320348   0.1338313  0.1338313  0.3373407  0.8434101  1.735431   2.196      0.108902   0.465156   94.63029   0.6166949  0.5180315  0.7153583 
1066.6     0.255      450.21     -9999      -9999      8.132858   2.637      1.575      1.6        1.359275   0.1257297  0.1257297  0.3235294  0.5970037  2.01891    2.221      0.06408025 0.4413179  94.53609   0.599393   0.4869952  0.7117907 
