~Version
 VERS              .         2.0                           : CWLS LOG ASCII STANDARD - VERSION 2.0
 WRAP              .         NO                            : ONE LINE PER DEPTH STEP
 DLM               .         SPACE                         : DELIMITING CHARACTER(SPACE TAB OR COMMA)
~Well Information
#_______________________________________________________________________________
#
#PARAMETER_NAME    .UNIT     VALUE                         : DESCRIPTION
#_______________________________________________________________________________
STRT               .M        880                           : First reference value
STOP               .M        1186                          : Last reference value
STEP               .M        0.2                           : Step increment
NULL               .         -9999                         : Missing value
COMP               .                                       : Company
WELL               .         7844                          : Well name
FLD                .         Узень                         : Field
LOC                .                                       : Location
CNTY               .                                       : County
STAT               .                                       : State
CTRY               .                                       : Country
SRVC               .         UPGF                          : Service Company
DATE               .         01.06.1991                    : Date
UWI                .                                       : Unique Well ID
Block              .         7                             : 
Cartographic_reference_system .         GCS_WGS_1984                  : ESRI,PE_10_3_1- <?xml version="1.0" encoding="utf-16"?><ILateBoundCoordinateReferenceSystem name="GCS_WGS_1984"><AuthorityCode>EPSG,4326</AuthorityCode></ILateBoundCoordinateReferenceSystem>
Category           .         Нефтяная                      : 
Condition          .         Ликвидированная               : 
EREF               .m        93.6                          : 100.8
Gorizont           .         15                            : 14
HZCS               .GCS_WGS_1984 WGS_1984_EASE-Grid_2.0_Global : ESRI,PE_10_3_1- <?xml version="1.0" encoding="utf-16"?><ILateBoundCoordinateReferenceSystem name="WGS_1984_EASE-Grid_2.0_Global"><AuthorityCode>EPSG,6933</AuthorityCode></ILateBoundCoordinateReferenceSystem>
Interpretator      .         Сагынбаева А.Н.               : 
Kupol              .         основной                      : osnovnoi
LATI               .dega     0.6632616444                  : GCS_WGS_1984
LONG               .dega     0.4337798067                  : GCS_WGS_1984
Mud                .         глинистый                     : 
Mud_density        .         1,18                          : 
Mud_resistivity    .         0                             : 
NGDU               .         НГДУ-2                        : 
ORIGINALWELLNAME   .         7844                          : 
Spud_date          .         1991                          : 1961
Viscosity          .         40                            : 
X                  .m        41853.8                       : 46154
Y                  .m        84612.63                      : 85761.93
YEAR               .         2018                          : 
~Parameter Information Block
#_______________________________________________________________________________
#
#PARAMETER_NAME    .UNIT     VALUE                         : DESCRIPTION
#_______________________________________________________________________________
SET                .         LQC_KAZNIPI_Petrel            : 
TLFamily_CALI      .         Caliper                       : 
TLFamily_CILD      .         Conductivity                  : 
TLFamily_COLL      .         Net Reservoir Flag            : 
TLFamily_CSAT      .         Fluid Code                    : 
TLFamily_DEPT      .         Measured Depth                : 
TLFamily_GR        .         Russian Gamma Ray             : 
TLFamily_LLS       .         Lateral Log Resistivity       : 
TLFamily_MINV      .         Micro Gradient Resistivity    : 
TLFamily_MNOR      .         Micro Resistivity             : 
TLFamily_NGLD      .         Neutron Gamma                 : 
TLFamily_PHIE      .         Effective Porosity            : 
TLFamily_PHIEN     .         Effective Porosity            : 
TLFamily_PHIT      .         Porosity                      : 
TLFamily_PRMB      .         Permeability                  : 
TLFamily_PRMB_DGR  .         Permeability                  : 
TLFamily_RT        .         Formation Resistivity         : 
TLFamily_SOIL_ARCHIE .         Oil Saturation                : 
TLFamily_SOIL_DW   .         Oil Saturation                : 
TLFamily_SP        .         Spontaneous Potential         : 
TLFamily_VSH_FIN   .         Shale Volume                  : 
TLFamily_VSH_GR    .         Shale Volume                  : 
TLFamily_VSH_SP    .         Shale Volume                  : 
~Curve Information
#_______________________________________________________________________________
#
#LOGNAME           .UNIT     LOG_ID                        : DESCRIPTION
#_______________________________________________________________________________
DEPT               .M                                      : Колонка глубины 
CALI               .м                                      : Каверномер 
CILD               .мСм/м                                  : Индукционный каротаж 
COLL               .unitless                               : Описание 
CSAT               .unitless                               :  
GR                 .uR/h                                   : Гамма каротаж 
LLS                .Ohmm                                   : Боковой каротаж 
MINV               .Ohmm                                   : Микро-градиент зонд 
MNOR               .Ohmm                                   : Микро-потенциал зонд 
NGLD               .у.е.                                   : Показания зонда НГК-60 аппаратуры ДРСТ-3-90 
PHIE               .v/v                                    : Описание 
PHIEN              .v/v                                    :  
PHIT               .v/v                                    : Описание 
PRMB               .mD                                     :  
PRMB_DGR           .mD                                     :  
RT                 .ohmm                                   : УЭС пласта 
SOIL_ARCHIE        .v/v                                    :  
SOIL_DW            .v/v                                    :  
SP                 .мВ                                     : Потенциал самополяризации 
VSH_FIN            .v/v                                    : Описание 
VSH_GR             .v/v                                    : Shale volume 
VSH_SP             .v/v                                    : Shale Volume 
~Ascii
# ...
998.8      0.243      473.184    -9999      -9999      7.278028   2.149      2.464      2.095      1.324748   0.1238086  0.1238086  0.3357794  0.5500386  0.6632072  2.113      0.02899398 0.4376373  98.05477   0.6423358  0.7672568  0.5174149 
999        0.239      473.184    -9999      -9999      7.223543   2.149      2.057      1.867      1.354347   0.1147587  0.1147587  0.3252776  0.3739111  0.6877548  2.113      0          0.4103717  98.1414    0.6379358  0.7559541  0.5199175 
999.2000000000001 0.24       473.184    -9999      -9999      7.159518   2.181      2.184      1.664      1.373316   0.1097167  0.1097167  0.3185473  0.3015631  0.7177644  2.113      0          0.3928412  98.23917   0.63282    0.7428848  0.5227551 
999.4      0.242      475.61     -9999      -9999      7.090396   2.181      1.956      1.765      1.38028    0.1090891  0.1090891  0.3160766  0.2935981  0.7516349  2.103      0          0.3870796  98.33128   0.6272349  0.7290287  0.5254411 
999.6      0.242      464.18     -9999      -9999      7.028687   2.506      2.235      1.575      1.377723   0.11156    0.11156    0.3169837  0.3262267  0.7832214  2.154      0          0.4002174  98.42259   0.6224962  0.7168769  0.5281156 
999.8      0.241      459.1      -9999      -9999      6.985811   2.524      2.565      2.057      1.368804   0.1155637  0.1155637  0.3201484  0.3869707  0.805946   2.178      0          0.4146626  98.53262   0.6199538  0.7085534  0.5313541 
1000       0.24       456.56     -9999      -9999      6.963907   2.451      2.578      2.197      1.356368   0.1199957  0.1199957  0.3245607  0.4674868  0.8178083  2.19       0.01879595 0.4290665  98.67091   0.6198941  0.7043384  0.5354497 
1000.2     0.24       455.29     -9999      -9999      6.953405   2.434      2.616      2.121      1.343313   0.1242038  0.1242038  0.3291926  0.559389   0.8235579  2.196      0.04903569 0.4419214  98.82448   0.6211782  0.7023264  0.5400299 
1000.4     0.24       455.29     -9999      -9999      6.943648   2.488      2.629      2.095      1.332393   0.1276393  0.1276393  0.3330671  0.6476597  0.8289353  2.196      0.0713673  0.4514842  98.97507   0.6225085  0.7004624  0.5445546 
1000.6     0.24       450.21     -9999      -9999      6.940597   2.515      2.743      2.159      1.325759   0.1293577  0.1293577  0.3354208  0.6969095  0.8306249  2.221      0.08698375 0.4596383  99.12152   0.6244336  0.6998804  0.5489868 
1000.8     0.24       448.94     -9999      -9999      6.958577   2.543      2.68       2.197      1.324233   0.128565   0.128565   0.335962   0.6737409  0.8207216  2.227      0.08324382 0.4597319  99.27402   0.628476   0.7033165  0.5536355 
1001       0.244      446.4      -9999      -9999      6.985183   2.543      2.642      2.172      1.327066   0.1259099  0.1259099  0.3349569  0.6016085  0.8062839  2.24       0.06897575 0.4562174  99.43307   0.633476   0.7084321  0.5585198 
1001.2     0.244      445.13     -9999      -9999      6.968955   2.543      2.756      2.197      1.333846   0.123247   0.123247   0.3325515  0.5370219  0.8150595  2.247      0.05286826 0.4503698  99.58447   0.6342559  0.7053075  0.5632044 
1001.4     0.244      445.13     -9999      -9999      6.860688   2.543      2.603      2.197      1.345841   0.1217087  0.1217087  0.3282957  0.5029204  0.8761026  2.247      0.04245068 0.4433081  99.71374   0.626021   0.6848112  0.5672308 
1001.6     0.244      447.67     -9999      -9999      6.664479   2.543      2.756      2.21       1.364057   0.1205848  0.1205848  0.3218324  0.4793821  0.9986141  2.234      0.03205031 0.4326261  99.81843   0.6098412  0.6491724  0.5705099 
1001.8     0.241      448.94     -9999      -9999      6.434501   2.506      2.565      2.172      1.386463   0.1186995  0.1186995  0.3138828  0.4423446  1.16419    2.227      0.01722747 0.4192655  99.90315   0.5914646  0.6097537  0.5731756 
1002       0.239      448.94     -9999      -9999      6.233103   2.716      2.654      2.324      1.407331   0.1163369  0.1163369  0.306479   0.3999445  1.331588   2.227      0          0.4060374  99.96638   0.5761883  0.5772046  0.5751721 
1002.2     0.235      448.94     -9999      -9999      6.104876   2.599      2.705      2.286      1.419321   0.1151803  0.1151803  0.3022249  0.3806953  1.450501   2.227      0          0.3985365  99.99922   0.5668018  0.5573923  0.5762112 
1002.4     0.233      448.94     -9999      -9999      6.079566   2.506      2.578      2.134      1.417686   0.1164328  0.1164328  0.3028051  0.4015835  1.475198   2.227      0.0005847117 0.401603   99.99149   0.5647646  0.5535629  0.5759662 
1002.6     0.233      447.67     -9999      -9999      6.170497   2.561      2.578      2.134      1.404539   0.1190938  0.1190938  0.3074696  0.4498464  1.388376   2.234      0.02150411 0.4131505  99.93645   0.5708356  0.567445   0.5742263 
1002.8     0.235      446.4      -9999      -9999      6.355323   2.637      2.616      2.261      1.388525   0.1204613  0.1204613  0.3131515  0.4768633  1.227332   2.24       0.03240453 0.4231417  99.83643   0.5839096  0.5967439  0.5710753 
1003       0.235      445.13     -9999      -9999      6.573897   2.716      2.616      2.311      1.378672   0.1185707  0.1185707  0.3166471  0.4399208  1.060816   2.247      0.02041601 0.4248822  99.70995   0.6002317  0.6333511  0.5671123 
1003.2     0.232      443.86     -9999      -9999      6.758452   2.637      2.438      2.235      1.378325   0.1139411  0.1139411  0.3167705  0.3610962  0.9379357  2.253      0          0.4176252  99.58643   0.6146346  0.6660039  0.5632653 
1003.4     0.23       443.86     -9999      -9999      6.863021   2.599      2.603      2.235      1.386033   0.1085401  0.1085401  0.3140357  0.2868028  0.8747398  2.253      0          0.4042831  99.48689   0.6227139  0.6852466  0.5601811 
1003.6     0.23       443.86     -9999      -9999      6.866191   2.543      2.629      2.121      1.400204   0.1038038  0.1038038  0.3090076  0.2343449  0.872892   2.253      0          0.3885804  99.41039   0.6218298  0.6858386  0.557821  
1003.8     0.228      443.86     -9999      -9999      6.767424   2.561      2.629      2.146      1.419063   0.1004791  0.1004791  0.3023164  0.2033645  0.9323391  2.253      0          0.3727466  99.33888   0.6116282  0.6676335  0.5556228 
1004       0.23       440.05     -9999      -9999      6.589253   2.657      2.718      2.273      1.439093   0.09901455 0.09901455 0.2952097  0.1910503  1.050004   2.272      0          0.3623424  99.25506   0.5945307  0.6360059  0.5530555 
1004.2     0.232      437.51     -9999      -9999      6.363314   2.736      2.667      2.35       1.459388   0.09859868 0.09859868 0.2880093  0.1876916  1.220807   2.286      0          0.3530104  99.15153   0.5739715  0.5980442  0.5498987 
1004.4     0.235      437.51     -9999      -9999      6.10057    2.696      2.731      2.324      1.487027   0.09627372 0.09627372 0.2782027  0.1699734  1.454673   2.286      0          0.3327117  99.01833   0.5512999  0.556739   0.5458607 
1004.6     0.235      438.78     -9999      -9999      5.783852   2.637      2.54       2.172      1.531477   0.08903341 0.08903341 0.2624319  0.1248167  1.796887   2.279      0          0.2866287  98.82941   0.5254501  0.5107224  0.5401777 
1004.8     0.233      437.51     -9999      -9999      5.401484   2.696      2.654      2.108      1.591116   0.07757352 0.07757352 0.2412721  0.07656105 2.318968   2.286      0          0.2108246  98.55132   0.4960562  0.4602058  0.5319065 
1005       0.23       431.16     -9999      -9999      4.987614   3.19       2.997      2.172      1.649556   0.06675879 0.06675879 0.2205374  0.04827172 3.056294   2.319      0          0.1251829  98.17354   0.4659959  0.4111428  0.5208489 
1005.2     0.229      427.35     -9999      -9999      4.619599   3.774      3.619      2.718      1.687431   0.06199259 0.06199259 0.2070996  0.03939229 3.906711   2.34       0          0.06913885 97.70821   0.4397181  0.3719271  0.5075091 
1005.4     0.23       427.35     -9999      -9999      4.367452   3.638      3.556      2.984      1.696837   0.06529813 0.06529813 0.2037623  0.04535633 4.622316   2.34       0          0.07535798 97.15096   0.4195884  0.34724    0.4919367 
