~Version
 VERS              .         2.0                           : CWLS LOG ASCII STANDARD - VERSION 2.0
 WRAP              .         NO                            : ONE LINE PER DEPTH STEP
 DLM               .         SPACE                         : DELIMITING CHARACTER(SPACE TAB OR COMMA)
~Well Information
#_______________________________________________________________________________
#
#PARAMETER_NAME    .UNIT     VALUE                         : DESCRIPTION
#_______________________________________________________________________________
STRT               .M        880                           : First reference value
STOP               .M        1186                          : Last reference value
STEP               .M        0.2                           : Step increment
NULL               .         -9999                         : Missing value
COMP               .                                       : Company
WELL               .         7844                          : Well name
FLD                .         Узень                         : Field
LOC                .                                       : Location
CNTY               .                                       : County
STAT               .                                       : State
CTRY               .                                       : Country
SRVC               .         UPGF                          : Service Company
DATE               .         01.06.1991                    : Date
UWI                .                                       : Unique Well ID
Block              .         7                             : 
Cartographic_reference_system .         GCS_WGS_1984                  : ESRI,PE_10_3_1- <?xml version="1.0" encoding="utf-16"?><ILateBoundCoordinateReferenceSystem name="GCS_WGS_1984"><AuthorityCode>EPSG,4326</AuthorityCode></ILateBoundCoordinateReferenceSystem>
Category           .         Нефтяная                      : 
Condition          .         Ликвидированная               : 
EREF               .m        93.6                          : 100.8
Gorizont           .         15                            : 14
HZCS               .GCS_WGS_1984 WGS_1984_EASE-Grid_2.0_Global : ESRI,PE_10_3_1- <?xml version="1.0" encoding="utf-16"?><ILateBoundCoordinateReferenceSystem name="WGS_1984_EASE-Grid_2.0_Global"><AuthorityCode>EPSG,6933</AuthorityCode></ILateBoundCoordinateReferenceSystem>
Interpretator      .         Сагынбаева А.Н.               : 
Kupol              .         основной                      : osnovnoi
LATI               .dega     0.6632616444                  : GCS_WGS_1984
LONG               .dega     0.4337798067                  : GCS_WGS_1984
Mud                .         глинистый                     : 
Mud_density        .         1,18                          : 
Mud_resistivity    .         0                             : 
NGDU               .         НГДУ-2                        : 
ORIGINALWELLNAME   .         7844                          : 
Spud_date          .         1991                          : 1961
Viscosity          .         40                            : 
X                  .m        41853.8                       : 46154
Y                  .m        84612.63                      : 85761.93
YEAR               .         2018                          : 
~Parameter Information Block
#_______________________________________________________________________________
#
#PARAMETER_NAME    .UNIT     VALUE                         : DESCRIPTION
#_______________________________________________________________________________
SET                .         LQC_KAZNIPI_Petrel            : 
TLFamily_CALI      .         Caliper                       : 
TLFamily_CILD      .         Conductivity                  : 
TLFamily_COLL      .         Net Reservoir Flag            : 
TLFamily_CSAT      .         Fluid Code                    : 
TLFamily_DEPT      .         Measured Depth                : 
TLFamily_GR        .         Russian Gamma Ray             : 
TLFamily_LLS       .         Lateral Log Resistivity       : 
TLFamily_MINV      .         Micro Gradient Resistivity    : 
TLFamily_MNOR      .         Micro Resistivity             : 
TLFamily_NGLD      .         Neutron Gamma                 : 
TLFamily_PHIE      .         Effective Porosity            : 
TLFamily_PHIEN     .         Effective Porosity            : 
TLFamily_PHIT      .         Porosity                      : 
TLFamily_PRMB      .         Permeability                  : 
TLFamily_PRMB_DGR  .         Permeability                  : 
TLFamily_RT        .         Formation Resistivity         : 
TLFamily_SOIL_ARCHIE .         Oil Saturation                : 
TLFamily_SOIL_DW   .         Oil Saturation                : 
TLFamily_SP        .         Spontaneous Potential         : 
TLFamily_VSH_FIN   .         Shale Volume                  : 
TLFamily_VSH_GR    .         Shale Volume                  : 
TLFamily_VSH_SP    .         Shale Volume                  : 
~Curve Information
#_______________________________________________________________________________
#
#LOGNAME           .UNIT     LOG_ID                        : DESCRIPTION
#_______________________________________________________________________________
DEPT               .M                                      : Колонка глубины 
CALI               .м                                      : Каверномер 
CILD               .мСм/м                                  : Индукционный каротаж 
COLL               .unitless                               : Описание 
CSAT               .unitless                               :  
GR                 .uR/h                                   : Гамма каротаж 
LLS                .Ohmm                                   : Боковой каротаж 
MINV               .Ohmm                                   : Микро-градиент зонд 
MNOR               .Ohmm                                   : Микро-потенциал зонд 
NGLD               .у.е.                                   : Показания зонда НГК-60 аппаратуры ДРСТ-3-90 
PHIE               .v/v                                    : Описание 
PHIEN              .v/v                                    :  
PHIT               .v/v                                    : Описание 
PRMB               .mD                                     :  
PRMB_DGR           .mD                                     :  
RT                 .ohmm                                   : УЭС пласта 
SOIL_ARCHIE        .v/v                                    :  
SOIL_DW            .v/v                                    :  
SP                 .мВ                                     : Потенциал самополяризации 
VSH_FIN            .v/v                                    : Описание 
VSH_GR             .v/v                                    : Shale volume 
VSH_SP             .v/v                                    : Shale Volume 
~Ascii
# ...
1162       0.241      563.88     -9999      -9999      10.23529   1.739      1.27       1.295      1.372995   0.1278633  0.1278633  0.3186615  0.653877   1.20722    1.773      0          0.3724635  79.92404   0.5781764  0.6007835  0.5555694 
1162.2     0.241      551.18     -9999      -9999      10.1627    1.803      1.27       1.295      1.376912   0.1304932  0.1304932  0.3172714  0.7314903  1.304973   1.814      0.003617121 0.3824753  79.74197   0.5659947  0.5819828  0.5500066 
1162.4     0.239      551.18     -9999      -9999      10.09369   1.803      1.384      1.321      1.379193   0.133322   0.133322   0.3164622  0.8252885  1.405229   1.814      0.02205572 0.3863293  79.58614   0.5549701  0.5646561  0.5452841 
1162.6     0.239      547.37     -9999      -9999      10.02556   1.777      1.321      1.334      1.375019   0.1381277  0.1381277  0.3179433  1.013018   1.511753   1.827      0.05492841 0.3982471  79.46824   0.5448959  0.5480574  0.5417345 
1162.8     0.237      537.21     -9999      -9999      9.959352   1.751      1.41       1.372      1.362264   0.1456105  0.1456105  0.3224686  1.393854   1.623015   1.861      0.1051471  0.42055    79.39281   0.5359338  0.5323932  0.5394744 
1163       0.238      537.21     -9999      -9999      9.90594    1.777      1.499      1.384      1.342755   0.154693   0.154693   0.3293904  2.053275   1.718707   1.861      0.1510838  0.4410601  79.36652   0.5293862  0.5200838  0.5386885 
1163.2     0.237      534.67     -9999      -9999      9.871218   1.751      1.448      1.334      1.32158    0.1633631  0.1633631  0.3369035  2.971929   1.783922   1.87       0.1922916  0.4614289  79.39452   0.5258802  0.5122347  0.5395255 
1163.4     0.235      534.67     -9999      -9999      9.845961   1.689      1.422      1.321      1.303503   0.1703104  0.1703104  0.3433171  3.99687    1.832908   1.87       0.2210647  0.4760786  79.47461   0.5242628  0.5065998  0.5419258 
1163.6     0.235      533.4      -9999      -9999      9.820432   1.604      1.422      1.346      1.288978   0.1757552  0.1757552  0.3484707  5.041638   1.883789   1.875      0.2430734  0.4877885  79.603     0.5233802  0.5009672  0.5457931 
1163.8     0.236      539.75     -9999      -9999      9.804744   1.628      1.346      1.346      1.275344   0.1802951  0.1802951  0.3533079  6.118725   1.915754   1.853      0.255589   0.4941022  79.77544   0.5242813  0.497537   0.5510256 
1164       0.236      544.83     -9999      -9999      9.827438   1.689      1.397      1.334      1.261918   0.1832222  0.1832222  0.3580716  6.932316   1.869685   1.835      0.2625874  0.4989154  79.97666   0.5298465  0.5025069  0.5571862 
1164.2     0.237      544.83     -9999      -9999      9.912846   1.676      1.499      1.321      1.251231   0.1828363  0.1828363  0.3618633  6.819148   1.706024   1.835      0.261232   0.5017415  80.17616   0.5425062  0.5216591  0.5633532 
1164.4     0.238      546.1      -9999      -9999      10.05491   1.726      1.359      1.27       1.245611   0.178459   0.178459   0.3638572  5.657858   1.464914   1.831      0.2447014  0.4982363  80.34055   0.5618128  0.5551463  0.5684791 
1164.6     0.238      544.83     -9999      -9999      10.21193   1.739      1.206      1.219      1.245845   0.1713072  0.1713072  0.3637743  4.170452   1.23786    1.835      0.218112   0.4908442  80.44641   0.5832337  0.5946662  0.5718012 
1164.8     0.239      544.83     -9999      -9999      10.33359   1.689      1.206      1.181      1.252605   0.1633664  0.1633664  0.3613757  2.972347   1.086426   1.835      0.1964489  0.4861863  80.47956   0.6000283  0.6272117  0.5728449 
1165       0.239      553.72     -9999      -9999      10.39264   1.664      1.283      1.206      1.266504   0.1559751  0.1559751  0.3564443  2.168681   1.019751   1.806      0.1571068  0.4684299  80.43114   0.6074823  0.6436439  0.5713208 
1165.2     0.239      553.72     -9999      -9999      10.38263   1.676      1.206      1.194      1.286237   0.1501465  0.1501465  0.3494432  1.691361   1.030756   1.806      0.1286792  0.4540623  80.2942    0.6039294  0.6408289  0.5670298 
1165.4     0.239      556.26     -9999      -9999      10.30309   1.79       1.232      1.257      1.308649   0.1470848  0.1470848  0.3414913  1.484312   1.122556   1.798      0.1110532  0.4406135  80.04633   0.5891108  0.6188886  0.559333  
1165.6     0.239      538.48     -9999      -9999      10.16754   1.739      1.181      1.219      1.331799   0.1469175  0.1469175  0.3332776  1.47376    1.298218   1.857      0.1235521  0.4408923  79.61771   0.5647276  0.5832175  0.5462378 
1165.8     0.239      538.48     -9999      -9999      10.01168   1.689      1.245      1.232      1.358596   0.1472205  0.1472205  0.3237702  1.492927   1.534437   1.857      0.1251232  0.4311695  78.91212   0.5349993  0.5447346  0.5252638 
1166       0.24       529.59     -9999      -9999      9.8606     1.652      1.194      1.27       1.396706   0.1441745  0.1441745  0.3102488  1.311049   1.804352   1.888      0.1159416  0.4161167  77.90826   0.5032554  0.5098584  0.4966525 
1166.2     0.242      529.59     -9999      -9999      9.684404   1.628      1.245      1.206      1.454673   0.1351294  0.1351294  0.289682   0.8914214  2.179689   1.888      0.06461979 0.375567   76.72324   0.4683412  0.4719938  0.4646886 
1166.4     0.243      523.24     -9999      -9999      9.399903   1.652      1.308      1.397      1.538809   0.1195588  0.1195588  0.2598306  0.4588577  2.957447   1.911      0          0.3044198  75.48952   0.425066   0.4166995  0.4334324 
1166.6     0.243      481.33     -9999      -9999      8.931115   1.739      1.334      1.715      1.65144    0.09742638 0.09742638 0.219869   0.1785381  4.889694   2.078      0          0.2003939  74.19235   0.3710381  0.3393575  0.4027187 
1166.8     0.243      448.31     -9999      -9999      8.279343   2.087      1.295      2.553      1.78459    0.06943848 0.06943848 0.1726276  0.05411618 9.837427   2.243      0          0          72.71404   0.3126943  0.2550865  0.370302  
1167       0.241      384.81     -9999      -9999      7.540888   3.075      1.905      3.391      1.912583   0.04116164 0.04116164 0.1272157  0.01620211 21.71993   2.615      0          0          71.04856   0.2607698  0.1845994  0.3369402 
1167.2     0.238      214.63     -9999      -9999      6.856717   9.55       2.451      3.454      1.997828   0.02389619 0.02389619 0.09697066 0.007758422 45.24284   4.659      0          0          69.34286   0.2214378  0.1368037  0.3060719 
1167.4     0.235      205.105    -9999      -9999      6.348449   29.013     2.261      3.277      2.012699   0.02741732 0.02741732 0.09169452 0.009015572 78.03763   4.886      0          0          67.74709   0.1947794  0.1095023  0.2800565 
1167.6     0.235      195.58     -9999      -9999      6.085639   42.743     2.794      3.124      1.956824   0.05267623 0.05267623 0.1115189  0.02647584 103.4482   5.113      0          0.0190521  66.32101   0.1783113  0.09759682 0.2590257 
1167.8     0.235      195.58     -9999      -9999      6.077144   21.032     2.591      2.959      1.854274   0.09179611 0.09179611 0.1479035  0.1404251  104.395    5.113      0.17926    0.3358083  65.11638   0.1700224  0.09723439 0.2428103 
1168       0.236      213.36     -9999      -9999      6.270723   9.207      1.765      2.057      1.738903   0.1330777  0.1330777  0.1888372  0.8167325  84.82216   4.687      0.3813192  0.4842233  64.25921   0.1689681  0.1058375  0.2320987 
1168.2     0.237      231.902    1          2          6.582194   4.001      1.435      1.791      1.639634   0.1664553  0.1664553  0.2240579  3.390899   60.73293   4.355      0.4730259  0.5588363  63.89937   0.1745532  0.1213061  0.2278003 
1168.4     0.235      261.62     1          2          6.9434     2.599      1.6        1.842      1.571607   0.1867101  0.1867101  0.2481938  8.044172   41.22608   3.822      0.4930549  0.5770968  64.1291    0.1863142  0.1420972  0.2305312 
1168.6     0.235      261.62     1          2          7.318197   2.676      1.549      1.93       1.535642   0.1935332  0.1935332  0.2609542  10.76124   27.5797    3.822      0.508657   0.5953714  64.9883    0.2043062  0.1674455  0.2411668 
