~Version
 VERS              .         2.0                           : CWLS LOG ASCII STANDARD - VERSION 2.0
 WRAP              .         NO                            : ONE LINE PER DEPTH STEP
 DLM               .         SPACE                         : DELIMITING CHARACTER(SPACE TAB OR COMMA)
~Well Information
#_______________________________________________________________________________
#
#PARAMETER_NAME    .UNIT     VALUE                         : DESCRIPTION
#_______________________________________________________________________________
STRT               .M        880                           : First reference value
STOP               .M        1186                          : Last reference value
STEP               .M        0.2                           : Step increment
NULL               .         -9999                         : Missing value
COMP               .                                       : Company
WELL               .         7844                          : Well name
FLD                .         Узень                         : Field
LOC                .                                       : Location
CNTY               .                                       : County
STAT               .                                       : State
CTRY               .                                       : Country
SRVC               .         UPGF                          : Service Company
DATE               .         01.06.1991                    : Date
UWI                .                                       : Unique Well ID
Block              .         7                             : 
Cartographic_reference_system .         GCS_WGS_1984                  : ESRI,PE_10_3_1- <?xml version="1.0" encoding="utf-16"?><ILateBoundCoordinateReferenceSystem name="GCS_WGS_1984"><AuthorityCode>EPSG,4326</AuthorityCode></ILateBoundCoordinateReferenceSystem>
Category           .         Нефтяная                      : 
Condition          .         Ликвидированная               : 
EREF               .m        93.6                          : 100.8
Gorizont           .         15                            : 14
HZCS               .GCS_WGS_1984 WGS_1984_EASE-Grid_2.0_Global : ESRI,PE_10_3_1- <?xml version="1.0" encoding="utf-16"?><ILateBoundCoordinateReferenceSystem name="WGS_1984_EASE-Grid_2.0_Global"><AuthorityCode>EPSG,6933</AuthorityCode></ILateBoundCoordinateReferenceSystem>
Interpretator      .         Сагынбаева А.Н.               : 
Kupol              .         основной                      : osnovnoi
LATI               .dega     0.6632616444                  : GCS_WGS_1984
LONG               .dega     0.4337798067                  : GCS_WGS_1984
Mud                .         глинистый                     : 
Mud_density        .         1,18                          : 
Mud_resistivity    .         0                             : 
NGDU               .         НГДУ-2                        : 
ORIGINALWELLNAME   .         7844                          : 
Spud_date          .         1991                          : 1961
Viscosity          .         40                            : 
X                  .m        41853.8                       : 46154
Y                  .m        84612.63                      : 85761.93
YEAR               .         2018                          : 
~Parameter Information Block
#_______________________________________________________________________________
#
#PARAMETER_NAME    .UNIT     VALUE                         : DESCRIPTION
#_______________________________________________________________________________
SET                .         LQC_KAZNIPI_Petrel            : 
TLFamily_CALI      .         Caliper                       : 
TLFamily_CILD      .         Conductivity                  : 
TLFamily_COLL      .         Net Reservoir Flag            : 
TLFamily_CSAT      .         Fluid Code                    : 
TLFamily_DEPT      .         Measured Depth                : 
TLFamily_GR        .         Russian Gamma Ray             : 
TLFamily_LLS       .         Lateral Log Resistivity       : 
TLFamily_MINV      .         Micro Gradient Resistivity    : 
TLFamily_MNOR      .         Micro Resistivity             : 
TLFamily_NGLD      .         Neutron Gamma                 : 
TLFamily_PHIE      .         Effective Porosity            : 
TLFamily_PHIEN     .         Effective Porosity            : 
TLFamily_PHIT      .         Porosity                      : 
TLFamily_PRMB      .         Permeability                  : 
TLFamily_PRMB_DGR  .         Permeability                  : 
TLFamily_RT        .         Formation Resistivity         : 
TLFamily_SOIL_ARCHIE .         Oil Saturation                : 
TLFamily_SOIL_DW   .         Oil Saturation                : 
TLFamily_SP        .         Spontaneous Potential         : 
TLFamily_VSH_FIN   .         Shale Volume                  : 
TLFamily_VSH_GR    .         Shale Volume                  : 
TLFamily_VSH_SP    .         Shale Volume                  : 
~Curve Information
#_______________________________________________________________________________
#
#LOGNAME           .UNIT     LOG_ID                        : DESCRIPTION
#_______________________________________________________________________________
DEPT               .M                                      : Колонка глубины 
CALI               .м                                      : Каверномер 
CILD               .мСм/м                                  : Индукционный каротаж 
COLL               .unitless                               : Описание 
CSAT               .unitless                               :  
GR                 .uR/h                                   : Гамма каротаж 
LLS                .Ohmm                                   : Боковой каротаж 
MINV               .Ohmm                                   : Микро-градиент зонд 
MNOR               .Ohmm                                   : Микро-потенциал зонд 
NGLD               .у.е.                                   : Показания зонда НГК-60 аппаратуры ДРСТ-3-90 
PHIE               .v/v                                    : Описание 
PHIEN              .v/v                                    :  
PHIT               .v/v                                    : Описание 
PRMB               .mD                                     :  
PRMB_DGR           .mD                                     :  
RT                 .ohmm                                   : УЭС пласта 
SOIL_ARCHIE        .v/v                                    :  
SOIL_DW            .v/v                                    :  
SP                 .мВ                                     : Потенциал самополяризации 
VSH_FIN            .v/v                                    : Описание 
VSH_GR             .v/v                                    : Shale volume 
VSH_SP             .v/v                                    : Shale Volume 
~Ascii
# ...
979        0.237      294.64     -9999      -9999      4.922924   2.922      2.375      2.235      1.541713   0.0888802  0.0888802  0.2588001  0.1240038  3.191071   3.394      0          0.40974    101.512    0.5149088  0.4039616  0.625856  
979.2000000000001 0.235      279.4      -9999      -9999      4.852082   3.406      2.438      2.451      1.56545    0.08238439 0.08238439 0.2503782  0.09399762 3.345489   3.579      0          0.3970126  101.3954   0.5090722  0.3962414  0.6219031 
979.4      0.235      279.4      -9999      -9999      4.820779   3.746      2.718      2.642      1.59064    0.07476953 0.07476953 0.2414408  0.0679315  3.416081   3.579      0          0.3616727  101.2573   0.5050644  0.3928772  0.6172516 
979.6      0.235      257.81     -9999      -9999      4.802226   3.482      2.743      2.756      1.610257   0.06893731 0.06893731 0.2344809  0.05297174 3.458623   3.879      0          0.3576128  101.1123   0.5016474  0.3908966  0.612398  
979.8      0.235      250.19     -9999      -9999      4.776088   3.098      2.527      2.591      1.615621   0.06828212 0.06828212 0.2325776  0.05151202 3.519456   3.997      0          0.361692   100.9682   0.4978652  0.3881235  0.6076069 
980        0.234      247.65     -9999      -9999      4.75327    2.943      2.489      2.426      1.601419   0.07445119 0.07445119 0.2376167  0.06701542 3.573437   4.038      0          0.3917785  100.8337   0.4944409  0.3857186  0.6031631 
980.2000000000001 0.235      250.19     -9999      -9999      4.761138   2.756      2.578      2.4        1.569949   0.08608886 0.08608886 0.248782   0.1100861  3.554729   3.997      0.01200857 0.4356697  100.7213   0.4930094  0.3865462  0.5994725 
980.4      0.235      250.19     -9999      -9999      4.813695   2.756      2.451      2.375      1.53063    0.0995658  0.0995658  0.2627327  0.1955952  3.432262   3.997      0.1295557  0.4825161  100.6387   0.494445   0.3921198  0.5967702 
980.6      0.235      252.73     -9999      -9999      4.914574   2.756      2.451      2.261      1.494311   0.1109804  0.1109804  0.2756186  0.3182616  3.208892   3.957      0.2043218  0.5149596  100.5771   0.4989035  0.403044   0.594763  
980.8      0.235      251.46     -9999      -9999      5.081017   2.776      2.629      2.476      1.467428   0.1177778  0.1177778  0.2851567  0.425294   2.871677   3.977      0.2462551  0.5366867  100.513    0.5072086  0.4217374  0.5926799 
981        0.235      250.19     -9999      -9999      5.330177   2.817      2.731      2.515      1.450424   0.1193604  0.1193604  0.2911896  0.4549896  2.431938   3.997      0.2567181  0.546163   100.4313   0.5206945  0.4513535  0.5900355 
981.2000000000001 0.234      252.73     -9999      -9999      5.6297     2.879      2.591      2.261      1.441008   0.1168292  0.1168292  0.2945305  0.4084305  1.991495   3.957      0.2391294  0.5436235  100.3451   0.5384888  0.4897217  0.587256  
981.4      0.233      252.73     -9999      -9999      5.886008   2.965      2.451      2.172      1.437386   0.112582   0.112582   0.2958153  0.3407605  1.678515   3.957      0.2141893  0.538777   100.2865   0.5552527  0.5251334  0.5853719 
981.6      0.233      265.43     -9999      -9999      6.005159   3.213      2.438      2.299      1.438188   0.1094848  0.1094848  0.2955308  0.298595   1.550267   3.767      0.1760558  0.5222622  100.2779   0.5637758  0.5424563  0.5850952 
981.8      0.233      267.97     -9999      -9999      5.971731   2.943      2.413      2.413      1.441223   0.1090182  0.1090182  0.294454   0.2927108  1.585224   3.732      0.1693542  0.5181656  100.3159   0.5619269  0.5375395  0.5863143 
982        0.233      269.24     -9999      -9999      5.862735   2.736      2.375      2.273      1.44323    0.1105719  0.1105719  0.2937421  0.3127652  1.704777   3.714      0.1776659  0.5186799  100.3778   0.555061   0.5218149  0.5883071 
982.2000000000001 0.235      278.13     -9999      -9999      5.780282   2.9        2.261      2.095      1.440143   0.1132551  0.1132551  0.2948373  0.3506851  1.80117    3.595      0.1822587  0.5161198  100.4386   0.550249   0.510226   0.590272  
982.4      0.237      278.13     -9999      -9999      5.770552   2.943      1.994      1.905      1.428799   0.1172957  0.1172957  0.298862   0.4166386  1.812899   3.595      0.2068484  0.52632    100.4774   0.5502009  0.5088756  0.5915262 
982.6      0.237      299.72     -9999      -9999      5.806703   2.434      2.121      1.905      1.411495   0.1226304  0.1226304  0.3050016  0.5230825  1.769703   3.336      0.2097376  0.5223742  100.4725   0.5526401  0.5139112  0.591369  
982.8      0.24       307.34     -9999      -9999      5.832525   2.279      1.994      2.032      1.398072   0.1271767  0.1271767  0.3097639  0.6350091  1.739481   3.254      0.2254064  0.5274478  100.4008   0.5532945  0.5175386  0.5890504 
983        0.247      302.26     -9999      -9999      5.805465   2.716      2.362      2.261      1.39973    0.1280036  0.1280036  0.3091757  0.6578029  1.771165   3.308      0.2356923  0.5318685  100.2523   0.5490063  0.513738   0.5842746 
983.2000000000001 0.247      293.37     -9999      -9999      5.717625   3.508      2.807      2.743      1.419466   0.1240825  0.1240825  0.3021736  0.556503   1.878048   3.409      0.2257041  0.5267494  100.0477   0.53967    0.5015919  0.577748  
983.4      0.241      293.37     -9999      -9999      5.606715   3.638      2.35       2.565      1.448573   0.1173395  0.1173395  0.2918462  0.4174178  2.022265   3.409      0.1870913  0.5062155  99.83247   0.528808   0.4866651  0.5709509 
983.6      0.241      274.32     -9999      -9999      5.541502   3.746      2.311      2.476      1.47197    0.1113961  0.1113961  0.2835449  0.3239548  2.112179   3.645      0.1757458  0.5043482  99.64958   0.5216631  0.4780968  0.5652294 
983.8      0.237      267.97     -9999      -9999      5.578942   3.665      2.807      2.743      1.476986   0.1094398  0.1094398  0.2817655  0.2980222  2.06008    3.732      0.1721422  0.5050294  99.52631   0.522199   0.4829974  0.5614007 
984        0.238      265.43     -9999      -9999      5.729189   2.965      2.476      2.667      1.459449   0.1125761  0.1125761  0.2879875  0.3406752  1.863617   3.767      0.1957964  0.5190921  99.4786    0.5315498  0.5031744  0.5599251 
984.2000000000001 0.239      269.24     -9999      -9999      5.952142   2.469      2.134      2.388      1.424446   0.1196535  0.1196535  0.3004067  0.460713   1.606075   3.714      0.2322997  0.5388363  99.50675   0.5477372  0.5346789  0.5607955 
984.4      0.241      269.24     -9999      -9999      6.180118   2.262      1.943      1.994      1.382945   0.1283102  0.1283102  0.3151312  0.6664595  1.379495   3.714      0.2776118  0.5638905  99.58803   0.5661244  0.5689339  0.5633148 
984.6      0.241      293.37     -9999      -9999      6.35994    2.295      2.007      1.715      1.345919   0.1361995  0.1361995  0.3282681  0.9330453  1.223558   3.409      0.2860561  0.566017   99.69217   0.582026   0.5974948  0.5665572 
984.8      0.244      307.34     -9999      -9999      6.485372   2.363      2.248      1.968      1.318968   0.1417658  0.1417658  0.3378303  1.183056   1.125346   3.254      0.2953129  0.5701696  99.80243   0.5941347  0.6182616  0.5700077 
985        0.249      312.42     -9999      -9999      6.584143   2.434      2.388      2.045      1.301402   0.1446391  0.1446391  0.3440625  1.337289   1.05359    3.201      0.3021638  0.5747554  99.91361   0.6043133  0.6351211  0.5735055 
985.2000000000001 0.256      318.77     -9999      -9999      6.674336   2.506      2.426      2.108      1.289772   0.1456088  0.1456088  0.348189   1.393754   0.9920698  3.137      0.2996066  0.574711   100.0191   0.6138793  0.6509178  0.5768409 
985.4      0.257      318.77     -9999      -9999      6.741592   2.279      2.362      2.07       1.281607   0.1460511  0.1460511  0.3510858  1.420296   0.9485446  3.137      0.3014543  0.5774052  100.1085   0.6213172  0.6629522  0.5796821 
