~Version
 VERS              .         2.0                           : CWLS LOG ASCII STANDARD - VERSION 2.0
 WRAP              .         NO                            : ONE LINE PER DEPTH STEP
 DLM               .         SPACE                         : DELIMITING CHARACTER(SPACE TAB OR COMMA)
~Well Information
#_______________________________________________________________________________
#
#PARAMETER_NAME    .UNIT     VALUE                         : DESCRIPTION
#_______________________________________________________________________________
STRT               .M        880                           : First reference value
STOP               .M        1186                          : Last reference value
STEP               .M        0.2                           : Step increment
NULL               .         -9999                         : Missing value
COMP               .                                       : Company
WELL               .         7844                          : Well name
FLD                .         Узень                         : Field
LOC                .                                       : Location
CNTY               .                                       : County
STAT               .                                       : State
CTRY               .                                       : Country
SRVC               .         UPGF                          : Service Company
DATE               .         01.06.1991                    : Date
UWI                .                                       : Unique Well ID
Block              .         7                             : 
Cartographic_reference_system .         GCS_WGS_1984                  : ESRI,PE_10_3_1- <?xml version="1.0" encoding="utf-16"?><ILateBoundCoordinateReferenceSystem name="GCS_WGS_1984"><AuthorityCode>EPSG,4326</AuthorityCode></ILateBoundCoordinateReferenceSystem>
Category           .         Нефтяная                      : 
Condition          .         Ликвидированная               : 
EREF               .m        93.6                          : 100.8
Gorizont           .         15                            : 14
HZCS               .GCS_WGS_1984 WGS_1984_EASE-Grid_2.0_Global : ESRI,PE_10_3_1- <?xml version="1.0" encoding="utf-16"?><ILateBoundCoordinateReferenceSystem name="WGS_1984_EASE-Grid_2.0_Global"><AuthorityCode>EPSG,6933</AuthorityCode></ILateBoundCoordinateReferenceSystem>
Interpretator      .         Сагынбаева А.Н.               : 
Kupol              .         основной                      : osnovnoi
LATI               .dega     0.6632616444                  : GCS_WGS_1984
LONG               .dega     0.4337798067                  : GCS_WGS_1984
Mud                .         глинистый                     : 
Mud_density        .         1,18                          : 
Mud_resistivity    .         0                             : 
NGDU               .         НГДУ-2                        : 
ORIGINALWELLNAME   .         7844                          : 
Spud_date          .         1991                          : 1961
Viscosity          .         40                            : 
X                  .m        41853.8                       : 46154
Y                  .m        84612.63                      : 85761.93
YEAR               .         2018                          : 
~Parameter Information Block
#_______________________________________________________________________________
#
#PARAMETER_NAME    .UNIT     VALUE                         : DESCRIPTION
#_______________________________________________________________________________
SET                .         LQC_KAZNIPI_Petrel            : 
TLFamily_CALI      .         Caliper                       : 
TLFamily_CILD      .         Conductivity                  : 
TLFamily_COLL      .         Net Reservoir Flag            : 
TLFamily_CSAT      .         Fluid Code                    : 
TLFamily_DEPT      .         Measured Depth                : 
TLFamily_GR        .         Russian Gamma Ray             : 
TLFamily_LLS       .         Lateral Log Resistivity       : 
TLFamily_MINV      .         Micro Gradient Resistivity    : 
TLFamily_MNOR      .         Micro Resistivity             : 
TLFamily_NGLD      .         Neutron Gamma                 : 
TLFamily_PHIE      .         Effective Porosity            : 
TLFamily_PHIEN     .         Effective Porosity            : 
TLFamily_PHIT      .         Porosity                      : 
TLFamily_PRMB      .         Permeability                  : 
TLFamily_PRMB_DGR  .         Permeability                  : 
TLFamily_RT        .         Formation Resistivity         : 
TLFamily_SOIL_ARCHIE .         Oil Saturation                : 
TLFamily_SOIL_DW   .         Oil Saturation                : 
TLFamily_SP        .         Spontaneous Potential         : 
TLFamily_VSH_FIN   .         Shale Volume                  : 
TLFamily_VSH_GR    .         Shale Volume                  : 
TLFamily_VSH_SP    .         Shale Volume                  : 
~Curve Information
#_______________________________________________________________________________
#
#LOGNAME           .UNIT     LOG_ID                        : DESCRIPTION
#_______________________________________________________________________________
DEPT               .M                                      : Колонка глубины 
CALI               .м                                      : Каверномер 
CILD               .мСм/м                                  : Индукционный каротаж 
COLL               .unitless                               : Описание 
CSAT               .unitless                               :  
GR                 .uR/h                                   : Гамма каротаж 
LLS                .Ohmm                                   : Боковой каротаж 
MINV               .Ohmm                                   : Микро-градиент зонд 
MNOR               .Ohmm                                   : Микро-потенциал зонд 
NGLD               .у.е.                                   : Показания зонда НГК-60 аппаратуры ДРСТ-3-90 
PHIE               .v/v                                    : Описание 
PHIEN              .v/v                                    :  
PHIT               .v/v                                    : Описание 
PRMB               .mD                                     :  
PRMB_DGR           .mD                                     :  
RT                 .ohmm                                   : УЭС пласта 
SOIL_ARCHIE        .v/v                                    :  
SOIL_DW            .v/v                                    :  
SP                 .мВ                                     : Потенциал самополяризации 
VSH_FIN            .v/v                                    : Описание 
VSH_GR             .v/v                                    : Shale volume 
VSH_SP             .v/v                                    : Shale Volume 
~Ascii
# ...
959.2000000000001 0.233      270.51     -9999      -9999      5.587977   3.457      2.908      2.692      1.343814   0.1428753  0.1428753  0.3290146  1.240379   2.047701   3.697      0.3407719  0.5911467  102.0377   0.5640587  0.4841875  0.6439298 
959.4      0.232      270.51     -9999      -9999      5.516367   3.333      2.692      2.502      1.348149   0.1427079  0.1427079  0.3274769  1.231557   2.147892   3.697      0.3400987  0.5897626  102.0678   0.559906   0.4748347  0.6449773 
959.6      0.232      252.73     -9999      -9999      5.478273   3.333      2.616      2.553      1.353283   0.1413617  0.1413617  0.3256553  1.162838   2.203172   3.957      0.3555146  0.6006729  102.1257   0.5584654  0.4699331  0.6469977 
959.8      0.233      254        -9999      -9999      5.463422   2.796      2.388      2.248      1.357404   0.1398166  0.1398166  0.3241932  1.088683   2.225108   3.937      0.3477672  0.596885   102.1943   0.558717   0.4680359  0.649398  
960        0.235      264.16     -9999      -9999      5.459717   2.879      2.324      1.968      1.359317   0.1388592  0.1388592  0.3235142  1.045125   2.230613   3.786      0.3316992  0.5873327  102.2558   0.5595604  0.4675638  0.651557  
960.2000000000001 0.237      265.43     -9999      -9999      5.479969   3.26       2.87       2.451      1.357193   0.1389389  0.1389389  0.3242679  1.048683   2.200681   3.767      0.3304542  0.5869869  102.2984   0.561603   0.4701502  0.6530557 
960.4      0.239      265.43     -9999      -9999      5.545984   2.858      3.035      2.451      1.347863   0.1407029  0.1407029  0.3275783  1.130623   2.105873   3.767      0.337771   0.5915327  102.3223   0.5662891  0.4786808  0.6538975 
960.6      0.239      267.97     -9999      -9999      5.650838   3.406      2.921      2.172      1.328472   0.1451991  0.1451991  0.3344581  1.369614   1.963611   3.732      0.3528386  0.5996505  102.3387   0.5735119  0.4925495  0.6544742 
960.8      0.239      276.86     -9999      -9999      5.755866   3.098      2.908      2.273      1.29997    0.1528387  0.1528387  0.3445705  1.897151   1.830746   3.612      0.3715399  0.6081456  102.3583   0.5810054  0.5068439  0.6551669 
961        0.24       287.02     -9999      -9999      5.828186   2.756      2.743      2.616      1.268749   0.162127   0.162127   0.355648   2.819311   1.744523   3.484      0.3928228  0.617381   102.3798   0.5864275  0.5169273  0.6559276 
961.2000000000001 0.243      293.37     -9999      -9999      5.859562   2.279      2.273      1.88       1.243844   0.1701725  0.1701725  0.3644841  3.973438   1.708389   3.409      0.4119277  0.6259569  102.3898   0.588823   0.5213642  0.6562819 
961.4      0.247      293.37     -9999      -9999      5.849696   1.926      1.6        1.626      1.234258   0.1738631  0.1738631  0.3678853  4.65076    1.719671   3.409      0.4228147  0.6311187  102.3798   0.5879462  0.5199649  0.6559276 
961.6      0.247      327.66     -9999      -9999      5.801338   2.181      2.235      1.689      1.246845   0.1706434  0.1706434  0.3634194  4.054041   1.776048   3.052      0.3820831  0.6043798  102.3586   0.5841697  0.5131608  0.6551787 
961.8      0.25       342.9      -9999      -9999      5.732365   2.506      2.299      2.159      1.281487   0.1600308  0.1600308  0.3511286  2.578204   1.859673   2.916      0.3324138  0.5763544  102.341    0.5790841  0.5036098  0.6545584 
962        0.252      334.01     -9999      -9999      5.661771   2.543      2.261      1.968      1.327033   0.1455038  0.1455038  0.3349688  1.387528   1.949342   2.994      0.283653   0.5538     102.3324   0.5741364  0.4940185  0.6542544 
962.2000000000001 0.254      323.85     -9999      -9999      5.586016   2.657      2.273      1.918      1.367664   0.1327706  0.1327706  0.3205529  0.806104   2.050381   3.088      0.2353488  0.5327496  102.3293   0.5690375  0.483929   0.654146  
962.4      0.256      323.85     -9999      -9999      5.490631   3.19       2.565      2.375      1.395449   0.1249741  0.1249741  0.3106947  0.5780718  2.185085   3.088      0.1939657  0.5127395  102.327    0.5627897  0.4715176  0.6540618 
962.6      0.256      320.04     -9999      -9999      5.381555   2.618      2.642      2.451      1.41275    0.1211481  0.1211481  0.3045562  0.4910377  2.350002   3.125      0.1764556  0.5038662  102.3209   0.555782   0.4577145  0.6538496 
962.8      0.258      313.69     -9999      -9999      5.287364   2.469      2.146      1.829      1.424093   0.1191246  0.1191246  0.3005316  0.4504377  2.502395   3.188      0.172076   0.5015753  102.3058   0.5497183  0.4461205  0.6533161 
963        0.254      313.69     -9999      -9999      5.233078   2.922      2.273      2.261      1.430959   0.1179265  0.1179265  0.2980956  0.4279995  2.594674   3.188      0.1647549  0.4971434  102.2787   0.5459669  0.4395723  0.6523614 
963.2000000000001 0.249      308.61     -9999      -9999      5.22092    3.333      3.086      2.794      1.432866   0.1177032  0.1177032  0.2974191  0.4239425  2.615804   3.24       0.1697029  0.5001286  102.2419   0.5445935  0.4381189  0.6510682 
963.4      0.244      308.61     -9999      -9999      5.226768   2.736      2.184      2.223      1.430637   0.1186217  0.1186217  0.2982101  0.4408792  2.605618   3.24       0.1753051  0.5023786  102.1999   0.5442072  0.4388175  0.649597  
963.6      0.244      289.56     -9999      -9999      5.214156   2.58       2.083      2.159      1.4277     0.1201793  0.1201793  0.2992522  0.4711619  2.627633   3.454      0.2087312  0.5213835  102.1537   0.5426452  0.4373125  0.6479778 
963.8      0.24       290.83     -9999      -9999      5.169408   2.618      2.248      2.134      1.428491   0.1210681  0.1210681  0.2989714  0.489366   2.707251   3.438      0.2120783  0.5212709  102.1024   0.5391008  0.4320145  0.646187  
964        0.237      293.37     -9999      -9999      5.125756   3.075      2.845      1.93       1.433709   0.1203635  0.1203635  0.2971201  0.4748778  2.787242   3.409      0.204908   0.5163095  102.0496   0.5356262  0.4269082  0.6443441 
964.2000000000001 0.238      280.67     -9999      -9999      5.13358    3.559      3.01       3.048      1.438352   0.118837   0.118837   0.2954726  0.4449459  2.772732   3.563      0.2125181  0.52299    102.0023   0.5352595  0.427819   0.6427001 
964.4      0.242      280.67     -9999      -9999      5.194342   3.431      2.984      2.629      1.437179   0.1182915  0.1182915  0.2958888  0.4347143  2.662594   3.563      0.2093564  0.5226193  101.9645   0.5381735  0.4349587  0.6413884 
964.6      0.242      264.16     -9999      -9999      5.246503   2.817      2.87       2.21       1.431729   0.1193871  0.1193871  0.2978224  0.4555092  2.57154    3.786      0.2377077  0.5403507  101.9315   0.540713   0.4411827  0.6402432 
964.8      0.24       275.59     -9999      -9999      5.231159   2.837      2.705      2.121      1.429668   0.1206378  0.1206378  0.2985538  0.4804667  2.597997   3.629      0.2294319  0.5330196  101.8937   0.5391392  0.4393426  0.6389357 
965        0.232      273.05     -9999      -9999      5.155723   3.357      3.175      2.705      1.436576   0.1199285  0.1199285  0.2961027  0.4661498  2.732079   3.662      0.2287473  0.5316811  101.8467   0.533861   0.4304071  0.6373149 
965.2000000000001 0.23       265.43     -9999      -9999      5.077284   3.237      3.467      2.832      1.449232   0.1172325  0.1172325  0.2916125  0.4155167  2.878837   3.767      0.2236892  0.5298693  101.7952   0.5284243  0.4213087  0.6355399 
965.4      0.233      265.43     -9999      -9999      5.039903   2.736      3.365      2.794      1.457903   0.1151264  0.1151264  0.288536   0.379821   2.951528   3.767      0.2113349  0.5235556  101.7483   0.5254835  0.4170406  0.6339265 
965.6      0.233      261.62     -9999      -9999      5.044867   2.943      2.731      2.197      1.454693   0.1163843  0.1163843  0.2896749  0.4007539  2.941769   3.822      0.2240598  0.5300406  101.7109   0.5251231  0.4176049  0.6326413 
