~Version
 VERS              .         2.0                           : CWLS LOG ASCII STANDARD - VERSION 2.0
 WRAP              .         NO                            : ONE LINE PER DEPTH STEP
 DLM               .         SPACE                         : DELIMITING CHARACTER(SPACE TAB OR COMMA)
~Well Information
#_______________________________________________________________________________
#
#PARAMETER_NAME    .UNIT     VALUE                         : DESCRIPTION
#_______________________________________________________________________________
STRT               .M        880                           : First reference value
STOP               .M        1186                          : Last reference value
STEP               .M        0.2                           : Step increment
NULL               .         -9999                         : Missing value
COMP               .                                       : Company
WELL               .         7844                          : Well name
FLD                .         Узень                         : Field
LOC                .                                       : Location
CNTY               .                                       : County
STAT               .                                       : State
CTRY               .                                       : Country
SRVC               .         UPGF                          : Service Company
DATE               .         01.06.1991                    : Date
UWI                .                                       : Unique Well ID
Block              .         7                             : 
Cartographic_reference_system .         GCS_WGS_1984                  : ESRI,PE_10_3_1- <?xml version="1.0" encoding="utf-16"?><ILateBoundCoordinateReferenceSystem name="GCS_WGS_1984"><AuthorityCode>EPSG,4326</AuthorityCode></ILateBoundCoordinateReferenceSystem>
Category           .         Нефтяная                      : 
Condition          .         Ликвидированная               : 
EREF               .m        93.6                          : 100.8
Gorizont           .         15                            : 14
HZCS               .GCS_WGS_1984 WGS_1984_EASE-Grid_2.0_Global : ESRI,PE_10_3_1- <?xml version="1.0" encoding="utf-16"?><ILateBoundCoordinateReferenceSystem name="WGS_1984_EASE-Grid_2.0_Global"><AuthorityCode>EPSG,6933</AuthorityCode></ILateBoundCoordinateReferenceSystem>
Interpretator      .         Сагынбаева А.Н.               : 
Kupol              .         основной                      : osnovnoi
LATI               .dega     0.6632616444                  : GCS_WGS_1984
LONG               .dega     0.4337798067                  : GCS_WGS_1984
Mud                .         глинистый                     : 
Mud_density        .         1,18                          : 
Mud_resistivity    .         0                             : 
NGDU               .         НГДУ-2                        : 
ORIGINALWELLNAME   .         7844                          : 
Spud_date          .         1991                          : 1961
Viscosity          .         40                            : 
X                  .m        41853.8                       : 46154
Y                  .m        84612.63                      : 85761.93
YEAR               .         2018                          : 
~Parameter Information Block
#_______________________________________________________________________________
#
#PARAMETER_NAME    .UNIT     VALUE                         : DESCRIPTION
#_______________________________________________________________________________
SET                .         LQC_KAZNIPI_Petrel            : 
TLFamily_CALI      .         Caliper                       : 
TLFamily_CILD      .         Conductivity                  : 
TLFamily_COLL      .         Net Reservoir Flag            : 
TLFamily_CSAT      .         Fluid Code                    : 
TLFamily_DEPT      .         Measured Depth                : 
TLFamily_GR        .         Russian Gamma Ray             : 
TLFamily_LLS       .         Lateral Log Resistivity       : 
TLFamily_MINV      .         Micro Gradient Resistivity    : 
TLFamily_MNOR      .         Micro Resistivity             : 
TLFamily_NGLD      .         Neutron Gamma                 : 
TLFamily_PHIE      .         Effective Porosity            : 
TLFamily_PHIEN     .         Effective Porosity            : 
TLFamily_PHIT      .         Porosity                      : 
TLFamily_PRMB      .         Permeability                  : 
TLFamily_PRMB_DGR  .         Permeability                  : 
TLFamily_RT        .         Formation Resistivity         : 
TLFamily_SOIL_ARCHIE .         Oil Saturation                : 
TLFamily_SOIL_DW   .         Oil Saturation                : 
TLFamily_SP        .         Spontaneous Potential         : 
TLFamily_VSH_FIN   .         Shale Volume                  : 
TLFamily_VSH_GR    .         Shale Volume                  : 
TLFamily_VSH_SP    .         Shale Volume                  : 
~Curve Information
#_______________________________________________________________________________
#
#LOGNAME           .UNIT     LOG_ID                        : DESCRIPTION
#_______________________________________________________________________________
DEPT               .M                                      : Колонка глубины 
CALI               .м                                      : Каверномер 
CILD               .мСм/м                                  : Индукционный каротаж 
COLL               .unitless                               : Описание 
CSAT               .unitless                               :  
GR                 .uR/h                                   : Гамма каротаж 
LLS                .Ohmm                                   : Боковой каротаж 
MINV               .Ohmm                                   : Микро-градиент зонд 
MNOR               .Ohmm                                   : Микро-потенциал зонд 
NGLD               .у.е.                                   : Показания зонда НГК-60 аппаратуры ДРСТ-3-90 
PHIE               .v/v                                    : Описание 
PHIEN              .v/v                                    :  
PHIT               .v/v                                    : Описание 
PRMB               .mD                                     :  
PRMB_DGR           .mD                                     :  
RT                 .ohmm                                   : УЭС пласта 
SOIL_ARCHIE        .v/v                                    :  
SOIL_DW            .v/v                                    :  
SP                 .мВ                                     : Потенциал самополяризации 
VSH_FIN            .v/v                                    : Описание 
VSH_GR             .v/v                                    : Shale volume 
VSH_SP             .v/v                                    : Shale Volume 
~Ascii
# ...
919.6      0.228      491.49     1          3          2.87762    1.751      3.048      2.21       1.481399   0.2363284  0.2363284  0.2801998  66.76265   115.3711   2.035      0.4371999  0.5036855  83.27866   0.1329436  0.09334503 0.1725421 
919.8      0.229      494.03     1          3          2.942198   1.803      2.515      2.388      1.487354   0.2337622  0.2337622  0.2780868  59.84137   107.2807   2.024      0.4303757  0.4978445  83.27127   0.1343167  0.0961578  0.1724756 
920        0.23       497.84     1          3          2.999736   1.884      1.994      2.159      1.487874   0.2331749  0.2331749  0.2779023  58.36115   100.5514   2.009      0.4271302  0.4952426  83.25612   0.1355374  0.09873528 0.1723396 
920.2000000000001 0.228      499.11     1          3          3.039022   1.898      1.981      1.918      1.483708   0.2343938  0.2343938  0.2793805  61.47528   96.20084   2.004      0.4290584  0.4972678  83.23071   0.1363233  0.1005347  0.1721119 
920.4      0.226      499.11     1          3          3.056087   1.898      2.667      2.464      1.480784   0.2353453  0.2353453  0.2804178  64.02116   94.37023   2.004      0.4310692  0.4992007  83.20028   0.1365833  0.1013265  0.1718402 
920.6      0.226      487.68     1          3          3.059839   1.843      2.184      2.184      1.482619   0.2347028  0.2347028  0.2797669  62.29082   93.97237   2.051      0.4358835  0.5037341  83.17487   0.1365577  0.1015015  0.171614  
920.8      0.225      486.41     1          3          3.060912   1.803      1.816      1.905      1.489556   0.2322551  0.2322551  0.2773057  56.1158    93.85898   2.056      0.4313589  0.4995893  83.16006   0.136517   0.1015515  0.1714825 
921        0.225      486.41     1          3          3.061818   1.751      2.731      2.54       1.50156    0.2279973  0.2279973  0.2730466  46.79729   93.76325   2.056      0.4221212  0.4911318  83.15438   0.136513   0.1015939  0.1714321 
921.2000000000001 0.225      480.06     1          3          3.058346   1.777      2.299      2.21       1.518172   0.2221294  0.2221294  0.2671524  36.43624   94.13051   2.083      0.4124563  0.4823555  83.15472   0.1364335  0.1014318  0.1714351 
921.4      0.225      480.06     1          3          3.043635   2.035      2.286      2.21       1.535199   0.2161903  0.2161903  0.2611114  28.28312   95.7025    2.083      0.3984231  0.4694305  83.16211   0.1361244  0.1007482  0.1715007 
921.6      0.225      481.33     1          3          3.01422    1.969      2.502      2.184      1.544573   0.213057   0.213057   0.2577854  24.74522   98.92495   2.078      0.3900376  0.4615336  83.18294   0.1355403  0.09939493 0.1716857 
921.8      0.225      471.17     1          3          2.98113    1.926      2.476      2.248      1.540973   0.2145224  0.2145224  0.2590628  26.34102   102.6799   2.122      0.3996006  0.4702014  83.2235    0.1349709  0.09789434 0.1720475 
922        0.226      461.01     1          3          2.968395   1.998      2.464      2.324      1.528171   0.2190736  0.2190736  0.2636049  31.98404   104.1627   2.169      0.4165083  0.4857892  83.28105   0.1349432  0.09732289 0.1725636 
922.2000000000001 0.226      462.28     1          3          2.992889   2.118      2.388      2.299      1.516005   0.2231167  0.2231167  0.2679214  38.00321   101.3295   2.163      0.424981   0.493811   83.34256   0.135772   0.09842499 0.1731191 
922.4      0.226      462.28     1          3          3.046895   2.042      2.299      2.4        1.510996   0.2244057  0.2244057  0.2696987  40.15096   95.35185   2.163      0.4278588  0.4969655  83.39588   0.1372516  0.1008993  0.1736039 
922.6      0.226      455.93     1          3          3.10061    2.149      2.502      2.413      1.512455   0.223411   0.223411   0.269181   38.48332   89.7563    2.193      0.4293415  0.4989227  83.4361    0.1386967  0.1034219  0.1739716 
922.8      0.227      449.58     1          3          3.124702   2.012      2.781      2.261      1.517111   0.2215341  0.2215341  0.2675289  35.52279   87.35445   2.224      0.428907   0.4988711  83.45911   0.1393782  0.1045738  0.1741826 
923        0.227      448.31     1          3          3.113695   2.057      2.654      2.311      1.523112   0.2194917  0.2194917  0.2654     32.55948   88.44379   2.231      0.4251299  0.4953728  83.45945   0.1391158  0.1040459  0.1741858 
923.2000000000001 0.228      450.85     1          3          3.086026   2.087      2.286      2.286      1.528015   0.2180006  0.2180006  0.2636601  30.5533    91.24226   2.218      0.4201187  0.4905047  83.43848   0.1383621  0.1027308  0.1739934 
923.4      0.228      450.85     1          3          3.062983   2.165      2.324      2.388      1.527227   0.2185069  0.2185069  0.2639398  31.22022   93.64037   2.218      0.4212891  0.4913158  83.40668   0.1376753  0.1016483  0.1737024 
923.6      0.228      442.595    1          3          3.053122   2.149      2.54       2.299      1.518369   0.2217694  0.2217694  0.2670827  35.88106   94.68575   2.259      0.4336003  0.502513   83.37759   0.1373129  0.1011885  0.1734373 
923.8      0.228      447.04     1          3          3.050082   2.149      2.476      2.197      1.505438   0.2263941  0.2263941  0.2716707  43.70455   95.01036   2.237      0.4411302  0.5092656  83.36868   0.1372017  0.1010472  0.1733562 
924        0.229      441.96     1          3          3.037113   2.072      1.664      2.07       1.495993   0.2297994  0.2297994  0.2750219  50.53593   96.40784   2.263      0.4513333  0.5185826  83.39864   0.1370378  0.1004465  0.173629  
924.2000000000001 0.23       441.96     1          3          3.00163    1.898      1.283      2.261      1.494855   0.2303597  0.2303597  0.2754256  51.75811   100.3372   2.263      0.4524958  0.5194856  83.47246   0.1365633  0.0988213  0.1743054 
924.4      0.231      415.29     1          3          2.95242    1.998      1.664      1.943      1.501006   0.228387   0.228387   0.273243   47.58154   106.0531   2.408      0.4642234  0.5303283  83.57387   0.1359273  0.09661074 0.1752439 
924.6      0.231      431.8      1          3          2.916483   2.103      1.537      1.905      1.509931   0.2253179  0.2253179  0.2700763  41.74382   110.432    2.316      0.4478716  0.5150909  83.67973   0.1356316  0.09502774 0.1762354 
924.8      0.232      448.31     1          3          2.918712   2.149      2.311      2.235      1.518582   0.2220807  0.2220807  0.2670071  36.36057   110.1551   2.231      0.4309711  0.4996164  83.77689   0.1361406  0.09512519 0.1771561 
925        0.234      461.01     1          3          2.963161   2.103      2.832      2.705      1.528707   0.2180295  0.2180295  0.2634149  30.59098   104.7783   2.169      0.4140753  0.4845341  83.8623    0.1375314  0.097089   0.1779739 
925.2000000000001 0.235      398.78     1          3          3.028777   2.134      2.692      2.642      1.546626   0.2110584  0.2110584  0.2570569  22.72329   97.31686   2.508      0.4369619  0.5071014  83.93918   0.1393896  0.1000623  0.1787168 
925.4      0.236      379.73     1          3          3.082826   2.229      2.324      2.286      1.578466   0.1992075  0.1992075  0.2457604  13.7077    91.57155   2.633      0.4212599  0.4940953  84.02551   0.1410693  0.1025798  0.1795588 
925.6      0.236      369.57     1          3          3.103341   2.943      2.375      2.324      1.623796   0.1827324  0.1827324  0.229677   6.789008   89.48078   2.706      0.3840263  0.4618123  84.16743   0.1422563  0.1035518  0.1809607 
925.8      0.233      327.66     1          3          3.08829    4.304      2.54       2.87       1.675163   0.1641603  0.1641603  0.2114522  3.074718   91.00998   3.052      0.3608825  0.4438693  84.44617   0.1433087  0.1028378  0.1837797 
926        0.23       327.66     1          3          3.048286   4.699      2.692      3.023      1.726567   0.1453781  0.1453781  0.1932142  1.380111   95.20267   3.052      0.2895393  0.3833625  84.93636   0.1449577  0.1009638  0.1889516 
