~Version
 VERS              .         2.0                           : CWLS LOG ASCII STANDARD - VERSION 2.0
 WRAP              .         NO                            : ONE LINE PER DEPTH STEP
 DLM               .         SPACE                         : DELIMITING CHARACTER(SPACE TAB OR COMMA)
~Well Information
#_______________________________________________________________________________
#
#PARAMETER_NAME    .UNIT     VALUE                         : DESCRIPTION
#_______________________________________________________________________________
STRT               .M        880                           : First reference value
STOP               .M        1186                          : Last reference value
STEP               .M        0.2                           : Step increment
NULL               .         -9999                         : Missing value
COMP               .                                       : Company
WELL               .         7844                          : Well name
FLD                .         Узень                         : Field
LOC                .                                       : Location
CNTY               .                                       : County
STAT               .                                       : State
CTRY               .                                       : Country
SRVC               .         UPGF                          : Service Company
DATE               .         01.06.1991                    : Date
UWI                .                                       : Unique Well ID
Block              .         7                             : 
Cartographic_reference_system .         GCS_WGS_1984                  : ESRI,PE_10_3_1- <?xml version="1.0" encoding="utf-16"?><ILateBoundCoordinateReferenceSystem name="GCS_WGS_1984"><AuthorityCode>EPSG,4326</AuthorityCode></ILateBoundCoordinateReferenceSystem>
Category           .         Нефтяная                      : 
Condition          .         Ликвидированная               : 
EREF               .m        93.6                          : 100.8
Gorizont           .         15                            : 14
HZCS               .GCS_WGS_1984 WGS_1984_EASE-Grid_2.0_Global : ESRI,PE_10_3_1- <?xml version="1.0" encoding="utf-16"?><ILateBoundCoordinateReferenceSystem name="WGS_1984_EASE-Grid_2.0_Global"><AuthorityCode>EPSG,6933</AuthorityCode></ILateBoundCoordinateReferenceSystem>
Interpretator      .         Сагынбаева А.Н.               : 
Kupol              .         основной                      : osnovnoi
LATI               .dega     0.6632616444                  : GCS_WGS_1984
LONG               .dega     0.4337798067                  : GCS_WGS_1984
Mud                .         глинистый                     : 
Mud_density        .         1,18                          : 
Mud_resistivity    .         0                             : 
NGDU               .         НГДУ-2                        : 
ORIGINALWELLNAME   .         7844                          : 
Spud_date          .         1991                          : 1961
Viscosity          .         40                            : 
X                  .m        41853.8                       : 46154
Y                  .m        84612.63                      : 85761.93
YEAR               .         2018                          : 
~Parameter Information Block
#_______________________________________________________________________________
#
#PARAMETER_NAME    .UNIT     VALUE                         : DESCRIPTION
#_______________________________________________________________________________
SET                .         LQC_KAZNIPI_Petrel            : 
TLFamily_CALI      .         Caliper                       : 
TLFamily_CILD      .         Conductivity                  : 
TLFamily_COLL      .         Net Reservoir Flag            : 
TLFamily_CSAT      .         Fluid Code                    : 
TLFamily_DEPT      .         Measured Depth                : 
TLFamily_GR        .         Russian Gamma Ray             : 
TLFamily_LLS       .         Lateral Log Resistivity       : 
TLFamily_MINV      .         Micro Gradient Resistivity    : 
TLFamily_MNOR      .         Micro Resistivity             : 
TLFamily_NGLD      .         Neutron Gamma                 : 
TLFamily_PHIE      .         Effective Porosity            : 
TLFamily_PHIEN     .         Effective Porosity            : 
TLFamily_PHIT      .         Porosity                      : 
TLFamily_PRMB      .         Permeability                  : 
TLFamily_PRMB_DGR  .         Permeability                  : 
TLFamily_RT        .         Formation Resistivity         : 
TLFamily_SOIL_ARCHIE .         Oil Saturation                : 
TLFamily_SOIL_DW   .         Oil Saturation                : 
TLFamily_SP        .         Spontaneous Potential         : 
TLFamily_VSH_FIN   .         Shale Volume                  : 
TLFamily_VSH_GR    .         Shale Volume                  : 
TLFamily_VSH_SP    .         Shale Volume                  : 
~Curve Information
#_______________________________________________________________________________
#
#LOGNAME           .UNIT     LOG_ID                        : DESCRIPTION
#_______________________________________________________________________________
DEPT               .M                                      : Колонка глубины 
CALI               .м                                      : Каверномер 
CILD               .мСм/м                                  : Индукционный каротаж 
COLL               .unitless                               : Описание 
CSAT               .unitless                               :  
GR                 .uR/h                                   : Гамма каротаж 
LLS                .Ohmm                                   : Боковой каротаж 
MINV               .Ohmm                                   : Микро-градиент зонд 
MNOR               .Ohmm                                   : Микро-потенциал зонд 
NGLD               .у.е.                                   : Показания зонда НГК-60 аппаратуры ДРСТ-3-90 
PHIE               .v/v                                    : Описание 
PHIEN              .v/v                                    :  
PHIT               .v/v                                    : Описание 
PRMB               .mD                                     :  
PRMB_DGR           .mD                                     :  
RT                 .ohmm                                   : УЭС пласта 
SOIL_ARCHIE        .v/v                                    :  
SOIL_DW            .v/v                                    :  
SP                 .мВ                                     : Потенциал самополяризации 
VSH_FIN            .v/v                                    : Описание 
VSH_GR             .v/v                                    : Shale volume 
VSH_SP             .v/v                                    : Shale Volume 
~Ascii
# ...
1182.4     -9999      314.96     -9999      -9999      8.713964   2.027      1.892      1.626      1.454835   0.1877961  0.1877961  0.2896244  8.42554    6.172085   3.175      0.4497439  0.5771642  -9999      0.3085706  0.3085706  -9999     
1182.6     -9999      314.96     -9999      -9999      8.963353   1.713      1.638      1.448      1.416      0.1898229  0.1898229  0.3034033  9.18627    4.723511   3.175      0.4548646  0.5904511  -9999      0.3441829  0.3441829  -9999     
1182.8     -9999      393.7      -9999      -9999      9.125677   1.64       1.384      1.105      1.378867   0.1946291  0.1946291  0.316578   11.27615   3.968747   2.54       0.4077255  0.5580437  -9999      0.3695422  0.3695422  -9999     
1183       -9999      393.7      -9999      -9999      9.19765    1.676      1.168      1.156      1.34921    0.2012461  0.2012461  0.3271002  14.95286   3.673905   2.54       0.4247231  0.572388   -9999      0.3813761  0.3813761  -9999     
1183.2     -9999      391.16     -9999      -9999      9.224589   1.803      1.181      1.486      1.336085   0.2044093  0.2044093  0.3317571  17.11253   3.56927    2.556      0.4341542  0.57996    -9999      0.3859024  0.3859024  -9999     
1183.4     -9999      374.65     -9999      -9999      9.250792   2.012      1.385      1.575      1.350754   0.1977349  0.1977349  0.3265525  12.87325   3.470359   2.669      0.4292597  0.5794542  -9999      0.3903564  0.3903564  -9999     
1183.6     -9999      374.65     -9999      -9999      9.290184   2.279      1.638      2.032      1.399163   0.1783175  0.1783175  0.3093768  5.623809   3.326788   2.669      0.3754962  0.5472327  -9999      0.3971494  0.3971494  -9999     
1183.8     -9999      372.11     -9999      -9999      9.336865   2.488      1.702      2.807      1.472622   -9999      -9999      -9999      -9999      -9999      2.687      -9999      -9999      -9999      0.4053526  0.4053526  -9999     
1184       -9999      372.11     -9999      -9999      9.380469   2.363      2.324      3.315      1.548421   -9999      -9999      -9999      -9999      -9999      2.687      -9999      -9999      -9999      0.4131679  0.4131679  -9999     
1184.2     -9999      377.19     -9999      -9999      9.410743   2.279      2.464      2.959      1.603484   -9999      -9999      -9999      -9999      -9999      2.651      -9999      -9999      -9999      0.4186824  0.4186824  -9999     
1184.4     -9999      392.43     -9999      -9999      9.426072   1.991      1.765      2.172      1.627139   -9999      -9999      -9999      -9999      -9999      2.548      -9999      -9999      -9999      0.4215028  0.4215028  -9999     
1184.6     -9999      398.145    -9999      -9999      9.401982   1.983      1.486      1.727      1.622547   -9999      -9999      -9999      -9999      -9999      2.512      -9999      -9999      -9999      0.4170791  0.4170791  -9999     
1184.8     -9999      403.86     -9999      -9999      9.242376   1.969      1.432      1.788      1.60064    -9999      -9999      -9999      -9999      -9999      2.476      -9999      -9999      -9999      0.3889204  0.3889204  -9999     
1185       -9999      383.54     -9999      -9999      8.655225   1.983      1.384      1.842      1.573002   -9999      -9999      -9999      -9999      -9999      2.607      -9999      -9999      -9999      0.3007336  0.3007336  -9999     
1185.2     -9999      276.86     -9999      -9999      -9999      1.983      1.384      1.791      -9999      -9999      -9999      -9999      -9999      -9999      3.612      -9999      -9999      -9999      -9999      -9999      -9999     
1185.4     -9999      276.86     -9999      -9999      -9999      2.012      1.384      1.791      -9999      -9999      -9999      -9999      -9999      -9999      3.612      -9999      -9999      -9999      -9999      -9999      -9999     
1185.6     -9999      252.73     -9999      -9999      -9999      1.998      1.384      1.791      -9999      -9999      -9999      -9999      -9999      -9999      3.957      -9999      -9999      -9999      -9999      0.02       -9999     
1185.8     -9999      252.73     -9999      -9999      -9999      1.969      1.384      1.803      -9999      -9999      -9999      -9999      -9999      -9999      3.957      -9999      -9999      -9999      -9999      0.02       -9999     
1186       -9999      251.46     -9999      -9999      -9999      -9999      1.384      1.791      -9999      -9999      -9999      -9999      -9999      -9999      3.977      -9999      -9999      -9999      -9999      0.02       -9999     
