~Version
 VERS              .         2.0                           : CWLS LOG ASCII STANDARD - VERSION 2.0
 WRAP              .         NO                            : ONE LINE PER DEPTH STEP
 DLM               .         SPACE                         : DELIMITING CHARACTER(SPACE TAB OR COMMA)
~Well Information
#_______________________________________________________________________________
#
#PARAMETER_NAME    .UNIT     VALUE                         : DESCRIPTION
#_______________________________________________________________________________
STRT               .M        880                           : First reference value
STOP               .M        1186                          : Last reference value
STEP               .M        0.2                           : Step increment
NULL               .         -9999                         : Missing value
COMP               .                                       : Company
WELL               .         7844                          : Well name
FLD                .         Узень                         : Field
LOC                .                                       : Location
CNTY               .                                       : County
STAT               .                                       : State
CTRY               .                                       : Country
SRVC               .         UPGF                          : Service Company
DATE               .         01.06.1991                    : Date
UWI                .                                       : Unique Well ID
Block              .         7                             : 
Cartographic_reference_system .         GCS_WGS_1984                  : ESRI,PE_10_3_1- <?xml version="1.0" encoding="utf-16"?><ILateBoundCoordinateReferenceSystem name="GCS_WGS_1984"><AuthorityCode>EPSG,4326</AuthorityCode></ILateBoundCoordinateReferenceSystem>
Category           .         Нефтяная                      : 
Condition          .         Ликвидированная               : 
EREF               .m        93.6                          : 100.8
Gorizont           .         15                            : 14
HZCS               .GCS_WGS_1984 WGS_1984_EASE-Grid_2.0_Global : ESRI,PE_10_3_1- <?xml version="1.0" encoding="utf-16"?><ILateBoundCoordinateReferenceSystem name="WGS_1984_EASE-Grid_2.0_Global"><AuthorityCode>EPSG,6933</AuthorityCode></ILateBoundCoordinateReferenceSystem>
Interpretator      .         Сагынбаева А.Н.               : 
Kupol              .         основной                      : osnovnoi
LATI               .dega     0.6632616444                  : GCS_WGS_1984
LONG               .dega     0.4337798067                  : GCS_WGS_1984
Mud                .         глинистый                     : 
Mud_density        .         1,18                          : 
Mud_resistivity    .         0                             : 
NGDU               .         НГДУ-2                        : 
ORIGINALWELLNAME   .         7844                          : 
Spud_date          .         1991                          : 1961
Viscosity          .         40                            : 
X                  .m        41853.8                       : 46154
Y                  .m        84612.63                      : 85761.93
YEAR               .         2018                          : 
~Parameter Information Block
#_______________________________________________________________________________
#
#PARAMETER_NAME    .UNIT     VALUE                         : DESCRIPTION
#_______________________________________________________________________________
SET                .         LQC_KAZNIPI_Petrel            : 
TLFamily_CALI      .         Caliper                       : 
TLFamily_CILD      .         Conductivity                  : 
TLFamily_COLL      .         Net Reservoir Flag            : 
TLFamily_CSAT      .         Fluid Code                    : 
TLFamily_DEPT      .         Measured Depth                : 
TLFamily_GR        .         Russian Gamma Ray             : 
TLFamily_LLS       .         Lateral Log Resistivity       : 
TLFamily_MINV      .         Micro Gradient Resistivity    : 
TLFamily_MNOR      .         Micro Resistivity             : 
TLFamily_NGLD      .         Neutron Gamma                 : 
TLFamily_PHIE      .         Effective Porosity            : 
TLFamily_PHIEN     .         Effective Porosity            : 
TLFamily_PHIT      .         Porosity                      : 
TLFamily_PRMB      .         Permeability                  : 
TLFamily_PRMB_DGR  .         Permeability                  : 
TLFamily_RT        .         Formation Resistivity         : 
TLFamily_SOIL_ARCHIE .         Oil Saturation                : 
TLFamily_SOIL_DW   .         Oil Saturation                : 
TLFamily_SP        .         Spontaneous Potential         : 
TLFamily_VSH_FIN   .         Shale Volume                  : 
TLFamily_VSH_GR    .         Shale Volume                  : 
TLFamily_VSH_SP    .         Shale Volume                  : 
~Curve Information
#_______________________________________________________________________________
#
#LOGNAME           .UNIT     LOG_ID                        : DESCRIPTION
#_______________________________________________________________________________
DEPT               .M                                      : Колонка глубины 
CALI               .м                                      : Каверномер 
CILD               .мСм/м                                  : Индукционный каротаж 
COLL               .unitless                               : Описание 
CSAT               .unitless                               :  
GR                 .uR/h                                   : Гамма каротаж 
LLS                .Ohmm                                   : Боковой каротаж 
MINV               .Ohmm                                   : Микро-градиент зонд 
MNOR               .Ohmm                                   : Микро-потенциал зонд 
NGLD               .у.е.                                   : Показания зонда НГК-60 аппаратуры ДРСТ-3-90 
PHIE               .v/v                                    : Описание 
PHIEN              .v/v                                    :  
PHIT               .v/v                                    : Описание 
PRMB               .mD                                     :  
PRMB_DGR           .mD                                     :  
RT                 .ohmm                                   : УЭС пласта 
SOIL_ARCHIE        .v/v                                    :  
SOIL_DW            .v/v                                    :  
SP                 .мВ                                     : Потенциал самополяризации 
VSH_FIN            .v/v                                    : Описание 
VSH_GR             .v/v                                    : Shale volume 
VSH_SP             .v/v                                    : Shale Volume 
~Ascii
# ...
1121.2     0.233      173.99     1          2          7.130486   4.874      2.159      2.553      1.485571   0.2292717  0.2292717  0.2787194  49.41125   34.89346   5.747      0.6449898  0.6999314  63.13789   0.1498416  0.1521109  0.1475722 
1121.4     0.233      173.99     1          2          7.074262   5.093      1.842      2.438      1.485858   0.2299034  0.2299034  0.2786177  50.76051   37.04887   5.747      0.6458395  0.7002171  62.97225   0.1476191  0.1484332  0.1468049 
1121.6     0.233      172.72     1          2          7.048263   5.093      1.676      2.286      1.478659   0.2327785  0.2327785  0.2811718  57.38259   38.09008   5.79       0.6508758  0.7044586  62.91214   0.1466464  0.1467628  0.1465299 
1121.8     0.233      172.72     1          2          7.072145   5.205      2.045      2.502      1.463084   0.2379409  0.2379409  0.2866977  71.51567   37.13257   5.79       0.6574823  0.7104581  63.05776   0.1477479  0.1482965  0.1471993 
1122       0.233      173.99     1          2          7.132501   5.055      2.095      2.553      1.44164    0.244559   0.244559   0.2943061  94.83839   34.81859   5.747      0.6643975  0.7170389  63.4905    0.1507487  0.1522444  0.149253  
1122.2     0.233      201.93     1          2          7.206404   5.13       1.943      2.426      1.418759   0.2512703  0.2512703  0.3024244  126.2682   32.18066   4.952      0.6484981  0.7033361  64.1937    0.1550125  0.1572219  0.1528031 
1122.4     0.233      201.93     1          2          7.279093   5.093      2.007      2.438      1.400168   0.256246   0.256246   0.3090204  156.119    29.7811    4.952      0.6544501  0.7094264  65.06233   0.1599225  0.1622762  0.1575687 
1122.6     0.233      229.87     1          2          7.344793   4.368      1.943      2.095      1.389812   0.2581952  0.2581952  0.3126946  169.652    27.76662   4.35       0.6351957  0.6930639  66.0166    0.1651498  0.1669843  0.1633154 
1122.8     0.233      229.87     1          2          7.411479   3.357      1.638      1.727      1.387233   0.2571758  0.2571758  0.3136098  162.4344   25.86115   4.35       0.6339366  0.6930684  67.04184   0.171012   0.1719028  0.1701212 
1123       0.233      238.76     -9999      -9999      7.492049   2.9        1.537      2.019      1.388709   0.2543676  0.2543676  0.3130859  144.0998   23.73261   4.188      0.6237783  0.6854313  68.09441   0.1779342  0.1780388  0.1778296 
1123.2     0.235      232.41     -9999      -9999      7.579075   2.796      1.435      1.956      1.390637   0.2513255  0.2513255  0.3124019  126.566    21.62986   4.303      0.6246175  0.6876904  69.02016   0.1850797  0.1849129  0.1852466 
1123.4     0.236      232.41     -9999      -9999      7.644767   3.098      1.562      1.994      1.392098   0.2491011  0.2491011  0.3118835  115.1107   20.16691   4.303      0.6216997  0.6862178  69.60143   0.1902496  0.190277   0.1902222 
1123.6     0.236      224.79     1          2          7.672525   3.357      1.765      2.121      1.395071   0.247525   0.247525   0.3108289  107.6271   19.57887   4.449      0.6255124  0.6899765  69.6976    0.19183    0.1925902  0.1910698 
1123.8     0.236      224.79     1          2          7.666141   3.665      1.867      2.261      1.402092   0.2456217  0.2456217  0.3083379  99.2356    19.71257   4.449      0.6229862  0.687515   69.35042   0.1900492  0.1920557  0.1880428 
1124       0.235      220.98     1          2          7.624615   4.15       1.791      2.248      1.412858   0.2432056  0.2432056  0.3045179  89.51926   20.60484   4.525      0.6227369  0.6866038  68.74458   0.1857948  0.1886152  0.1829745 
1124.2     0.233      210.82     1          2          7.535109   5.205      1.88       2.197      1.423416   0.2415393  0.2415393  0.3007719  83.37798   22.66781   4.743      0.6287592  0.6907953  68.06165   0.1794929  0.1814075  0.1775783 
1124.4     0.233      210.82     1          2          7.398664   4.53       1.829      2.21       1.429734   0.2418609  0.2418609  0.2985303  84.52952   26.2169    4.743      0.6291892  0.6896281  67.37841   0.1717255  0.1709464  0.1725046 
1124.6     0.233      198.12     1          2          7.242013   4.336      1.689      2.159      1.432331   0.2435997  0.2435997  0.297609   91.0366    30.98192   5.047      0.6420833  0.6994926  66.68133   0.1636645  0.1596779  0.1676511 
1124.8     0.234      198.12     1          2          7.095696   4.06       1.943      2.476      1.436014   0.2447048  0.2447048  0.2963021  95.42975   36.21188   5.047      0.6434914  0.6993039  65.94846   0.1563557  0.1498247  0.1628867 
1125       0.234      184.15     1          2          6.974048   4.15       1.994      2.489      1.444409   0.243732   0.243732   0.2933236  91.55158   41.2261    5.43       0.6543236  0.7079161  65.21615   0.1502776  0.1420972  0.158458  
1125.2     0.233      144.78     1          2          6.878502   5.13       1.842      2.591      1.455757   0.2412666  0.2412666  0.2892976  82.414     45.64661   6.907      0.6884828  0.737824   64.56518   0.1455484  0.1363083  0.1547885 
1125.4     0.232      144.78     1          2          6.808136   6.773      2.019      2.68       1.464092   0.2394355  0.2394355  0.2863401  76.22269   49.20253   6.907      0.6864088  0.7354141  64.0536    0.1421353  0.1321963  0.1520744 
1125.6     0.232      129.54     1          2          6.771481   10.199     1.918      2.603      1.46427    0.2400348  0.2400348  0.2862771  78.19593   51.16325   7.72       0.7030113  0.7499667  63.67379   0.1401281  0.1301037  0.1501526 
1125.8     0.232      129.54     1          2          6.795283   8.251      1.74       2.311      1.457273   0.2425339  0.2425339  0.2887596  86.99097   49.88132   7.72       0.7056785  0.7522974  63.37535   0.1400779  0.1314587  0.148697  
1126       0.232      129.54     1          2          6.903604   6.159      1.829      2.146      1.45074    0.2440055  0.2440055  0.2910776  92.62562   44.44133   7.72       0.707225   0.7540671  63.11808   0.1426428  0.1378059  0.1474797 
1126.2     0.232      124.46     1          2          7.071929   5.766      1.715      2.388      1.452917   0.241676   0.241676   0.2903049  83.86568   37.14109   8.035      0.7102577  0.7575832  62.89192   0.1473602  0.1482826  0.1464379 
1126.4     0.232      124.46     1          2          7.220128   6.295      1.689      2.324      1.465845   0.2356084  0.2356084  0.285718   64.74366   31.71326   8.035      0.7037696  0.7526993  62.69027   0.1518474  0.1581639  0.1455308 
1126.6     0.232      124.46     1          2          7.275585   6.025      1.676      2.273      1.484654   0.2284467  0.2284467  0.2790448  47.7029    29.8927    8.035      0.6956975  0.7460097  62.48463   0.1533277  0.1620286  0.1446268 
1126.8     0.232      124.46     1          2          7.236914   5.559      1.651      2.223      1.500863   0.2233101  0.2233101  0.2732937  38.31793   31.1508    8.035      0.6896101  0.7404549  62.24688   0.1514657  0.1593239  0.1436075 
1127       0.232      124.46     1          2          7.155351   5.321      1.715      2.261      1.505342   0.2228104  0.2228104  0.2717048  37.50999   33.98066   8.035      0.6890039  0.7393327  61.9965    0.148165   0.1537663  0.1425636 
1127.2     0.232      116.84     1          2          7.071981   5.399      1.842      2.451      1.492378   0.2284553  0.2284553  0.2763043  47.72036   37.13903   8.559      0.7045962  0.7525052  61.78582   0.1449972  0.1482859  0.1417084 
1127.4     0.231      116.84     1          2          6.997774   5.724      1.651      2.184      1.465146   0.2389924  0.2389924  0.2859663  74.79577   40.19642   8.559      0.7159725  0.7619503  61.63729   0.1423452  0.1435724  0.1411179 
1127.6     0.231      107.95     1          2          6.938194   6.249      1.803      2.35       1.435809   0.2500767  0.2500767  0.296375   120.0009   42.83236   9.264      0.7369242  0.7801187  61.53046   0.1402981  0.1398966  0.1406995 
1127.8     0.231      107.95     1          2          6.903602   6.773      1.727      2.464      1.416796   0.257225   0.257225   0.3031208  162.7756   44.44141   9.264      0.7433032  0.7855296  61.4403    0.1390781  0.1378058  0.1403505 
