~Version
 VERS              .         2.0                           : CWLS LOG ASCII STANDARD - VERSION 2.0
 WRAP              .         NO                            : ONE LINE PER DEPTH STEP
 DLM               .         SPACE                         : DELIMITING CHARACTER(SPACE TAB OR COMMA)
~Well Information
#_______________________________________________________________________________
#
#PARAMETER_NAME    .UNIT     VALUE                         : DESCRIPTION
#_______________________________________________________________________________
STRT               .M        880                           : First reference value
STOP               .M        1186                          : Last reference value
STEP               .M        0.2                           : Step increment
NULL               .         -9999                         : Missing value
COMP               .                                       : Company
WELL               .         7844                          : Well name
FLD                .         Узень                         : Field
LOC                .                                       : Location
CNTY               .                                       : County
STAT               .                                       : State
CTRY               .                                       : Country
SRVC               .         UPGF                          : Service Company
DATE               .         01.06.1991                    : Date
UWI                .                                       : Unique Well ID
Block              .         7                             : 
Cartographic_reference_system .         GCS_WGS_1984                  : ESRI,PE_10_3_1- <?xml version="1.0" encoding="utf-16"?><ILateBoundCoordinateReferenceSystem name="GCS_WGS_1984"><AuthorityCode>EPSG,4326</AuthorityCode></ILateBoundCoordinateReferenceSystem>
Category           .         Нефтяная                      : 
Condition          .         Ликвидированная               : 
EREF               .m        93.6                          : 100.8
Gorizont           .         15                            : 14
HZCS               .GCS_WGS_1984 WGS_1984_EASE-Grid_2.0_Global : ESRI,PE_10_3_1- <?xml version="1.0" encoding="utf-16"?><ILateBoundCoordinateReferenceSystem name="WGS_1984_EASE-Grid_2.0_Global"><AuthorityCode>EPSG,6933</AuthorityCode></ILateBoundCoordinateReferenceSystem>
Interpretator      .         Сагынбаева А.Н.               : 
Kupol              .         основной                      : osnovnoi
LATI               .dega     0.6632616444                  : GCS_WGS_1984
LONG               .dega     0.4337798067                  : GCS_WGS_1984
Mud                .         глинистый                     : 
Mud_density        .         1,18                          : 
Mud_resistivity    .         0                             : 
NGDU               .         НГДУ-2                        : 
ORIGINALWELLNAME   .         7844                          : 
Spud_date          .         1991                          : 1961
Viscosity          .         40                            : 
X                  .m        41853.8                       : 46154
Y                  .m        84612.63                      : 85761.93
YEAR               .         2018                          : 
~Parameter Information Block
#_______________________________________________________________________________
#
#PARAMETER_NAME    .UNIT     VALUE                         : DESCRIPTION
#_______________________________________________________________________________
SET                .         LQC_KAZNIPI_Petrel            : 
TLFamily_CALI      .         Caliper                       : 
TLFamily_CILD      .         Conductivity                  : 
TLFamily_COLL      .         Net Reservoir Flag            : 
TLFamily_CSAT      .         Fluid Code                    : 
TLFamily_DEPT      .         Measured Depth                : 
TLFamily_GR        .         Russian Gamma Ray             : 
TLFamily_LLS       .         Lateral Log Resistivity       : 
TLFamily_MINV      .         Micro Gradient Resistivity    : 
TLFamily_MNOR      .         Micro Resistivity             : 
TLFamily_NGLD      .         Neutron Gamma                 : 
TLFamily_PHIE      .         Effective Porosity            : 
TLFamily_PHIEN     .         Effective Porosity            : 
TLFamily_PHIT      .         Porosity                      : 
TLFamily_PRMB      .         Permeability                  : 
TLFamily_PRMB_DGR  .         Permeability                  : 
TLFamily_RT        .         Formation Resistivity         : 
TLFamily_SOIL_ARCHIE .         Oil Saturation                : 
TLFamily_SOIL_DW   .         Oil Saturation                : 
TLFamily_SP        .         Spontaneous Potential         : 
TLFamily_VSH_FIN   .         Shale Volume                  : 
TLFamily_VSH_GR    .         Shale Volume                  : 
TLFamily_VSH_SP    .         Shale Volume                  : 
~Curve Information
#_______________________________________________________________________________
#
#LOGNAME           .UNIT     LOG_ID                        : DESCRIPTION
#_______________________________________________________________________________
DEPT               .M                                      : Колонка глубины 
CALI               .м                                      : Каверномер 
CILD               .мСм/м                                  : Индукционный каротаж 
COLL               .unitless                               : Описание 
CSAT               .unitless                               :  
GR                 .uR/h                                   : Гамма каротаж 
LLS                .Ohmm                                   : Боковой каротаж 
MINV               .Ohmm                                   : Микро-градиент зонд 
MNOR               .Ohmm                                   : Микро-потенциал зонд 
NGLD               .у.е.                                   : Показания зонда НГК-60 аппаратуры ДРСТ-3-90 
PHIE               .v/v                                    : Описание 
PHIEN              .v/v                                    :  
PHIT               .v/v                                    : Описание 
PRMB               .mD                                     :  
PRMB_DGR           .mD                                     :  
RT                 .ohmm                                   : УЭС пласта 
SOIL_ARCHIE        .v/v                                    :  
SOIL_DW            .v/v                                    :  
SP                 .мВ                                     : Потенциал самополяризации 
VSH_FIN            .v/v                                    : Описание 
VSH_GR             .v/v                                    : Shale volume 
VSH_SP             .v/v                                    : Shale Volume 
~Ascii
# ...
1080.4     0.236      442.59     -9999      -9999      7.840595   2.637      1.334      1.638      1.344399   0.1537104  0.1537104  0.3288072  1.969012   2.517768   2.259      0.22057    0.4908968  91.85387   0.5305963  0.4450062  0.6161864 
1080.6     0.236      442.59     -9999      -9999      7.959281   2.279      1.664      1.854      1.325784   0.1572225  0.1572225  0.3354118  2.287176   2.301823   2.259      0.2357561  0.5014319  91.9178    0.5399678  0.4616025  0.6183332 
1080.8     0.235      442.59     -9999      -9999      8.079993   2.229      1.473      1.753      1.309401   0.1600041  0.1600041  0.3412246  2.575264   2.10118    2.259      0.2473407  0.509991   91.94324   0.5491532  0.479117   0.6191894 
1081       0.239      441.32     -9999      -9999      8.191437   2.776      1.295      1.587      1.295069   0.1624736  0.1624736  0.3463095  2.861302   1.931505   2.266      0.2583919  0.5180278  91.91624   0.5570784  0.4958762  0.6182805 
1081.2     0.239      438.78     -9999      -9999      8.333548   3.008      1.334      1.613      1.281803   0.1639852  0.1639852  0.3510163  3.051845   1.734867   2.279      0.2663216  0.5250876  91.83105   0.5667608  0.5181003  0.6154213 
1081.4     0.242      438.78     -9999      -9999      8.537772   2.599      1.575      2.057      1.271847   0.1627085  0.1627085  0.3545488  2.890108   1.486809   2.279      0.26131    0.526645   91.69489   0.5813342  0.5517936  0.6108747 
1081.6     0.242      441.32     -9999      -9999      8.769055   2.312      1.473      1.778      1.269437   0.1577948  0.1577948  0.3554036  2.343688   1.248434   2.266      0.239276   0.5205208  91.51845   0.5988148  0.5926045  0.6050251 
1081.8     0.243      441.32     -9999      -9999      8.952978   2.087      1.46       1.575      1.275165   0.1511842  0.1511842  0.3533715  1.767896   1.086465   2.266      0.2103862  0.5110744  91.30998   0.6126887  0.6272023  0.5981752 
1082       0.24       441.32     -9999      -9999      9.039778   1.926      1.334      1.587      1.284103   0.1464206  0.1464206  0.3502004  1.442853   1.017501   2.266      0.1880584  0.502444   91.08338   0.6175146  0.6442247  0.5908043 
1082.2     0.237      447.67     -9999      -9999      9.023805   1.857      1.384      1.41       1.290462   0.1458452  0.1458452  0.3479442  1.407876   1.029855   2.234      0.1798134  0.4961122  90.86531   0.6124212  0.6410579  0.5837844 
1082.4     0.239      447.67     -9999      -9999      8.922283   1.843      1.321      1.397      1.293343   0.1490354  0.1490354  0.3469217  1.613077   1.111956   2.234      0.1951258  0.499192   90.68457   0.5996556  0.6212909  0.5780204 
1082.6     0.239      451.48     -9999      -9999      8.761253   1.954      1.334      1.422      1.296604   0.1535608  0.1535608  0.3457651  1.956484   1.255815   2.215      0.2126746  0.5015683  90.5479    0.5824372  0.5911798  0.5736945 
1082.8     0.24       451.48     -9999      -9999      8.578938   2.103      1.372      1.422      1.302789   0.1573165  0.1573165  0.3435705  2.296363   1.441277   2.215      0.2290706  0.5040935  90.42941   0.5644062  0.5588462  0.5699662 
1083       0.24       452.75     -9999      -9999      8.420581   2.229      1.27       1.41       1.30854    0.1603665  0.1603665  0.3415299  2.615375   1.624457   2.209      0.2408909  0.5051757  90.29491   0.5489801  0.5322     0.5657601 
1083.2     0.239      450.21     -9999      -9999      8.318455   2.381      1.359      1.524      1.307963   0.1641423  0.1641423  0.3417348  3.072353   1.754763   2.221      0.258011   0.5110378  90.12953   0.5381591  0.5156935  0.5606247 
1083.4     0.238      450.21     -9999      -9999      8.271493   2.506      1.384      1.676      1.300288   0.1690716  0.1690716  0.3444577  3.791179   1.818142   2.221      0.276888   0.518896   89.93613   0.5314732  0.5082759  0.5546705 
1083.6     0.238      445.13     -9999      -9999      8.248914   2.488      1.359      1.715      1.292582   0.1734986  0.1734986  0.3471918  4.579029   1.849424   2.247      0.2968356  0.528708   89.71526   0.5263429  0.5047476  0.5479381 
1083.8     0.237      445.13     -9999      -9999      8.217753   2.213      1.448      1.575      1.293992   0.1750212  0.1750212  0.3466916  4.886243   1.89348    2.247      0.3021663  0.529873   89.46875   0.5202134  0.4999186  0.5405082 
1084       0.237      443.86     -9999      -9999      8.166471   2.165      1.473      1.651      1.307565   0.1727236  0.1727236  0.3418761  4.430143   1.968286   2.253      0.2949711  0.5240279  89.21982   0.5125833  0.4920714  0.5330951 
1084.2     0.237      446.4      -9999      -9999      8.101683   2.118      1.422      1.575      1.328011   0.1680997  0.1680997  0.3346218  3.63725    2.067029   2.24       0.2761476  0.511231   89.00912   0.5046122  0.4823337  0.5268907 
1084.4     0.237      446.4      -9999      -9999      8.033425   2.213      1.384      1.549      1.346542   0.1638674  0.1638674  0.3280469  3.03655    2.176424   2.24       0.2598916  0.5003495  88.8671    0.4975137  0.4722829  0.5227444 
1084.6     0.237      443.86     -9999      -9999      7.978165   2.657      1.435      1.689      1.357514   0.1616215  0.1616215  0.3241541  2.759176   2.269214   2.253      0.2529732  0.495449   88.79832   0.4925232  0.4642996  0.5207468 
1084.8     0.237      443.86     -9999      -9999      7.961213   2.312      1.435      1.956      1.361905   0.1604907  0.1604907  0.322596   2.629269   2.298466   2.253      0.2483912  0.492583   88.79251   0.491228   0.4618776  0.5205785 
1085       0.236      445.13     -9999      -9999      7.988134   1.926      1.27       1.638      1.366334   0.1580591  0.1580591  0.3210248  2.370259   2.252187   2.247      0.2373768  0.4873822  88.83948   0.4938356  0.4657297  0.5219414 
1085.2     0.236      443.86     -9999      -9999      8.015384   2.103      1.219      1.41       1.37837    0.152714   0.152714   0.3167543  1.887083   2.206294   2.253      0.2151634  0.476982   88.92812   0.497092   0.4696615  0.5245224 
1085.4     0.236      443.86     -9999      -9999      7.980623   2.543      1.219      1.435      1.400481   0.145143   0.145143   0.3089094  1.366337   2.265004   2.253      0.1796252  0.4584235  89.0426    0.496262   0.4646518  0.5278723 
1085.6     0.236      436.24     -9999      -9999      7.862363   2.965      1.257      1.524      1.427962   0.137524   0.137524   0.299159   0.987269   2.476698   2.292      0.1470761  0.4409557  89.16929   0.489803   0.4480048  0.5316013 
1085.8     0.236      436.24     -9999      -9999      7.690734   3.406      1.41       1.587      1.453098   0.1317728  0.1317728  0.2902409  0.772521   2.819606   2.292      0.1147444  0.4210724  89.30132   0.4802063  0.4249004  0.5355122 
1086       0.237      432.43     -9999      -9999      7.518748   3.357      1.397      1.778      1.470309   0.1286624  0.1286624  0.2841345  0.6765466  3.210862   2.313      0.09999409 0.410741   89.42879   0.4711276  0.4029431  0.5393121 
1086.2     0.237      426.08     -9999      -9999      7.401665   3.482      1.486      1.994      1.477263   0.1280219  0.1280219  0.2816672  0.6583143  3.507837   2.347      0.1022421  0.4107267  89.53632   0.465592   0.388648   0.5425361 
1086.4     0.237      426.08     -9999      -9999      7.381779   3.665      1.435      1.905      1.473727   0.129255   0.129255   0.2829218  0.6938637  3.560936   2.347      0.1097064  0.4144725  89.61955   0.4656569  0.386271   0.5450429 
1086.6     0.237      423.54     -9999      -9999      7.471018   3.213      1.448      1.968      1.461268   0.1315362  0.1315362  0.2873422  0.7647634  3.328761   2.361      0.1256128  0.4256225  89.69175   0.4721394  0.3970532  0.5472256 
1086.8     0.237      423.54     -9999      -9999      7.646859   2.58       1.422      1.968      1.44338    0.1338402  0.1338402  0.2936889  0.8437291  2.914641   2.361      0.1387373  0.4370867  89.76975   0.4843901  0.4191877  0.5495924 
1087       0.237      422.27     -9999      -9999      7.8599     2.363      1.575      1.791      1.425215   0.1351327  0.1351327  0.3001336  0.8915466  2.48131    2.368      0.1471023  0.4474861  89.85997   0.5000027  0.4476645  0.552341  
