~Version
 VERS              .         2.0                           : CWLS LOG ASCII STANDARD - VERSION 2.0
 WRAP              .         NO                            : ONE LINE PER DEPTH STEP
 DLM               .         SPACE                         : DELIMITING CHARACTER(SPACE TAB OR COMMA)
~Well Information
#_______________________________________________________________________________
#
#PARAMETER_NAME    .UNIT     VALUE                         : DESCRIPTION
#_______________________________________________________________________________
STRT               .M        880                           : First reference value
STOP               .M        1186                          : Last reference value
STEP               .M        0.2                           : Step increment
NULL               .         -9999                         : Missing value
COMP               .                                       : Company
WELL               .         7844                          : Well name
FLD                .         Узень                         : Field
LOC                .                                       : Location
CNTY               .                                       : County
STAT               .                                       : State
CTRY               .                                       : Country
SRVC               .         UPGF                          : Service Company
DATE               .         01.06.1991                    : Date
UWI                .                                       : Unique Well ID
Block              .         7                             : 
Cartographic_reference_system .         GCS_WGS_1984                  : ESRI,PE_10_3_1- <?xml version="1.0" encoding="utf-16"?><ILateBoundCoordinateReferenceSystem name="GCS_WGS_1984"><AuthorityCode>EPSG,4326</AuthorityCode></ILateBoundCoordinateReferenceSystem>
Category           .         Нефтяная                      : 
Condition          .         Ликвидированная               : 
EREF               .m        93.6                          : 100.8
Gorizont           .         15                            : 14
HZCS               .GCS_WGS_1984 WGS_1984_EASE-Grid_2.0_Global : ESRI,PE_10_3_1- <?xml version="1.0" encoding="utf-16"?><ILateBoundCoordinateReferenceSystem name="WGS_1984_EASE-Grid_2.0_Global"><AuthorityCode>EPSG,6933</AuthorityCode></ILateBoundCoordinateReferenceSystem>
Interpretator      .         Сагынбаева А.Н.               : 
Kupol              .         основной                      : osnovnoi
LATI               .dega     0.6632616444                  : GCS_WGS_1984
LONG               .dega     0.4337798067                  : GCS_WGS_1984
Mud                .         глинистый                     : 
Mud_density        .         1,18                          : 
Mud_resistivity    .         0                             : 
NGDU               .         НГДУ-2                        : 
ORIGINALWELLNAME   .         7844                          : 
Spud_date          .         1991                          : 1961
Viscosity          .         40                            : 
X                  .m        41853.8                       : 46154
Y                  .m        84612.63                      : 85761.93
YEAR               .         2018                          : 
~Parameter Information Block
#_______________________________________________________________________________
#
#PARAMETER_NAME    .UNIT     VALUE                         : DESCRIPTION
#_______________________________________________________________________________
SET                .         LQC_KAZNIPI_Petrel            : 
TLFamily_CALI      .         Caliper                       : 
TLFamily_CILD      .         Conductivity                  : 
TLFamily_COLL      .         Net Reservoir Flag            : 
TLFamily_CSAT      .         Fluid Code                    : 
TLFamily_DEPT      .         Measured Depth                : 
TLFamily_GR        .         Russian Gamma Ray             : 
TLFamily_LLS       .         Lateral Log Resistivity       : 
TLFamily_MINV      .         Micro Gradient Resistivity    : 
TLFamily_MNOR      .         Micro Resistivity             : 
TLFamily_NGLD      .         Neutron Gamma                 : 
TLFamily_PHIE      .         Effective Porosity            : 
TLFamily_PHIEN     .         Effective Porosity            : 
TLFamily_PHIT      .         Porosity                      : 
TLFamily_PRMB      .         Permeability                  : 
TLFamily_PRMB_DGR  .         Permeability                  : 
TLFamily_RT        .         Formation Resistivity         : 
TLFamily_SOIL_ARCHIE .         Oil Saturation                : 
TLFamily_SOIL_DW   .         Oil Saturation                : 
TLFamily_SP        .         Spontaneous Potential         : 
TLFamily_VSH_FIN   .         Shale Volume                  : 
TLFamily_VSH_GR    .         Shale Volume                  : 
TLFamily_VSH_SP    .         Shale Volume                  : 
~Curve Information
#_______________________________________________________________________________
#
#LOGNAME           .UNIT     LOG_ID                        : DESCRIPTION
#_______________________________________________________________________________
DEPT               .M                                      : Колонка глубины 
CALI               .м                                      : Каверномер 
CILD               .мСм/м                                  : Индукционный каротаж 
COLL               .unitless                               : Описание 
CSAT               .unitless                               :  
GR                 .uR/h                                   : Гамма каротаж 
LLS                .Ohmm                                   : Боковой каротаж 
MINV               .Ohmm                                   : Микро-градиент зонд 
MNOR               .Ohmm                                   : Микро-потенциал зонд 
NGLD               .у.е.                                   : Показания зонда НГК-60 аппаратуры ДРСТ-3-90 
PHIE               .v/v                                    : Описание 
PHIEN              .v/v                                    :  
PHIT               .v/v                                    : Описание 
PRMB               .mD                                     :  
PRMB_DGR           .mD                                     :  
RT                 .ohmm                                   : УЭС пласта 
SOIL_ARCHIE        .v/v                                    :  
SOIL_DW            .v/v                                    :  
SP                 .мВ                                     : Потенциал самополяризации 
VSH_FIN            .v/v                                    : Описание 
VSH_GR             .v/v                                    : Shale volume 
VSH_SP             .v/v                                    : Shale Volume 
~Ascii
# ...
939.4      0.236      125.73     -9999      -9999      3.98252    5.244      2.756      3.251      1.849957   0.01       0          0.1494352  0.004289259 3.603421   7.954      0          0          100.8068   0.4933414  0.3844048  0.6022779 
939.6      0.236      123.19     -9999      -9999      3.993001   5.683      3.912      4.013      1.802697   0.01       0.002804149 0.1662032  0.004289259 3.573912   8.118      0          0.08994258 100.8773   0.4951485  0.3856977  0.6045994 
939.8      0.235      133.35     -9999      -9999      4.0774     4.497      3.975      3.797      1.749286   0.01939784 0.01939784 0.1851534  0.006404027 3.344927   7.499      0          0.2278693  100.9894   0.5022894  0.3962685  0.6083103 
940        0.235      137.16     -9999      -9999      4.179857   4.597      3.734      4.229      1.699323   0.03429964 0.03429964 0.2028803  0.01209123 3.086571   7.291      0          0.3612968  101.1067   0.5108504  0.4094913  0.6122094 
940.2000000000001 0.235      135.89     -9999      -9999      4.258376   4.838      3.734      3.264      1.658265   0.0466751  0.0466751  0.2174476  0.02049718 2.902168   7.359      0          0.4451105  101.192    0.5174925  0.4199225  0.6150625 
940.4      0.235      135.89     -9999      -9999      4.30724    5.519      3.416      3.34       1.627708   0.05627929 0.05627929 0.2282892  0.03087358 2.793013   7.359      0          0.4931273  101.2181   0.5212422  0.4265479  0.6159366 
940.6      0.235      144.78     -9999      -9999      4.3476     4.597      4.001      3.365      1.604763   0.06370915 0.06370915 0.2364301  0.04238441 2.705958   6.907      0.006540908 0.5088109  101.181    0.5233967  0.4320988  0.6146947 
940.8      0.235      147.32     -9999      -9999      4.405915   4.874      3.645      2.743      1.585322   0.06968402 0.06968402 0.2433279  0.05468588 2.584944   6.788      0.07363009 0.5279837  101.1046   0.5261936  0.4402472  0.61214   
941        0.235      151.13     -9999      -9999      4.494456   5.36       3.353      2.578      1.568685   0.07393159 0.07393159 0.2492304  0.06554664 2.411474   6.617      0.1095624  0.5386328  101.0254   0.5312086  0.4529137  0.6095034 
941.2000000000001 0.235      158.75     -9999      -9999      4.602503   4.09       3.543      3.391      1.55799    0.07540657 0.07540657 0.253025   0.06980246 2.215477   6.299      0.1042872  0.5349395  100.9683   0.5382376  0.4688656  0.6076096 
941.4      0.235      158.75     -9999      -9999      4.704086   3.482      3.15       2.616      1.558755   0.07277633 0.07277633 0.2527538  0.06239536 2.04576    6.299      0.07615734 0.5291148  100.9317   0.5453861  0.4843751  0.6063972 
941.6      0.235      170.18     -9999      -9999      4.770628   4.001      3.531      3.048      1.577903   0.06446798 0.06446798 0.2459602  0.04377856 1.941699   5.876      0          0.4835503  100.8937   0.5499763  0.4948116  0.6051411 
941.8      0.237      173.99     -9999      -9999      4.780189   5.479      3.492      3.34       1.618914   0.05001374 0.05001374 0.2314094  0.02363381 1.927188   5.747      0          0.4111667  100.8299   0.5496838  0.4963295  0.6030382 
942        0.237      180.34     -9999      -9999      4.726285   5.809      3.924      3.569      1.673954   0.03242121 0.03242121 0.2118812  0.01116034 2.010439   5.545      0          0.28042    100.7314   0.5438182  0.487832   0.5998043 
942.2000000000001 0.237      180.34     -9999      -9999      4.626548   4.982      3.581      3.2        1.725544   0.01729401 0.01729401 0.1935771  0.005854435 2.174075   5.545      0          0.1139479  100.6117   0.5341911  0.4724912  0.5958911 
942.4      0.238      180.34     -9999      -9999      4.514809   5.399      4.547      3.785      1.759622   0.01       0.008582226 0.181486   0.004289259 2.373271   5.545      0          0          100.4928   0.5239508  0.4558766  0.592025  
942.6      0.238      158.75     -9999      -9999      4.416152   4.838      3.581      2.794      1.773455   0.01       0.006595994 0.176578   0.004289259 2.564266   6.299      0          0.01930047 100.3838   0.5150971  0.4416934  0.5885007 
942.8      0.238      163.83     -9999      -9999      4.336729   4.597      2.984      2.984      1.770976   0.01       0.009866835 0.1774576  0.004289259 2.729134   6.104      0          0.008024123 100.2782   0.5078508  0.4305966  0.585105  
943        0.238      165.1      -9999      -9999      4.278255   4.336      3.124      2.997      1.756819   0.01677637 0.01677637 0.1824807  0.005726604 2.857255   6.057      0          0.1055007  100.1707   0.5021343  0.4226054  0.5816633 
943.2000000000001 0.238      163.83     -9999      -9999      4.247582   4.304      2.743      2.565      1.735661   0.02551771 0.02551771 0.1899876  0.008313959 2.926848   6.104      0          0.2104063  100.0655   0.4983937  0.4184729  0.5783145 
943.4      0.238      163.83     -9999      -9999      4.247683   4.803      4.254      3.556      1.712513   0.0342279  0.0342279  0.1982003  0.01205429 2.926615   6.104      0          0.289494   99.96997   0.496886   0.4184865  0.5752855 
943.6      0.238      163.83     -9999      -9999      4.27143    4.15       3.975      3.899      1.691981   0.04143927 0.04143927 0.2054853  0.01639509 2.872593   6.104      0          0.3434829  99.88285   0.4971091  0.4216824  0.5725359 
943.8      0.238      168.91     -9999      -9999      4.305261   3.719      3.035      3.607      1.677885   0.0461469  0.0461469  0.2104864  0.02004059 2.797352   5.92       0          0.3648549  99.79324   0.4979986  0.4262775  0.5697196 
944        0.238      166.37     -9999      -9999      4.332234   4.12       2.946      2.997      1.672568   0.04795223 0.04795223 0.2123729  0.02164461 2.738776   6.011      0          0.3807447  99.69072   0.4982445  0.4299771  0.566512  
944.2000000000001 0.237      170.18     -9999      -9999      4.3294     5.479      4.864      3.848      1.674569   0.04789618 0.04789618 0.2116628  0.02159292 2.744874   5.876      0          0.3719811  99.5759    0.4962625  0.4295867  0.5629382 
944.4      0.237      170.18     -9999      -9999      4.271972   4.597      3.848      3.594      1.67664    0.04904028 0.04904028 0.2109282  0.02267268 2.871374   5.876      0          0.3749266  99.46106   0.4905695  0.4217556  0.5593834 
944.6      0.237      179.07     -9999      -9999      4.160377   4.733      3.048      3.073      1.668015   0.05504295 0.05504295 0.2139883  0.02928782 3.134108   5.584      0          0.3874287  99.36293   0.4816525  0.4069437  0.5563613 
944.8      0.237      170.18     -9999      -9999      4.047106   4.768      3.696      3.556      1.641081   0.06729852 0.06729852 0.2235446  0.0493958  3.425379   5.876      0          0.4568239  99.30241   0.473473   0.3924413  0.5545046 
945        0.237      172.72     -9999      -9999      4.010736   3.431      3.683      3.365      1.597039   0.0836803  0.0836803  0.2391705  0.09933911 3.524531   5.79       0.1489379  0.5141511  99.30128   0.4711825  0.3878953  0.5544698 
945.2000000000001 0.237      180.34     -9999      -9999      4.091596   3.665      3.124      2.832      1.5458     0.09984776 0.09984776 0.2573503  0.1979616  3.30788    5.545      0.2553411  0.5552322  99.36699   0.4772804  0.3980748  0.556486  
945.4      0.239      180.34     -9999      -9999      4.263188   4.838      2.946      2.858      1.500306   0.1116601  0.1116601  0.2734915  0.3276228  2.891229   5.545      0.3244396  0.5891525  99.48833   0.4903982  0.4205704  0.560226  
945.6      0.239      186.69     -9999      -9999      4.465059   4.18       3.556      3.378      1.468411   0.1174998  0.1174998  0.2848077  0.42028    2.467737   5.356      0.3431748  0.6001055  99.65247   0.5069938  0.4486683  0.5653192 
945.8      0.24       193.04     -9999      -9999      4.644444   3.098      3.188      3.226      1.448978   0.1189631  0.1189631  0.2917027  0.447345   2.143762   5.18       0.3399487  0.6013001  99.85627   0.5234536  0.475208   0.5716992 
