~Version
 VERS              .         2.0                           : CWLS LOG ASCII STANDARD - VERSION 2.0
 WRAP              .         NO                            : ONE LINE PER DEPTH STEP
 DLM               .         SPACE                         : DELIMITING CHARACTER(SPACE TAB OR COMMA)
~Well Information
#_______________________________________________________________________________
#
#PARAMETER_NAME    .UNIT     VALUE                         : DESCRIPTION
#_______________________________________________________________________________
STRT               .M        890                           : First reference value
STOP               .M        1159                          : Last reference value
STEP               .M        0.1                           : Step increment
NULL               .         -9999                         : Missing value
COMP               .                                       : Company
WELL               .         7846                          : Well name
FLD                .         УЗЕНЬ                         : Field
LOC                .                                       : Location
CNTY               .                                       : County
STAT               .                                       : State
CTRY               .                                       : Country
SRVC               .         SCH                           : Service Company
DATE               .         09/16/2010                    : Date
UWI                .         7846                          : Unique Well ID
Block              .         7                             : 
Category           .         Нефтяная                      : 
Condition          .         Ликвидированная               : 
Date               .         19.06.1992                    : 
EREF               .m        87.8                          : 100.8
Gorizont           .         13                            : 14
Interpretator      .         Ткачева И.Г.                  : 
Kupol              .         Основной                      : osnovnoi
Mud                .         0                             : 
Mud_density        .         0                             : 
Mud_resistivity    .         0                             : 
NGDU               .         НГДУ-2                        : 
ORIGINALWELLNAME   .         7846                          : 
Spud_date          .         1992                          : 1961
Uslovie            .         13                            : 
Viscosity          .         0                             : 
X                  .m        42636.8                       : 46154
Y                  .m        84621.43                      : 85761.93
YEAR               .         2019                          : 
~Parameter Information Block
#_______________________________________________________________________________
#
#PARAMETER_NAME    .UNIT     VALUE                         : DESCRIPTION
#_______________________________________________________________________________
SET                .         LQC_KAZNIPI_Petrel            : 
PBBOTTOM           .M        1159                          : Глубина подошвы планшета
PBSCALE            .         1 _ 500                       : Вертикальный масштаб планшета
PBTOP              .M        890                           : Глубина кровли планшета
TLFamily_CALI      .         Caliper                       : 
TLFamily_CILD      .         Conductivity                  : 
TLFamily_COLL      .         Net Reservoir Flag            : 
TLFamily_CSAT      .         Fluid Code                    : 
TLFamily_DEPT      .         Measured Depth                : 
TLFamily_GR        .         Russian Gamma Ray             : 
TLFamily_GZ1       .         Gradient 045                  : 
TLFamily_GZ2       .         Gradient 105                  : 
TLFamily_GZ3       .         Gradient 225                  : 
TLFamily_GZ4       .         Gradient 425                  : 
TLFamily_GZ5       .         Gradient 850                  : 
TLFamily_LLS       .         Lateral Log Resistivity       : 
TLFamily_MINV      .         Micro Gradient Resistivity    : 
TLFamily_MNOR      .         Micro Resistivity             : 
TLFamily_NGLD      .         Neutron Gamma                 : 
TLFamily_OGZ       .         Gradient Inverted 225         : 
TLFamily_PHIE      .         Effective Porosity            : 
TLFamily_PHIEN     .         Effective Porosity            : 
TLFamily_PHIT      .         Porosity                      : 
TLFamily_PRMB      .         Permeability                  : 
TLFamily_PRMB_DGR  .         Permeability                  : 
TLFamily_RT        .         Formation Resistivity         : 
TLFamily_SOIL_ARCHIE .         Oil Saturation                : 
TLFamily_SOIL_DW   .         Oil Saturation                : 
TLFamily_SP        .         Spontaneous Potential         : 
TLFamily_VSH_FIN   .         Shale Volume                  : 
TLFamily_VSH_GR    .         Shale Volume                  : 
TLFamily_VSH_SP    .         Shale Volume                  : 
~Curve Information
#_______________________________________________________________________________
#
#LOGNAME           .UNIT     LOG_ID                        : DESCRIPTION
#_______________________________________________________________________________
DEPT               .M                                      : Колонка глубины 
CALI               .м                                      : Каверномер 
CILD               .мСм/м                                  : Индукционный каротаж 
COLL               .unitless                               : Описание 
CSAT               .unitless                               : Описание 
GR                 .uR/h                                   : Гамма каротаж 
GZ1                .Ohmm                                   : Градиент-зонд  длиной 0.45м 
GZ2                .Ohmm                                   : Градиент-зонд  длиной 1.05м 
GZ3                .Ohmm                                   : Градиент-зонд  длиной 2.25м 
GZ4                .Ohmm                                   : Градиент-зонд  длиной 4.5м 
GZ5                .Ohmm                                   : Градиент-зонд  длиной 8.5м 
LLS                .Ohmm                                   : Боковой каротаж 
MINV               .Ohmm                                   : Микро-градиент зонд 
MNOR               .Ohmm                                   : Микро-потенциал зонд 
NGLD               .у.е.                                   : Показания зонда НГК-60 аппаратуры ДРСТ-3-90 
OGZ                .Ohmm                                   : Обращенный градиент-зонд 
PHIE               .v/v                                    : Описание 
PHIEN              .v/v                                    :  
PHIT               .v/v                                    : Описание 
PRMB               .mD                                     :  
PRMB_DGR           .mD                                     :  
RT                 .ohmm                                   : УЭС пласта 
SOIL_ARCHIE        .v/v                                    :  
SOIL_DW            .v/v                                    :  
SP                 .мВ                                     : Потенциал самополяризации 
VSH_FIN            .v/v                                    : Описание 
VSH_GR             .v/v                                    : Shale volume 
VSH_SP             .v/v                                    : Shale Volume 
~Ascii
# ...
1121.4     0.214      152        1          2          5.926      4.122      8.591      10.21      6.728      7.566      5.712      2.063      2.857      1.152      8.817      0.1517541  0.1517541  0.24832    0.5969586  7.028592   6.579      0.437744   0.6168419  18.99      0.292624   0.2926238  0.4503587 
1121.5     0.215      159        1          2          5.912      4.148      8.478      10.429     7.001      7.537      5.854      2.081      2.844      1.145      8.779      0.1549673  0.1549673  0.2507     0.6673809  7.179342   6.289      0.4359261  0.6134787  19.016     0.290099   0.290099   0.4514612 
1121.6     0.215      168        1          2          5.873      4.182      8.491      10.676     7.386      7.463      6.014      2.059      2.78       1.136      8.783      0.1603106  0.1603106  0.25376    0.7978818  7.616565   5.952      0.4371203  0.6105032  19.018     0.28318    0.2831799  0.4515461 
1121.7     0.216      177        1          2          5.814      4.22       8.606      10.914     7.848      7.307      6.081      1.996      2.679      1.129      8.822      0.1660418  0.1660418  0.25614    0.8600978  8.329136   5.65       0.4297883  0.6045372  19.341     0.273025   0.2730251  0.4654555 
1121.8     0.217      184        1          2          5.747      4.258      8.731      11.11      8.314      7.04       5.985      1.915      2.575      1.123      8.873      0.1717418  0.1717418  0.25818    0.7464724  9.219493   5.435      0.4065042  0.5948373  20.299     0.261934   0.2619341  0.5090442 
1121.9     0.217      192        1          2          5.685      4.292      8.769      11.238     8.69       6.659      5.75       1.845      2.501      1.119      8.888      0.1763559  0.1763559  0.25954    0.5943813  10.12798   5.208      0.3721377  0.5807974  21.321     0.252073   0.2520726  0.5595247 
1122       0.217      198        1          2          5.647      4.317      8.685      11.277     8.893      6.2        5.453      1.81       2.466      1.116      8.82       0.1793097  0.1793097  0.26056    0.4419396  10.7285    5.051      0.3306941  0.5661201  22.332     0.246213   0.2462128  0.6136779 
1122.1     0.216      203        1          2          5.65       4.326      8.521      11.199     8.872      5.726      5.176      1.821      2.449      1.112      8.66       0.1805189  0.1805189  0.26192    0.3558415  10.67982   4.926      0.2964718  0.5548638  23.007     0.24667    0.2466705  0.6522547 
1122.2     0.216      207        1          2          5.71       4.312      8.34       10.984     8.638      5.298      4.961      1.917      2.37       1.108      8.457      0.178799   0.178799   0.26328    0.3340381  9.751355   4.831      0.2818432  0.5497866  23.141     0.256003   0.2560035  0.6601492 
1122.3     0.216      210        1          2          5.824      4.269      8.166      10.625     8.243      4.944      4.806      2.034      2.203      1.103      8.273      0.1743224  0.1743224  0.26498    0.3643136  8.203835   4.762      0.2882139  0.5513666  22.786     0.27472    0.2747202  0.6394067 
1122.4     0.216      212        1          2          5.969      4.202      7.978      10.157     7.756      4.661      4.676      2.067      2.08       1.099      8.132      0.1671694  0.1671694  0.26634    0.3901403  6.585077   4.717      0.2936822  0.5530038  22.304     0.300517   0.3005166  0.6121201 
1122.5     0.216      213        1          2          6.109      4.127      7.741      9.647      7.224      4.438      4.517      2.034      2.009      1.095      8.002      0.1595527  0.1595527  0.2677     0.3898826  5.325938   4.695      0.2920485  0.5533682  21.96      0.327719   0.3277195  0.5932533 
1122.6     0.216      214        1          2          6.204      4.055      7.448      9.178      6.674      4.261      4.285      1.937      2.043      1.091      7.832      0.1543626  0.1543626  0.26906    0.3751766  4.611648   4.673      0.2856378  0.5524502  21.846     0.347568   0.3475678  0.5871114 
1122.7     0.216      215        1          2          6.23       3.977      7.124      8.811      6.144      4.105      3.978      1.801      2.192      1.089      7.604      0.153182   0.153182   0.26974    0.3781072  4.433432   4.651      0.2850432  0.5523689  21.797     0.353206   0.3532065  0.5844881 
1122.8     0.215      215        1          2          6.19       3.859      6.81       8.561      5.697      3.932      3.658      1.66       2.419      1.088      7.345      0.1563722  0.1563722  0.27008    0.4342364  4.710562   4.651      0.3021611  0.5573154  21.628     0.344569   0.344569   0.5755174 
1122.9     0.214      216        1          2          6.109      3.682      6.545      8.407      5.382      3.72       3.436      1.541      2.638      1.088      7.1        0.1619327  0.1619327  0.27008    0.6208575  5.325938   4.63       0.3411677  0.5675724  20.967     0.327719   0.3277195  0.5415633 
1123       0.213      217        1          2          6.029      3.46       6.374      8.303      5.193      3.487      3.414      1.467      2.775      1.088      6.898      0.1671573  0.1671573  0.27008    0.9364029  6.012593   4.608      0.3805439  0.5785103  20.085     0.311887   0.311887   0.4989996 
1123.1     0.213      219        1          2          5.99       3.237      6.347      8.201      5.072      3.28       3.606      1.456      2.792      1.086      6.745      0.1702922  0.1702922  0.27076    1.23019    6.37876    4.566      0.4022453  0.5846698  19.485     0.304448   0.3044482  0.471783  
1123.2     0.214      222        1          2          6.012      3.067      6.474      8.066      4.956      3.135      3.914      1.517      2.708      1.084      6.628      0.1695947  0.1695947  0.27144    1.454278   6.169545   4.505      0.4125068  0.5869006  18.933     0.308622   0.3086224  0.4479504 
1123.3     0.216      227        1          2          6.088      2.996      6.685      7.886      4.827      3.038      4.141      1.632      2.564      1.082      6.535      0.1653693  0.1653693  0.27212    1.532062   5.498206   4.405      0.4105613  0.584226   18.494     0.323487   0.3234873  0.4298025 
1123.4     0.218      234        1          2          6.189      3.047      6.851      7.668      4.699      2.951      4.157      1.769      2.411      1.082      6.446      0.1584825  0.1584825  0.27212    1.400943   4.717707   4.274      0.3946627  0.5755371  18.291     0.344356   0.3443558  0.4216477 
1123.5     0.219      243        1          2          6.288      3.202      6.861      7.424      4.59       2.848      3.936      1.905      2.297      1.086      6.339      0.1499414  0.1499414  0.27076    1.097215   4.060294   4.115      0.3618896  0.5592672  18.409     0.366117   0.3661169  0.4263698 
1123.6     0.219      253        -9999      -9999      6.382      3.388      6.701      7.158      4.5        2.753      3.59       2.084      2.248      1.095      6.2        0.1304867  0.1304867  0.2677     0.7312872  3.521078   3.953      0.3086495  0.534745   18.828     0.4157979  0.3880505  0.4435454 
1123.7     0.219      262        -9999      -9999      6.478      3.505      6.436      6.847      4.407      2.718      3.229      2.201      2.291      1.107      6.031      0.1185973  0.1185973  0.26362    0.4404214  3.044228   3.817      0.2362166  0.5043898  19.379     0.4394626  0.4118076  0.4671177 
1123.8     0.218      269        -9999      -9999      6.578      3.487      6.142      6.476      4.292      2.772      2.936      2.199      2.361      1.116      5.853      0.1079647  0.1079647  0.26056    0.279851   2.616046   3.717      0.1607151  0.4761331  19.818     0.4624099  0.4381023  0.4867173 
1123.9     0.216      271        -9999      -9999      6.659      3.331      5.852      6.059      4.155      2.888      2.749      2.133      2.463      1.121      5.688      0.1020213  0.1020213  0.25886    0.2171897  2.313778   3.69       0.1152655  0.4610221  19.888     0.4752689  0.460627   0.4899108 
