~Version
 VERS              .         2.0                           : CWLS LOG ASCII STANDARD - VERSION 2.0
 WRAP              .         NO                            : ONE LINE PER DEPTH STEP
 DLM               .         SPACE                         : DELIMITING CHARACTER(SPACE TAB OR COMMA)
~Well Information
#_______________________________________________________________________________
#
#PARAMETER_NAME    .UNIT     VALUE                         : DESCRIPTION
#_______________________________________________________________________________
STRT               .M        890                           : First reference value
STOP               .M        1159                          : Last reference value
STEP               .M        0.1                           : Step increment
NULL               .         -9999                         : Missing value
COMP               .                                       : Company
WELL               .         7846                          : Well name
FLD                .         УЗЕНЬ                         : Field
LOC                .                                       : Location
CNTY               .                                       : County
STAT               .                                       : State
CTRY               .                                       : Country
SRVC               .         SCH                           : Service Company
DATE               .         09/16/2010                    : Date
UWI                .         7846                          : Unique Well ID
Block              .         7                             : 
Category           .         Нефтяная                      : 
Condition          .         Ликвидированная               : 
Date               .         19.06.1992                    : 
EREF               .m        87.8                          : 100.8
Gorizont           .         13                            : 14
Interpretator      .         Ткачева И.Г.                  : 
Kupol              .         Основной                      : osnovnoi
Mud                .         0                             : 
Mud_density        .         0                             : 
Mud_resistivity    .         0                             : 
NGDU               .         НГДУ-2                        : 
ORIGINALWELLNAME   .         7846                          : 
Spud_date          .         1992                          : 1961
Uslovie            .         13                            : 
Viscosity          .         0                             : 
X                  .m        42636.8                       : 46154
Y                  .m        84621.43                      : 85761.93
YEAR               .         2019                          : 
~Parameter Information Block
#_______________________________________________________________________________
#
#PARAMETER_NAME    .UNIT     VALUE                         : DESCRIPTION
#_______________________________________________________________________________
SET                .         LQC_KAZNIPI_Petrel            : 
PBBOTTOM           .M        1159                          : Глубина подошвы планшета
PBSCALE            .         1 _ 500                       : Вертикальный масштаб планшета
PBTOP              .M        890                           : Глубина кровли планшета
TLFamily_CALI      .         Caliper                       : 
TLFamily_CILD      .         Conductivity                  : 
TLFamily_COLL      .         Net Reservoir Flag            : 
TLFamily_CSAT      .         Fluid Code                    : 
TLFamily_DEPT      .         Measured Depth                : 
TLFamily_GR        .         Russian Gamma Ray             : 
TLFamily_GZ1       .         Gradient 045                  : 
TLFamily_GZ2       .         Gradient 105                  : 
TLFamily_GZ3       .         Gradient 225                  : 
TLFamily_GZ4       .         Gradient 425                  : 
TLFamily_GZ5       .         Gradient 850                  : 
TLFamily_LLS       .         Lateral Log Resistivity       : 
TLFamily_MINV      .         Micro Gradient Resistivity    : 
TLFamily_MNOR      .         Micro Resistivity             : 
TLFamily_NGLD      .         Neutron Gamma                 : 
TLFamily_OGZ       .         Gradient Inverted 225         : 
TLFamily_PHIE      .         Effective Porosity            : 
TLFamily_PHIEN     .         Effective Porosity            : 
TLFamily_PHIT      .         Porosity                      : 
TLFamily_PRMB      .         Permeability                  : 
TLFamily_PRMB_DGR  .         Permeability                  : 
TLFamily_RT        .         Formation Resistivity         : 
TLFamily_SOIL_ARCHIE .         Oil Saturation                : 
TLFamily_SOIL_DW   .         Oil Saturation                : 
TLFamily_SP        .         Spontaneous Potential         : 
TLFamily_VSH_FIN   .         Shale Volume                  : 
TLFamily_VSH_GR    .         Shale Volume                  : 
TLFamily_VSH_SP    .         Shale Volume                  : 
~Curve Information
#_______________________________________________________________________________
#
#LOGNAME           .UNIT     LOG_ID                        : DESCRIPTION
#_______________________________________________________________________________
DEPT               .M                                      : Колонка глубины 
CALI               .м                                      : Каверномер 
CILD               .мСм/м                                  : Индукционный каротаж 
COLL               .unitless                               : Описание 
CSAT               .unitless                               : Описание 
GR                 .uR/h                                   : Гамма каротаж 
GZ1                .Ohmm                                   : Градиент-зонд  длиной 0.45м 
GZ2                .Ohmm                                   : Градиент-зонд  длиной 1.05м 
GZ3                .Ohmm                                   : Градиент-зонд  длиной 2.25м 
GZ4                .Ohmm                                   : Градиент-зонд  длиной 4.5м 
GZ5                .Ohmm                                   : Градиент-зонд  длиной 8.5м 
LLS                .Ohmm                                   : Боковой каротаж 
MINV               .Ohmm                                   : Микро-градиент зонд 
MNOR               .Ohmm                                   : Микро-потенциал зонд 
NGLD               .у.е.                                   : Показания зонда НГК-60 аппаратуры ДРСТ-3-90 
OGZ                .Ohmm                                   : Обращенный градиент-зонд 
PHIE               .v/v                                    : Описание 
PHIEN              .v/v                                    :  
PHIT               .v/v                                    : Описание 
PRMB               .mD                                     :  
PRMB_DGR           .mD                                     :  
RT                 .ohmm                                   : УЭС пласта 
SOIL_ARCHIE        .v/v                                    :  
SOIL_DW            .v/v                                    :  
SP                 .мВ                                     : Потенциал самополяризации 
VSH_FIN            .v/v                                    : Описание 
VSH_GR             .v/v                                    : Shale volume 
VSH_SP             .v/v                                    : Shale Volume 
~Ascii
# ...
1139.6     0.213      273        -9999      -9999      6.814      2.683      5.021      5.33       3.829      4.438      2.898      1.789      1.934      1.127      4.72       0.1473724  0.1473724  0.25682    1.502632   1.867796   3.663      0.3555395  0.527206   7.013      0.3316594  0.5027144  0.1606043 
1139.7     0.214      276        -9999      -9999      6.501      2.674      4.877      5.146      3.819      4.298      2.907      1.794      1.946      1.123      4.653      0.1633589  0.1633589  0.25818    2.971398   2.998323   3.623      0.4077851  0.5452363  6.983      0.2873367  0.4143705  0.1603029 
1139.8     0.215      279        1          2          6.149      2.651      4.723      4.951      3.74       4.15       2.932      1.795      1.957      1.119      4.594      0.1781883  0.1781883  0.25954    5.592917   5.105505   3.584      0.4481535  0.5600314  6.914      0.2465202  0.3334251  0.1596153 
1139.9     0.217      281        1          2          5.793      2.576      4.611      4.77       3.616      4.026      2.956      1.789      1.963      1.117      4.563      0.1898689  0.1898689  0.26022    9.204298   8.746333   3.559      0.4761237  0.5705588  6.825      0.2131852  0.2676302  0.1587401 
1140       0.218      283        1          2          5.459      2.446      4.56       4.625      3.479      3.924      2.971      1.779      1.966      1.118      4.546      0.197905   0.197905   0.25988    12.967     14.49325   3.534      0.4930261  0.5760875  6.733      0.1878029  0.2177567  0.1578492 
1140.1     0.219      284        1          2          5.176      2.295      4.543      4.529      3.349      3.829      2.973      1.769      1.976      1.122      4.519      0.2024423  0.2024423  0.25852    15.73553   22.2338    3.521      0.5020766  0.5780297  6.646      0.1699323  0.1828452  0.1570194 
1140.2     0.22       284        1          2          4.977      2.164      4.513      4.481      3.234      3.734      2.969      1.768      2.002      1.128      4.472      0.2040009  0.2040009  0.25648    16.81703   30.03986   3.521      0.5053914  0.5774491  6.575      0.1590277  0.161704   0.1563513 
1140.3     0.22       282        1          2          4.874      2.081      4.429      4.467      3.136      3.662      2.967      1.778      2.049      1.134      4.423      0.203668   0.203668   0.25444    16.57993   35.10257   3.546      0.5063291  0.5766982  6.534      0.1538547  0.1517403  0.1559692 
1140.4     0.221      280        1          2          4.843      2.047      4.28       4.459      3.056      3.648      2.994      1.802      2.115      1.138      4.403      0.2027734  0.2027734  0.25308    15.9593    36.7872    3.571      0.5060639  0.5760866  6.54       0.1524442  0.1488634  0.1560249 
1140.5     0.221      275        1          2          4.846      2.05       4.088      4.438      2.997      3.721      3.087      1.836      2.194      1.141      4.425      0.2016122  0.2016122  0.25206    15.18819   36.62069   3.636      0.5077714  0.5778901  6.602      0.1528719  0.1491394  0.1566044 
1140.6     0.221      271        1          2          4.844      2.068      3.885      4.402      2.969      3.869      3.272      1.877      2.274      1.14       4.459      0.2018105  0.2018105  0.2524     15.31715   36.73161   3.69       0.5115832  0.5814902  6.712      0.1533016  0.1489553  0.1576477 
1140.7     0.221      268        1          2          4.823      2.085      3.708      4.375      2.991      4.035      3.531      1.914      2.333      1.133      4.455      0.2042962  0.2042962  0.25478    17.03021   37.91672   3.731      0.5192624  0.5881795  6.844      0.1529811  0.1470364  0.1589258 
1140.8     0.221      268        1          2          4.786      2.099      3.587      4.387      3.074      4.157      3.795      1.931      2.341      1.122      4.379      0.2083735  0.2083735  0.25852    20.26476   40.09858   3.731      0.5274656  0.5950233  6.973      0.151959   0.1437153  0.1602027 
1140.9     0.22       274        1          2          4.747      2.134      3.529      4.444      3.215      4.217      3.978      1.904      2.276      1.107      4.236      0.2138241  0.2138241  0.26362    25.56817   42.5344    3.65       0.5331905  0.5995381  7.101      0.1508966  0.140296   0.1614973 
1141       0.22       285        1          2          4.725      2.21       3.514      4.526      3.397      4.256      4.004      1.825      2.135      1.09       4.062      0.2196135  0.2196135  0.2694     32.729     43.97321   3.509      0.5354168  0.6011812  7.278      0.1508682  0.1384031  0.1633333 
1141.1     0.22       298        1          2          4.746      2.327      3.513      4.597      3.62       4.313      3.846      1.714      1.949      1.074      3.881      0.2241612  0.2241612  0.27484    39.73447   42.5988    3.356      0.5339888  0.6003485  7.611      0.1535721  0.1402093  0.1669349 
1141.2     0.22       311        1          2          4.821      2.464      3.511      4.64       3.894      4.392      3.552      1.613      1.756      1.059      3.694      0.2269543  0.2269543  0.27994    44.76131   38.03157   3.215      0.5296081  0.598101   8.239      0.1605626  0.146855   0.1742703 
1141.3     0.22       322        1          2          4.944      2.607      3.534      4.671      4.224      4.467      3.211      1.573      1.594      1.044      3.501      0.2278406  0.2278406  0.28504    46.48561   31.57691   3.106      0.5235525  0.5960236  9.289      0.1733315  0.1584425  0.1882206 
1141.4     0.22       331        1          2          5.081      2.757      3.628      4.728      4.568      4.532      2.922      1.617      1.48       1.028      3.326      0.2270765  0.2270765  0.29048    44.99519   25.66852   3.021      0.5158939  0.5942743  10.771     0.1921318  0.1724284  0.2118351 
1141.5     0.219      338        1          2          5.201      2.911      3.824      4.843      4.85       4.595      2.722      1.742      1.412      1.011      3.21       0.2249172  0.2249172  0.29626    41.03645   21.40898   2.959      0.5070751  0.5930943  12.538     0.2161903  0.1856896  0.2466911 
1141.6     0.219      349        1          2          5.297      3.038      4.095      5.005      5.002      4.654      2.6        1.993      1.365      0.997      3.174      0.2205781  0.2205781  0.30102    34.10352   18.51622   2.865      0.4909875  0.5869697  14.334     0.2437634  0.1970291  0.2904978 
1141.7     0.219      360        1          2          5.395      3.095      4.361      5.143      5.002      4.687      2.518      2.195      1.333      0.989      3.199      0.2100355  0.2100355  0.30374    21.75333   15.96596   2.778      0.4610632  0.5742416  16.578     0.2839529  0.2093194  0.3585864 
1141.8     0.219      368        1          2          5.524      3.066      4.528      5.163      4.878      4.669      2.447      2.25       1.305      0.989      3.232      0.1971991  0.1971991  0.30374    12.58242   13.13651   2.717      0.4246711  0.5582595  18.225     0.3228511  0.2266739  0.4190283 
1141.9     0.219      377        1          2          5.695      2.968      4.553      5.007      4.679      4.598      2.37       2.247      1.264      0.996      3.227      0.1855615  0.1855615  0.30136    7.659618   10.14339   2.653      0.3865457  0.5396909  18.979     0.3509046  0.2519161  0.449893  
1142       0.219      387        1          2          5.893      2.832      4.466      4.707      4.454      4.489      2.29       2.211      1.212      1.008      3.171      0.1721793  0.1721793  0.29728    4.328486   7.51892    2.584      0.3370743  0.5154817  19.524     0.3790931  0.2846759  0.4735102 
1142.1     0.219      399        -9999      -9999      6.096      2.677      4.333      4.359      4.239      4.362      2.214      2.161      1.156      1.02       3.087      0.158894   0.158894   0.2932     2.456185   5.531515   2.506      0.2787523  0.4879088  19.918     0.4069878  0.3226905  0.4912851 
