~Version
 VERS              .         2.0                           : CWLS LOG ASCII STANDARD - VERSION 2.0
 WRAP              .         NO                            : ONE LINE PER DEPTH STEP
 DLM               .         SPACE                         : DELIMITING CHARACTER(SPACE TAB OR COMMA)
~Well Information
#_______________________________________________________________________________
#
#PARAMETER_NAME    .UNIT     VALUE                         : DESCRIPTION
#_______________________________________________________________________________
STRT               .M        890                           : First reference value
STOP               .M        1159                          : Last reference value
STEP               .M        0.1                           : Step increment
NULL               .         -9999                         : Missing value
COMP               .                                       : Company
WELL               .         7846                          : Well name
FLD                .         УЗЕНЬ                         : Field
LOC                .                                       : Location
CNTY               .                                       : County
STAT               .                                       : State
CTRY               .                                       : Country
SRVC               .         SCH                           : Service Company
DATE               .         09/16/2010                    : Date
UWI                .         7846                          : Unique Well ID
Block              .         7                             : 
Category           .         Нефтяная                      : 
Condition          .         Ликвидированная               : 
Date               .         19.06.1992                    : 
EREF               .m        87.8                          : 100.8
Gorizont           .         13                            : 14
Interpretator      .         Ткачева И.Г.                  : 
Kupol              .         Основной                      : osnovnoi
Mud                .         0                             : 
Mud_density        .         0                             : 
Mud_resistivity    .         0                             : 
NGDU               .         НГДУ-2                        : 
ORIGINALWELLNAME   .         7846                          : 
Spud_date          .         1992                          : 1961
Uslovie            .         13                            : 
Viscosity          .         0                             : 
X                  .m        42636.8                       : 46154
Y                  .m        84621.43                      : 85761.93
YEAR               .         2019                          : 
~Parameter Information Block
#_______________________________________________________________________________
#
#PARAMETER_NAME    .UNIT     VALUE                         : DESCRIPTION
#_______________________________________________________________________________
SET                .         LQC_KAZNIPI_Petrel            : 
PBBOTTOM           .M        1159                          : Глубина подошвы планшета
PBSCALE            .         1 _ 500                       : Вертикальный масштаб планшета
PBTOP              .M        890                           : Глубина кровли планшета
TLFamily_CALI      .         Caliper                       : 
TLFamily_CILD      .         Conductivity                  : 
TLFamily_COLL      .         Net Reservoir Flag            : 
TLFamily_CSAT      .         Fluid Code                    : 
TLFamily_DEPT      .         Measured Depth                : 
TLFamily_GR        .         Russian Gamma Ray             : 
TLFamily_GZ1       .         Gradient 045                  : 
TLFamily_GZ2       .         Gradient 105                  : 
TLFamily_GZ3       .         Gradient 225                  : 
TLFamily_GZ4       .         Gradient 425                  : 
TLFamily_GZ5       .         Gradient 850                  : 
TLFamily_LLS       .         Lateral Log Resistivity       : 
TLFamily_MINV      .         Micro Gradient Resistivity    : 
TLFamily_MNOR      .         Micro Resistivity             : 
TLFamily_NGLD      .         Neutron Gamma                 : 
TLFamily_OGZ       .         Gradient Inverted 225         : 
TLFamily_PHIE      .         Effective Porosity            : 
TLFamily_PHIEN     .         Effective Porosity            : 
TLFamily_PHIT      .         Porosity                      : 
TLFamily_PRMB      .         Permeability                  : 
TLFamily_PRMB_DGR  .         Permeability                  : 
TLFamily_RT        .         Formation Resistivity         : 
TLFamily_SOIL_ARCHIE .         Oil Saturation                : 
TLFamily_SOIL_DW   .         Oil Saturation                : 
TLFamily_SP        .         Spontaneous Potential         : 
TLFamily_VSH_FIN   .         Shale Volume                  : 
TLFamily_VSH_GR    .         Shale Volume                  : 
TLFamily_VSH_SP    .         Shale Volume                  : 
~Curve Information
#_______________________________________________________________________________
#
#LOGNAME           .UNIT     LOG_ID                        : DESCRIPTION
#_______________________________________________________________________________
DEPT               .M                                      : Колонка глубины 
CALI               .м                                      : Каверномер 
CILD               .мСм/м                                  : Индукционный каротаж 
COLL               .unitless                               : Описание 
CSAT               .unitless                               : Описание 
GR                 .uR/h                                   : Гамма каротаж 
GZ1                .Ohmm                                   : Градиент-зонд  длиной 0.45м 
GZ2                .Ohmm                                   : Градиент-зонд  длиной 1.05м 
GZ3                .Ohmm                                   : Градиент-зонд  длиной 2.25м 
GZ4                .Ohmm                                   : Градиент-зонд  длиной 4.5м 
GZ5                .Ohmm                                   : Градиент-зонд  длиной 8.5м 
LLS                .Ohmm                                   : Боковой каротаж 
MINV               .Ohmm                                   : Микро-градиент зонд 
MNOR               .Ohmm                                   : Микро-потенциал зонд 
NGLD               .у.е.                                   : Показания зонда НГК-60 аппаратуры ДРСТ-3-90 
OGZ                .Ohmm                                   : Обращенный градиент-зонд 
PHIE               .v/v                                    : Описание 
PHIEN              .v/v                                    :  
PHIT               .v/v                                    : Описание 
PRMB               .mD                                     :  
PRMB_DGR           .mD                                     :  
RT                 .ohmm                                   : УЭС пласта 
SOIL_ARCHIE        .v/v                                    :  
SOIL_DW            .v/v                                    :  
SP                 .мВ                                     : Потенциал самополяризации 
VSH_FIN            .v/v                                    : Описание 
VSH_GR             .v/v                                    : Shale volume 
VSH_SP             .v/v                                    : Shale Volume 
~Ascii
890.0      -9999      291        -9999      -9999      5.454      -9999      -9999      -9999      -9999      -9999      2.485      0.649      0.934      0.851      -9999      0.1849882  0.1849882  0.35066    7.474611   1.457201   3.436      0.4551877  0.6304707  17.5       0.5020357  0.5563444  0.447727  
890.1      -9999      287        -9999      -9999      5.337      -9999      -9999      -9999      -9999      -9999      2.591      0.673      1.019      0.85       -9999      0.1898826  0.1898826  0.351      9.209693   1.644502   3.484      0.4708949  0.6369594  17.481     0.4882344  0.5295416  0.4469273 
890.2000000000001 -9999      284        -9999      -9999      5.255      -9999      -9999      -9999      -9999      -9999      2.749      0.657      1.07       0.85       -9999      0.1931524  0.1931524  0.351      10.58787   1.789945   3.521      0.4812822  0.6412804  17.438     0.4783261  0.51153    0.4451222 
890.3      -9999      284        -9999      -9999      5.215      -9999      -9999      -9999      -9999      -9999      2.945      0.609      1.076      0.85       -9999      0.1951575  0.1951575  0.351      11.53314   1.865493   3.521      0.485927   0.6427336  17.352     0.4722501  0.5029676  0.4415327 
890.4      -9999      284        -9999      -9999      5.212      -9999      -9999      -9999      -9999      -9999      3.169      0.55       1.041      0.852      -9999      0.1951566  0.1951566  0.35032    11.53274   1.871287   3.521      0.4859251  0.6423127  17.268     0.470192   0.5023311  0.4380529 
890.5      -9999      286        -9999      -9999      5.233      -9999      -9999      -9999      -9999      -9999      3.394      0.498      0.979      0.858      -9999      0.1926236  0.1926236  0.34828    10.35177   1.831111   3.497      0.4783708  0.6379577  17.232     0.4716861  0.5068027  0.4365695 
890.6      -9999      286        -9999      -9999      5.261      -9999      -9999      -9999      -9999      -9999      3.581      0.463      0.909      0.869      -9999      0.1877333  0.1877333  0.34454    8.402995   1.778881   3.497      0.4665559  0.6318787  17.255     0.4751718  0.512827   0.4375166 
890.7000000000001 -9999      286        -9999      -9999      5.282      -9999      -9999      -9999      -9999      -9999      3.677      0.443      0.844      0.883      -9999      0.1818997  0.1818997  0.33978    6.552119   1.740688   3.497      0.4516864  0.6241355  17.302     0.4784251  0.517392   0.4394583 
890.8      -9999      285        -9999      -9999      5.291      -9999      -9999      -9999      -9999      -9999      3.654      0.432      0.795      0.9        -9999      0.1755554  0.1755554  0.334      4.998854   1.724572   3.509      0.4353764  0.6155482  17.337     0.4801351  0.5193608  0.4409094 
890.9      -9999      281        -9999      -9999      5.296      -9999      -9999      -9999      -9999      -9999      3.526      0.426      0.767      0.917      -9999      0.1694366  0.1694366  0.32822    3.850664   1.715683   3.559      0.4215121  0.6088107  17.36      0.4811617  0.5204579  0.4418655 
891        -9999      275        -9999      -9999      5.31       -9999      -9999      -9999      -9999      -9999      3.354      0.431      0.759      0.932      -9999      0.1634699  0.1634699  0.32312    2.985506   1.691038   3.636      0.4091295  0.6037883  17.412     0.4837881  0.523542   0.4440342 
891.1      -9999      269        -9999      -9999      5.333      -9999      -9999      -9999      -9999      -9999      3.199      0.474      0.763      0.942      -9999      0.158458   0.158458   0.31972    2.410933   1.651314   3.717      0.39913    0.6008186  17.523     0.4886727  0.5286484  0.4486969 
891.2000000000001 -9999      262        -9999      -9999      5.351      -9999      -9999      -9999      -9999      -9999      3.096      0.598      0.779      0.946      -9999      0.155346   0.155346   0.31836    2.111268   1.62088    3.817      0.3962285  0.6020339  17.678     0.4939818  0.5326794  0.4552841 
891.3      -9999      256        -9999      -9999      5.353      -9999      -9999      -9999      -9999      -9999      3.054      0.83       0.831      0.948      -9999      0.1536045  0.1536045  0.31768    1.960136   1.617532   3.906      0.3968302  0.6043745  17.817     0.4971984  0.5331293  0.4612676 
891.4      -9999      252        -9999      -9999      5.337      -9999      -9999      -9999      -9999      -9999      3.088      1.149      0.947      0.952      -9999      0.1523204  0.1523204  0.31632    1.855673   1.644502   3.968      0.3968776  0.6051726  17.889     0.4969685  0.5295416  0.4643954 
891.5      -9999      250        -9999      -9999      5.301      -9999      -9999      -9999      -9999      -9999      3.237      1.461      1.121      0.961      -9999      0.1505778  0.1505778  0.31326    1.722757   1.70684    4          0.3930948  0.6026436  17.889     0.4929764  0.5215573  0.4643954 
891.6      -9999      249        -9999      -9999      5.23       -9999      -9999      -9999      -9999      -9999      3.516      1.658      1.269      0.978      -9999      0.1476037  0.1476037  0.30748    1.517529   1.836797   4.016      0.3836139  0.5957775  17.852     0.4844736  0.5061616  0.4627856 
891.7000000000001 -9999      250        -9999      -9999      5.108      -9999      -9999      -9999      -9999      -9999      3.879      1.669      1.302      1          -9999      0.144601   0.144601   0.3        1.335119   2.08363    4          0.3713044  0.5855148  17.812     0.470906   0.4807608  0.4610511 
891.8      -9999      249        -9999      -9999      4.943      -9999      -9999      -9999      -9999      -9999      4.214      1.511      1.182      1.024      -9999      0.142107   0.142107   0.29184    1.200396   2.471044   4.016      0.3628998  0.5764233  17.769     0.4537363  0.4484231  0.4590495 
891.9      -9999      247        -9999      -9999      4.768      -9999      -9999      -9999      -9999      -9999      4.418      1.257      0.987      1.047      -9999      0.1400533  0.1400533  0.28402    1.099727   2.960934   4.049      0.3572438  0.5686231  17.702     0.4362627  0.4164991  0.4560263 
892        -9999      245        -9999      -9999      4.627      -9999      -9999      -9999      -9999      -9999      4.471      0.995      0.8        1.067      -9999      0.1379576  0.1379576  0.27722    1.0057     3.425439   4.082      0.3512243  0.5613749  17.601     0.4220071  0.3924385  0.4515757 
892.1      -9999      244        -9999      -9999      4.553      -9999      -9999      -9999      -9999      -9999      4.435      0.782      0.676      1.08       -9999      0.1362979  0.1362979  0.2728     0.9369696  3.697695   4.098      0.3455513  0.5558168  17.494     0.4136427  0.3803724  0.4469131 
892.2000000000001 -9999      245        -9999      -9999      4.554      -9999      -9999      -9999      -9999      -9999      4.405      0.64       0.598      1.082      -9999      0.1360848  0.1360848  0.27212    0.9284942  3.693873   4.082      0.3434548  0.5539947  17.426     0.4122278  0.380533   0.4439226 
892.3      -9999      250        -9999      -9999      4.612      -9999      -9999      -9999      -9999      -9999      4.405      0.56       0.55       1.069      -9999      0.1389582  0.1389582  0.27654    1.049546   3.478957   4          0.3491263  0.5574623  17.428     0.4169144  0.3899622  0.4438667 
892.4      -9999      256        -9999      -9999      4.694      -9999      -9999      -9999      -9999      -9999      4.39       0.519      0.526      1.042      -9999      0.1454671  0.1454671  0.28572    1.385355   3.19627    3.906      0.367547   0.5687435  17.49      0.4250088  0.4036931  0.4463245 
892.5      -9999      261        -9999      -9999      4.778      -9999      -9999      -9999      -9999      -9999      4.274      0.491      0.535      1.012      -9999      0.1527652  0.1527652  0.29592    1.891215   2.93049    3.831      0.3884061  0.5818015  17.565     0.4338023  0.4182605  0.4493441 
