~Version
 VERS              .         2.0                           : CWLS LOG ASCII STANDARD - VERSION 2.0
 WRAP              .         NO                            : ONE LINE PER DEPTH STEP
 DLM               .         SPACE                         : DELIMITING CHARACTER(SPACE TAB OR COMMA)
~Well Information
#_______________________________________________________________________________
#
#PARAMETER_NAME    .UNIT     VALUE                         : DESCRIPTION
#_______________________________________________________________________________
STRT               .M        890                           : First reference value
STOP               .M        1159                          : Last reference value
STEP               .M        0.1                           : Step increment
NULL               .         -9999                         : Missing value
COMP               .                                       : Company
WELL               .         7846                          : Well name
FLD                .         УЗЕНЬ                         : Field
LOC                .                                       : Location
CNTY               .                                       : County
STAT               .                                       : State
CTRY               .                                       : Country
SRVC               .         SCH                           : Service Company
DATE               .         09/16/2010                    : Date
UWI                .         7846                          : Unique Well ID
Block              .         7                             : 
Category           .         Нефтяная                      : 
Condition          .         Ликвидированная               : 
Date               .         19.06.1992                    : 
EREF               .m        87.8                          : 100.8
Gorizont           .         13                            : 14
Interpretator      .         Ткачева И.Г.                  : 
Kupol              .         Основной                      : osnovnoi
Mud                .         0                             : 
Mud_density        .         0                             : 
Mud_resistivity    .         0                             : 
NGDU               .         НГДУ-2                        : 
ORIGINALWELLNAME   .         7846                          : 
Spud_date          .         1992                          : 1961
Uslovie            .         13                            : 
Viscosity          .         0                             : 
X                  .m        42636.8                       : 46154
Y                  .m        84621.43                      : 85761.93
YEAR               .         2019                          : 
~Parameter Information Block
#_______________________________________________________________________________
#
#PARAMETER_NAME    .UNIT     VALUE                         : DESCRIPTION
#_______________________________________________________________________________
SET                .         LQC_KAZNIPI_Petrel            : 
PBBOTTOM           .M        1159                          : Глубина подошвы планшета
PBSCALE            .         1 _ 500                       : Вертикальный масштаб планшета
PBTOP              .M        890                           : Глубина кровли планшета
TLFamily_CALI      .         Caliper                       : 
TLFamily_CILD      .         Conductivity                  : 
TLFamily_COLL      .         Net Reservoir Flag            : 
TLFamily_CSAT      .         Fluid Code                    : 
TLFamily_DEPT      .         Measured Depth                : 
TLFamily_GR        .         Russian Gamma Ray             : 
TLFamily_GZ1       .         Gradient 045                  : 
TLFamily_GZ2       .         Gradient 105                  : 
TLFamily_GZ3       .         Gradient 225                  : 
TLFamily_GZ4       .         Gradient 425                  : 
TLFamily_GZ5       .         Gradient 850                  : 
TLFamily_LLS       .         Lateral Log Resistivity       : 
TLFamily_MINV      .         Micro Gradient Resistivity    : 
TLFamily_MNOR      .         Micro Resistivity             : 
TLFamily_NGLD      .         Neutron Gamma                 : 
TLFamily_OGZ       .         Gradient Inverted 225         : 
TLFamily_PHIE      .         Effective Porosity            : 
TLFamily_PHIEN     .         Effective Porosity            : 
TLFamily_PHIT      .         Porosity                      : 
TLFamily_PRMB      .         Permeability                  : 
TLFamily_PRMB_DGR  .         Permeability                  : 
TLFamily_RT        .         Formation Resistivity         : 
TLFamily_SOIL_ARCHIE .         Oil Saturation                : 
TLFamily_SOIL_DW   .         Oil Saturation                : 
TLFamily_SP        .         Spontaneous Potential         : 
TLFamily_VSH_FIN   .         Shale Volume                  : 
TLFamily_VSH_GR    .         Shale Volume                  : 
TLFamily_VSH_SP    .         Shale Volume                  : 
~Curve Information
#_______________________________________________________________________________
#
#LOGNAME           .UNIT     LOG_ID                        : DESCRIPTION
#_______________________________________________________________________________
DEPT               .M                                      : Колонка глубины 
CALI               .м                                      : Каверномер 
CILD               .мСм/м                                  : Индукционный каротаж 
COLL               .unitless                               : Описание 
CSAT               .unitless                               : Описание 
GR                 .uR/h                                   : Гамма каротаж 
GZ1                .Ohmm                                   : Градиент-зонд  длиной 0.45м 
GZ2                .Ohmm                                   : Градиент-зонд  длиной 1.05м 
GZ3                .Ohmm                                   : Градиент-зонд  длиной 2.25м 
GZ4                .Ohmm                                   : Градиент-зонд  длиной 4.5м 
GZ5                .Ohmm                                   : Градиент-зонд  длиной 8.5м 
LLS                .Ohmm                                   : Боковой каротаж 
MINV               .Ohmm                                   : Микро-градиент зонд 
MNOR               .Ohmm                                   : Микро-потенциал зонд 
NGLD               .у.е.                                   : Показания зонда НГК-60 аппаратуры ДРСТ-3-90 
OGZ                .Ohmm                                   : Обращенный градиент-зонд 
PHIE               .v/v                                    : Описание 
PHIEN              .v/v                                    :  
PHIT               .v/v                                    : Описание 
PRMB               .mD                                     :  
PRMB_DGR           .mD                                     :  
RT                 .ohmm                                   : УЭС пласта 
SOIL_ARCHIE        .v/v                                    :  
SOIL_DW            .v/v                                    :  
SP                 .мВ                                     : Потенциал самополяризации 
VSH_FIN            .v/v                                    : Описание 
VSH_GR             .v/v                                    : Shale volume 
VSH_SP             .v/v                                    : Shale Volume 
~Ascii
# ...
908.2000000000001 -9999      489        1          3          1.248      -9999      -9999      -9999      -9999      -9999      2.012      1.672      1.697      1.14       -9999      0.2112054  0.2112054  0.2524     22.86622   112.5569   2.045      0.3807484  0.4485241  5.592      0.1248321  0.09429107 0.1553732 
908.3      -9999      493        1          3          1.231      -9999      -9999      -9999      -9999      -9999      2.014      1.658      1.633      1.133      -9999      0.2137876  0.2137876  0.25478    25.52832   114.5519   2.028      0.3848628  0.4520336  5.535      0.1242195  0.09361702 0.154822  
908.4      -9999      497        1          3          1.205      -9999      -9999      -9999      -9999      -9999      2.017      1.678      1.596      1.13       -9999      0.2150824  0.2150824  0.2558     26.97779   117.6718   2.012      0.3858108  0.4525273  5.467      0.1233866  0.09259543 0.1541777 
908.5      -9999      500        1          3          1.178      -9999      -9999      -9999      -9999      -9999      2.017      1.709      1.588      1.133      -9999      0.2143988  0.2143988  0.25478    26.20259   121.0017   2          0.3823741  0.4488788  5.359      0.1223672  0.09154634 0.1531881 
908.6      -9999      501        1          3          1.156      -9999      -9999      -9999      -9999      -9999      2.004      1.733      1.6        1.139      -9999      0.2126926  0.2126926  0.25274    24.3636    123.7844   1.996      0.3774767  0.4438856  5.227      0.1213556  0.09070033 0.152011  
908.7000000000001 -9999      502        1          3          1.135      -9999      -9999      -9999      -9999      -9999      1.968      1.737      1.617      1.147      -9999      0.210187   0.210187   0.25002    21.8943    126.5004   1.992      0.3704258  0.4370256  5.172      0.1207061  0.08990006 0.1515122 
908.8      -9999      503        1          3          1.112      -9999      -9999      -9999      -9999      -9999      1.913      1.727      1.631      1.155      -9999      0.2076931  0.2076931  0.2473     19.68512   129.5434   1.988      0.3632465  0.4300202  5.116      0.1200209  0.08903168 0.1510102 
908.9      -9999      502        1          3          1.088      -9999      -9999      -9999      -9999      -9999      1.854      1.705      1.642      1.16       -9999      0.2061956  0.2061956  0.2456     18.46716   132.7968   1.992      0.3598247  0.4265691  5.08       0.1194074  0.08813448 0.1506803 
909        -9999      501        1          3          1.066      -9999      -9999      -9999      -9999      -9999      1.819      1.672      1.654      1.162      -9999      0.2055505  0.2055505  0.24492    17.96603   135.8508   1.996      0.3586793  0.4254657  5.155      0.1193015  0.08732    0.1512831 
909.1      -9999      499        1          3          1.058      -9999      -9999      -9999      -9999      -9999      1.821      1.62       1.663      1.162      -9999      0.2053585  0.2053585  0.24492    17.81951   136.9787   2.004      0.3593608  0.4263864  5.328      0.1198834  0.08702569 0.1527411 
909.2000000000001 -9999      497        1          3          1.069      -9999      -9999      -9999      -9999      -9999      1.863      1.56       1.659      1.163      -9999      0.2046726  0.2046726  0.24458    17.30576   135.4303   2.012      0.3586913  0.4262564  5.522      0.1209316  0.08743062 0.1544326 
909.3      -9999      496        1          3          1.099      -9999      -9999      -9999      -9999      -9999      1.923      1.518      1.631      1.166      -9999      0.2032858  0.2032858  0.24356    16.31187   131.2956   2.016      0.3554836  0.4237863  5.647      0.1220431  0.08854457 0.1555417 
909.4      -9999      495        1          3          1.137      -9999      -9999      -9999      -9999      -9999      1.973      1.529      1.586      1.171      -9999      0.2013303  0.2013303  0.24186    15.00665   126.2392   2.02       0.3506391  0.4196571  5.663      0.1228172  0.08997597 0.1556585 
909.5      -9999      494        1          3          1.172      -9999      -9999      -9999      -9999      -9999      1.991      1.613      1.552      1.175      -9999      0.1998258  0.1998258  0.2405     14.07395   121.7543   2.024      0.3469894  0.4164924  5.616      0.1232553  0.09131484 0.1551958 
909.6      -9999      493        1          3          1.2        -9999      -9999      -9999      -9999      -9999      1.984      1.758      1.578      1.178      -9999      0.1986679  0.1986679  0.23948    13.3958    118.2815   2.028      0.3442836  0.4141983  5.592      0.1236732  0.09240025 0.1549462 
909.7000000000001 -9999      491        1          3          1.223      -9999      -9999      -9999      -9999      -9999      1.976      1.917      1.71       1.177      -9999      0.1987705  0.1987705  0.23982    13.45457   115.503    2.037      0.345939   0.4160996  5.654      0.1243924  0.09330149 0.1554833 
909.8      -9999      489        1          3          1.243      -9999      -9999      -9999      -9999      -9999      1.993      2.036      1.934      1.172      -9999      0.2001471  0.2001471  0.24152    14.26816   113.14     2.045      0.3510536  0.4213051  5.783      0.1253724  0.09409232 0.1566524 
909.9      -9999      487        1          3          1.258      -9999      -9999      -9999      -9999      -9999      2.04       2.083      2.183      1.166      -9999      0.201893   0.201893   0.24356    15.37115   111.3996   2.053      0.3571229  0.4273377  5.911      0.1262636  0.09468984 0.1578374 
910        -9999      487        1          3          1.265      -9999      -9999      -9999      -9999      -9999      2.098      2.061      2.359      1.162      -9999      0.2031245  0.2031245  0.24492    16.20008   110.5965   2.053      0.360519   0.4306412  5.966      0.126653   0.09496997 0.1583359 
910.1      -9999      489        1          3          1.263      -9999      -9999      -9999      -9999      -9999      2.127      1.996      2.419      1.163      -9999      0.2028525  0.2028525  0.24458    16.01322   110.8254   2.045      0.3585981  0.4287475  5.935      0.126447   0.09488985 0.1580041 
910.2000000000001 -9999      491        1          3          1.255      -9999      -9999      -9999      -9999      -9999      2.092      1.916      2.377      1.169      -9999      0.2009937  0.2009937  0.24254    14.79273   111.7455   2.037      0.3522444  0.4226098  5.857      0.125898   0.09457003 0.1572259 
910.3      -9999      493        1          3          1.244      -9999      -9999      -9999      -9999      -9999      1.987      1.835      2.286      1.178      -9999      0.1981187  0.1981187  0.23948    13.08569   113.0231   2.028      0.3427008  0.4135117  5.788      0.1253374  0.09413204 0.1565428 
910.4      -9999      493        1          3          1.233      -9999      -9999      -9999      -9999      -9999      1.845      1.758      2.18       1.185      -9999      0.1958559  0.1958559  0.2371     11.88188   114.3154   2.028      0.3360918  0.4072489  5.762      0.1249821  0.09369607 0.1562681 
910.5      -9999      490        1          3          1.226      -9999      -9999      -9999      -9999      -9999      1.719      1.69       2.074      1.184      -9999      0.196222   0.196222   0.23744    12.06882   115.1454   2.041      0.3391551  0.410094   5.778      0.1249031  0.09341969 0.1563865 
910.6      -9999      484        1          3          1.225      -9999      -9999      -9999      -9999      -9999      1.659      1.652      1.968      1.173      -9999      0.1999163  0.1999163  0.24118    14.12843   115.2645   2.066      0.3535081  0.4235043  5.815      0.1250414  0.09338027 0.1567025 
910.7000000000001 -9999      476        1          3          1.231      -9999      -9999      -9999      -9999      -9999      1.693      1.663      1.868      1.153      -9999      0.2066311  0.2066311  0.24798    18.8134    114.5519   2.101      0.3767768  0.4452325  5.848      0.1252997  0.09361702 0.1569825 
