~Version
 VERS              .         2.0                           : CWLS LOG ASCII STANDARD - VERSION 2.0
 WRAP              .         NO                            : ONE LINE PER DEPTH STEP
 DLM               .         SPACE                         : DELIMITING CHARACTER(SPACE TAB OR COMMA)
~Well Information
#_______________________________________________________________________________
#
#PARAMETER_NAME    .UNIT     VALUE                         : DESCRIPTION
#_______________________________________________________________________________
STRT               .M        890                           : First reference value
STOP               .M        1159                          : Last reference value
STEP               .M        0.1                           : Step increment
NULL               .         -9999                         : Missing value
COMP               .                                       : Company
WELL               .         7846                          : Well name
FLD                .         УЗЕНЬ                         : Field
LOC                .                                       : Location
CNTY               .                                       : County
STAT               .                                       : State
CTRY               .                                       : Country
SRVC               .         SCH                           : Service Company
DATE               .         09/16/2010                    : Date
UWI                .         7846                          : Unique Well ID
Block              .         7                             : 
Category           .         Нефтяная                      : 
Condition          .         Ликвидированная               : 
Date               .         19.06.1992                    : 
EREF               .m        87.8                          : 100.8
Gorizont           .         13                            : 14
Interpretator      .         Ткачева И.Г.                  : 
Kupol              .         Основной                      : osnovnoi
Mud                .         0                             : 
Mud_density        .         0                             : 
Mud_resistivity    .         0                             : 
NGDU               .         НГДУ-2                        : 
ORIGINALWELLNAME   .         7846                          : 
Spud_date          .         1992                          : 1961
Uslovie            .         13                            : 
Viscosity          .         0                             : 
X                  .m        42636.8                       : 46154
Y                  .m        84621.43                      : 85761.93
YEAR               .         2019                          : 
~Parameter Information Block
#_______________________________________________________________________________
#
#PARAMETER_NAME    .UNIT     VALUE                         : DESCRIPTION
#_______________________________________________________________________________
SET                .         LQC_KAZNIPI_Petrel            : 
PBBOTTOM           .M        1159                          : Глубина подошвы планшета
PBSCALE            .         1 _ 500                       : Вертикальный масштаб планшета
PBTOP              .M        890                           : Глубина кровли планшета
TLFamily_CALI      .         Caliper                       : 
TLFamily_CILD      .         Conductivity                  : 
TLFamily_COLL      .         Net Reservoir Flag            : 
TLFamily_CSAT      .         Fluid Code                    : 
TLFamily_DEPT      .         Measured Depth                : 
TLFamily_GR        .         Russian Gamma Ray             : 
TLFamily_GZ1       .         Gradient 045                  : 
TLFamily_GZ2       .         Gradient 105                  : 
TLFamily_GZ3       .         Gradient 225                  : 
TLFamily_GZ4       .         Gradient 425                  : 
TLFamily_GZ5       .         Gradient 850                  : 
TLFamily_LLS       .         Lateral Log Resistivity       : 
TLFamily_MINV      .         Micro Gradient Resistivity    : 
TLFamily_MNOR      .         Micro Resistivity             : 
TLFamily_NGLD      .         Neutron Gamma                 : 
TLFamily_OGZ       .         Gradient Inverted 225         : 
TLFamily_PHIE      .         Effective Porosity            : 
TLFamily_PHIEN     .         Effective Porosity            : 
TLFamily_PHIT      .         Porosity                      : 
TLFamily_PRMB      .         Permeability                  : 
TLFamily_PRMB_DGR  .         Permeability                  : 
TLFamily_RT        .         Formation Resistivity         : 
TLFamily_SOIL_ARCHIE .         Oil Saturation                : 
TLFamily_SOIL_DW   .         Oil Saturation                : 
TLFamily_SP        .         Spontaneous Potential         : 
TLFamily_VSH_FIN   .         Shale Volume                  : 
TLFamily_VSH_GR    .         Shale Volume                  : 
TLFamily_VSH_SP    .         Shale Volume                  : 
~Curve Information
#_______________________________________________________________________________
#
#LOGNAME           .UNIT     LOG_ID                        : DESCRIPTION
#_______________________________________________________________________________
DEPT               .M                                      : Колонка глубины 
CALI               .м                                      : Каверномер 
CILD               .мСм/м                                  : Индукционный каротаж 
COLL               .unitless                               : Описание 
CSAT               .unitless                               : Описание 
GR                 .uR/h                                   : Гамма каротаж 
GZ1                .Ohmm                                   : Градиент-зонд  длиной 0.45м 
GZ2                .Ohmm                                   : Градиент-зонд  длиной 1.05м 
GZ3                .Ohmm                                   : Градиент-зонд  длиной 2.25м 
GZ4                .Ohmm                                   : Градиент-зонд  длиной 4.5м 
GZ5                .Ohmm                                   : Градиент-зонд  длиной 8.5м 
LLS                .Ohmm                                   : Боковой каротаж 
MINV               .Ohmm                                   : Микро-градиент зонд 
MNOR               .Ohmm                                   : Микро-потенциал зонд 
NGLD               .у.е.                                   : Показания зонда НГК-60 аппаратуры ДРСТ-3-90 
OGZ                .Ohmm                                   : Обращенный градиент-зонд 
PHIE               .v/v                                    : Описание 
PHIEN              .v/v                                    :  
PHIT               .v/v                                    : Описание 
PRMB               .mD                                     :  
PRMB_DGR           .mD                                     :  
RT                 .ohmm                                   : УЭС пласта 
SOIL_ARCHIE        .v/v                                    :  
SOIL_DW            .v/v                                    :  
SP                 .мВ                                     : Потенциал самополяризации 
VSH_FIN            .v/v                                    : Описание 
VSH_GR             .v/v                                    : Shale volume 
VSH_SP             .v/v                                    : Shale Volume 
~Ascii
# ...
1033       0.302      545        -9999      -9999      5.373      1.155      1.362      1.806      1.485      1.609      1.599      0.401      0.481      0.824      1.397      0.1821524  0.1821524  0.35984    6.623106   1.584426   1.835      0.2588166  0.4992987  20.055     0.5384474  0.5376501  0.5392447 
1033.1     0.299      544        -9999      -9999      5.412      1.095      1.348      1.877      1.562      1.522      1.581      0.396      0.501      0.821      1.447      0.1817797  0.1817797  0.36086    6.518663   1.521833   1.838      0.2580622  0.5001832  20.046     0.5426677  0.5465723  0.538763  
1033.2     0.296      545        -9999      -9999      5.449      1.047      1.373      1.919      1.658      1.431      1.576      0.394      0.531      0.821      1.51       0.1811271  0.1811271  0.36086    6.339744   1.464737   1.835      0.255164   0.4990819  19.953     0.5446451  0.5551738  0.5341164 
1033.3     0.295      547        -9999      -9999      5.472      1.029      1.419      1.91       1.725      1.394      1.585      0.395      0.573      0.823      1.58       0.1807665  0.1807665  0.36018    6.242994   1.430329   1.828      0.2525307  0.4971556  19.804     0.5436772  0.5605888  0.5267655 
1033.4     0.296      550        -9999      -9999      5.481      1.051      1.453      1.855      1.732      1.442      1.599      0.403      0.62       0.827      1.666      0.1802289  0.1802289  0.35882    6.10146    1.417087   1.818      0.2486573  0.49402    19.658     0.5411853  0.562722   0.5196485 
1033.5     0.299      554        -9999      -9999      5.474      1.107      1.444      1.78       1.681      1.555      1.605      0.417      0.653      0.831      1.775      0.1798143  0.1798143  0.35746    5.994521   1.427376   1.805      0.2446092  0.4905623  19.574     0.5383204  0.5610622  0.5155787 
1033.6     0.305      558        -9999      -9999      5.445      1.167      1.396      1.705      1.591      1.675      1.592      0.433      0.654      0.833      1.896      0.180234   0.180234   0.35678    6.102798   1.470804   1.792      0.2435802  0.4885781  19.578     0.5349879  0.5542375  0.5157382 
1033.7     0.31       560        -9999      -9999      5.393      1.201      1.345      1.642      1.489      1.741      1.562      0.446      0.619      0.834      1.996      0.181377   0.181377   0.35644    6.407676   1.552012   1.786      0.2465487  0.4886675  19.642     0.5304939  0.5422073  0.5187804 
1033.8     0.315      562        -9999      -9999      5.328      1.203      1.331      1.589      1.396      1.734      1.526      0.453      0.564      0.832      2.052      0.1839652  0.1839652  0.35712    7.155505   1.659855   1.779      0.2544168  0.4910557  19.707     0.5247114  0.5275361  0.5218868 
1033.9     0.318      563        -9999      -9999      5.265      1.198      1.368      1.547      1.329      1.686      1.501      0.451      0.511      0.831      2.06       0.1864184  0.1864184  0.35746    7.944739   1.771527   1.776      0.2623856  0.4935295  19.729     0.5183078  0.5136952  0.5229204 
1034       0.319      563        -9999      -9999      5.211      1.216      1.434      1.519      1.297      1.65       1.494      0.442      0.476      0.831      2.036      0.1884055  0.1884055  0.35746    8.647406   1.873205   1.776      0.2691659  0.4956116  19.72      0.5122862  0.502121   0.5224515 
1034.1     0.317      561        -9999      -9999      5.164      1.262      1.49       1.516      1.292      1.661      1.506      0.431      0.464      0.832      1.985      0.18957    0.18957    0.35712    9.087701   1.966443   1.783      0.2744179  0.4975167  19.736     0.5077273  0.4922597  0.5231949 
1034.2     0.313      557        -9999      -9999      5.117      1.319      1.512      1.542      1.287      1.717      1.527      0.422      0.468      0.831      1.9        0.1908518  0.1908518  0.35746    9.59835    2.06432    1.795      0.2809311  0.5008029  19.818     0.5048733  0.482592   0.5271546 
1034.3     0.31       553        -9999      -9999      5.074      1.367      1.513      1.591      1.263      1.782      1.544      0.42       0.475      0.827      1.779      0.1926122  0.1926122  0.35882    10.34672   2.15813    1.808      0.2890698  0.5055263  19.946     0.5036601  0.4739135  0.5334067 
1034.4     0.308      551        -9999      -9999      5.042      1.407      1.522      1.643      1.225      1.816      1.548      0.423      0.478      0.818      1.652      0.195876   0.195876   0.36188    11.89205   2.230698   1.815      0.3006675  0.5122411  20.05      0.5030425  0.4675565  0.5385283 
1034.5     0.307      551        -9999      -9999      5.022      1.448      1.553      1.678      1.198      1.804      1.54       0.431      0.472      0.807      1.563      0.1999903  0.1999903  0.36562    14.17306   2.277287   1.815      0.3132147  0.519213   20.084     0.5019082  0.4636268  0.5401896 
1034.6     0.307      553        -9999      -9999      5.01       1.487      1.596      1.688      1.191      1.764      1.53       0.438      0.461      0.795      1.541      0.2046021  0.2046021  0.3697     17.25384   2.305706   1.808      0.3254952  0.5257831  20.067     0.5002966  0.4612849  0.5393082 
1034.7     0.307      557        -9999      -9999      4.995      1.509      1.63       1.667      1.168      1.721      1.525      0.441      0.45       0.786      1.571      0.2082465  0.2082465  0.37276    20.1553    2.341729   1.795      0.3335347  0.5297211  20.055     0.4985256  0.4583741  0.5386772 
1034.8     0.305      561        -9999      -9999      4.968      1.508      1.648      1.612      1.078      1.69       1.525      0.439      0.442      0.778      1.616      0.2116151  0.2116151  0.37548    23.26933   2.407995   1.783      0.3407124  0.5331775  20.081     0.4965602  0.4531808  0.5399395 
1034.9     0.302      564        -9999      -9999      4.932      1.487      1.65       1.529      0.914      1.664      1.523      0.433      0.439      0.772      1.648      0.2144583  0.2144583  0.37752    26.26917   2.499274   1.773      0.3466093  0.5358483  20.121     0.4941263  0.4463479  0.5419047 
1035       0.297      566        -9999      -9999      4.907      1.46       1.642      1.44       0.754      1.633      1.512      0.425      0.445      0.769      1.667      0.2161907  0.2161907  0.37854    28.28359   2.564692   1.767      0.3501388  0.5372934  20.129     0.4919676  0.4416634  0.5422717 
1035.1     0.294      568        -9999      -9999      4.922      1.437      1.635      1.378      0.717      1.594      1.49       0.418      0.469      0.769      1.675      0.2161869  0.2161869  0.37854    28.27899   2.525239   1.761      0.3490908  0.5365025  20.074     0.4919791  0.4444681  0.5394901 
1035.2     0.291      568        -9999      -9999      4.996      1.424      1.651      1.371      0.869      1.562      1.461      0.424      0.52       0.773      1.665      0.213366   0.213366   0.37718    25.0734    2.339311   1.761      0.3416019  0.5330744  19.969     0.4964062  0.4585675  0.5342448 
1035.3     0.292      569        -9999      -9999      5.115      1.428      1.703      1.428      1.156      1.561      1.434      0.462      0.592      0.781      1.63       0.2076961  0.2076961  0.37446    19.6876    2.068593   1.757      0.3252554  0.5254783  19.853     0.5053453  0.4821848  0.5285057 
1035.4     0.294      570        -9999      -9999      5.246      1.443      1.775      1.53       1.438      1.613      1.417      0.543      0.662      0.79       1.58       0.2007793  0.2007793  0.3714     14.65813   1.806657   1.754      0.3044975  0.5163152  19.771     0.5170323  0.5095927  0.5244719 
1035.5     0.297      570        -9999      -9999      5.356      1.452      1.832      1.632      1.593      1.722      1.414      0.646      0.699      0.799      1.532      0.1938657  0.1938657  0.36834    10.91494   1.61251    1.754      0.2829442  0.507179   19.754     0.5287099  0.5338066  0.5236132 
