~Version
 VERS              .         2.0                           : CWLS LOG ASCII STANDARD - VERSION 2.0
 WRAP              .         NO                            : ONE LINE PER DEPTH STEP
 DLM               .         SPACE                         : DELIMITING CHARACTER(SPACE TAB OR COMMA)
~Well Information
#_______________________________________________________________________________
#
#PARAMETER_NAME    .UNIT     VALUE                         : DESCRIPTION
#_______________________________________________________________________________
STRT               .M        890                           : First reference value
STOP               .M        1159                          : Last reference value
STEP               .M        0.1                           : Step increment
NULL               .         -9999                         : Missing value
COMP               .                                       : Company
WELL               .         7846                          : Well name
FLD                .         УЗЕНЬ                         : Field
LOC                .                                       : Location
CNTY               .                                       : County
STAT               .                                       : State
CTRY               .                                       : Country
SRVC               .         SCH                           : Service Company
DATE               .         09/16/2010                    : Date
UWI                .         7846                          : Unique Well ID
Block              .         7                             : 
Category           .         Нефтяная                      : 
Condition          .         Ликвидированная               : 
Date               .         19.06.1992                    : 
EREF               .m        87.8                          : 100.8
Gorizont           .         13                            : 14
Interpretator      .         Ткачева И.Г.                  : 
Kupol              .         Основной                      : osnovnoi
Mud                .         0                             : 
Mud_density        .         0                             : 
Mud_resistivity    .         0                             : 
NGDU               .         НГДУ-2                        : 
ORIGINALWELLNAME   .         7846                          : 
Spud_date          .         1992                          : 1961
Uslovie            .         13                            : 
Viscosity          .         0                             : 
X                  .m        42636.8                       : 46154
Y                  .m        84621.43                      : 85761.93
YEAR               .         2019                          : 
~Parameter Information Block
#_______________________________________________________________________________
#
#PARAMETER_NAME    .UNIT     VALUE                         : DESCRIPTION
#_______________________________________________________________________________
SET                .         LQC_KAZNIPI_Petrel            : 
PBBOTTOM           .M        1159                          : Глубина подошвы планшета
PBSCALE            .         1 _ 500                       : Вертикальный масштаб планшета
PBTOP              .M        890                           : Глубина кровли планшета
TLFamily_CALI      .         Caliper                       : 
TLFamily_CILD      .         Conductivity                  : 
TLFamily_COLL      .         Net Reservoir Flag            : 
TLFamily_CSAT      .         Fluid Code                    : 
TLFamily_DEPT      .         Measured Depth                : 
TLFamily_GR        .         Russian Gamma Ray             : 
TLFamily_GZ1       .         Gradient 045                  : 
TLFamily_GZ2       .         Gradient 105                  : 
TLFamily_GZ3       .         Gradient 225                  : 
TLFamily_GZ4       .         Gradient 425                  : 
TLFamily_GZ5       .         Gradient 850                  : 
TLFamily_LLS       .         Lateral Log Resistivity       : 
TLFamily_MINV      .         Micro Gradient Resistivity    : 
TLFamily_MNOR      .         Micro Resistivity             : 
TLFamily_NGLD      .         Neutron Gamma                 : 
TLFamily_OGZ       .         Gradient Inverted 225         : 
TLFamily_PHIE      .         Effective Porosity            : 
TLFamily_PHIEN     .         Effective Porosity            : 
TLFamily_PHIT      .         Porosity                      : 
TLFamily_PRMB      .         Permeability                  : 
TLFamily_PRMB_DGR  .         Permeability                  : 
TLFamily_RT        .         Formation Resistivity         : 
TLFamily_SOIL_ARCHIE .         Oil Saturation                : 
TLFamily_SOIL_DW   .         Oil Saturation                : 
TLFamily_SP        .         Spontaneous Potential         : 
TLFamily_VSH_FIN   .         Shale Volume                  : 
TLFamily_VSH_GR    .         Shale Volume                  : 
TLFamily_VSH_SP    .         Shale Volume                  : 
~Curve Information
#_______________________________________________________________________________
#
#LOGNAME           .UNIT     LOG_ID                        : DESCRIPTION
#_______________________________________________________________________________
DEPT               .M                                      : Колонка глубины 
CALI               .м                                      : Каверномер 
CILD               .мСм/м                                  : Индукционный каротаж 
COLL               .unitless                               : Описание 
CSAT               .unitless                               : Описание 
GR                 .uR/h                                   : Гамма каротаж 
GZ1                .Ohmm                                   : Градиент-зонд  длиной 0.45м 
GZ2                .Ohmm                                   : Градиент-зонд  длиной 1.05м 
GZ3                .Ohmm                                   : Градиент-зонд  длиной 2.25м 
GZ4                .Ohmm                                   : Градиент-зонд  длиной 4.5м 
GZ5                .Ohmm                                   : Градиент-зонд  длиной 8.5м 
LLS                .Ohmm                                   : Боковой каротаж 
MINV               .Ohmm                                   : Микро-градиент зонд 
MNOR               .Ohmm                                   : Микро-потенциал зонд 
NGLD               .у.е.                                   : Показания зонда НГК-60 аппаратуры ДРСТ-3-90 
OGZ                .Ohmm                                   : Обращенный градиент-зонд 
PHIE               .v/v                                    : Описание 
PHIEN              .v/v                                    :  
PHIT               .v/v                                    : Описание 
PRMB               .mD                                     :  
PRMB_DGR           .mD                                     :  
RT                 .ohmm                                   : УЭС пласта 
SOIL_ARCHIE        .v/v                                    :  
SOIL_DW            .v/v                                    :  
SP                 .мВ                                     : Потенциал самополяризации 
VSH_FIN            .v/v                                    : Описание 
VSH_GR             .v/v                                    : Shale volume 
VSH_SP             .v/v                                    : Shale Volume 
~Ascii
# ...
1103.2     0.218      334        -9999      -9999      6.345      1.928      2.186      3.299      0.457      0.659      2.854      1.506      1.42       1.03       3.205      0.1204517  0.1204517  0.2898     0.4766683  2.142024   2.994      0.1555091  0.4757858  21.154     0.5131766  0.4753655  0.5509878 
1103.3     0.217      326        -9999      -9999      6.204      2.085      2.292      3.421      0.575      0.575      3.031      1.457      1.494      1.034      2.948      0.1317209  0.1317209  0.28844    0.7708119  2.692959   3.067      0.2275749  0.4975114  20.463     0.4749064  0.4329492  0.5168635 
1103.4     0.216      321        -9999      -9999      6.055      2.222      2.425      3.498      0.732      0.481      3.231      1.466      1.628      1.041      2.812      0.1404082  0.1404082  0.28606    1.1165     3.429854   3.115      0.2746742  0.5108266  19.901     0.441369   0.3922322  0.4905058 
1103.5     0.216      318        -9999      -9999      5.922      2.292      2.553      3.509      0.949      0.402      3.411      1.504      1.768      1.048      2.739      0.1461327  0.1461327  0.28368    1.425245   4.25639    3.145      0.3026278  0.5181249  19.546     0.4168102  0.3591332  0.4744871 
1103.6     0.216      317        -9999      -9999      5.82       2.289      2.654      3.465      1.236      0.362      3.523      1.528      1.859      1.056      2.679      0.1481041  0.1481041  0.28096    1.550262   5.022868   3.155      0.3117457  0.5185536  19.434     0.4025937  0.3356543  0.4695331 
1103.7     0.216      317        -9999      -9999      5.754      2.26       2.735      3.407      1.58       0.38       3.536      1.518      1.898      1.065      2.611      0.1465753  0.1465753  0.2779     1.45241    5.590902   3.155      0.305498   0.5133612  19.549     0.3979534  0.3212864  0.4746204 
1103.8     0.217      315        -9999      -9999      5.718      2.264      2.821      3.375      1.94       0.463      3.465      1.505      1.914      1.073      2.532      0.143207   0.143207   0.27518    1.258053   5.927375   3.175      0.2933905  0.5075422  19.805     0.3999183  0.3137102  0.4861263 
1103.9     0.218      310        -9999      -9999      5.712      2.33       2.933      3.38       2.292      0.589      3.36       1.492      1.931      1.082      2.453      0.1385501  0.1385501  0.27212    1.031437   5.985389   3.226      0.2781677  0.5017571  20.043     0.4047571  0.312465   0.4970492 
1104       0.218      303        -9999      -9999      5.734      2.442      3.07       3.398      2.639      0.715      3.284      1.488      2.004      1.088      2.387      0.1350078  0.1350078  0.27008    0.8868094  5.7754     3.3        0.2695158  0.500129   20.14      0.4093096  0.3170551  0.5015641 
1104.1     0.217      296        -9999      -9999      5.793      2.556      3.206      3.395      2.999      0.801      3.282      1.526      2.12       1.091      2.35       0.1322861  0.1322861  0.26906    0.789619   5.247914   3.378      0.2645501  0.5008964  20.09      0.4144664  0.3297004  0.4992323 
1104.2     0.217      290        -9999      -9999      5.894      2.633      3.309      3.355      3.378      0.838      3.35       1.594      2.236      1.092      2.356      0.1286771  0.1286771  0.26872    0.676972   4.454319   3.448      0.2538335  0.5003552  20.025     0.4243723  0.3525292  0.4962155 
1104.3     0.216      286        -9999      -9999      6.028      2.647      3.363      3.287      3.754      0.83       3.444      1.667      2.311      1.092      2.407      0.1227994  0.1227994  0.26872    0.5268661  3.583528   3.497      0.2279511  0.4950143  20.087     0.4421837  0.3852748  0.4990927 
1104.4     0.216      284        -9999      -9999      6.171      2.597      3.38       3.224      4.093      0.778      3.503      1.723      2.338      1.094      2.496      0.1138672  0.1138672  0.26804    0.3599606  2.841155   3.521      0.1781058  0.4815481  20.336     0.4671903  0.4235816  0.5107991 
1104.5     0.217      284        -9999      -9999      6.306      2.498      3.395      3.204      4.353      0.682      3.501      1.762      2.337      1.099      2.609      0.1027606  0.1027606  0.26634    0.2241478  2.282018   3.521      0.1012562  0.4596045  20.696     0.4956951  0.4632341  0.528156  
1104.6     0.218      284        -9999      -9999      6.429      2.383      3.44       3.253      4.501      0.57       3.453      1.799      2.33       1.106      2.735      0.0911543  0.0911543  0.26396    0.1366334  1.868975   3.521      0.002371853 0.4329022  21.03      0.5236537  0.5025848  0.5447226 
1104.7     0.219      284        -9999      -9999      6.54       2.29       3.527      3.358      4.515      0.5        3.398      1.845      2.321      1.114      2.861      0.08063234 0.08063234 0.26124    0.08722973 1.560803   3.521      0          0.4045463  21.206     0.547296   0.5409582  0.5536337 
1104.8     0.22       285        -9999      -9999      6.637      2.248      3.645      3.47       4.419      0.522      3.358      1.903      2.31       1.12       2.976      0.07267313 0.07267313 0.2592     0.06212132 1.333406   3.509      0          0.3794187  21.205     0.5652329  0.5768831  0.5535828 
1104.9     0.221      284        -9999      -9999      6.704      2.268      3.768      3.528      4.263      0.626      3.34       1.932      2.305      1.123      3.071      0.06813501 0.06813501 0.25818    0.05118983 1.195989   3.521      0          0.3657888  21.109     0.5758939  0.6030809  0.5487069 
1105       0.22       283        -9999      -9999      6.735      2.334      3.869      3.502      4.108      0.74       3.331      1.962      2.3        1.122      3.144      0.06653424 0.06653424 0.25852    0.04781163 1.137291   3.534      0          0.3627404  21.094     0.5817751  0.6156017  0.5479484 
1105.1     0.22       281        -9999      -9999      6.738      2.409      3.928      3.397      3.98       0.782      3.324      2.001      2.296      1.119      3.203      0.0674854  0.0674854  0.25954    0.04979106 1.131767   3.559      0          0.3695259  21.078     0.5819837  0.616827   0.5471404 
1105.2     0.22       279        -9999      -9999      6.735      2.455      3.93       3.248      3.868      0.719      3.308      2.008      2.304      1.115      3.263      0.06900591 0.06900591 0.2609     0.05312695 1.137291   3.584      0          0.3783811  21.083     0.5814973  0.6156017  0.5473928 
1105.3     0.22       278        -9999      -9999      6.744      2.457      3.874      3.093      3.738      0.588      3.283      1.987      2.317      1.112      3.341      0.069218   0.069218   0.26192    0.0536097  1.120797   3.597      0          0.3817578  21.107     0.5839455  0.6192851  0.5486057 
1105.4     0.22       277        -9999      -9999      6.774      2.427      3.774      2.964      3.572      0.462      3.249      1.948      2.324      1.113      3.455      0.06748299 0.06748299 0.26158    0.04978593 1.067522   3.61       0          0.3773302  21.028     0.5881727  0.6317235  0.5446221 
1105.5     0.22       277        -9999      -9999      6.816      2.393      3.658      2.875      3.377      0.412      3.212      1.911      2.316      1.116      3.618      0.06537769 0.06537769 0.26056    0.04551049 0.9971635  3.61       0          0.369411   20.802     0.5914615  0.6495578  0.5333651 
1105.6     0.22       275        -9999      -9999      6.854      2.375      3.561      2.824      3.187      0.46       3.181      1.886      2.291      1.119      3.824      0.06426731 0.06426731 0.25954    0.04340547 0.9375108  3.636      0          0.3665971  20.473     0.5917355  0.6661272  0.5173438 
1105.7     0.22       271        -9999      -9999      6.866      2.376      3.514      2.796      3.033      0.575      3.165      1.883      2.26       1.122      4.049      0.06471837 0.06471837 0.25852    0.04424857 0.9194245  3.69       0          0.3709151  20.173     0.5872777  0.671447   0.5031084 
