~Version
 VERS              .         2.0                           : CWLS LOG ASCII STANDARD - VERSION 2.0
 WRAP              .         NO                            : ONE LINE PER DEPTH STEP
 DLM               .         SPACE                         : DELIMITING CHARACTER(SPACE TAB OR COMMA)
~Well Information
#_______________________________________________________________________________
#
#PARAMETER_NAME    .UNIT     VALUE                         : DESCRIPTION
#_______________________________________________________________________________
STRT               .M        890                           : First reference value
STOP               .M        1159                          : Last reference value
STEP               .M        0.1                           : Step increment
NULL               .         -9999                         : Missing value
COMP               .                                       : Company
WELL               .         7846                          : Well name
FLD                .         УЗЕНЬ                         : Field
LOC                .                                       : Location
CNTY               .                                       : County
STAT               .                                       : State
CTRY               .                                       : Country
SRVC               .         SCH                           : Service Company
DATE               .         09/16/2010                    : Date
UWI                .         7846                          : Unique Well ID
Block              .         7                             : 
Category           .         Нефтяная                      : 
Condition          .         Ликвидированная               : 
Date               .         19.06.1992                    : 
EREF               .m        87.8                          : 100.8
Gorizont           .         13                            : 14
Interpretator      .         Ткачева И.Г.                  : 
Kupol              .         Основной                      : osnovnoi
Mud                .         0                             : 
Mud_density        .         0                             : 
Mud_resistivity    .         0                             : 
NGDU               .         НГДУ-2                        : 
ORIGINALWELLNAME   .         7846                          : 
Spud_date          .         1992                          : 1961
Uslovie            .         13                            : 
Viscosity          .         0                             : 
X                  .m        42636.8                       : 46154
Y                  .m        84621.43                      : 85761.93
YEAR               .         2019                          : 
~Parameter Information Block
#_______________________________________________________________________________
#
#PARAMETER_NAME    .UNIT     VALUE                         : DESCRIPTION
#_______________________________________________________________________________
SET                .         LQC_KAZNIPI_Petrel            : 
PBBOTTOM           .M        1159                          : Глубина подошвы планшета
PBSCALE            .         1 _ 500                       : Вертикальный масштаб планшета
PBTOP              .M        890                           : Глубина кровли планшета
TLFamily_CALI      .         Caliper                       : 
TLFamily_CILD      .         Conductivity                  : 
TLFamily_COLL      .         Net Reservoir Flag            : 
TLFamily_CSAT      .         Fluid Code                    : 
TLFamily_DEPT      .         Measured Depth                : 
TLFamily_GR        .         Russian Gamma Ray             : 
TLFamily_GZ1       .         Gradient 045                  : 
TLFamily_GZ2       .         Gradient 105                  : 
TLFamily_GZ3       .         Gradient 225                  : 
TLFamily_GZ4       .         Gradient 425                  : 
TLFamily_GZ5       .         Gradient 850                  : 
TLFamily_LLS       .         Lateral Log Resistivity       : 
TLFamily_MINV      .         Micro Gradient Resistivity    : 
TLFamily_MNOR      .         Micro Resistivity             : 
TLFamily_NGLD      .         Neutron Gamma                 : 
TLFamily_OGZ       .         Gradient Inverted 225         : 
TLFamily_PHIE      .         Effective Porosity            : 
TLFamily_PHIEN     .         Effective Porosity            : 
TLFamily_PHIT      .         Porosity                      : 
TLFamily_PRMB      .         Permeability                  : 
TLFamily_PRMB_DGR  .         Permeability                  : 
TLFamily_RT        .         Formation Resistivity         : 
TLFamily_SOIL_ARCHIE .         Oil Saturation                : 
TLFamily_SOIL_DW   .         Oil Saturation                : 
TLFamily_SP        .         Spontaneous Potential         : 
TLFamily_VSH_FIN   .         Shale Volume                  : 
TLFamily_VSH_GR    .         Shale Volume                  : 
TLFamily_VSH_SP    .         Shale Volume                  : 
~Curve Information
#_______________________________________________________________________________
#
#LOGNAME           .UNIT     LOG_ID                        : DESCRIPTION
#_______________________________________________________________________________
DEPT               .M                                      : Колонка глубины 
CALI               .м                                      : Каверномер 
CILD               .мСм/м                                  : Индукционный каротаж 
COLL               .unitless                               : Описание 
CSAT               .unitless                               : Описание 
GR                 .uR/h                                   : Гамма каротаж 
GZ1                .Ohmm                                   : Градиент-зонд  длиной 0.45м 
GZ2                .Ohmm                                   : Градиент-зонд  длиной 1.05м 
GZ3                .Ohmm                                   : Градиент-зонд  длиной 2.25м 
GZ4                .Ohmm                                   : Градиент-зонд  длиной 4.5м 
GZ5                .Ohmm                                   : Градиент-зонд  длиной 8.5м 
LLS                .Ohmm                                   : Боковой каротаж 
MINV               .Ohmm                                   : Микро-градиент зонд 
MNOR               .Ohmm                                   : Микро-потенциал зонд 
NGLD               .у.е.                                   : Показания зонда НГК-60 аппаратуры ДРСТ-3-90 
OGZ                .Ohmm                                   : Обращенный градиент-зонд 
PHIE               .v/v                                    : Описание 
PHIEN              .v/v                                    :  
PHIT               .v/v                                    : Описание 
PRMB               .mD                                     :  
PRMB_DGR           .mD                                     :  
RT                 .ohmm                                   : УЭС пласта 
SOIL_ARCHIE        .v/v                                    :  
SOIL_DW            .v/v                                    :  
SP                 .мВ                                     : Потенциал самополяризации 
VSH_FIN            .v/v                                    : Описание 
VSH_GR             .v/v                                    : Shale volume 
VSH_SP             .v/v                                    : Shale Volume 
~Ascii
# ...
960.2000000000001 0.232      312        -9999      -9999      3.267      2.618      3.81       2.969      0.015      0.015      2.907      2.632      2.725      1.023      3.396      0.1232457  0.1232457  0.29218    0.5369924  5.918225   3.205      0.198244   0.500182   23.813     0.511922   0.3139081  0.7099359 
960.3      0.232      313        -9999      -9999      3.269      2.605      3.777      3.09       0.015      0.015      2.973      2.742      2.927      1.028      3.394      0.1213924  0.1213924  0.29048    0.4961814  5.904386   3.195      0.1864013  0.494741   23.823     0.5123866  0.3142084  0.7105648 
960.4      0.232      314        -9999      -9999      3.243      2.596      3.774      3.193      0.015      0.015      3.034      2.569      2.895      1.031      3.431      0.1217891  0.1217891  0.28946    0.5046471  6.086844   3.185      0.1875154  0.4934306  23.748     0.5080936  0.3103278  0.7058594 
960.5      0.233      316        -9999      -9999      3.197      2.604      3.761      3.27       0.015      0.015      3.12       2.183      2.693      1.029      3.475      0.1249184  0.1249184  0.29014    0.5766996  6.423572   3.165      0.2029184  0.4973172  23.618     0.5006715  0.3035792  0.6977639 
960.6      0.234      318        -9999      -9999      3.139      2.617      3.71       3.318      0.015      0.015      3.201      1.746      2.441      1.022      3.49       0.1300317  0.1300317  0.29252    0.7172323  6.874823   3.145      0.2279946  0.5057344  23.484     0.4923889  0.2952788  0.689499  
960.7000000000001 0.236      320        -9999      -9999      3.08       2.607      3.618      3.332      0.015      0.015      3.213      1.37       2.188      1.013      3.463      0.1354755  0.1354755  0.29558    0.9046759  7.366389   3.125      0.2528507  0.5148885  23.382     0.4851651  0.2870682  0.6832621 
960.8      0.239      323        -9999      -9999      3.031      2.555      3.516      3.308      0.015      0.015      3.121      1.11       1.939      1.002      3.41       0.1407936  0.1407936  0.29932    1.135003   7.801252   3.096      0.2743231  0.5234016  23.334     0.4803831  0.280423   0.6803431 
960.9      0.242      327        -9999      -9999      3.007      2.463      3.441      3.254      0.015      0.015      2.963      0.959      1.696      0.992      3.367      0.1446211  0.1446211  0.30272    1.336264   8.023517   3.058      0.286959   0.5286218  23.344     0.4790875  0.2772246  0.6809504 
961        0.244      333        -9999      -9999      3.013      2.354      3.423      3.2        0.015      0.015      2.803      0.885      1.494      0.983      3.359      0.1468564  0.1468564  0.30578    1.469923   7.967367   3.003      0.2904028  0.53003    23.413     0.4815868  0.2780208  0.6851527 
961.1      0.246      339        -9999      -9999      3.045      2.252      3.459      3.178      0.015      0.015      2.678      0.85       1.376      0.976      3.38       0.1471727  0.1471727  0.30816    1.489888   7.674447   2.95       0.2857883  0.5284854  23.547     0.4878403  0.2823058  0.6933747 
961.2000000000001 0.247      345        -9999      -9999      3.083      2.165      3.514      3.199      0.015      0.015      2.582      0.827      1.34       0.973      3.408      0.1453615  0.1453615  0.30918    1.379134   7.340568   2.899      0.2721115  0.5230943  23.74      0.4964196  0.2874802  0.705359  
961.3      0.247      349        -9999      -9999      3.109      2.093      3.531      3.242      0.015      0.015      2.489      0.803      1.346      0.974      3.428      0.1422137  0.1422137  0.30884    1.20587    7.120528   2.865      0.2539803  0.5159568  23.953     0.5049282  0.2910751  0.7187814 
961.4      0.247      352        -9999      -9999      3.112      2.04       3.474      3.276      0.015      0.015      2.385      0.779      1.335      0.976      3.443      0.1397998  0.1397998  0.30816    1.087903   7.095569   2.841      0.2397788  0.510103   24.111     0.5101823  0.2914927  0.7288719 
961.5      0.246      352        -9999      -9999      3.093      2.023      3.349      3.287      0.015      0.015      2.289      0.759      1.278      0.978      3.457      0.1392151  0.1392151  0.30748    1.06111    7.255142   2.841      0.2369987  0.5086542  24.143     0.5098935  0.2888575  0.7309295 
961.6      0.245      351        -9999      -9999      3.065      2.045      3.21       3.278      0.015      0.015      2.236      0.745      1.178      0.979      3.462      0.1406198  0.1406198  0.30714    1.126623   7.496868   2.849      0.2446387  0.5108546  24.038     0.5046065  0.2850175  0.7241957 
961.7000000000001 0.245      350        -9999      -9999      3.041      2.079      3.108      3.25       0.015      0.015      2.25       0.735      1.061      0.981      3.439      0.142372   0.142372   0.30646    1.214038   7.710465   2.857      0.2537242  0.5131432  23.857     0.4972365  0.2817666  0.7127063 
961.8      0.248      348        -9999      -9999      3.038      2.074      3.056      3.185      0.015      0.015      2.307      0.72       0.96       0.986      3.38       0.1425275  0.1425275  0.30476    1.222118   7.737587   2.874      0.2565063  0.5131038  23.684     0.4916136  0.2813629  0.7018644 
961.9      0.253      348        -9999      -9999      3.06       2.001      3.023      3.074      0.015      0.015      2.353      0.696      0.896      0.996      3.295      0.1398135  0.1398135  0.30136    1.088539   7.540877   2.874      0.2439521  0.5061184  23.569     0.4895347  0.2843371  0.6947323 
962        0.258      349        -9999      -9999      3.1        1.873      2.979      2.938      0.015      0.015      2.334      0.68       0.872      1.011      3.195      0.1344687  0.1344687  0.29626    0.866653   7.195939   2.865      0.2166932  0.4926596  23.504     0.4902765  0.2898256  0.6907275 
962.1      0.26       352        -9999      -9999      3.139      1.738      2.928      2.822      0.015      0.015      2.246      0.713      0.879      1.031      3.093      0.1273256  0.1273256  0.28946    0.6390544  6.874823   2.841      0.1753064  0.472399   23.449     0.4913162  0.2952788  0.6873536 
962.2000000000001 0.258      356        -9999      -9999      3.159      1.64       2.908      2.77       0.015      0.015      2.123      0.861      0.919      1.053      3.004      0.1201633  0.1201633  0.28198    0.4708406  6.715746   2.809      0.1280322  0.4488795  23.371     0.4903537  0.2981151  0.6825923 
962.3      0.253      359        -9999      -9999      3.151      1.61       2.96       2.795      0.015      0.015      2.015      1.182      1.021      1.076      2.955      0.1134818  0.1134818  0.27416    0.3540927  6.778932   2.786      0.07994191 0.4246978  23.276     0.4869035  0.2969773  0.6768298 
962.4      0.246      362        -9999      -9999      3.119      1.653      3.079      2.881      0.015      0.015      1.967      1.683      1.22       1.095      2.968      0.1083925  0.1083925  0.2677     0.285003   7.037667   2.762      0.03853346 0.4034729  23.213     0.4827501  0.2924696  0.6730306 
962.5      0.239      362        -9999      -9999      3.07       1.756      3.221      2.989      0.015      0.015      2.017      2.283      1.525      1.107      3.034      0.105211   0.105211   0.26362    0.2488401  7.453125   2.762      0.01326026 0.3910512  23.235     0.4800274  0.2856994  0.6743553 
962.6      0.234      359        -9999      -9999      3.019      1.885      3.322      3.079      0.015      0.015      2.188      2.834      1.89       1.112      3.107      0.1034477  0.1034477  0.26192    0.2308132  7.911604   2.786      0.002685135 0.3874318  23.355     0.4802191  0.2788193  0.6816189 
962.7000000000001 0.232      352        -9999      -9999      2.976      2.008      3.35       3.128      0.015      0.015      2.476      3.195      2.222      1.108      3.132      0.104058   0.104058   0.26328    0.2368997  8.320013   2.841      0.01684203 0.3966773  23.522     0.4824909  0.2731473  0.6918346 
