~Version
 VERS              .         2.0                           : CWLS LOG ASCII STANDARD - VERSION 2.0
 WRAP              .         NO                            : ONE LINE PER DEPTH STEP
 DLM               .         SPACE                         : DELIMITING CHARACTER(SPACE TAB OR COMMA)
~Well Information
#_______________________________________________________________________________
#
#PARAMETER_NAME    .UNIT     VALUE                         : DESCRIPTION
#_______________________________________________________________________________
STRT               .M        890                           : First reference value
STOP               .M        1159                          : Last reference value
STEP               .M        0.1                           : Step increment
NULL               .         -9999                         : Missing value
COMP               .                                       : Company
WELL               .         7846                          : Well name
FLD                .         УЗЕНЬ                         : Field
LOC                .                                       : Location
CNTY               .                                       : County
STAT               .                                       : State
CTRY               .                                       : Country
SRVC               .         SCH                           : Service Company
DATE               .         09/16/2010                    : Date
UWI                .         7846                          : Unique Well ID
Block              .         7                             : 
Category           .         Нефтяная                      : 
Condition          .         Ликвидированная               : 
Date               .         19.06.1992                    : 
EREF               .m        87.8                          : 100.8
Gorizont           .         13                            : 14
Interpretator      .         Ткачева И.Г.                  : 
Kupol              .         Основной                      : osnovnoi
Mud                .         0                             : 
Mud_density        .         0                             : 
Mud_resistivity    .         0                             : 
NGDU               .         НГДУ-2                        : 
ORIGINALWELLNAME   .         7846                          : 
Spud_date          .         1992                          : 1961
Uslovie            .         13                            : 
Viscosity          .         0                             : 
X                  .m        42636.8                       : 46154
Y                  .m        84621.43                      : 85761.93
YEAR               .         2019                          : 
~Parameter Information Block
#_______________________________________________________________________________
#
#PARAMETER_NAME    .UNIT     VALUE                         : DESCRIPTION
#_______________________________________________________________________________
SET                .         LQC_KAZNIPI_Petrel            : 
PBBOTTOM           .M        1159                          : Глубина подошвы планшета
PBSCALE            .         1 _ 500                       : Вертикальный масштаб планшета
PBTOP              .M        890                           : Глубина кровли планшета
TLFamily_CALI      .         Caliper                       : 
TLFamily_CILD      .         Conductivity                  : 
TLFamily_COLL      .         Net Reservoir Flag            : 
TLFamily_CSAT      .         Fluid Code                    : 
TLFamily_DEPT      .         Measured Depth                : 
TLFamily_GR        .         Russian Gamma Ray             : 
TLFamily_GZ1       .         Gradient 045                  : 
TLFamily_GZ2       .         Gradient 105                  : 
TLFamily_GZ3       .         Gradient 225                  : 
TLFamily_GZ4       .         Gradient 425                  : 
TLFamily_GZ5       .         Gradient 850                  : 
TLFamily_LLS       .         Lateral Log Resistivity       : 
TLFamily_MINV      .         Micro Gradient Resistivity    : 
TLFamily_MNOR      .         Micro Resistivity             : 
TLFamily_NGLD      .         Neutron Gamma                 : 
TLFamily_OGZ       .         Gradient Inverted 225         : 
TLFamily_PHIE      .         Effective Porosity            : 
TLFamily_PHIEN     .         Effective Porosity            : 
TLFamily_PHIT      .         Porosity                      : 
TLFamily_PRMB      .         Permeability                  : 
TLFamily_PRMB_DGR  .         Permeability                  : 
TLFamily_RT        .         Formation Resistivity         : 
TLFamily_SOIL_ARCHIE .         Oil Saturation                : 
TLFamily_SOIL_DW   .         Oil Saturation                : 
TLFamily_SP        .         Spontaneous Potential         : 
TLFamily_VSH_FIN   .         Shale Volume                  : 
TLFamily_VSH_GR    .         Shale Volume                  : 
TLFamily_VSH_SP    .         Shale Volume                  : 
~Curve Information
#_______________________________________________________________________________
#
#LOGNAME           .UNIT     LOG_ID                        : DESCRIPTION
#_______________________________________________________________________________
DEPT               .M                                      : Колонка глубины 
CALI               .м                                      : Каверномер 
CILD               .мСм/м                                  : Индукционный каротаж 
COLL               .unitless                               : Описание 
CSAT               .unitless                               : Описание 
GR                 .uR/h                                   : Гамма каротаж 
GZ1                .Ohmm                                   : Градиент-зонд  длиной 0.45м 
GZ2                .Ohmm                                   : Градиент-зонд  длиной 1.05м 
GZ3                .Ohmm                                   : Градиент-зонд  длиной 2.25м 
GZ4                .Ohmm                                   : Градиент-зонд  длиной 4.5м 
GZ5                .Ohmm                                   : Градиент-зонд  длиной 8.5м 
LLS                .Ohmm                                   : Боковой каротаж 
MINV               .Ohmm                                   : Микро-градиент зонд 
MNOR               .Ohmm                                   : Микро-потенциал зонд 
NGLD               .у.е.                                   : Показания зонда НГК-60 аппаратуры ДРСТ-3-90 
OGZ                .Ohmm                                   : Обращенный градиент-зонд 
PHIE               .v/v                                    : Описание 
PHIEN              .v/v                                    :  
PHIT               .v/v                                    : Описание 
PRMB               .mD                                     :  
PRMB_DGR           .mD                                     :  
RT                 .ohmm                                   : УЭС пласта 
SOIL_ARCHIE        .v/v                                    :  
SOIL_DW            .v/v                                    :  
SP                 .мВ                                     : Потенциал самополяризации 
VSH_FIN            .v/v                                    : Описание 
VSH_GR             .v/v                                    : Shale volume 
VSH_SP             .v/v                                    : Shale Volume 
~Ascii
# ...
944.6      -9999      296        -9999      -9999      2.834      -9999      -9999      -9999      -9999      -9999      3.225      3.694      2.578      1.048      -9999      0.1408226  0.1408226  0.28368    1.13641    14.18308   3.378      0.3035346  0.5283613  22.758     0.4329011  0.2196887  0.6461135 
944.7000000000001 -9999      298        -9999      -9999      2.823      -9999      -9999      -9999      -9999      -9999      3.237      3.55       2.508      1.038      -9999      0.1434876  0.1434876  0.28708    1.273201   14.35694   3.356      0.3127102  0.5336473  22.853     0.4351284  0.2185985  0.6516583 
944.8      -9999      300        -9999      -9999      2.818      -9999      -9999      -9999      -9999      -9999      3.236      3.41       2.369      1.023      -9999      0.1463286  0.1463286  0.29218    1.437208   14.43667   3.333      0.3221629  0.5405621  23.093     0.4419738  0.2181047  0.6658429 
944.9      -9999      303        -9999      -9999      2.834      -9999      -9999      -9999      -9999      -9999      3.235      3.398      2.207      1.007      -9999      0.1481901  0.1481901  0.29762    1.555962   14.18308   3.3        0.3264471  0.5456978  23.426     0.4528178  0.2196887  0.6859468 
945        -9999      306        -9999      -9999      2.878      -9999      -9999      -9999      -9999      -9999      3.225      3.589      2.108      0.995      -9999      0.1483386  0.1483386  0.3017     1.565842   13.50845   3.268      0.3239498  0.5474693  23.74      0.4647317  0.2241043  0.705359  
945.1      -9999      308        -9999      -9999      2.946      -9999      -9999      -9999      -9999      -9999      3.171      3.972      2.145      0.989      -9999      0.1472916  0.1472916  0.30374    1.49746    12.5284    3.247      0.3177054  0.5466686  23.926     0.4740861  0.2311036  0.7170686 
945.2000000000001 -9999      309        -9999      -9999      3.022      -9999      -9999      -9999      -9999      -9999      3.043      4.431      2.319      0.989      -9999      0.1459476  0.1459476  0.30374    1.414042   11.51696   3.236      0.3111405  0.5443093  23.927     0.4781587  0.2391853  0.717132  
945.3      -9999      309        -9999      -9999      3.088      -9999      -9999      -9999      -9999      -9999      2.86       4.806      2.576      0.997      -9999      0.1436335  0.1436335  0.30102    1.281146   10.70508   3.236      0.3014842  0.5389677  23.773     0.4769289  0.2464326  0.7074251 
945.4      -9999      308        -9999      -9999      3.137      -9999      -9999      -9999      -9999      -9999      2.686      4.97       2.84       1.01       -9999      0.1403151  0.1403151  0.2966     1.112074   10.13957   3.247      0.2882524  0.5313657  23.577     0.4735907  0.2519549  0.6952264 
945.5      -9999      305        -9999      -9999      3.163      -9999      -9999      -9999      -9999      -9999      2.6        4.89       3.038      1.026      -9999      0.1355004  0.1355004  0.29116    0.9056377  9.851744   3.279      0.2696446  0.5219853  23.467     0.4716957  0.2549351  0.6884562 
945.6      -9999      300        -9999      -9999      3.164      -9999      -9999      -9999      -9999      -9999      2.644      4.64       3.122      1.041      -9999      0.1299762  0.1299762  0.28606    0.7155383  9.840837   3.333      0.2484648  0.5130461  23.507     0.4729812  0.2550504  0.6909119 
945.7000000000001 -9999      296        -9999      -9999      3.136      -9999      -9999      -9999      -9999      -9999      2.821      4.339      3.084      1.052      -9999      0.1253178  0.1253178  0.28232    0.586608   10.15081   3.378      0.229058   0.50559    23.649     0.4757642  0.2518409  0.6996874 
945.8      -9999      293        -9999      -9999      3.089      -9999      -9999      -9999      -9999      -9999      3.084      4.079      2.976      1.057      -9999      0.1231013  0.1231013  0.28062    0.5336937  10.69323   3.413      0.2207602  0.5029686  23.784     0.4773295  0.2465441  0.7081148 
945.9      -9999      291        -9999      -9999      3.042      -9999      -9999      -9999      -9999      -9999      3.364      3.877      2.863      1.054      -9999      0.124448   0.124448   0.28164    0.5652455  11.26464   3.436      0.2305388  0.5077611  23.835     0.4763393  0.2413587  0.71132   
946        -9999      291        -9999      -9999      3.012      -9999      -9999      -9999      -9999      -9999      3.584      3.714      2.782      1.045      -9999      0.1283975  0.1283975  0.2847     0.6689461  11.64522   3.436      0.2511944  0.5167592  23.801     0.473644   0.238106   0.7091819 
946.1      -9999      290        -9999      -9999      3.005      -9999      -9999      -9999      -9999      -9999      3.694      3.576      2.712      1.035      -9999      0.132635   0.132635   0.2881     0.8014556  11.73587   3.448      0.2732636  0.5269706  23.732     0.4711062  0.2373534  0.7048589 
946.2000000000001 -9999      290        -9999      -9999      3.012      -9999      -9999      -9999      -9999      -9999      3.701      3.488      2.631      1.024      -9999      0.1368373  0.1368373  0.29184    0.9587767  11.64522   3.448      0.292741   0.536248   23.675     0.469705   0.238106   0.701304  
946.3      -9999      291        -9999      -9999      3.019      -9999      -9999      -9999      -9999      -9999      3.656      3.476      2.558      1.013      -9999      0.1407093  0.1407093  0.29558    1.130928   11.55529   3.436      0.3085915  0.5439482  23.65      0.4693052  0.238861   0.6997495 
946.4      -9999      292        -9999      -9999      3.017      -9999      -9999      -9999      -9999      -9999      3.606      3.523      2.54       1.003      -9999      0.1440526  0.1440526  0.29898    1.304253   11.58092   3.425      0.3215688  0.5504759  23.659     0.4694769  0.2386451  0.7003088 
946.5      -9999      295        -9999      -9999      3.008      -9999      -9999      -9999      -9999      -9999      3.556      3.564      2.58       0.993      -9999      0.1472326  0.1472326  0.30238    1.493696   11.69694   3.39       0.3311324  0.5550324  23.696     0.4701438  0.2376756  0.7026119 
946.6      -9999      299        -9999      -9999      2.999      -9999      -9999      -9999      -9999      -9999      3.475      3.528      2.612      0.985      -9999      0.1495244  0.1495244  0.3051     1.647072   11.81412   3.344      0.3358259  0.5570769  23.753     0.4714412  0.2367102  0.7061723 
946.7000000000001 -9999      302        -9999      -9999      3          -9999      -9999      -9999      -9999      -9999      3.355      3.393      2.547      0.979      -9999      0.1508531  0.1508531  0.30714    1.743106   11.80104   3.311      0.3378495  0.5582009  23.82      0.4735967  0.2368173  0.7103761 
946.8      -9999      304        -9999      -9999      3.02       -9999      -9999      -9999      -9999      -9999      3.223      3.208      2.357      0.975      -9999      0.1512236  0.1512236  0.3085     1.770867   11.5425    3.289      0.3371923  0.5583478  23.881     0.4765951  0.2389691  0.7142212 
946.9      -9999      306        -9999      -9999      3.066      -9999      -9999      -9999      -9999      -9999      3.122      3.063      2.092      0.973      -9999      0.1506781  0.1506781  0.30918    1.73014    10.96914   3.268      0.3331011  0.5569215  23.919     0.4803089  0.2439928  0.7166251 
947        -9999      309        -9999      -9999      3.136      -9999      -9999      -9999      -9999      -9999      3.055      3.07       1.848      0.971      -9999      0.1500317  0.1500317  0.30986    1.6831     10.15081   3.236      0.3275015  0.5546102  23.922     0.484328   0.2518409  0.7168151 
947.1      -9999      314        -9999      -9999      3.217      -9999      -9999      -9999      -9999      -9999      2.988      3.28       1.719      0.969      -9999      0.1495267  0.1495267  0.31054    1.647234   9.279778   3.185      0.3204768  0.5510903  23.887     0.4879191  0.2612379  0.7146002 
