~Version
 VERS              .         2.0                           : CWLS LOG ASCII STANDARD - VERSION 2.0
 WRAP              .         NO                            : ONE LINE PER DEPTH STEP
 DLM               .         SPACE                         : DELIMITING CHARACTER(SPACE TAB OR COMMA)
~Well Information
#_______________________________________________________________________________
#
#PARAMETER_NAME    .UNIT     VALUE                         : DESCRIPTION
#_______________________________________________________________________________
STRT               .M        890                           : First reference value
STOP               .M        1159                          : Last reference value
STEP               .M        0.1                           : Step increment
NULL               .         -9999                         : Missing value
COMP               .                                       : Company
WELL               .         7846                          : Well name
FLD                .         УЗЕНЬ                         : Field
LOC                .                                       : Location
CNTY               .                                       : County
STAT               .                                       : State
CTRY               .                                       : Country
SRVC               .         SCH                           : Service Company
DATE               .         09/16/2010                    : Date
UWI                .         7846                          : Unique Well ID
Block              .         7                             : 
Category           .         Нефтяная                      : 
Condition          .         Ликвидированная               : 
Date               .         19.06.1992                    : 
EREF               .m        87.8                          : 100.8
Gorizont           .         13                            : 14
Interpretator      .         Ткачева И.Г.                  : 
Kupol              .         Основной                      : osnovnoi
Mud                .         0                             : 
Mud_density        .         0                             : 
Mud_resistivity    .         0                             : 
NGDU               .         НГДУ-2                        : 
ORIGINALWELLNAME   .         7846                          : 
Spud_date          .         1992                          : 1961
Uslovie            .         13                            : 
Viscosity          .         0                             : 
X                  .m        42636.8                       : 46154
Y                  .m        84621.43                      : 85761.93
YEAR               .         2019                          : 
~Parameter Information Block
#_______________________________________________________________________________
#
#PARAMETER_NAME    .UNIT     VALUE                         : DESCRIPTION
#_______________________________________________________________________________
SET                .         LQC_KAZNIPI_Petrel            : 
PBBOTTOM           .M        1159                          : Глубина подошвы планшета
PBSCALE            .         1 _ 500                       : Вертикальный масштаб планшета
PBTOP              .M        890                           : Глубина кровли планшета
TLFamily_CALI      .         Caliper                       : 
TLFamily_CILD      .         Conductivity                  : 
TLFamily_COLL      .         Net Reservoir Flag            : 
TLFamily_CSAT      .         Fluid Code                    : 
TLFamily_DEPT      .         Measured Depth                : 
TLFamily_GR        .         Russian Gamma Ray             : 
TLFamily_GZ1       .         Gradient 045                  : 
TLFamily_GZ2       .         Gradient 105                  : 
TLFamily_GZ3       .         Gradient 225                  : 
TLFamily_GZ4       .         Gradient 425                  : 
TLFamily_GZ5       .         Gradient 850                  : 
TLFamily_LLS       .         Lateral Log Resistivity       : 
TLFamily_MINV      .         Micro Gradient Resistivity    : 
TLFamily_MNOR      .         Micro Resistivity             : 
TLFamily_NGLD      .         Neutron Gamma                 : 
TLFamily_OGZ       .         Gradient Inverted 225         : 
TLFamily_PHIE      .         Effective Porosity            : 
TLFamily_PHIEN     .         Effective Porosity            : 
TLFamily_PHIT      .         Porosity                      : 
TLFamily_PRMB      .         Permeability                  : 
TLFamily_PRMB_DGR  .         Permeability                  : 
TLFamily_RT        .         Formation Resistivity         : 
TLFamily_SOIL_ARCHIE .         Oil Saturation                : 
TLFamily_SOIL_DW   .         Oil Saturation                : 
TLFamily_SP        .         Spontaneous Potential         : 
TLFamily_VSH_FIN   .         Shale Volume                  : 
TLFamily_VSH_GR    .         Shale Volume                  : 
TLFamily_VSH_SP    .         Shale Volume                  : 
~Curve Information
#_______________________________________________________________________________
#
#LOGNAME           .UNIT     LOG_ID                        : DESCRIPTION
#_______________________________________________________________________________
DEPT               .M                                      : Колонка глубины 
CALI               .м                                      : Каверномер 
CILD               .мСм/м                                  : Индукционный каротаж 
COLL               .unitless                               : Описание 
CSAT               .unitless                               : Описание 
GR                 .uR/h                                   : Гамма каротаж 
GZ1                .Ohmm                                   : Градиент-зонд  длиной 0.45м 
GZ2                .Ohmm                                   : Градиент-зонд  длиной 1.05м 
GZ3                .Ohmm                                   : Градиент-зонд  длиной 2.25м 
GZ4                .Ohmm                                   : Градиент-зонд  длиной 4.5м 
GZ5                .Ohmm                                   : Градиент-зонд  длиной 8.5м 
LLS                .Ohmm                                   : Боковой каротаж 
MINV               .Ohmm                                   : Микро-градиент зонд 
MNOR               .Ohmm                                   : Микро-потенциал зонд 
NGLD               .у.е.                                   : Показания зонда НГК-60 аппаратуры ДРСТ-3-90 
OGZ                .Ohmm                                   : Обращенный градиент-зонд 
PHIE               .v/v                                    : Описание 
PHIEN              .v/v                                    :  
PHIT               .v/v                                    : Описание 
PRMB               .mD                                     :  
PRMB_DGR           .mD                                     :  
RT                 .ohmm                                   : УЭС пласта 
SOIL_ARCHIE        .v/v                                    :  
SOIL_DW            .v/v                                    :  
SP                 .мВ                                     : Потенциал самополяризации 
VSH_FIN            .v/v                                    : Описание 
VSH_GR             .v/v                                    : Shale volume 
VSH_SP             .v/v                                    : Shale Volume 
~Ascii
# ...
978.4      0.248      335        -9999      -9999      3.83       2.397      3.793      3.532      2.995      0.015      2.705      2.543      1.694      0.902      3.206      0.1607855  0.1607855  0.33332    2.662531   3.061833   2.985      0.3424001  0.5682832  22.542     0.522832   0.4108391  0.6348249 
978.5      0.251      338        -9999      -9999      3.831      2.299      3.804      3.464      2.919      0.015      2.532      2.6        1.667      0.899      3.131      0.1603245  0.1603245  0.33434    2.610694   3.05825    2.959      0.3380416  0.5667366  22.694     0.5273198  0.4110355  0.6436042 
978.6      0.253      340        -9999      -9999      3.857      2.271      3.766      3.374      2.911      0.015      2.398      2.68       1.621      0.896      3.082      0.1600814  0.1600814  0.33536    2.583769   2.966577   2.941      0.3352657  0.5659819  22.737     0.5311473  0.4161754  0.6461192 
978.7000000000001 0.256      340        -9999      -9999      3.917      2.283      3.665      3.3        2.97       0.015      2.308      2.738      1.532      0.894      3.091      0.1592586  0.1592586  0.33604    2.494674   2.765376   2.941      0.3322756  0.5656774  22.685     0.5357012  0.4282834  0.6431191 
978.8      0.26       340        -9999      -9999      3.994      2.277      3.516      3.27       3.062      0.015      2.264      2.746      1.407      0.89       3.154      0.1588712  0.1588712  0.3374     2.453796   2.527031   2.941      0.3308578  0.5663647  22.59      0.5409963  0.4443394  0.6376532 
978.9      0.264      342        -9999      -9999      4.053      2.21       3.353      3.28       3.133      0.015      2.269      2.689      1.279      0.887      3.23       0.1585105  0.1585105  0.33842    2.416337   2.358398   2.924      0.3277054  0.565547   22.514     0.5451802  0.4570483  0.6333122 
979        0.267      345        -9999      -9999      4.058      2.098      3.204      3.292      3.127      0.015      2.31       2.57       1.187      0.884      3.269      0.1595357  0.1595357  0.33944    2.524332   2.344636   2.899      0.3287705  0.5655546  22.494     0.5451645  0.4581419  0.6321871 
979.1      0.268      352        -9999      -9999      3.996      1.998      3.09       3.27       3.034      0.015      2.366      2.414      1.168      0.884      3.246      0.1613342  0.1613342  0.33944    2.725576   2.521122   2.841      0.3289582  0.5630043  22.537     0.5397146  0.4447644  0.6346648 
979.2000000000001 0.268      362        -9999      -9999      3.877      1.95       3.018      3.202      2.894      0.015      2.405      2.274      1.23       0.885      3.173      0.1644233  0.1644233  0.3391     3.109397   2.897933   2.762      0.331159   0.5597142  22.603     0.5293234  0.4201729  0.6384739 
979.3      0.268      373        -9999      -9999      3.734      1.949      2.988      3.107      2.768      0.015      2.401      2.213      1.346      0.885      3.082      0.168877   0.168877   0.3391     3.759847   3.425973   2.681      0.337357   0.5576614  22.616     0.5158272  0.3924136  0.6392409 
979.4      0.267      384        -9999      -9999      3.597      1.945      2.985      3.017      2.69       0.015      2.348      2.255      1.449      0.883      3          0.1747093  0.1747093  0.33978    4.821681   4.021881   2.604      0.3478073  0.5575493  22.505     0.5002142  0.3675408  0.6328875 
979.5      0.267      392        -9999      -9999      3.487      1.89       2.99       2.961      2.653      0.015      2.265      2.363      1.481      0.877      2.932      0.1822806  0.1822806  0.34182    6.659433   4.574554   2.551      0.365371   0.5618891  22.245     0.4834527  0.3487159  0.6181895 
979.6      0.267      399        -9999      -9999      3.416      1.769      2.982      2.951      2.633      0.015      2.184      2.436      1.421      0.868      2.868      0.1904599  0.1904599  0.34488    9.439247   4.970981   2.506      0.3840521  0.5678537  21.894     0.4679397  0.3370804  0.598799  
979.7000000000001 0.269      403        -9999      -9999      3.397      1.606      2.946      2.981      2.616      0.015      2.144      2.391      1.293      0.857      2.795      0.197641   0.197641   0.34862    12.82181   5.082778   2.481      0.4007776  0.5747584  21.563     0.4575121  0.3340331  0.580991  
979.8      0.271      405        -9999      -9999      3.432      1.452      2.875      3.026      2.603      0.015      2.16       2.188      1.134      0.844      2.714      0.2027999  0.2027999  0.35304    15.97736   4.878748   2.469      0.4127412  0.5812508  21.371     0.4552729  0.3396682  0.5708777 
979.9      0.274      409        -9999      -9999      3.508      1.358      2.77       3.041      2.593      0.015      2.217      1.862      0.973      0.831      2.622      0.2051526  0.2051526  0.35746    17.66368   4.463477   2.445      0.4159399  0.5842543  21.37      0.4615377  0.3522337  0.5708418 
980        0.276      415        -9999      -9999      3.588      1.349      2.638      2.99       2.569      0.015      2.263      1.478      0.824      0.818      2.515      0.2057383  0.2057383  0.36188    18.11047   4.064475   2.41       0.413433   0.5848129  21.55      0.4731568  0.3659632  0.5803504 
980.1      0.276      424        -9999      -9999      3.63       1.414      2.493      2.862      2.509      0.015      2.245      1.128      0.703      0.807      2.39       0.2057345  0.2057345  0.36562    18.10754   3.869486   2.358      0.4073885  0.58286    21.834     0.4845016  0.373384   0.5956192 
980.2000000000001 0.275      435        -9999      -9999      3.616      1.509      2.355      2.683      2.413      0.015      2.141      0.874      0.63       0.8        2.265      0.2058031  0.2058031  0.368      18.16062   3.933421   2.299      0.4004739  0.5792537  22.134     0.4915058  0.3708938  0.6121178 
980.3      0.273      446        -9999      -9999      3.553      1.581      2.236      2.496      2.303      0.015      1.976      0.75       0.619      0.804      2.172      0.2039876  0.2039876  0.36664    16.80752   4.234448   2.242      0.3886694  0.5714889  22.379     0.492886   0.3598919  0.6258801 
980.4      0.272      455        -9999      -9999      3.469      1.592      2.136      2.339      2.217      0.015      1.798      0.745      0.67       0.824      2.137      0.1979986  0.1979986  0.35984    13.01882   4.671961   2.198      0.3667325  0.5571182  22.541     0.4904286  0.3457286  0.6351287 
980.5      0.271      462        -9999      -9999      3.392      1.542      2.052      2.234      2.182      0.015      1.647      0.833      0.759      0.86       2.174      0.1869816  0.1869816  0.3476     8.13789    5.112612   2.165      0.3296144  0.5339269  22.629     0.4867223  0.3332358  0.6402088 
980.6      0.271      466        -9999      -9999      3.339      1.456      1.98       2.187      2.207      0.015      1.535      0.981      0.864      0.905      2.279      0.1726152  0.1726152  0.3323     4.409719   5.439836   2.146      0.2782937  0.5036109  22.675     0.4838933  0.3249002  0.6428864 
980.7000000000001 0.269      467        -9999      -9999      3.313      1.372      1.926      2.19       2.27       0.015      1.464      1.189      0.982      0.951      2.439      0.1572994  0.1572994  0.31666    2.294691   5.607938   2.141      0.2166053  0.4694147  22.71      0.482911   0.3208875  0.6449344 
980.8      0.265      464        -9999      -9999      3.305      1.322      1.896      2.225      2.333      0.015      1.44       1.489      1.144      0.989      2.625      0.1441561  0.1441561  0.30374    1.310024   5.660697   2.155      0.1573327  0.4389646  22.754     0.4835875  0.3196629  0.6475121 
980.9      0.259      458        -9999      -9999      3.294      1.33       1.892      2.281      2.372      0.015      1.474      1.906      1.379      1.019      2.791      0.1336805  0.1336805  0.29354    0.8380032  5.734059   2.183      0.1055379  0.4141385  22.811     0.4844226  0.3179866  0.6508587 
