~Version
 VERS              .         2.0                           : CWLS LOG ASCII STANDARD - VERSION 2.0
 WRAP              .         NO                            : ONE LINE PER DEPTH STEP
 DLM               .         SPACE                         : DELIMITING CHARACTER(SPACE TAB OR COMMA)
~Well Information
#_______________________________________________________________________________
#
#PARAMETER_NAME    .UNIT     VALUE                         : DESCRIPTION
#_______________________________________________________________________________
STRT               .M        890                           : First reference value
STOP               .M        1159                          : Last reference value
STEP               .M        0.1                           : Step increment
NULL               .         -9999                         : Missing value
COMP               .                                       : Company
WELL               .         7846                          : Well name
FLD                .         УЗЕНЬ                         : Field
LOC                .                                       : Location
CNTY               .                                       : County
STAT               .                                       : State
CTRY               .                                       : Country
SRVC               .         SCH                           : Service Company
DATE               .         09/16/2010                    : Date
UWI                .         7846                          : Unique Well ID
Block              .         7                             : 
Category           .         Нефтяная                      : 
Condition          .         Ликвидированная               : 
Date               .         19.06.1992                    : 
EREF               .m        87.8                          : 100.8
Gorizont           .         13                            : 14
Interpretator      .         Ткачева И.Г.                  : 
Kupol              .         Основной                      : osnovnoi
Mud                .         0                             : 
Mud_density        .         0                             : 
Mud_resistivity    .         0                             : 
NGDU               .         НГДУ-2                        : 
ORIGINALWELLNAME   .         7846                          : 
Spud_date          .         1992                          : 1961
Uslovie            .         13                            : 
Viscosity          .         0                             : 
X                  .m        42636.8                       : 46154
Y                  .m        84621.43                      : 85761.93
YEAR               .         2019                          : 
~Parameter Information Block
#_______________________________________________________________________________
#
#PARAMETER_NAME    .UNIT     VALUE                         : DESCRIPTION
#_______________________________________________________________________________
SET                .         LQC_KAZNIPI_Petrel            : 
PBBOTTOM           .M        1159                          : Глубина подошвы планшета
PBSCALE            .         1 _ 500                       : Вертикальный масштаб планшета
PBTOP              .M        890                           : Глубина кровли планшета
TLFamily_CALI      .         Caliper                       : 
TLFamily_CILD      .         Conductivity                  : 
TLFamily_COLL      .         Net Reservoir Flag            : 
TLFamily_CSAT      .         Fluid Code                    : 
TLFamily_DEPT      .         Measured Depth                : 
TLFamily_GR        .         Russian Gamma Ray             : 
TLFamily_GZ1       .         Gradient 045                  : 
TLFamily_GZ2       .         Gradient 105                  : 
TLFamily_GZ3       .         Gradient 225                  : 
TLFamily_GZ4       .         Gradient 425                  : 
TLFamily_GZ5       .         Gradient 850                  : 
TLFamily_LLS       .         Lateral Log Resistivity       : 
TLFamily_MINV      .         Micro Gradient Resistivity    : 
TLFamily_MNOR      .         Micro Resistivity             : 
TLFamily_NGLD      .         Neutron Gamma                 : 
TLFamily_OGZ       .         Gradient Inverted 225         : 
TLFamily_PHIE      .         Effective Porosity            : 
TLFamily_PHIEN     .         Effective Porosity            : 
TLFamily_PHIT      .         Porosity                      : 
TLFamily_PRMB      .         Permeability                  : 
TLFamily_PRMB_DGR  .         Permeability                  : 
TLFamily_RT        .         Formation Resistivity         : 
TLFamily_SOIL_ARCHIE .         Oil Saturation                : 
TLFamily_SOIL_DW   .         Oil Saturation                : 
TLFamily_SP        .         Spontaneous Potential         : 
TLFamily_VSH_FIN   .         Shale Volume                  : 
TLFamily_VSH_GR    .         Shale Volume                  : 
TLFamily_VSH_SP    .         Shale Volume                  : 
~Curve Information
#_______________________________________________________________________________
#
#LOGNAME           .UNIT     LOG_ID                        : DESCRIPTION
#_______________________________________________________________________________
DEPT               .M                                      : Колонка глубины 
CALI               .м                                      : Каверномер 
CILD               .мСм/м                                  : Индукционный каротаж 
COLL               .unitless                               : Описание 
CSAT               .unitless                               : Описание 
GR                 .uR/h                                   : Гамма каротаж 
GZ1                .Ohmm                                   : Градиент-зонд  длиной 0.45м 
GZ2                .Ohmm                                   : Градиент-зонд  длиной 1.05м 
GZ3                .Ohmm                                   : Градиент-зонд  длиной 2.25м 
GZ4                .Ohmm                                   : Градиент-зонд  длиной 4.5м 
GZ5                .Ohmm                                   : Градиент-зонд  длиной 8.5м 
LLS                .Ohmm                                   : Боковой каротаж 
MINV               .Ohmm                                   : Микро-градиент зонд 
MNOR               .Ohmm                                   : Микро-потенциал зонд 
NGLD               .у.е.                                   : Показания зонда НГК-60 аппаратуры ДРСТ-3-90 
OGZ                .Ohmm                                   : Обращенный градиент-зонд 
PHIE               .v/v                                    : Описание 
PHIEN              .v/v                                    :  
PHIT               .v/v                                    : Описание 
PRMB               .mD                                     :  
PRMB_DGR           .mD                                     :  
RT                 .ohmm                                   : УЭС пласта 
SOIL_ARCHIE        .v/v                                    :  
SOIL_DW            .v/v                                    :  
SP                 .мВ                                     : Потенциал самополяризации 
VSH_FIN            .v/v                                    : Описание 
VSH_GR             .v/v                                    : Shale volume 
VSH_SP             .v/v                                    : Shale Volume 
~Ascii
# ...
1069.4     0.246      329        -9999      -9999      4.109      2.533      4.498      4.276      2.795      2.857      2.498      2.731      2.075      1.016      3.553      0.1319641  0.1319641  0.29456    0.7788497  9.274347   3.04       0.2256084  0.5022072  22.801     0.4927148  0.2613004  0.7241291 
1069.5     0.248      333        -9999      -9999      4.15       2.42       4.379      4.202      2.879      2.948      2.531      2.869      2.004      1.011      3.481      0.1337992  0.1337992  0.29626    0.8422569  8.913218   3.003      0.2304577  0.5035247  22.726     0.4923053  0.2655727  0.719038  
1069.6     0.249      338        -9999      -9999      4.143      2.298      4.263      4.144      2.97       3.03       2.555      2.991      2.017      1.007      3.422      0.1375774  0.1375774  0.29762    0.9895235  8.973865   2.959      0.2436764  0.5064707  22.51      0.4849775  0.2648383  0.7051166 
1069.7     0.25       345        -9999      -9999      4.105      2.237      4.134      4.13       3.03       3.052      2.549      3.034      2.062      1.005      3.371      0.1417371  0.1417371  0.2983     1.181608   9.310355   2.899      0.2559268  0.5076783  22.238     0.474433   0.2608873  0.6879787 
1069.8     0.249      354        -9999      -9999      4.067      2.272      4.001      4.146      3.052      3.012      2.492      2.961      2.091      1.003      3.325      0.1452944  0.1452944  0.29898    1.375188   9.659469   2.825      0.2629288  0.5066532  22.02      0.465714   0.2569951  0.6744329 
1069.9     0.249      363        -9999      -9999      4.053      2.365      3.888      4.148      3.048      2.936      2.387      2.787      2.082      1          3.283      0.1475484  0.1475484  0.3        1.513951   9.791359   2.755      0.2641318  0.5044004  21.924     0.4619747  0.2555759  0.6683735 
1070       0.249      374        -9999      -9999      4.062      2.432      3.793      4.095      3.023      2.833      2.253      2.588      2.042      0.995      3.248      0.1489193  0.1489193  0.3017     1.605113   9.706367   2.674      0.2597415  0.5004737  21.947     0.4629717  0.2564874  0.6694559 
1070.1     0.25       386        -9999      -9999      4.085      2.415      3.679      3.975      2.961      2.689      2.12       2.429      1.98       0.987      3.214      0.1503891  0.1503891  0.30442    1.70895    9.492496   2.591      0.2551058  0.4972331  22.039     0.4667602  0.2588315  0.674689  
1070.2     0.252      397        -9999      -9999      4.118      2.323      3.5        3.808      2.848      2.492      2.002      2.335      1.896      0.976      3.165      0.1526489  0.1526489  0.30816    1.881854   9.193843   2.519      0.2549307  0.4968088  22.136     0.4712458  0.2622323  0.6802593 
1070.3     0.254      408        -9999      -9999      4.175      2.205      3.255      3.63       2.681      2.258      1.901      2.277      1.793      0.962      3.091      0.1560704  0.1560704  0.31292    2.177514   8.699953   2.451      0.2597317  0.498953   22.176     0.4753017  0.2682119  0.6823915 
1070.4     0.257      416        -9999      -9999      4.266      2.103      3          3.463      2.479      2.028      1.813      2.225      1.679      0.944      2.997      0.1612287  0.1612287  0.31904    2.713347   7.965865   2.404      0.2738343  0.5062872  22.115     0.478216   0.2780422  0.6783897 
1070.5     0.261      423        -9999      -9999      4.395      2.023      2.805      3.315      2.262      1.85       1.739      2.164      1.577      0.925      2.908      0.1670433  0.1670433  0.3255     3.477011   7.030107   2.364      0.2903338  0.5148976  21.943     0.4801717  0.292598   0.6677454 
1070.6     0.266      428        -9999      -9999      4.553      1.952      2.695      3.179      2.045      1.753      1.685      2.107      1.5        0.904      2.844      0.1734828  0.1734828  0.33264    4.575936   6.032404   2.336      0.3094819  0.5254475  21.701     0.4822946  0.3114683  0.653121  
1070.7     0.271      432        -9999      -9999      4.73       1.886      2.631      3.042      1.845      1.733      1.655      2.074      1.45       0.885      2.806      0.178556   0.178556   0.3391     5.681307   5.081894   2.315      0.3237414  0.5341201  21.462     0.486497   0.3340568  0.6389372 
1070.8     0.275      435        -9999      -9999      4.915      1.831      2.558      2.897      1.682      1.75       1.646      2.077      1.412      0.867      2.772      0.1822464  0.1822464  0.34522    6.649711   4.248105   2.299      0.3335182  0.5412484  21.281     0.4938595  0.359419   0.6283    
1070.9     0.278      437        -9999      -9999      5.1        1.805      2.455      2.746      1.59       1.757      1.645      2.106      1.367      0.852      2.721      0.183842   0.183842   0.35032    7.118009   3.551116   2.288      0.3370689  0.5457923  21.179     0.5044787  0.3867068  0.6222505 
1071       0.278      439        -9999      -9999      5.272      1.81       2.347      2.602      1.589      1.723      1.649      2.125      1.304      0.842      2.659      0.1832038  0.1832038  0.35372    6.926873   3.0061     2.278      0.3336898  0.5468681  21.135     0.5167157  0.4139324  0.619499  
1071.1     0.277      442        -9999      -9999      5.408      1.824      2.279      2.491      1.669      1.651      1.658      2.093      1.228      0.839      2.615      0.1806796  0.1806796  0.35474    6.21989    2.635041   2.262      0.3233552  0.5436286  21.115     0.5274557  0.43681    0.6181015 
1071.2     0.276      444        -9999      -9999      5.489      1.818      2.269      2.427      1.788      1.566      1.676      1.988      1.158      0.842      2.617      0.17758    0.17758    0.35372    5.449684   2.436186   2.252      0.3116507  0.5387407  21.091     0.5337574  0.451032   0.6164829 
1071.3     0.274      445        -9999      -9999      5.502      1.774      2.307      2.402      1.895      1.506      1.7        1.834      1.109      0.852      2.662      0.1742927  0.1742927  0.35032    4.736773   2.405699   2.247      0.2996268  0.5321259  21.042     0.5334159  0.4533573  0.6134745 
1071.4     0.273      445        -9999      -9999      5.458      1.705      2.369      2.386      1.961      1.502      1.724      1.685      1.083      0.866      2.727      0.1715919  0.1715919  0.34556    4.221397   2.510454   2.247      0.2900352  0.5253283  20.963     0.5271761  0.4455352  0.608817  
1071.5     0.272      445        -9999      -9999      5.382      1.636      2.433      2.347      1.981      1.576      1.755      1.583      1.066      0.88       2.789      0.1699176  0.1699176  0.3408     3.93046    2.702252   2.247      0.283946   0.519449   20.868     0.5178256  0.4323407  0.6033106 
1071.6     0.271      444        -9999      -9999      5.301      1.583      2.484      2.278      1.972      1.724      1.815      1.53       1.035      0.895      2.841      0.1677796  0.1677796  0.3357     3.587924   2.922826   2.252      0.2767603  0.5131424  20.794     0.5088497  0.418708   0.5989915 
1071.7     0.271      442        -9999      -9999      5.239      1.539      2.509      2.194      1.972      1.923      1.929      1.476      0.975      0.908      2.879      0.1652574  0.1652574  0.33128    3.222007   3.10375    2.262      0.2686782  0.5073802  20.774     0.5030987  0.4085642  0.5976332 
1071.8     0.27       439        -9999      -9999      5.21       1.495      2.503      2.13       2.028      2.13       2.093      1.376      0.895      0.921      2.894      0.1613357  0.1613357  0.32686    2.725749   3.192179   2.278      0.2556852  0.5004505  20.809     0.5015889  0.4039044  0.5992734 
1071.9     0.269      434        -9999      -9999      5.208      1.456      2.472      2.118      2.168      2.298      2.265      1.214      0.812      0.932      2.884      0.1571331  0.1571331  0.32312    2.278475   3.198369   2.304      0.2424222  0.4946584  20.871     0.5029906  0.403585   0.6023962 
