~Version
 VERS              .         2.0                           : CWLS LOG ASCII STANDARD - VERSION 2.0
 WRAP              .         NO                            : ONE LINE PER DEPTH STEP
 DLM               .         SPACE                         : DELIMITING CHARACTER(SPACE TAB OR COMMA)
~Well Information
#_______________________________________________________________________________
#
#PARAMETER_NAME    .UNIT     VALUE                         : DESCRIPTION
#_______________________________________________________________________________
STRT               .M        890                           : First reference value
STOP               .M        1159                          : Last reference value
STEP               .M        0.1                           : Step increment
NULL               .         -9999                         : Missing value
COMP               .                                       : Company
WELL               .         7846                          : Well name
FLD                .         УЗЕНЬ                         : Field
LOC                .                                       : Location
CNTY               .                                       : County
STAT               .                                       : State
CTRY               .                                       : Country
SRVC               .         SCH                           : Service Company
DATE               .         09/16/2010                    : Date
UWI                .         7846                          : Unique Well ID
Block              .         7                             : 
Category           .         Нефтяная                      : 
Condition          .         Ликвидированная               : 
Date               .         19.06.1992                    : 
EREF               .m        87.8                          : 100.8
Gorizont           .         13                            : 14
Interpretator      .         Ткачева И.Г.                  : 
Kupol              .         Основной                      : osnovnoi
Mud                .         0                             : 
Mud_density        .         0                             : 
Mud_resistivity    .         0                             : 
NGDU               .         НГДУ-2                        : 
ORIGINALWELLNAME   .         7846                          : 
Spud_date          .         1992                          : 1961
Uslovie            .         13                            : 
Viscosity          .         0                             : 
X                  .m        42636.8                       : 46154
Y                  .m        84621.43                      : 85761.93
YEAR               .         2019                          : 
~Parameter Information Block
#_______________________________________________________________________________
#
#PARAMETER_NAME    .UNIT     VALUE                         : DESCRIPTION
#_______________________________________________________________________________
SET                .         LQC_KAZNIPI_Petrel            : 
PBBOTTOM           .M        1159                          : Глубина подошвы планшета
PBSCALE            .         1 _ 500                       : Вертикальный масштаб планшета
PBTOP              .M        890                           : Глубина кровли планшета
TLFamily_CALI      .         Caliper                       : 
TLFamily_CILD      .         Conductivity                  : 
TLFamily_COLL      .         Net Reservoir Flag            : 
TLFamily_CSAT      .         Fluid Code                    : 
TLFamily_DEPT      .         Measured Depth                : 
TLFamily_GR        .         Russian Gamma Ray             : 
TLFamily_GZ1       .         Gradient 045                  : 
TLFamily_GZ2       .         Gradient 105                  : 
TLFamily_GZ3       .         Gradient 225                  : 
TLFamily_GZ4       .         Gradient 425                  : 
TLFamily_GZ5       .         Gradient 850                  : 
TLFamily_LLS       .         Lateral Log Resistivity       : 
TLFamily_MINV      .         Micro Gradient Resistivity    : 
TLFamily_MNOR      .         Micro Resistivity             : 
TLFamily_NGLD      .         Neutron Gamma                 : 
TLFamily_OGZ       .         Gradient Inverted 225         : 
TLFamily_PHIE      .         Effective Porosity            : 
TLFamily_PHIEN     .         Effective Porosity            : 
TLFamily_PHIT      .         Porosity                      : 
TLFamily_PRMB      .         Permeability                  : 
TLFamily_PRMB_DGR  .         Permeability                  : 
TLFamily_RT        .         Formation Resistivity         : 
TLFamily_SOIL_ARCHIE .         Oil Saturation                : 
TLFamily_SOIL_DW   .         Oil Saturation                : 
TLFamily_SP        .         Spontaneous Potential         : 
TLFamily_VSH_FIN   .         Shale Volume                  : 
TLFamily_VSH_GR    .         Shale Volume                  : 
TLFamily_VSH_SP    .         Shale Volume                  : 
~Curve Information
#_______________________________________________________________________________
#
#LOGNAME           .UNIT     LOG_ID                        : DESCRIPTION
#_______________________________________________________________________________
DEPT               .M                                      : Колонка глубины 
CALI               .м                                      : Каверномер 
CILD               .мСм/м                                  : Индукционный каротаж 
COLL               .unitless                               : Описание 
CSAT               .unitless                               : Описание 
GR                 .uR/h                                   : Гамма каротаж 
GZ1                .Ohmm                                   : Градиент-зонд  длиной 0.45м 
GZ2                .Ohmm                                   : Градиент-зонд  длиной 1.05м 
GZ3                .Ohmm                                   : Градиент-зонд  длиной 2.25м 
GZ4                .Ohmm                                   : Градиент-зонд  длиной 4.5м 
GZ5                .Ohmm                                   : Градиент-зонд  длиной 8.5м 
LLS                .Ohmm                                   : Боковой каротаж 
MINV               .Ohmm                                   : Микро-градиент зонд 
MNOR               .Ohmm                                   : Микро-потенциал зонд 
NGLD               .у.е.                                   : Показания зонда НГК-60 аппаратуры ДРСТ-3-90 
OGZ                .Ohmm                                   : Обращенный градиент-зонд 
PHIE               .v/v                                    : Описание 
PHIEN              .v/v                                    :  
PHIT               .v/v                                    : Описание 
PRMB               .mD                                     :  
PRMB_DGR           .mD                                     :  
RT                 .ohmm                                   : УЭС пласта 
SOIL_ARCHIE        .v/v                                    :  
SOIL_DW            .v/v                                    :  
SP                 .мВ                                     : Потенциал самополяризации 
VSH_FIN            .v/v                                    : Описание 
VSH_GR             .v/v                                    : Shale volume 
VSH_SP             .v/v                                    : Shale Volume 
~Ascii
# ...
1014.8     0.243      266        -9999      -9999      1.164      3.166      6.262      6.335      2.808      2.213      3.669      2.798      2.063      1.283      5.165      0.09635666 0.09635666 0.20378    0.1705757  69.38573   3.759      0.07818302 0.3659413  19.531     0.3255253  0.1148847  0.5361658 
1014.9     0.244      269        -9999      -9999      1.194      2.823      5.872      5.9        2.917      2.3        3.325      2.64       2.04       1.256      5.134      0.1060621  0.1060621  0.21296    0.2580395  66.99145   3.717      0.1476176  0.4018237  19.438     0.3239329  0.1165439  0.5313218 
1015       0.243      271        -9999      -9999      1.269      2.577      5.537      5.498      3.183      2.4        3.02       2.503      2.144      1.227      5.181      0.1171976  0.1171976  0.22282    0.4148984  61.361     3.69       0.2159257  0.4381798  19.197     0.3200679  0.1207975  0.5193383 
1015.1     0.242      273        -9999      -9999      1.418      2.482      5.276      5.221      3.597      2.462      2.756      2.394      2.308      1.2        5.27       0.126883   0.126883   0.232      0.627102   51.5403    3.663      0.2657914  0.4666165  18.951     0.3185365  0.1297142  0.5073587 
1015.2     0.24       274        -9999      -9999      1.651      2.539      5.094      5.127      4.089      2.455      2.57       2.325      2.508      1.176      5.362      0.1334062  0.1334062  0.24016    0.8282567  39.23732   3.65       0.2959866  0.4869691  18.842     0.3234963  0.1449952  0.5019974 
1015.3     0.238      275        -9999      -9999      1.937      2.716      5.006      5.217      4.551      2.383      2.529      2.312      2.735      1.156      5.418      0.1361684  0.1361684  0.24696    0.9318087  28.07429   3.636      0.3071926  0.4986739  18.916     0.3357322  0.1662346  0.5052298 
1015.4     0.237      277        -9999      -9999      2.205      2.96       5.034      5.427      4.867      2.29       2.687      2.365      2.96       1.141      5.416      0.1359238  0.1359238  0.25206    0.9221378  20.51487   3.61       0.3037661  0.502737   19.125     0.351928   0.1889526  0.5149034 
1015.5     0.237      281        -9999      -9999      2.391      3.207      5.173      5.667      4.957      2.232      3.035      2.483      3.094      1.129      5.343      0.1353292  0.1353292  0.25614    0.8990498  16.50113   3.559      0.2964209  0.5032191  19.353     0.3660933  0.2065202  0.5256663 
1015.6     0.237      287        -9999      -9999      2.493      3.386      5.369      5.846      4.816      2.237      3.496      2.582      3.054      1.119      5.196      0.1356838  0.1356838  0.25954    0.9127483  14.64405   3.484      0.2909712  0.5024378  19.524     0.3753219  0.2168382  0.5338056 
1015.7     0.239      296        -9999      -9999      2.571      3.449      5.524      5.898      4.507      2.278      3.915      2.568      2.828      1.109      4.975      0.1367674  0.1367674  0.26294    0.9559219  13.36624   3.378      0.285583   0.5002451  19.646     0.3823412  0.2250749  0.5396075 
1015.8     0.243      307        -9999      -9999      2.701      3.389      5.547      5.785      4.13       2.298      4.09       2.36       2.472      1.098      4.692      0.1369773  0.1369773  0.26668    0.9645184  11.47949   3.257      0.2742188  0.4957315  19.79      0.3930383  0.2395038  0.5465729 
1015.9     0.25       326        -9999      -9999      2.918      3.241      5.386      5.506      3.77       2.257      3.908      2.018      2.067      1.081      4.376      0.136618   0.136618   0.27246    0.9498486  8.904487   3.067      0.2517461  0.4866271  20.012     0.4116425  0.265679   0.557606  
1016       0.259      344        -9999      -9999      3.205      3.059      5.054      5.119      3.469      2.17       3.418      1.654      1.676      1.057      4.076      0.1359535  0.1359535  0.28062    0.92331    6.363702   2.907      0.2294298  0.4812335  20.295     0.4383832  0.3047422  0.5720241 
1016.1     0.269      353        -9999      -9999      3.508      2.882      4.613      4.714      3.241      2.082      2.862      1.383      1.356      1.024      3.833      0.1370385  0.1370385  0.29184    0.9670386  4.463516   2.833      0.2254301  0.4886661  20.563     0.4690954  0.3522324  0.5859584 
1016.2     0.277      359        -9999      -9999      3.772      2.72       4.154      4.379      3.095      2.02       2.416      1.217      1.148      0.987      3.655      0.1403267  0.1403267  0.30442    1.112624   3.276953   2.786      0.2352819  0.5022135  20.734     0.4972525  0.3996046  0.5949005 
1016.3     0.282      363        -9999      -9999      3.955      2.557      3.758      4.15       3.033      1.984      2.157      1.123      1.062      0.951      3.515      0.1460382  0.1460382  0.31666    1.419513   2.645092   2.755      0.2575086  0.5188559  20.795     0.5170358  0.4361316  0.5979401 
1016.4     0.284      366        -9999      -9999      4.048      2.37       3.472      4.007      3.036      1.954      2.017      1.047      1.056      0.919      3.369      0.1537738  0.1537738  0.32754    1.974339   2.372267   2.732      0.2873492  0.5360211  20.786     0.5265642  0.4559554  0.597173  
1016.5     0.286      370        -9999      -9999      4.06       2.149      3.303      3.9        3.062      1.923      1.946      0.962      1.054      0.896      3.186      0.1613323  0.1613323  0.33536    2.72536    2.339176   2.703      0.3130868  0.5486162  20.772     0.5273566  0.4585782  0.5961351 
1016.6     0.289      375        -9999      -9999      4.024      1.906      3.224      3.785      3.058      1.892      1.902      0.866      0.998      0.88       2.962      0.1679293  0.1679293  0.3408     3.610911   2.439855   2.667      0.3324631  0.5569118  20.792     0.5238505  0.450755   0.596946  
1016.7     0.293      381        -9999      -9999      3.984      1.67       3.187      3.653      2.992      1.868      1.862      0.773      0.88       0.87       2.725      0.1720995  0.1720995  0.3442     4.313778   2.556809   2.625      0.3416876  0.5602636  20.868     0.5215167  0.4422189  0.6008146 
1016.8     0.299      388        -9999      -9999      3.975      1.472      3.139      3.525      2.869      1.854      1.813      0.713      0.74       0.864      2.524      0.177576   0.177576   0.34624    5.448752   3.007357   2.577      0.3538342  0.5631036  21.01      0.5111029  0.4138618  0.6083441 
1016.9     0.301      395        -9999      -9999      4.016      1.331      3.048      3.421      2.721      1.846      1.747      0.722      0.622      0.861      2.413      0.1754786  0.1754786  0.34726    4.982503   2.868995   2.532      0.3416931  0.5580116  21.21      0.5205497  0.4218984  0.619201  
1017       0.299      401        -9999      -9999      4.1        1.255      2.904      3.342      2.593      1.834      1.671      0.836      0.574      0.858      2.417      0.1716851  0.1716851  0.34828    4.238204   2.605082   2.494      0.3242641  0.5517124  21.431     0.5351362  0.4388544  0.631418  
1017.1     0.291      407        -9999      -9999      4.198      1.24       2.721      3.268      2.533      1.807      1.602      1.071      0.642      0.856      2.535      0.1672248  0.1672248  0.34896    3.50403    2.327706   2.457      0.303727   0.5443373  21.619     0.5507126  0.4594996  0.6419256 
1017.2     0.28       411        -9999      -9999      4.273      1.284      2.515      3.182      2.561      1.757      1.564      1.424      0.882      0.854      2.746      0.1642521  0.1642521  0.34964    3.086775   2.135551   2.433      0.289499   0.5395232  21.722     0.5617816  0.4759531  0.6476102 
1017.3     0.269      412        -9999      -9999      4.29       1.386      2.316      3.088      2.665      1.69       1.577      1.865      1.302      0.856      3.033      0.1631747  0.1631747  0.34896    2.948145   2.09425    2.427      0.2845864  0.5372449  21.703     0.5629858  0.4797638  0.6462079 
