~Version
 VERS              .         2.0                           : CWLS LOG ASCII STANDARD - VERSION 2.0
 WRAP              .         NO                            : ONE LINE PER DEPTH STEP
 DLM               .         SPACE                         : DELIMITING CHARACTER(SPACE TAB OR COMMA)
~Well Information
#_______________________________________________________________________________
#
#PARAMETER_NAME    .UNIT     VALUE                         : DESCRIPTION
#_______________________________________________________________________________
STRT               .M        890                           : First reference value
STOP               .M        1159                          : Last reference value
STEP               .M        0.1                           : Step increment
NULL               .         -9999                         : Missing value
COMP               .                                       : Company
WELL               .         7846                          : Well name
FLD                .         УЗЕНЬ                         : Field
LOC                .                                       : Location
CNTY               .                                       : County
STAT               .                                       : State
CTRY               .                                       : Country
SRVC               .         SCH                           : Service Company
DATE               .         09/16/2010                    : Date
UWI                .         7846                          : Unique Well ID
Block              .         7                             : 
Category           .         Нефтяная                      : 
Condition          .         Ликвидированная               : 
Date               .         19.06.1992                    : 
EREF               .m        87.8                          : 100.8
Gorizont           .         13                            : 14
Interpretator      .         Ткачева И.Г.                  : 
Kupol              .         Основной                      : osnovnoi
Mud                .         0                             : 
Mud_density        .         0                             : 
Mud_resistivity    .         0                             : 
NGDU               .         НГДУ-2                        : 
ORIGINALWELLNAME   .         7846                          : 
Spud_date          .         1992                          : 1961
Uslovie            .         13                            : 
Viscosity          .         0                             : 
X                  .m        42636.8                       : 46154
Y                  .m        84621.43                      : 85761.93
YEAR               .         2019                          : 
~Parameter Information Block
#_______________________________________________________________________________
#
#PARAMETER_NAME    .UNIT     VALUE                         : DESCRIPTION
#_______________________________________________________________________________
SET                .         LQC_KAZNIPI_Petrel            : 
PBBOTTOM           .M        1159                          : Глубина подошвы планшета
PBSCALE            .         1 _ 500                       : Вертикальный масштаб планшета
PBTOP              .M        890                           : Глубина кровли планшета
TLFamily_CALI      .         Caliper                       : 
TLFamily_CILD      .         Conductivity                  : 
TLFamily_COLL      .         Net Reservoir Flag            : 
TLFamily_CSAT      .         Fluid Code                    : 
TLFamily_DEPT      .         Measured Depth                : 
TLFamily_GR        .         Russian Gamma Ray             : 
TLFamily_GZ1       .         Gradient 045                  : 
TLFamily_GZ2       .         Gradient 105                  : 
TLFamily_GZ3       .         Gradient 225                  : 
TLFamily_GZ4       .         Gradient 425                  : 
TLFamily_GZ5       .         Gradient 850                  : 
TLFamily_LLS       .         Lateral Log Resistivity       : 
TLFamily_MINV      .         Micro Gradient Resistivity    : 
TLFamily_MNOR      .         Micro Resistivity             : 
TLFamily_NGLD      .         Neutron Gamma                 : 
TLFamily_OGZ       .         Gradient Inverted 225         : 
TLFamily_PHIE      .         Effective Porosity            : 
TLFamily_PHIEN     .         Effective Porosity            : 
TLFamily_PHIT      .         Porosity                      : 
TLFamily_PRMB      .         Permeability                  : 
TLFamily_PRMB_DGR  .         Permeability                  : 
TLFamily_RT        .         Formation Resistivity         : 
TLFamily_SOIL_ARCHIE .         Oil Saturation                : 
TLFamily_SOIL_DW   .         Oil Saturation                : 
TLFamily_SP        .         Spontaneous Potential         : 
TLFamily_VSH_FIN   .         Shale Volume                  : 
TLFamily_VSH_GR    .         Shale Volume                  : 
TLFamily_VSH_SP    .         Shale Volume                  : 
~Curve Information
#_______________________________________________________________________________
#
#LOGNAME           .UNIT     LOG_ID                        : DESCRIPTION
#_______________________________________________________________________________
DEPT               .M                                      : Колонка глубины 
CALI               .м                                      : Каверномер 
CILD               .мСм/м                                  : Индукционный каротаж 
COLL               .unitless                               : Описание 
CSAT               .unitless                               : Описание 
GR                 .uR/h                                   : Гамма каротаж 
GZ1                .Ohmm                                   : Градиент-зонд  длиной 0.45м 
GZ2                .Ohmm                                   : Градиент-зонд  длиной 1.05м 
GZ3                .Ohmm                                   : Градиент-зонд  длиной 2.25м 
GZ4                .Ohmm                                   : Градиент-зонд  длиной 4.5м 
GZ5                .Ohmm                                   : Градиент-зонд  длиной 8.5м 
LLS                .Ohmm                                   : Боковой каротаж 
MINV               .Ohmm                                   : Микро-градиент зонд 
MNOR               .Ohmm                                   : Микро-потенциал зонд 
NGLD               .у.е.                                   : Показания зонда НГК-60 аппаратуры ДРСТ-3-90 
OGZ                .Ohmm                                   : Обращенный градиент-зонд 
PHIE               .v/v                                    : Описание 
PHIEN              .v/v                                    :  
PHIT               .v/v                                    : Описание 
PRMB               .mD                                     :  
PRMB_DGR           .mD                                     :  
RT                 .ohmm                                   : УЭС пласта 
SOIL_ARCHIE        .v/v                                    :  
SOIL_DW            .v/v                                    :  
SP                 .мВ                                     : Потенциал самополяризации 
VSH_FIN            .v/v                                    : Описание 
VSH_GR             .v/v                                    : Shale volume 
VSH_SP             .v/v                                    : Shale Volume 
~Ascii
# ...
1087.6     0.247      438        -9999      -9999      5.819      2.058      2.74       3.406      2.221      2.507      1.993      1.804      1.443      0.897      2.544      0.1431623  0.1431623  0.33502    1.255657   1.769611   2.283      0.1748864  0.4859897  22.464     0.581387   0.5139222  0.6488518 
1087.7     0.246      440        -9999      -9999      5.813      2.081      2.724      3.448      2.251      2.444      1.967      1.82       1.414      0.898      2.486      0.1435511  0.1435511  0.33468    1.276651   1.779925   2.273      0.1751355  0.4850475  22.414     0.5791786  0.512704   0.6456531 
1087.8     0.246      441        -9999      -9999      5.83       2.075      2.721      3.474      2.25       2.373      1.943      1.887      1.39       0.902      2.423      0.1422032  0.1422032  0.33332    1.20533    1.750854   2.268      0.1674702  0.4813491  22.358     0.5791419  0.5161632  0.6421205 
1087.9     0.248      442        -9999      -9999      5.852      1.999      2.692      3.461      2.246      2.315      1.934      1.979      1.375      0.91       2.376      0.1388334  0.1388334  0.3306     1.043974   1.713935   2.262      0.1488406  0.4733304  22.353     0.5811108  0.5206746  0.641547  
1088       0.249      443        -9999      -9999      5.861      1.865      2.602      3.39       2.285      2.28       1.945      2.06       1.373      0.921      2.348      0.134385   0.134385   0.32686    0.863562   1.699058   2.257      0.1234432  0.4625502  22.4       0.5832577  0.5225315  0.6439838 
1088.1     0.25       444        -9999      -9999      5.857      1.718      2.443      3.255      2.388      2.264      1.967      2.111      1.384      0.932      2.334      0.1302146  0.1302146  0.32312    0.7228508  1.705655   2.252      0.09810457 0.4517345  22.464     0.5845618  0.5217054  0.6474181 
1088.2     0.25       445        -9999      -9999      5.844      1.603      2.245      3.073      2.526      2.258      1.99       2.124      1.406      0.939      2.325      0.1278324  0.1278324  0.32074    0.653017   1.72727    2.247      0.08252733 0.444822   22.515     0.5845684  0.5190295  0.6501074 
1088.3     0.249      446        -9999      -9999      5.829      1.536      2.054      2.87       2.643      2.262      2.009      2.114      1.436      0.94       2.318      0.1277279  0.1277279  0.3204     0.6501117  1.752551   2.242      0.08091307 0.4436625  22.548     0.583855   0.5159591  0.6517508 
1088.4     0.249      445        -9999      -9999      5.812      1.511      1.914      2.677      2.701      2.284      2.023      2.103      1.466      0.935      2.311      0.129717   0.129717   0.3221     0.7076715  1.781652   2.247      0.09414764 0.4492529  22.582     0.5829788  0.5125011  0.6534564 
1088.5     0.248      444        -9999      -9999      5.792      1.519      1.858      2.523      2.708      2.317      2.033      2.113      1.49       0.925      2.306      0.1332973  0.1332973  0.3255     0.8244188  1.816506   2.252      0.116298   0.4589231  22.637     0.5824323  0.5084627  0.6564021 
1088.6     0.247      444        -9999      -9999      5.772      1.559      1.896      2.426      2.705      2.333      2.034      2.148      1.5        0.912      2.309      0.1375974  0.1375974  0.32992    0.9903665  1.852042   2.252      0.1404     0.4697337  22.722     0.5827957  0.504456   0.6611354 
1088.7     0.246      445        -9999      -9999      5.757      1.637      2.005      2.386      2.723      2.31       2.027      2.193      1.495      0.901      2.311      0.1407683  0.1407683  0.33366    1.133781   1.87915    2.247      0.1564097  0.4773133  22.835     0.5845202  0.5014718  0.6675686 
1088.8     0.245      447        -9999      -9999      5.744      1.748      2.127      2.383      2.764      2.252      2.015      2.23       1.483      0.893      2.291      0.1428129  0.1428129  0.33638    1.237084   1.902964   2.237      0.1651925  0.4815885  22.951     0.586567   0.4988998  0.6742343 
1088.9     0.245      449        -9999      -9999      5.731      1.858      2.209      2.395      2.804      2.199      2.005      2.248      1.47       0.889      2.232      0.1438766  0.1438766  0.33774    1.294496   1.92708    2.227      0.1688247  0.4831648  23.028     0.587465   0.4963409  0.6785891 
1089       0.244      451        -9999      -9999      5.718      1.916      2.246      2.407      2.818      2.186      2.003      2.248      1.462      0.888      2.141      0.1445858  0.1445858  0.33808    1.334251   1.951502   2.217      0.1706271  0.4832691  23.038     0.5863461  0.4937951  0.6788971 
1089.1     0.245      452        -9999      -9999      5.699      1.893      2.274      2.405      2.798      2.219      2.011      2.241      1.453      0.887      2.044      0.1461634  0.1461634  0.33842    1.427117   1.987753   2.212      0.1775585  0.4850865  22.98      0.5825956  0.4900979  0.6750932 
1089.2     0.245      451        -9999      -9999      5.664      1.815      2.334      2.375      2.758      2.271      2.027      2.237      1.438      0.885      1.97       0.1488966  0.1488966  0.3391     1.60356    2.056302   2.217      0.19158    0.4898404  22.89      0.5763738  0.4833595  0.6693882 
1089.3     0.246      450        -9999      -9999      5.605      1.74       2.425      2.306      2.717      2.301      2.043      2.244      1.413      0.88       1.942      0.1531943  0.1531943  0.3408     1.926144   2.177252   2.222      0.2122019  0.4973792  22.818     0.568502   0.4722096  0.6647944 
1089.4     0.247      447        -9999      -9999      5.533      1.71       2.503      2.199      2.684      2.287      2.055      2.263      1.381      0.873      1.972      0.1579969  0.1579969  0.34318    2.363977   2.334529   2.237      0.2355167  0.5069901  22.799     0.561161   0.4589507  0.6633713 
1089.5     0.247      445        -9999      -9999      5.473      1.724      2.522      2.081      2.653      2.221      2.061      2.29       1.353      0.865      2.057      0.1621877  0.1621877  0.3459     2.826627   2.47424    2.247      0.2543129  0.5153154  22.835     0.5567038  0.4481865  0.6652211 
1089.6     0.247      444        -9999      -9999      5.446      1.746      2.471      1.983      2.61       2.115      2.066      2.315      1.334      0.859      2.171      0.1644015  0.1644015  0.34794    3.106514   2.539807   2.252      0.2638342  0.5200903  22.902     0.5561771  0.4434253  0.6689289 
1089.7     0.247      443        -9999      -9999      5.454      1.742      2.377      1.935      2.54       1.996      2.073      2.327      1.327      0.855      2.267      0.1647959  0.1647959  0.3493     3.159207   2.520201   2.257      0.266133   0.522216   22.981     0.5591033  0.4448307  0.6733758 
1089.8     0.246      444        -9999      -9999      5.479      1.706      2.28       1.949      2.443      1.901      2.076      2.318      1.327      0.855      2.309      0.1631189  0.1631189  0.3493     2.941139   2.459899   2.252      0.2587951  0.5198299  23.081     0.5641852  0.4492515  0.6791189 
1089.9     0.246      444        -9999      -9999      5.494      1.669      2.207      2.013      2.337      1.869      2.066      2.292      1.326      0.861      2.287      0.1594516  0.1594516  0.34726    2.515298   2.424414   2.252      0.2439699  0.5139223  23.204     0.5691162  0.4519249  0.6863076 
1090       0.247      445        -9999      -9999      5.489      1.669      2.162      2.092      2.247      1.909      2.039      2.255      1.321      0.872      2.234      0.1546218  0.1546218  0.34352    2.047056   2.436186   2.247      0.2226324  0.5043868  23.331     0.5724187  0.451032   0.6938054 
1090.1     0.247      446        -9999      -9999      5.474      1.733      2.138      2.151      2.19       1.99       2.006      2.216      1.316      0.886      2.205      0.1495562  0.1495562  0.33876    1.649306   2.471844   2.242      0.1989123  0.4932088  23.409     0.5733449  0.4483638  0.6983261 
