~Version
 VERS              .         2.0                           : CWLS LOG ASCII STANDARD - VERSION 2.0
 WRAP              .         NO                            : ONE LINE PER DEPTH STEP
 DLM               .         SPACE                         : DELIMITING CHARACTER(SPACE TAB OR COMMA)
~Well Information
#_______________________________________________________________________________
#
#PARAMETER_NAME    .UNIT     VALUE                         : DESCRIPTION
#_______________________________________________________________________________
STRT               .M        890                           : First reference value
STOP               .M        1159                          : Last reference value
STEP               .M        0.1                           : Step increment
NULL               .         -9999                         : Missing value
COMP               .                                       : Company
WELL               .         7846                          : Well name
FLD                .         УЗЕНЬ                         : Field
LOC                .                                       : Location
CNTY               .                                       : County
STAT               .                                       : State
CTRY               .                                       : Country
SRVC               .         SCH                           : Service Company
DATE               .         09/16/2010                    : Date
UWI                .         7846                          : Unique Well ID
Block              .         7                             : 
Category           .         Нефтяная                      : 
Condition          .         Ликвидированная               : 
Date               .         19.06.1992                    : 
EREF               .m        87.8                          : 100.8
Gorizont           .         13                            : 14
Interpretator      .         Ткачева И.Г.                  : 
Kupol              .         Основной                      : osnovnoi
Mud                .         0                             : 
Mud_density        .         0                             : 
Mud_resistivity    .         0                             : 
NGDU               .         НГДУ-2                        : 
ORIGINALWELLNAME   .         7846                          : 
Spud_date          .         1992                          : 1961
Uslovie            .         13                            : 
Viscosity          .         0                             : 
X                  .m        42636.8                       : 46154
Y                  .m        84621.43                      : 85761.93
YEAR               .         2019                          : 
~Parameter Information Block
#_______________________________________________________________________________
#
#PARAMETER_NAME    .UNIT     VALUE                         : DESCRIPTION
#_______________________________________________________________________________
SET                .         LQC_KAZNIPI_Petrel            : 
PBBOTTOM           .M        1159                          : Глубина подошвы планшета
PBSCALE            .         1 _ 500                       : Вертикальный масштаб планшета
PBTOP              .M        890                           : Глубина кровли планшета
TLFamily_CALI      .         Caliper                       : 
TLFamily_CILD      .         Conductivity                  : 
TLFamily_COLL      .         Net Reservoir Flag            : 
TLFamily_CSAT      .         Fluid Code                    : 
TLFamily_DEPT      .         Measured Depth                : 
TLFamily_GR        .         Russian Gamma Ray             : 
TLFamily_GZ1       .         Gradient 045                  : 
TLFamily_GZ2       .         Gradient 105                  : 
TLFamily_GZ3       .         Gradient 225                  : 
TLFamily_GZ4       .         Gradient 425                  : 
TLFamily_GZ5       .         Gradient 850                  : 
TLFamily_LLS       .         Lateral Log Resistivity       : 
TLFamily_MINV      .         Micro Gradient Resistivity    : 
TLFamily_MNOR      .         Micro Resistivity             : 
TLFamily_NGLD      .         Neutron Gamma                 : 
TLFamily_OGZ       .         Gradient Inverted 225         : 
TLFamily_PHIE      .         Effective Porosity            : 
TLFamily_PHIEN     .         Effective Porosity            : 
TLFamily_PHIT      .         Porosity                      : 
TLFamily_PRMB      .         Permeability                  : 
TLFamily_PRMB_DGR  .         Permeability                  : 
TLFamily_RT        .         Formation Resistivity         : 
TLFamily_SOIL_ARCHIE .         Oil Saturation                : 
TLFamily_SOIL_DW   .         Oil Saturation                : 
TLFamily_SP        .         Spontaneous Potential         : 
TLFamily_VSH_FIN   .         Shale Volume                  : 
TLFamily_VSH_GR    .         Shale Volume                  : 
TLFamily_VSH_SP    .         Shale Volume                  : 
~Curve Information
#_______________________________________________________________________________
#
#LOGNAME           .UNIT     LOG_ID                        : DESCRIPTION
#_______________________________________________________________________________
DEPT               .M                                      : Колонка глубины 
CALI               .м                                      : Каверномер 
CILD               .мСм/м                                  : Индукционный каротаж 
COLL               .unitless                               : Описание 
CSAT               .unitless                               : Описание 
GR                 .uR/h                                   : Гамма каротаж 
GZ1                .Ohmm                                   : Градиент-зонд  длиной 0.45м 
GZ2                .Ohmm                                   : Градиент-зонд  длиной 1.05м 
GZ3                .Ohmm                                   : Градиент-зонд  длиной 2.25м 
GZ4                .Ohmm                                   : Градиент-зонд  длиной 4.5м 
GZ5                .Ohmm                                   : Градиент-зонд  длиной 8.5м 
LLS                .Ohmm                                   : Боковой каротаж 
MINV               .Ohmm                                   : Микро-градиент зонд 
MNOR               .Ohmm                                   : Микро-потенциал зонд 
NGLD               .у.е.                                   : Показания зонда НГК-60 аппаратуры ДРСТ-3-90 
OGZ                .Ohmm                                   : Обращенный градиент-зонд 
PHIE               .v/v                                    : Описание 
PHIEN              .v/v                                    :  
PHIT               .v/v                                    : Описание 
PRMB               .mD                                     :  
PRMB_DGR           .mD                                     :  
RT                 .ohmm                                   : УЭС пласта 
SOIL_ARCHIE        .v/v                                    :  
SOIL_DW            .v/v                                    :  
SP                 .мВ                                     : Потенциал самополяризации 
VSH_FIN            .v/v                                    : Описание 
VSH_GR             .v/v                                    : Shale volume 
VSH_SP             .v/v                                    : Shale Volume 
~Ascii
# ...
996.6      0.233      329        -9999      -9999      1.654      2.831      3.535      3.496      2.543      2.45       3.4        4.404      3.484      1.115      2.916      0.1507389  0.1507389  0.2609     1.734635   39.09953   3.04       0.3103224  0.4905125  20.357     0.3338215  0.1452036  0.5224394 
996.7000000000001 0.234      324        -9999      -9999      1.648      2.962      3.882      3.795      2.484      2.535      3.533      4.538      3.459      1.102      2.845      0.1538237  0.1538237  0.26532    1.978544   39.37511   3.086      0.3271427  0.5034301  20.531     0.3378676  0.1447878  0.5309475 
996.8      0.236      320        -9999      -9999      1.686      3.153      4.199      4.032      2.438      2.571      3.701      4.289      3.219      1.084      2.788      0.1576862  0.1576862  0.27144    2.332864   37.66206   3.125      0.3453896  0.5180463  20.753     0.3447084  0.1474416  0.5419753 
996.9      0.239      322        -9999      -9999      1.799      3.341      4.417      4.159      2.41       2.548      3.867      3.607      2.805      1.054      2.716      0.164372   0.164372   0.28164    3.102605   32.99585   3.106      0.3668321  0.53494    21.012     0.3553575  0.155624   0.5550911 
997        0.244      330        -9999      -9999      1.996      3.412      4.498      4.152      2.375      2.494      3.949      2.679      2.297      1.009      2.605      0.1747377  0.1747377  0.29694    4.827517   26.20068   3.03       0.3926539  0.5548689  21.293     0.3703101  0.1709897  0.5696306 
997.1      0.251      344        -9999      -9999      2.253      3.281      4.449      4.019      2.306      2.429      3.857      1.781      1.772      0.956      2.464      0.1866347  0.1866347  0.31496    8.018371   19.39386   2.907      0.4152538  0.5727354  21.572     0.3888645  0.1933383  0.5843906 
997.2000000000001 0.26       361        -9999      -9999      2.511      2.967      4.311      3.797      2.194      2.346      3.559      1.138      1.296      0.906      2.335      0.1971748  0.1971748  0.33196    12.56935   14.33862   2.77       0.4298019  0.5851042  21.827     0.4084401  0.2187125  0.5981678 
997.3      0.27       377        -9999      -9999      2.719      2.574      4.115      3.526      2.054      2.217      3.095      0.798      0.924      0.871      2.283      0.2033411  0.2033411  0.34386    16.35038   11.24006   2.653      0.4335351  0.5900028  22.043     0.425815   0.241574   0.6100559 
997.4      0.279      391        -9999      -9999      2.864      2.217      3.875      3.24       1.916      2.036      2.569      0.71       0.689      0.858      2.337      0.2032496  0.2032496  0.34828    16.28673   9.485418   2.558      0.4235326  0.5855825  22.222     0.4394861  0.2589103  0.6200619 
997.5      0.285      402        -9999      -9999      2.969      1.952      3.608      2.961      1.817      1.832      2.097      0.8        0.597      0.863      2.474      0.1979119  0.1979119  0.34658    12.97078   8.388395   2.488      0.4022827  0.5740784  22.376     0.4505095  0.2722358  0.6287831 
997.6      0.288      413        -9999      -9999      3.058      1.765      3.353      2.706      1.795      1.653      1.76       1.018      0.621      0.877      2.627      0.1899809  0.1899809  0.34182    9.248363   7.558486   2.421      0.3726224  0.5575109  22.505     0.4601186  0.2840664  0.6361707 
997.7000000000001 0.287      422        -9999      -9999      3.13       1.622      3.148      2.495      1.873      1.55       1.568      1.281      0.715      0.893      2.735      0.1820032  0.1820032  0.33638    6.581102   6.94757    2.37       0.3421988  0.5407286  22.599     0.4678085  0.2940124  0.6416047 
997.8      0.285      426        -9999      -9999      3.164      1.503      2.994      2.333      2.033      1.544      1.484      1.485      0.827      0.907      2.778      0.1760632  0.1760632  0.33162    5.10829    6.676498   2.347      0.3198058  0.5283867  22.639     0.4713843  0.2988294  0.6439391 
997.9      0.282      429        -9999      -9999      3.141      1.423      2.858      2.222      2.21       1.619      1.455      1.545      0.913      0.918      2.764      0.1729071  0.1729071  0.32788    4.464952   6.858686   2.331      0.3067833  0.5201142  22.634     0.4696149  0.2955623  0.6436675 
998        0.279      435        -9999      -9999      3.066      1.4        2.71       2.162      2.322      1.733      1.441      1.461      0.948      0.927      2.71       0.1717143  0.1717143  0.32482    4.243494   7.488039   2.299      0.2980527  0.5126994  22.618     0.4639567  0.2851547  0.6427586 
998.1      0.277      439        -9999      -9999      2.966      1.427      2.556      2.165      2.319      1.846      1.427      1.292      0.935      0.934      2.636      0.1713169  0.1713169  0.32244    4.172175   8.417903   2.278      0.2935994  0.5078115  22.64      0.4579488  0.2718458  0.6440518 
998.2000000000001 0.276      442        -9999      -9999      2.881      1.47       2.427      2.235      2.226      1.94       1.416      1.117      0.896      0.939      2.569      0.1705643  0.1705643  0.32074    4.040386   9.298534   2.262      0.2885362  0.5036268  22.727     0.4550778  0.2610227  0.649133  
998.3      0.275      446        -9999      -9999      2.842      1.495      2.349      2.352      2.119      2.005      1.424      0.98       0.851      0.942      2.536      0.1689419  0.1689419  0.31972    3.770268   9.73286    2.242      0.2795931  0.4985843  22.871     0.4569033  0.256202   0.6576046 
998.4      0.274      450        -9999      -9999      2.863      1.497      2.325      2.472      2.075      2.025      1.471      0.888      0.807      0.942      2.554      0.1670336  0.1670336  0.31972    3.475566   9.496531   2.222      0.2693642  0.4941038  23.022     0.4626861  0.2587866  0.6665856 
998.5      0.272      453        -9999      -9999      2.927      1.497      2.348      2.556      2.116      1.982      1.562      0.822      0.756      0.94       2.62       0.1653658  0.1653658  0.3204     3.236936   8.811094   2.208      0.2607612  0.4911867  23.125     0.4698006  0.2668252  0.6727759 
998.6      0.27       455        -9999      -9999      2.999      1.517      2.395      2.595      2.209      1.883      1.681      0.767      0.704      0.936      2.719      0.1649726  0.1649726  0.32176    3.183111   8.098936   2.198      0.2576474  0.4908847  23.146     0.4751132  0.2761676  0.6740589 
998.7000000000001 0.268      457        -9999      -9999      3.048      1.555      2.434      2.604      2.299      1.774      1.796      0.733      0.668      0.935      2.827      0.1646961  0.1646961  0.3221     3.145781   7.647483   2.188      0.2549691  0.4897223  23.099     0.4769817  0.2827119  0.6712514 
998.8      0.266      459        -9999      -9999      3.067      1.588      2.423      2.606      2.347      1.718      1.876      0.756      0.681      0.937      2.916      0.16421    0.16421    0.32142    3.081242   7.479276   2.179      0.2516026  0.4874211  23.036     0.4763939  0.285291   0.6674969 
998.9      0.266      461        -9999      -9999      3.072      1.593      2.346      2.621      2.34       1.753      1.905      0.857      0.754      0.945      2.952      0.1614827  0.1614827  0.3187     2.742894   7.435631   2.169      0.2389649  0.4802039  23.025     0.4764161  0.2859736  0.6668586 
999        0.265      463        -9999      -9999      3.079      1.572      2.225      2.663      2.289      1.864      1.89       1.021      0.881      0.956      2.911      0.1568504  0.1568504  0.31496    2.251167   7.374954   2.16       0.2179019  0.4694167  23.099     0.4791201  0.2869321  0.6713081 
999.1      0.263      465        -9999      -9999      3.086      1.559      2.113      2.734      2.223      2.005      1.853      1.197      1.038      0.968      2.794      0.1512545  0.1512545  0.31088    1.773206   7.314773   2.151      0.1911773  0.4565041  23.235     0.4837135  0.2878937  0.6795334 
