~Version
 VERS              .         2.0                           : CWLS LOG ASCII STANDARD - VERSION 2.0
 WRAP              .         NO                            : ONE LINE PER DEPTH STEP
 DLM               .         SPACE                         : DELIMITING CHARACTER(SPACE TAB OR COMMA)
~Well Information
#_______________________________________________________________________________
#
#PARAMETER_NAME    .UNIT     VALUE                         : DESCRIPTION
#_______________________________________________________________________________
STRT               .M        890                           : First reference value
STOP               .M        1159                          : Last reference value
STEP               .M        0.1                           : Step increment
NULL               .         -9999                         : Missing value
COMP               .                                       : Company
WELL               .         7846                          : Well name
FLD                .         УЗЕНЬ                         : Field
LOC                .                                       : Location
CNTY               .                                       : County
STAT               .                                       : State
CTRY               .                                       : Country
SRVC               .         SCH                           : Service Company
DATE               .         09/16/2010                    : Date
UWI                .         7846                          : Unique Well ID
Block              .         7                             : 
Category           .         Нефтяная                      : 
Condition          .         Ликвидированная               : 
Date               .         19.06.1992                    : 
EREF               .m        87.8                          : 100.8
Gorizont           .         13                            : 14
Interpretator      .         Ткачева И.Г.                  : 
Kupol              .         Основной                      : osnovnoi
Mud                .         0                             : 
Mud_density        .         0                             : 
Mud_resistivity    .         0                             : 
NGDU               .         НГДУ-2                        : 
ORIGINALWELLNAME   .         7846                          : 
Spud_date          .         1992                          : 1961
Uslovie            .         13                            : 
Viscosity          .         0                             : 
X                  .m        42636.8                       : 46154
Y                  .m        84621.43                      : 85761.93
YEAR               .         2019                          : 
~Parameter Information Block
#_______________________________________________________________________________
#
#PARAMETER_NAME    .UNIT     VALUE                         : DESCRIPTION
#_______________________________________________________________________________
SET                .         LQC_KAZNIPI_Petrel            : 
PBBOTTOM           .M        1159                          : Глубина подошвы планшета
PBSCALE            .         1 _ 500                       : Вертикальный масштаб планшета
PBTOP              .M        890                           : Глубина кровли планшета
TLFamily_CALI      .         Caliper                       : 
TLFamily_CILD      .         Conductivity                  : 
TLFamily_COLL      .         Net Reservoir Flag            : 
TLFamily_CSAT      .         Fluid Code                    : 
TLFamily_DEPT      .         Measured Depth                : 
TLFamily_GR        .         Russian Gamma Ray             : 
TLFamily_GZ1       .         Gradient 045                  : 
TLFamily_GZ2       .         Gradient 105                  : 
TLFamily_GZ3       .         Gradient 225                  : 
TLFamily_GZ4       .         Gradient 425                  : 
TLFamily_GZ5       .         Gradient 850                  : 
TLFamily_LLS       .         Lateral Log Resistivity       : 
TLFamily_MINV      .         Micro Gradient Resistivity    : 
TLFamily_MNOR      .         Micro Resistivity             : 
TLFamily_NGLD      .         Neutron Gamma                 : 
TLFamily_OGZ       .         Gradient Inverted 225         : 
TLFamily_PHIE      .         Effective Porosity            : 
TLFamily_PHIEN     .         Effective Porosity            : 
TLFamily_PHIT      .         Porosity                      : 
TLFamily_PRMB      .         Permeability                  : 
TLFamily_PRMB_DGR  .         Permeability                  : 
TLFamily_RT        .         Formation Resistivity         : 
TLFamily_SOIL_ARCHIE .         Oil Saturation                : 
TLFamily_SOIL_DW   .         Oil Saturation                : 
TLFamily_SP        .         Spontaneous Potential         : 
TLFamily_VSH_FIN   .         Shale Volume                  : 
TLFamily_VSH_GR    .         Shale Volume                  : 
TLFamily_VSH_SP    .         Shale Volume                  : 
~Curve Information
#_______________________________________________________________________________
#
#LOGNAME           .UNIT     LOG_ID                        : DESCRIPTION
#_______________________________________________________________________________
DEPT               .M                                      : Колонка глубины 
CALI               .м                                      : Каверномер 
CILD               .мСм/м                                  : Индукционный каротаж 
COLL               .unitless                               : Описание 
CSAT               .unitless                               : Описание 
GR                 .uR/h                                   : Гамма каротаж 
GZ1                .Ohmm                                   : Градиент-зонд  длиной 0.45м 
GZ2                .Ohmm                                   : Градиент-зонд  длиной 1.05м 
GZ3                .Ohmm                                   : Градиент-зонд  длиной 2.25м 
GZ4                .Ohmm                                   : Градиент-зонд  длиной 4.5м 
GZ5                .Ohmm                                   : Градиент-зонд  длиной 8.5м 
LLS                .Ohmm                                   : Боковой каротаж 
MINV               .Ohmm                                   : Микро-градиент зонд 
MNOR               .Ohmm                                   : Микро-потенциал зонд 
NGLD               .у.е.                                   : Показания зонда НГК-60 аппаратуры ДРСТ-3-90 
OGZ                .Ohmm                                   : Обращенный градиент-зонд 
PHIE               .v/v                                    : Описание 
PHIEN              .v/v                                    :  
PHIT               .v/v                                    : Описание 
PRMB               .mD                                     :  
PRMB_DGR           .mD                                     :  
RT                 .ohmm                                   : УЭС пласта 
SOIL_ARCHIE        .v/v                                    :  
SOIL_DW            .v/v                                    :  
SP                 .мВ                                     : Потенциал самополяризации 
VSH_FIN            .v/v                                    : Описание 
VSH_GR             .v/v                                    : Shale volume 
VSH_SP             .v/v                                    : Shale Volume 
~Ascii
# ...
1051.2     0.241      381        -9999      -9999      5.884      1.918      2.71       2.135      1.962      1.808      2.215      2.349      1.997      1.062      2.476      0.08301561 0.08301561 0.27892    0.09656253 1.44883    2.625      0          0.3461888  21.872     0.5936496  0.5576546  0.6296447 
1051.3     0.238      383        -9999      -9999      5.727      1.855      2.88       2.214      2.066      1.857      2.315      2.507      2.057      1.063      2.528      0.08737463 0.08737463 0.27858    0.1162915  1.690907   2.611      0          0.3550596  21.971     0.5794103  0.5235585  0.6352621 
1051.4     0.236      387        -9999      -9999      5.561      1.783      3.004      2.349      2.14       1.875      2.397      2.632      2.026      1.059      2.522      0.09301281 0.09301281 0.27994    0.1479044  1.99099    2.584      0          0.3674119  22.108     0.566446   0.4897723  0.6431196 
1051.5     0.235      391        -9999      -9999      5.427      1.732      3.014      2.454      2.163      1.855      2.431      2.678      1.935      1.05       2.493      0.09934671 0.09934671 0.283      0.1937761  2.271648   2.558      0          0.3829738  22.209     0.5565252  0.4640963  0.648954  
1051.6     0.236      393        -9999      -9999      5.348      1.73       2.879      2.465      2.147      1.811      2.413      2.637      1.837      1.04       2.476      0.1049629  0.1049629  0.2864     0.246221   2.455308   2.545      0          0.3979426  22.228     0.5498095  0.4495943  0.6500248 
1051.7     0.238      394        -9999      -9999      5.326      1.79       2.632      2.37       2.127      1.775      2.359      2.554      1.795      1.032      2.486      0.1089581  0.1089581  0.28912    0.2919614  2.509048   2.538      0.004130088 0.4086867  22.164     0.5459453  0.4456371  0.6462536 
1051.8     0.241      393        -9999      -9999      5.344      1.899      2.365      2.206      2.133      1.756      2.293      2.503      1.838      1.03       2.515      0.1102572  0.1102572  0.2898     0.3085945  2.464994   2.545      0.01563067 0.412886   22.044     0.5440692  0.4488722  0.6392663 
1051.9     0.244      391        -9999      -9999      5.374      2.014      2.181      2.032      2.153      1.731      2.238      2.52       1.949      1.033      2.56       0.1097449  0.1097449  0.28878    0.3019261  2.39328    2.558      0.01399065 0.4120732  21.896     0.5425305  0.4543164  0.6307445 
1052       0.246      389        -9999      -9999      5.387      2.08       2.137      1.912      2.143      1.669      2.204      2.589      2.055      1.036      2.624      0.1098713  0.1098713  0.28776    0.3035581  2.362857   2.571      0.017319   0.4124711  21.732     0.5390565  0.456696   0.6214171 
1052.1     0.247      389        -9999      -9999      5.369      2.069      2.223      1.893      2.076      1.564      2.198      2.642      2.09       1.037      2.696      0.1114107  0.1114107  0.28742    0.3241561  2.405087   2.571      0.02915504 0.4149592  21.588     0.5333616  0.4534045  0.6133188 
1052.2     0.246      390        -9999      -9999      5.339      2          2.376      1.984      1.975      1.457      2.208      2.639      2.03       1.031      2.748      0.1152044  0.1152044  0.28946    0.3810863  2.477152   2.564      0.05585241 0.423818   21.495     0.5280472  0.4479712  0.6081232 
1052.3     0.245      392        -9999      -9999      5.334      1.922      2.538      2.146      1.897      1.412      2.215      2.588      1.924      1.018      2.746      0.1198974  0.1198974  0.29388    0.4655311  2.489372   2.551      0.08594371 0.4361483  21.482     0.52722    0.447072   0.607368  
1052.4     0.244      394        -9999      -9999      5.382      1.878      2.682      2.307      1.879      1.459      2.203      2.536      1.837      1.001      2.683      0.1237813  0.1237813  0.29966    0.5493991  2.374512   2.538      0.1088402  0.4481201  21.533     0.5329657  0.4557793  0.6101522 
1052.5     0.243      396        -9999      -9999      5.474      1.878      2.8        2.415      1.913      1.571      2.174      2.523      1.801      0.985      2.578      0.1256981  0.1256981  0.3051     0.5961988  2.168968   2.525      0.118566   0.4560438  21.609     0.5436422  0.4729451  0.6143394 
1052.6     0.245      396        -9999      -9999      5.574      1.902      2.883      2.461      1.961      1.69       2.145      2.552      1.807      0.972      2.468      0.1265191  0.1265191  0.30952    0.6174448  1.96568    2.525      0.1235498  0.4622649  21.653     0.5545483  0.4923377  0.6167588 
1052.7     0.247      397        -9999      -9999      5.636      1.922      2.911      2.476      2.006      1.776      2.132      2.598      1.83       0.966      2.384      0.1266357  0.1266357  0.31156    0.620525   1.849327   2.519      0.1232749  0.4640458  21.64      0.5603765  0.5047584  0.6159946 
1052.8     0.249      398        -9999      -9999      5.642      1.926      2.881      2.486      2.058      1.822      2.13       2.641      1.863      0.965      2.346      0.127397   0.127397   0.3119     0.641001   1.838439   2.513      0.1268626  0.46495    21.573     0.5591002  0.5059769  0.6122234 
1052.9     0.249      401        -9999      -9999      5.605      1.924      2.812      2.492      2.131      1.84       2.117      2.687      1.906      0.968      2.363      0.1283467  0.1283467  0.31088    0.6674972  1.906616   2.494      0.1293972  0.4632598  21.493     0.5531313  0.4985093  0.6077534 
1053       0.248      406        -9999      -9999      5.571      1.941      2.743      2.471      2.208      1.834      2.071      2.762      1.952      0.973      2.429      0.1282238  0.1282238  0.30918    0.6640078  1.971492   2.463      0.1235413  0.4578233  21.443     0.5483522  0.4917445  0.6049599 
1053.1     0.248      412        -9999      -9999      5.592      1.999      2.709      2.412      2.249      1.802      1.99       2.851      1.974      0.976      2.529      0.1265041  0.1265041  0.30816    0.6170506  1.931165   2.427      0.1070247  0.4499578  21.445     0.5504724  0.4959119  0.605033  
1053.2     0.247      418        -9999      -9999      5.697      2.096      2.72       2.338      2.225      1.759      1.886      2.896      1.944      0.975      2.635      0.1229326  0.1229326  0.3085     0.5298685  1.741575   2.392      0.07820935 0.4405276  21.488     0.5623254  0.5172845  0.6073663 
1053.3     0.247      423        -9999      -9999      5.876      2.206      2.75       2.296      2.148      1.731      1.781      2.82       1.851      0.971      2.719      0.1175955  0.1175955  0.30986    0.4219989  1.460282   2.364      0.03656839 0.4297523  21.525     0.5826198  0.5558648  0.6093748 
1053.4     0.246      429        -9999      -9999      6.078      2.285      2.758      2.318      2.062      1.733      1.686      2.624      1.71       0.966      2.751      0.1117376  0.1117376  0.31156    0.3287072  1.197019   2.331      0          0.4172727  21.504     0.6055225  0.6028689  0.608176  
1053.5     0.246      434        -9999      -9999      6.253      2.286      2.711      2.395      2.001      1.75       1.608      2.361      1.553      0.96       2.721      0.1073906  0.1073906  0.3136     0.2730814  1.00764    2.304      0          0.4081918  21.41      0.624877   0.6467916  0.6029624 
1053.6     0.246      439        -9999      -9999      6.382      2.186      2.61       2.48       1.972      1.753      1.551      2.121      1.406      0.955      2.645      0.1045357  0.1045357  0.3153     0.2417753  0.887504   2.278      0          0.4013763  21.286     0.6386799  0.6812052  0.5961546 
1053.7     0.247      443        -9999      -9999      6.472      2.004      2.492      2.52       1.969      1.729      1.522      1.945      1.286      0.952      2.555      0.1020748  0.1020748  0.31632    0.2176858  0.8122762  2.257      0          0.3949574  21.213     0.649228   0.7062933  0.5921626 
