~Version
 VERS              .         2.0                           : CWLS LOG ASCII STANDARD - VERSION 2.0
 WRAP              .         NO                            : ONE LINE PER DEPTH STEP
 DLM               .         SPACE                         : DELIMITING CHARACTER(SPACE TAB OR COMMA)
~Well Information
#_______________________________________________________________________________
#
#PARAMETER_NAME    .UNIT     VALUE                         : DESCRIPTION
#_______________________________________________________________________________
STRT               .M        890                           : First reference value
STOP               .M        1159                          : Last reference value
STEP               .M        0.1                           : Step increment
NULL               .         -9999                         : Missing value
COMP               .                                       : Company
WELL               .         7846                          : Well name
FLD                .         УЗЕНЬ                         : Field
LOC                .                                       : Location
CNTY               .                                       : County
STAT               .                                       : State
CTRY               .                                       : Country
SRVC               .         SCH                           : Service Company
DATE               .         09/16/2010                    : Date
UWI                .         7846                          : Unique Well ID
Block              .         7                             : 
Category           .         Нефтяная                      : 
Condition          .         Ликвидированная               : 
Date               .         19.06.1992                    : 
EREF               .m        87.8                          : 100.8
Gorizont           .         13                            : 14
Interpretator      .         Ткачева И.Г.                  : 
Kupol              .         Основной                      : osnovnoi
Mud                .         0                             : 
Mud_density        .         0                             : 
Mud_resistivity    .         0                             : 
NGDU               .         НГДУ-2                        : 
ORIGINALWELLNAME   .         7846                          : 
Spud_date          .         1992                          : 1961
Uslovie            .         13                            : 
Viscosity          .         0                             : 
X                  .m        42636.8                       : 46154
Y                  .m        84621.43                      : 85761.93
YEAR               .         2019                          : 
~Parameter Information Block
#_______________________________________________________________________________
#
#PARAMETER_NAME    .UNIT     VALUE                         : DESCRIPTION
#_______________________________________________________________________________
SET                .         LQC_KAZNIPI_Petrel            : 
PBBOTTOM           .M        1159                          : Глубина подошвы планшета
PBSCALE            .         1 _ 500                       : Вертикальный масштаб планшета
PBTOP              .M        890                           : Глубина кровли планшета
TLFamily_CALI      .         Caliper                       : 
TLFamily_CILD      .         Conductivity                  : 
TLFamily_COLL      .         Net Reservoir Flag            : 
TLFamily_CSAT      .         Fluid Code                    : 
TLFamily_DEPT      .         Measured Depth                : 
TLFamily_GR        .         Russian Gamma Ray             : 
TLFamily_GZ1       .         Gradient 045                  : 
TLFamily_GZ2       .         Gradient 105                  : 
TLFamily_GZ3       .         Gradient 225                  : 
TLFamily_GZ4       .         Gradient 425                  : 
TLFamily_GZ5       .         Gradient 850                  : 
TLFamily_LLS       .         Lateral Log Resistivity       : 
TLFamily_MINV      .         Micro Gradient Resistivity    : 
TLFamily_MNOR      .         Micro Resistivity             : 
TLFamily_NGLD      .         Neutron Gamma                 : 
TLFamily_OGZ       .         Gradient Inverted 225         : 
TLFamily_PHIE      .         Effective Porosity            : 
TLFamily_PHIEN     .         Effective Porosity            : 
TLFamily_PHIT      .         Porosity                      : 
TLFamily_PRMB      .         Permeability                  : 
TLFamily_PRMB_DGR  .         Permeability                  : 
TLFamily_RT        .         Formation Resistivity         : 
TLFamily_SOIL_ARCHIE .         Oil Saturation                : 
TLFamily_SOIL_DW   .         Oil Saturation                : 
TLFamily_SP        .         Spontaneous Potential         : 
TLFamily_VSH_FIN   .         Shale Volume                  : 
TLFamily_VSH_GR    .         Shale Volume                  : 
TLFamily_VSH_SP    .         Shale Volume                  : 
~Curve Information
#_______________________________________________________________________________
#
#LOGNAME           .UNIT     LOG_ID                        : DESCRIPTION
#_______________________________________________________________________________
DEPT               .M                                      : Колонка глубины 
CALI               .м                                      : Каверномер 
CILD               .мСм/м                                  : Индукционный каротаж 
COLL               .unitless                               : Описание 
CSAT               .unitless                               : Описание 
GR                 .uR/h                                   : Гамма каротаж 
GZ1                .Ohmm                                   : Градиент-зонд  длиной 0.45м 
GZ2                .Ohmm                                   : Градиент-зонд  длиной 1.05м 
GZ3                .Ohmm                                   : Градиент-зонд  длиной 2.25м 
GZ4                .Ohmm                                   : Градиент-зонд  длиной 4.5м 
GZ5                .Ohmm                                   : Градиент-зонд  длиной 8.5м 
LLS                .Ohmm                                   : Боковой каротаж 
MINV               .Ohmm                                   : Микро-градиент зонд 
MNOR               .Ohmm                                   : Микро-потенциал зонд 
NGLD               .у.е.                                   : Показания зонда НГК-60 аппаратуры ДРСТ-3-90 
OGZ                .Ohmm                                   : Обращенный градиент-зонд 
PHIE               .v/v                                    : Описание 
PHIEN              .v/v                                    :  
PHIT               .v/v                                    : Описание 
PRMB               .mD                                     :  
PRMB_DGR           .mD                                     :  
RT                 .ohmm                                   : УЭС пласта 
SOIL_ARCHIE        .v/v                                    :  
SOIL_DW            .v/v                                    :  
SP                 .мВ                                     : Потенциал самополяризации 
VSH_FIN            .v/v                                    : Описание 
VSH_GR             .v/v                                    : Shale volume 
VSH_SP             .v/v                                    : Shale Volume 
~Ascii
# ...
926.4      -9999      217        -9999      -9999      2.574      -9999      -9999      -9999      -9999      -9999      3.798      3.473      4.964      1.257      -9999      0.07686751 0.07686751 0.21262    0.07429009 18.91636   4.608      0          0.3943939  22.306     0.4113712  0.1953165  0.627426  
926.5      -9999      206        -9999      -9999      2.515      -9999      -9999      -9999      -9999      -9999      4.28       3.658      5.602      1.304      -9999      0.05975728 0.05975728 0.19664    0.03581029 20.1938    4.854      0          0.3227291  22.519     0.4147961  0.1901736  0.6394187 
926.6      -9999      196        -9999      -9999      2.467      -9999      -9999      -9999      -9999      -9999      5.138      3.938      6.031      1.356      -9999      0.04171318 0.04171318 0.17896    0.01658774 21.29645   5.102      0          0.2099647  22.631     0.4158995  0.1860896  0.6457095 
926.7000000000001 -9999      189        -9999      -9999      2.42       -9999      -9999      -9999      -9999      -9999      6.357      4.316      6.244      1.407      -9999      0.02519472 0.02519472 0.16162    0.008200216 22.43445   5.291      0          0.0388031  22.616     0.41341    0.1821757  0.6446444 
926.8      -9999      184        -9999      -9999      2.364      -9999      -9999      -9999      -9999      -9999      7.711      4.705      6.317      1.452      -9999      0.01154675 0.01154675 0.14632    0.004581755 23.87002   5.435      0          0          22.525     0.4084038  0.1776196  0.6391879 
926.9      -9999      183        -9999      -9999      2.296      -9999      -9999      -9999      -9999      -9999      8.701      4.915      6.305      1.483      -9999      0.01       0.002769413 0.13578    0.004289259 25.73727   5.464      0          0          22.436     0.4030623  0.1722402  0.6338845 
927        -9999      183        -9999      -9999      2.222      -9999      -9999      -9999      -9999      -9999      9.018      4.821      6.215      1.498      -9999      0.01       0          0.13068    0.004289259 27.93564   5.464      0          0          22.404     0.3992179  0.166571   0.6318648 
927.1      -9999      184        -9999      -9999      2.152      -9999      -9999      -9999      -9999      -9999      8.621      4.445      6.004      1.495      -9999      0.01       0.0005348697 0.1317     0.004289259 30.18773   5.435      0          0          22.437     0.3974701  0.1613801  0.6335601 
927.2000000000001 -9999      185        -9999      -9999      2.111      -9999      -9999      -9999      -9999      -9999      7.884      3.973      5.6        1.478      -9999      0.01       0.006201629 0.13748    0.004289259 31.59021   5.405      0          0          22.504     0.3978132  0.1584152  0.6372112 
927.3      -9999      187        -9999      -9999      2.128      -9999      -9999      -9999      -9999      -9999      7.119      3.561      5.003      1.45       -9999      0.01499075 0.01499075 0.147      0.005306682 31.00095   5.348      0          0          22.563     0.400028   0.1596379  0.6404181 
927.4      -9999      189        -9999      -9999      2.231      -9999      -9999      -9999      -9999      -9999      6.5        3.276      4.284      1.416      -9999      0.02516448 0.02516448 0.15856    0.008189648 27.65854   5.291      0          0.02472835 22.58      0.4042288  0.1672504  0.6412073 
927.5      -9999      190        -9999      -9999      2.415      -9999      -9999      -9999      -9999      -9999      5.944      3.083      3.603      1.383      -9999      0.03422152 0.03422152 0.16978    0.01205101 22.55904   5.263      0          0.1441583  22.559     0.4107833  0.1817642  0.6398023 
927.6      -9999      191        -9999      -9999      2.64       -9999      -9999      -9999      -9999      -9999      5.39       2.969      3.108      1.354      -9999      0.04120478 0.04120478 0.17964    0.01623194 17.58286   5.236      0          0.2193039  22.527     0.4195007  0.2012345  0.6377669 
927.7000000000001 -9999      189        -9999      -9999      2.846      -9999      -9999      -9999      -9999      -9999      4.878      2.966      2.94       1.329      -9999      0.04658908 0.04658908 0.18814    0.02042212 13.99582   5.291      0          0.2756626  22.517     0.4289422  0.2208843  0.6370001 
927.8      -9999      186        -9999      -9999      2.992      -9999      -9999      -9999      -9999      -9999      4.6        3.134      3.208      1.308      -9999      0.05098815 0.05098815 0.19528    0.02463668 11.90607   5.376      0          0.3191119  22.547     0.4372481  0.235962   0.6385342 
927.9      -9999      181        -9999      -9999      3.077      -9999      -9999      -9999      -9999      -9999      4.794      3.51       3.91       1.293      -9999      0.05390815 0.05390815 0.20038    0.02790409 10.83631   5.525      0          0.3516645  22.619     0.4438541  0.2452097  0.6424986 
928        -9999      176        -9999      -9999      3.12       -9999      -9999      -9999      -9999      -9999      5.524      4.049      4.881      1.287      -9999      0.05408258 0.05408258 0.20242    0.02811245 10.3323    5.682      0          0.3657275  22.734     0.4495074  0.2500251  0.6489897 
928.1      -9999      171        -9999      -9999      3.136      -9999      -9999      -9999      -9999      -9999      6.643      4.654      5.808      1.293      -9999      0.0504685  0.0504685  0.20038    0.02409668 10.15081   5.848      0          0.3565196  22.869     0.4542773  0.2518409  0.6567137 
928.2000000000001 -9999      166        -9999      -9999      3.119      -9999      -9999      -9999      -9999      -9999      7.776      5.185      6.43       1.309      -9999      0.04432469 0.04432469 0.19494    0.0185421  10.34375   6.024      0          0.3275084  22.977     0.45641    0.249912   0.662908  
928.3      -9999      165        -9999      -9999      3.047      -9999      -9999      -9999      -9999      -9999      8.61       5.555      6.648      1.333      -9999      0.03732237 0.03732237 0.18678    0.01375495 11.20243   6.061      0          0.2732708  22.997     0.452902   0.2419051  0.6638988 
928.4      -9999      165        -9999      -9999      2.91       -9999      -9999      -9999      -9999      -9999      8.929      5.712      6.558      1.363      -9999      0.03031633 0.03031633 0.17658    0.01020211 13.03805   6.061      0          0.1984259  22.919     0.4432232  0.2273713  0.6590751 
928.5      -9999      169        -9999      -9999      2.728      -9999      -9999      -9999      -9999      -9999      8.733      5.638      6.303      1.395      -9999      0.02366619 0.02366619 0.1657     0.00768269 15.94995   5.917      0          0.09392057 22.792     0.4304055  0.2094052  0.6514059 
928.6      -9999      173        -9999      -9999      2.547      -9999      -9999      -9999      -9999      -9999      8.125      5.305      5.961      1.424      -9999      0.01753564 0.01753564 0.15584    0.00591508 19.4906    5.78       0          0          22.69      0.4191041  0.1929459  0.6452623 
928.7000000000001 -9999      175        -9999      -9999      2.419      -9999      -9999      -9999      -9999      -9999      7.32       4.748      5.502      1.441      -9999      0.01394195 0.01394195 0.15006    0.005074541 22.45931   5.714      0          0          22.652     0.412479   0.1820933  0.6428646 
928.8      -9999      176        -9999      -9999      2.379      -9999      -9999      -9999      -9999      -9999      6.516      4.064      4.917      1.439      -9999      0.01502994 0.01502994 0.15074    0.005315559 23.47673   5.682      0          0          22.669     0.4112426  0.1788287  0.6436565 
928.9      -9999      176        -9999      -9999      2.423      -9999      -9999      -9999      -9999      -9999      5.869      3.418      4.281      1.416      -9999      0.02193444 0.02193444 0.15856    0.007135708 22.36002   5.682      0          0.02625371 22.706     0.4140168  0.182423   0.6456106 
