~Version
 VERS              .         2.0                           : CWLS LOG ASCII STANDARD - VERSION 2.0
 WRAP              .         NO                            : ONE LINE PER DEPTH STEP
 DLM               .         SPACE                         : DELIMITING CHARACTER(SPACE TAB OR COMMA)
~Well Information
#_______________________________________________________________________________
#
#PARAMETER_NAME    .UNIT     VALUE                         : DESCRIPTION
#_______________________________________________________________________________
STRT               .M        890                           : First reference value
STOP               .M        1159                          : Last reference value
STEP               .M        0.1                           : Step increment
NULL               .         -9999                         : Missing value
COMP               .                                       : Company
WELL               .         7846                          : Well name
FLD                .         УЗЕНЬ                         : Field
LOC                .                                       : Location
CNTY               .                                       : County
STAT               .                                       : State
CTRY               .                                       : Country
SRVC               .         SCH                           : Service Company
DATE               .         09/16/2010                    : Date
UWI                .         7846                          : Unique Well ID
Block              .         7                             : 
Category           .         Нефтяная                      : 
Condition          .         Ликвидированная               : 
Date               .         19.06.1992                    : 
EREF               .m        87.8                          : 100.8
Gorizont           .         13                            : 14
Interpretator      .         Ткачева И.Г.                  : 
Kupol              .         Основной                      : osnovnoi
Mud                .         0                             : 
Mud_density        .         0                             : 
Mud_resistivity    .         0                             : 
NGDU               .         НГДУ-2                        : 
ORIGINALWELLNAME   .         7846                          : 
Spud_date          .         1992                          : 1961
Uslovie            .         13                            : 
Viscosity          .         0                             : 
X                  .m        42636.8                       : 46154
Y                  .m        84621.43                      : 85761.93
YEAR               .         2019                          : 
~Parameter Information Block
#_______________________________________________________________________________
#
#PARAMETER_NAME    .UNIT     VALUE                         : DESCRIPTION
#_______________________________________________________________________________
SET                .         LQC_KAZNIPI_Petrel            : 
PBBOTTOM           .M        1159                          : Глубина подошвы планшета
PBSCALE            .         1 _ 500                       : Вертикальный масштаб планшета
PBTOP              .M        890                           : Глубина кровли планшета
TLFamily_CALI      .         Caliper                       : 
TLFamily_CILD      .         Conductivity                  : 
TLFamily_COLL      .         Net Reservoir Flag            : 
TLFamily_CSAT      .         Fluid Code                    : 
TLFamily_DEPT      .         Measured Depth                : 
TLFamily_GR        .         Russian Gamma Ray             : 
TLFamily_GZ1       .         Gradient 045                  : 
TLFamily_GZ2       .         Gradient 105                  : 
TLFamily_GZ3       .         Gradient 225                  : 
TLFamily_GZ4       .         Gradient 425                  : 
TLFamily_GZ5       .         Gradient 850                  : 
TLFamily_LLS       .         Lateral Log Resistivity       : 
TLFamily_MINV      .         Micro Gradient Resistivity    : 
TLFamily_MNOR      .         Micro Resistivity             : 
TLFamily_NGLD      .         Neutron Gamma                 : 
TLFamily_OGZ       .         Gradient Inverted 225         : 
TLFamily_PHIE      .         Effective Porosity            : 
TLFamily_PHIEN     .         Effective Porosity            : 
TLFamily_PHIT      .         Porosity                      : 
TLFamily_PRMB      .         Permeability                  : 
TLFamily_PRMB_DGR  .         Permeability                  : 
TLFamily_RT        .         Formation Resistivity         : 
TLFamily_SOIL_ARCHIE .         Oil Saturation                : 
TLFamily_SOIL_DW   .         Oil Saturation                : 
TLFamily_SP        .         Spontaneous Potential         : 
TLFamily_VSH_FIN   .         Shale Volume                  : 
TLFamily_VSH_GR    .         Shale Volume                  : 
TLFamily_VSH_SP    .         Shale Volume                  : 
~Curve Information
#_______________________________________________________________________________
#
#LOGNAME           .UNIT     LOG_ID                        : DESCRIPTION
#_______________________________________________________________________________
DEPT               .M                                      : Колонка глубины 
CALI               .м                                      : Каверномер 
CILD               .мСм/м                                  : Индукционный каротаж 
COLL               .unitless                               : Описание 
CSAT               .unitless                               : Описание 
GR                 .uR/h                                   : Гамма каротаж 
GZ1                .Ohmm                                   : Градиент-зонд  длиной 0.45м 
GZ2                .Ohmm                                   : Градиент-зонд  длиной 1.05м 
GZ3                .Ohmm                                   : Градиент-зонд  длиной 2.25м 
GZ4                .Ohmm                                   : Градиент-зонд  длиной 4.5м 
GZ5                .Ohmm                                   : Градиент-зонд  длиной 8.5м 
LLS                .Ohmm                                   : Боковой каротаж 
MINV               .Ohmm                                   : Микро-градиент зонд 
MNOR               .Ohmm                                   : Микро-потенциал зонд 
NGLD               .у.е.                                   : Показания зонда НГК-60 аппаратуры ДРСТ-3-90 
OGZ                .Ohmm                                   : Обращенный градиент-зонд 
PHIE               .v/v                                    : Описание 
PHIEN              .v/v                                    :  
PHIT               .v/v                                    : Описание 
PRMB               .mD                                     :  
PRMB_DGR           .mD                                     :  
RT                 .ohmm                                   : УЭС пласта 
SOIL_ARCHIE        .v/v                                    :  
SOIL_DW            .v/v                                    :  
SP                 .мВ                                     : Потенциал самополяризации 
VSH_FIN            .v/v                                    : Описание 
VSH_GR             .v/v                                    : Shale volume 
VSH_SP             .v/v                                    : Shale Volume 
~Ascii
# ...
1157.8     -9999      410        -9999      -9999      5.769      -9999      -9999      2.652      -9999      1.835      2.237      1.91       2.09       1.088      -9999      0.185978   0.185978   0.27008    7.796881   9.85936    2.439      0.3630954  0.4881051  -9999      0.2548546  0.2548546  -9999     
1157.9     -9999      413        -9999      -9999      5.778      -9999      -9999      2.562      -9999      1.954      2.221      1.909      2.02       1.095      -9999      0.183135   0.183135   0.2677     6.906569   9.727698   2.421      0.352245   0.4802428  -9999      0.2562576  0.2562576  -9999     
1158       -9999      414        -9999      -9999      5.802      -9999      -9999      2.569      -9999      2.073      2.242      1.93       1.962      1.106      -9999      0.1781479  0.1781479  0.26396    5.583279   9.385109   2.415      0.3357069  0.4692905  -9999      0.2600367  0.2600367  -9999     
1158.1     -9999      416        -9999      -9999      5.833      -9999      -9999      2.643      -9999      2.115      2.268      1.949      1.948      1.12       -9999      0.1717498  0.1717498  0.2592     4.249915   8.960404   2.404      0.312734   0.4542307  -9999      0.2650007  0.2650007  -9999     
1158.2     -9999      416        -9999      -9999      5.859      -9999      -9999      2.73       -9999      2.031      2.27       1.974      1.93       1.133      -9999      0.1659318  0.1659318  0.25478    3.316018   8.619049   2.404      0.2917933  0.4408495  -9999      0.2692371  0.2692371  -9999     
1158.3     -9999      417        -9999      -9999      5.875      -9999      -9999      2.784      -9999      1.833      2.237      2.032      1.928      1.142      -9999      0.1620004  0.1620004  0.25172    2.804133   8.415488   2.398      0.2759994  0.4306034  -9999      0.2718776  0.2718776  -9999     
1158.4     -9999      418        -9999      -9999      5.881      -9999      -9999      2.794      -9999      1.619      2.181      2.094      1.945      1.146      -9999      0.1603114  0.1603114  0.25036    2.609242   8.340398   2.392      0.268501   0.4256159  -9999      0.2728745  0.2728745  -9999     
1158.5     -9999      418        -9999      -9999      5.879      -9999      -9999      2.784      -9999      1.513      2.129      2.153      1.961      1.145      -9999      0.1607612  0.1607612  0.2507     2.659781   8.365352   2.392      0.2702839  0.4267304  -9999      0.2725418  0.2725418  -9999     
1158.6     -9999      418        -9999      -9999      5.871      -9999      -9999      2.783      -9999      1.576      2.105      2.198      1.962      1.142      -9999      0.1622191  0.1622191  0.25172    2.830405   8.465926   2.392      0.2759988  0.4302013  -9999      0.271215   0.271215   -9999     
1158.7     -9999      417        -9999      -9999      5.862      -9999      -9999      2.804      -9999      1.757      2.127      2.208      1.958      1.139      -9999      0.163729   0.163729   0.25274    3.018678   8.580514   2.398      0.2826614  0.4344102  -9999      0.2697302  0.2697302  -9999     
1158.8     -9999      415        -9999      -9999      5.853      -9999      -9999      2.825      -9999      1.93       2.186      2.22       1.953      1.138      -9999      0.1645564  0.1645564  0.25308    3.127094   8.696653   2.41       0.2874745  0.4374227  -9999      0.2682535  0.2682535  -9999     
1158.9     -9999      412        -9999      -9999      5.845      -9999      -9999      2.816      -9999      1.998      2.254      2.218      1.954      1.141      -9999      0.1639673  0.1639673  0.25206    3.049511   8.801211   2.427      0.2875994  0.4372312  -9999      0.2669475  0.2669475  -9999     
1159       -9999      408        -9999      -9999      5.84       -9999      -9999      2.76       -9999      1.959      2.293      2.204      1.972      1.145      -9999      0.1628756  0.1628756  0.2507     2.910775   8.867193   2.451      0.2867434  0.4366648  -9999      0.2661347  0.2661347  -9999     
