~Version
 VERS              .         2.0                           : CWLS LOG ASCII STANDARD - VERSION 2.0
 WRAP              .         NO                            : ONE LINE PER DEPTH STEP
 DLM               .         SPACE                         : DELIMITING CHARACTER(SPACE TAB OR COMMA)
~Well Information
#_______________________________________________________________________________
#
#PARAMETER_NAME    .UNIT     VALUE                         : DESCRIPTION
#_______________________________________________________________________________
STRT               .M        900                           : First reference value
STOP               .M        1192                          : Last reference value
STEP               .M        0.2                           : Step increment
NULL               .         -9999                         : Missing value
COMP               .         АО РД КМГ филиал "Инженерный  центр": Company
WELL               .         7908                          : Well name
FLD                .         Узень                         : Field
LOC                .                                       : Location
CNTY               .                                       : County
STAT               .                                       : State
CTRY               .         Казахстан                     : Country
SRVC               .                                       : Service Company
DATE               .         25.06.2010.                   : Date
UWI                .                                       : Unique Well ID
_скв_14_гор_       .         7                             : 
Block              .         7                             : 
Category           .         Нефтяная                      : 
Condition          .         В работе                      : 
Date               .         13.04.2003                    : 
EREF               .m        95.1                          : 100.8
Gorizont           .         14                            : 14
Interpretator      .         Бекбулатова А.А.              : 
Kupol              .         Основной                      : osnovnoi
Mud                .         0                             : 
Mud_density        .         0                             : 
Mud_resistivity    .         0                             : 
NGDU               .         НГДУ-2                        : 
ORIGINALWELLNAME   .         7908                          : 
Spud_date          .         2003                          : 1961
Viscosity          .         0                             : 
X                  .m        42252.8                       : 46154
Y                  .m        85000.93                      : 85761.93
YEAR               .         2019                          : 
Исправлено_14      .         +                             : 
Отбивки_горизонт_14 .         1                             : 
~Parameter Information Block
#_______________________________________________________________________________
#
#PARAMETER_NAME    .UNIT     VALUE                         : DESCRIPTION
#_______________________________________________________________________________
SET                .         LQC_KAZNIPI_Petrel            : 
TLFamily_CALI      .         Caliper                       : 
TLFamily_CILD      .         Conductivity                  : 
TLFamily_COLL      .         Net Reservoir Flag            : 
TLFamily_CSAT      .         Fluid Code                    : 
TLFamily_DEPT      .         Measured Depth                : 
TLFamily_GR        .         Russian Gamma Ray             : 
TLFamily_GZ1       .         Gradient 045                  : 
TLFamily_GZ2       .         Gradient 105                  : 
TLFamily_GZ3       .         Gradient 225                  : 
TLFamily_GZ4       .         Gradient 425                  : 
TLFamily_GZ5       .         Gradient 850                  : 
TLFamily_LLS       .         Lateral Log Resistivity       : 
TLFamily_MINV      .         Micro Gradient Resistivity    : 
TLFamily_MNOR      .         Micro Resistivity             : 
TLFamily_NGLD      .         Neutron Gamma                 : 
TLFamily_OGZ       .         Gradient Inverted 225         : 
TLFamily_PHIE      .         Effective Porosity            : 
TLFamily_PHIEN     .         Effective Porosity            : 
TLFamily_PHIT      .         Porosity                      : 
TLFamily_PRMB      .         Permeability                  : 
TLFamily_PRMB_DGR  .         Permeability                  : 
TLFamily_RT        .         Formation Resistivity         : 
TLFamily_SOIL_ARCHIE .         Oil Saturation                : 
TLFamily_SOIL_DW   .         Oil Saturation                : 
TLFamily_SP        .         Spontaneous Potential         : 
TLFamily_VSH_FIN   .         Shale Volume                  : 
TLFamily_VSH_GR    .         Shale Volume                  : 
TLFamily_VSH_SP    .         Shale Volume                  : 
~Curve Information
#_______________________________________________________________________________
#
#LOGNAME           .UNIT     LOG_ID                        : DESCRIPTION
#_______________________________________________________________________________
DEPT               .M                                      : Колонка глубины 
CALI               .м                                      : Каверномер 
CILD               .мСм/м                                  : Индукционный каротаж 
COLL               .unitless                               : Описание 
CSAT               .unitless                               : Описание 
GR                 .uR/h                                   : Гамма каротаж 
GZ1                .Ом·м                                   :  
GZ2                .Ом·м                                   :  
GZ3                .Ом·м                                   :  
GZ4                .Ом·м                                   :  
GZ5                .Ом·м                                   :  
LLS                .Ohmm                                   : Боковой каротаж 
MINV               .Ohmm                                   : Микро-градиент зонд 
MNOR               .Ohmm                                   : Микро-потенциал зонд 
NGLD               .у.е.                                   : Показания зонда НГК-60 аппаратуры ДРСТ-3-90 
OGZ                .Ом·м                                   :  
PHIE               .v/v                                    : Описание 
PHIEN              .v/v                                    :  
PHIT               .v/v                                    : Описание 
PRMB               .mD                                     :  
PRMB_DGR           .mD                                     :  
RT                 .ohmm                                   : УЭС пласта 
SOIL_ARCHIE        .v/v                                    :  
SOIL_DW            .v/v                                    :  
SP                 .мВ                                     : Потенциал самополяризации 
VSH_FIN            .v/v                                    : Описание 
VSH_GR             .v/v                                    : Shale volume 
VSH_SP             .v/v                                    : Shale Volume 
~Ascii
# ...
936.4      -9999      603.135    6          6          3.29       3.976      7.987      9.407      9.34       7.1        7.066      1.552      2.467      7.653      12.927     0.05740938 0.05740938 0.1226396  0.03239807 58.20143   3.231      0          0          83.486     0.1976673  0.1234334  0.2719012 
936.6      -9999      606.407    6          6          3.431      4.708      9.832      11.379     11.597     9.186      9.161      1.497      2.301      7.425      15.138     0.06462912 0.06462912 0.13331    0.04408047 51.97219   3.214      0          0          84.27      0.2081238  0.1292729  0.2869748 
936.8      -9999      611.149    6          6          3.698      5.951      12.041     13.421     12.554     10.427     9.277      1.503      2.342      6.994      15.543     0.08231782 0.08231782 0.1534808  0.09373112 41.94457   3.189      0          0.1292747  84.431     0.2156454  0.1410982  0.2901926 
937        -9999      616.578    6          6          4.043      7.293      13.732     15.087     11.577     10.362     7.098      1.526      2.415      6.563      14.496     0.09911577 0.09911577 0.1736516  0.1918768  31.79685   3.161      0.02438831 0.245693   84.606     0.2258661  0.157994   0.2937383 
937.2000000000001 -9999      622.936    -9999      -9999      4.488      6.658      12.249     13.87      8.136      9.386      4.667      1.612      2.958      6.133      10.854     0.1145008  0.1145008  0.1937756  0.3698197  22.24464   3.129      0.1354864  0.3298648  84.796     0.2402268  0.1828088  0.2976448 
937.4      -9999      630.419    -9999      -9999      4.908      5.115      10.395     10.899     5.872      7.778      3.686      1.701      3.29       5.702      8.498001   0.1295297  0.1295297  0.2139464  0.7020408  15.87755   3.092      0.219187   0.395324   84.996     0.2558082  0.2097945  0.3018218 
937.6      -9999      638.049    -9999      -9999      5.325      4.321      9.631      8.287      4.623      5.823      3.751      1.824      3.705      5.271      7.09       0.1434861  0.1434861  0.2341172  1.273117   11.36025   3.054      0.2816077  0.446714   85.321     0.2746398  0.2405272  0.3087524 
937.8      -9999      643.066    -9999      -9999      5.742      3.897      9.252      6.93       3.826      4.127      3.797      1.824      3.646      4.826      6.554999   0.1564918  0.1564918  0.2549432  2.217001   8.128148   3.03       0.3314244  0.4902197  85.872     0.2983375  0.2757619  0.3209133 
938        -9999      643.859    -9999      -9999      6.123      3.742      8.306      6.123001   3.094      2.92       3.743      1.818      3.699      4.317      6.357      0.1712859  0.1712859  0.2787644  4.166656   5.986153   3.027      0.3817203  0.5337389  86.648     0.3256926  0.3124487  0.3389364 
938.2000000000001 -9999      641.876    -9999      -9999      6.381      3.699      7.533      5.712999   2.691      2.244      3.753      1.811      3.686      3.944      6.288      0.180621   0.180621   0.2962208  6.204359   4.866209   3.036      0.410468   0.5605157  87.524     0.3503025  0.3400253  0.3605796 
938.4      -9999      637.271    -9999      -9999      6.476      3.308      6.600999   5.622      2.456      1.916      3.868      1.937      3.708      3.728      6.513      0.1853596  0.1853596  0.3063296  7.593936   4.508862   3.058      0.4255656  0.5752482  88.353     0.3665759  0.3507816  0.3823701 
938.6      -9999      632.14     -9999      -9999      6.387      3.308      6.327      5.86       2.355      1.705      4.077      1.909      3.72       3.711      6.811999   0.1853705  0.1853705  0.3071252  7.597494   4.842825   3.083      0.4277857  0.5776414  88.891     0.3689535  0.3406948  0.3972122 
938.8      -9999      625.465    -9999      -9999      6.199      3.452      6.424      6.542      2.265      1.53       4.278      1.863      3.738      3.723      6.653      0.1870183  0.1870183  0.3065636  8.150607   5.631821   3.116      0.435009   0.5809113  89.137     0.3622586  0.3203311  0.4041861 
939        -9999      618.31     -9999      -9999      5.952      3.761      6.545001   7.371      2.198      1.425      4.196      1.772      3.716      3.796      6.487      0.187713   0.187713   0.3031472  8.395724   6.867055   3.152      0.4398582  0.5811324  89.137     0.3498006  0.2954152  0.4041861 
939.2000000000001 -9999      609.956    -9999      -9999      5.705      3.614      6.048      7.681      2.133      1.349      4.046      1.789      3.822      3.985      6.811      0.1826592  0.1826592  0.294302   6.767827   8.37322    3.195      0.4300198  0.5718564  89.137     0.3383116  0.2724372  0.4041861 
939.4      -9999      600.956    -9999      -9999      5.461      3.401      5.887001   7.521      2.189      1.322      3.857      1.783      3.791      4.296      7.492      0.17156    0.17156    0.2797472  4.215665   10.18517   3.243      0.4022318  0.5507705  89.137     0.3278399  0.2514937  0.4041861 
939.6      -9999      590.248    -9999      -9999      5.319      3.183      5.78       7.333      2.351      1.483      3.982      1.975      3.959      4.694      8.687      0.1550801  0.1550801  0.2611208  2.087456   11.4151    3.302      0.3527702  0.51688    89.082     0.3213356  0.2400545  0.4026166 
939.8      -9999      580.604    -9999      -9999      5.28       3.029      5.753      7.446      2.953      1.678      5.243      2.412      4.314      5.127      10.545     0.1358105  0.1358105  0.2408564  0.9176958  11.77817   3.357      0.2790944  0.469732   88.977     0.3183208  0.2370049  0.3996367 
940        -9999      570.812    -9999      -9999      5.342      3.337      6.503      8.120999   3.687      1.871      6.349      2.423      4.664      5.559      11.863     0.1148179  0.1148179  0.2206388  0.3748562  11.20625   3.414      0.1721337  0.4076865  88.971     0.3206693  0.2418714  0.3994671 
940.2000000000001 -9999      564.069    -9999      -9999      5.404      4.148      7.74       9.176      4.295      2.03       6.663      2.365      4.643      5.965      12.05      0.09386434 0.09386434 0.201638   0.1533746  10.6621    3.455      0.01883165 0.3276395  89.212     0.3265868  0.2468378  0.4063358 
940.4      -9999      557.053    -9999      -9999      5.466      4.903      8.186      9.66       5.104      2.114      6.435      2.45       4.454      6.256      11.606     0.07799137 0.07799137 0.1880192  0.07793768 10.14436   3.499      0          0.2520402  89.508     0.3334177  0.2519062  0.4149291 
940.6      -9999      551.981    -9999      -9999      5.528      4.666999   7.962      9.589      6.116      2.102      6.977      2.614      4.398      6.432      11.295     0.06740998 0.06740998 0.1797824  0.04963115 9.651781   3.531      0          0.1923324  89.813     0.3405225  0.2570787  0.4239662 
940.8      -9999      547.618    -9999      -9999      5.566      4.998      8.925      9.575      7.131      2.006      6.988      2.439      4.105      6.518      10.678     0.06164836 0.06164836 0.1757576  0.03881819 9.361765   3.559      0          0.1574646  90.055     0.3457856  0.2603013  0.4312698 
941        -9999      545.241    -9999      -9999      5.503      5.607      10.879     9.659      7.643001   1.935      6.001      2.068      4.086      6.609      9.596999   0.05704788 0.05704788 0.1714988  0.03190238 9.847459   3.574      0          0.1223496  90.296     0.346821   0.2549804  0.4386615 
941.2000000000001 -9999      544.051    -9999      -9999      5.296      4.568      10.12      9.081      7.496      1.895      4.583      1.989      3.972      6.707      9.175      0.05452486 0.05452486 0.1669124  0.02864777 11.62784   3.582      0          0.09361806 90.432     0.3405683  0.2382513  0.4428854 
941.4      -9999      543.848    -9999      -9999      5.071      4.014      8.58       7.978      7.541      1.883      5.125      2.386      4.23       6.786      9.166001   0.05269611 0.05269611 0.1632152  0.02649829 13.92996   3.583      0          0.06949813 90.611     0.3349064  0.2213101  0.4485027 
