~Version
 VERS              .         2.0                           : CWLS LOG ASCII STANDARD - VERSION 2.0
 WRAP              .         NO                            : ONE LINE PER DEPTH STEP
 DLM               .         SPACE                         : DELIMITING CHARACTER(SPACE TAB OR COMMA)
~Well Information
#_______________________________________________________________________________
#
#PARAMETER_NAME    .UNIT     VALUE                         : DESCRIPTION
#_______________________________________________________________________________
STRT               .M        900                           : First reference value
STOP               .M        1192                          : Last reference value
STEP               .M        0.2                           : Step increment
NULL               .         -9999                         : Missing value
COMP               .         АО РД КМГ филиал "Инженерный  центр": Company
WELL               .         7908                          : Well name
FLD                .         Узень                         : Field
LOC                .                                       : Location
CNTY               .                                       : County
STAT               .                                       : State
CTRY               .         Казахстан                     : Country
SRVC               .                                       : Service Company
DATE               .         25.06.2010.                   : Date
UWI                .                                       : Unique Well ID
_скв_14_гор_       .         7                             : 
Block              .         7                             : 
Category           .         Нефтяная                      : 
Condition          .         В работе                      : 
Date               .         13.04.2003                    : 
EREF               .m        95.1                          : 100.8
Gorizont           .         14                            : 14
Interpretator      .         Бекбулатова А.А.              : 
Kupol              .         Основной                      : osnovnoi
Mud                .         0                             : 
Mud_density        .         0                             : 
Mud_resistivity    .         0                             : 
NGDU               .         НГДУ-2                        : 
ORIGINALWELLNAME   .         7908                          : 
Spud_date          .         2003                          : 1961
Viscosity          .         0                             : 
X                  .m        42252.8                       : 46154
Y                  .m        85000.93                      : 85761.93
YEAR               .         2019                          : 
Исправлено_14      .         +                             : 
Отбивки_горизонт_14 .         1                             : 
~Parameter Information Block
#_______________________________________________________________________________
#
#PARAMETER_NAME    .UNIT     VALUE                         : DESCRIPTION
#_______________________________________________________________________________
SET                .         LQC_KAZNIPI_Petrel            : 
TLFamily_CALI      .         Caliper                       : 
TLFamily_CILD      .         Conductivity                  : 
TLFamily_COLL      .         Net Reservoir Flag            : 
TLFamily_CSAT      .         Fluid Code                    : 
TLFamily_DEPT      .         Measured Depth                : 
TLFamily_GR        .         Russian Gamma Ray             : 
TLFamily_GZ1       .         Gradient 045                  : 
TLFamily_GZ2       .         Gradient 105                  : 
TLFamily_GZ3       .         Gradient 225                  : 
TLFamily_GZ4       .         Gradient 425                  : 
TLFamily_GZ5       .         Gradient 850                  : 
TLFamily_LLS       .         Lateral Log Resistivity       : 
TLFamily_MINV      .         Micro Gradient Resistivity    : 
TLFamily_MNOR      .         Micro Resistivity             : 
TLFamily_NGLD      .         Neutron Gamma                 : 
TLFamily_OGZ       .         Gradient Inverted 225         : 
TLFamily_PHIE      .         Effective Porosity            : 
TLFamily_PHIEN     .         Effective Porosity            : 
TLFamily_PHIT      .         Porosity                      : 
TLFamily_PRMB      .         Permeability                  : 
TLFamily_PRMB_DGR  .         Permeability                  : 
TLFamily_RT        .         Formation Resistivity         : 
TLFamily_SOIL_ARCHIE .         Oil Saturation                : 
TLFamily_SOIL_DW   .         Oil Saturation                : 
TLFamily_SP        .         Spontaneous Potential         : 
TLFamily_VSH_FIN   .         Shale Volume                  : 
TLFamily_VSH_GR    .         Shale Volume                  : 
TLFamily_VSH_SP    .         Shale Volume                  : 
~Curve Information
#_______________________________________________________________________________
#
#LOGNAME           .UNIT     LOG_ID                        : DESCRIPTION
#_______________________________________________________________________________
DEPT               .M                                      : Колонка глубины 
CALI               .м                                      : Каверномер 
CILD               .мСм/м                                  : Индукционный каротаж 
COLL               .unitless                               : Описание 
CSAT               .unitless                               : Описание 
GR                 .uR/h                                   : Гамма каротаж 
GZ1                .Ом·м                                   :  
GZ2                .Ом·м                                   :  
GZ3                .Ом·м                                   :  
GZ4                .Ом·м                                   :  
GZ5                .Ом·м                                   :  
LLS                .Ohmm                                   : Боковой каротаж 
MINV               .Ohmm                                   : Микро-градиент зонд 
MNOR               .Ohmm                                   : Микро-потенциал зонд 
NGLD               .у.е.                                   : Показания зонда НГК-60 аппаратуры ДРСТ-3-90 
OGZ                .Ом·м                                   :  
PHIE               .v/v                                    : Описание 
PHIEN              .v/v                                    :  
PHIT               .v/v                                    : Описание 
PRMB               .mD                                     :  
PRMB_DGR           .mD                                     :  
RT                 .ohmm                                   : УЭС пласта 
SOIL_ARCHIE        .v/v                                    :  
SOIL_DW            .v/v                                    :  
SP                 .мВ                                     : Потенциал самополяризации 
VSH_FIN            .v/v                                    : Описание 
VSH_GR             .v/v                                    : Shale volume 
VSH_SP             .v/v                                    : Shale Volume 
~Ascii
# ...
1014.4     -9999      884.554    -9999      -9999      5.585      3.029      5.276      4.625999   3.548      2.757      3.63       2.087      4.141      5.459      2.867      0.1183812  0.1183812  0.2253188  0.436381   9.220043   2.205      0.01032675 0.2809663  88.493     0.3240532  0.2619277  0.3861786 
1014.6     -9999      916.557    -9999      -9999      5.954      3.156      5.721      5.308001   3.911      2.932      4.099      2.205      4.328      5.35       2.774      0.1186873  0.1186873  0.23042    0.4421147  6.85604    2.128      0          0.2787582  88.323     0.3385839  0.2956089  0.381559  
1014.8     -9999      952.13     -9999      -9999      6.323      3.904      6.579      5.885      4.158      3.014      4.197      2.152      4.221      5.129      2.507      0.1216702  0.1216702  0.2407628  0.5020944  5.098161   2.049      0          0.2913572  88.565     0.3608866  0.3336211  0.3881522 
1015       -9999      985.719    -9999      -9999      6.692      4.302      7.014      6.107      4.234      3.005      3.653      1.803      3.915      4.808      2.282      0.1282169  0.1282169  0.2557856  0.6638129  3.791002   1.979      0.02872879 0.3191586  88.87      0.3865719  0.3765213  0.3966224 
1015.2     -9999      1022.084   -9999      -9999      7.061      4.415      7.118      5.938      3.97       2.814      2.778      1.354      2.898      4.46       2.01       0.1331252  0.1331252  0.272072   0.8183905  2.818995   1.908      0.04373839 0.3420456  89.584     0.4210508  0.4249381  0.4171634 
1015.4     -9999      1057.657   -9999      -9999      7.431      4.108      6.731      5.432      3.581      2.626      2.071      0.914      1.904      4.112      1.841      0.1363209  0.1363209  0.2883584  0.9378906  2.094526   1.844      0.04817439 0.3601939  90.394     0.4607196  0.479738   0.4417013 
1015.6     -9999      1093.626   -9999      -9999      7.8        2.744      5.414      4.798      3.224      2.496      1.701      0.667      0.963      3.619      1.882      0.1439084  0.1439084  0.3114308  1.296256   1.557493   1.783      0.07758755 0.3923257  91.394     0.5076436  0.5414273  0.47386   
1015.8     -9999      1124.042   -9999      -9999      8.116      2.246      4.453      4.232      3.08       2.34       1.656      0.606      0.972      3.205      1.98       0.1493118  0.1493118  0.330806   1.632205   1.208498   1.734      0.09497182 0.4147413  92.146     0.5499824  0.600524   0.4994408 
1016       -9999      1147.319   -9999      -9999      8.312      2.097      4.056      3.955      2.986      2.267      1.717      0.652      1.014      2.884      2.016      0.1538151  0.1538151  0.3458288  1.977822   1.032538   1.699      0.1096143  0.4313079  92.818     0.5818596  0.640377   0.5233423 
1016.2     -9999      1162.024   -9999      -9999      8.388      1.824      3.419      3.637      2.866      2.264      1.747      0.654      0.985      2.84       1.988      0.151297   0.151297   0.347888   1.776421   0.971421   1.677      0.09117988 0.4262003  93.134     0.5957302  0.6565322  0.5349282 
1016.4     -9999      1172.331   -9999      -9999      8.397      1.747      3          3.469      2.83       2.248      1.755      0.683      1.037      2.87       2.007      0.1490033  0.1490033  0.346484   1.61087    0.9644268  1.662      0.07511581 0.4188647  93.227     0.5984264  0.6584724  0.5383805 
1016.6     -9999      1179.743   -9999      -9999      8.406      1.868      2.634      3.396      2.827      2.233      1.764      0.713      1.217      2.957      2.024      0.1443462  0.1443462  0.3424124  1.320686   0.9574836  1.652      0.04648346 0.4058176  93.27      0.6002007  0.660418   0.5399833 
1016.8     -9999      1188.789   -9999      -9999      8.415      1.885      2.637      3.304      2.8        2.243      1.75       0.729      1.435      3.066      2.037      0.1379328  0.1379328  0.3373112  1.004635   0.9505903  1.639      0.004299064 0.3876418  93.43      0.6041769  0.6623693  0.5459845 
1017       -9999      1194.342   -9999      -9999      8.386      1.923      2.652      3.139      2.724      2.263      1.724      0.728      1.509      3.143      2.115      0.134395   0.134395   0.3337076  0.8639309  0.9729822  1.632      0          0.3762445  93.585     0.6039777  0.6561019  0.5518534 
1017.2     -9999      1195.69    -9999      -9999      8.308      1.883      2.562      2.932      2.67       2.291      1.726      0.766      1.566      3.176      2.235      0.1323139  0.1323139  0.3321632  0.7905555  1.035861   1.63       0          0.3704554  94.098     0.6056039  0.6395377  0.5716702 
1017.4     -9999      1192.517   -9999      -9999      8.18       1.785      2.46       2.84       2.719      2.312      1.758      0.863      1.73       3.168      2.42       0.1323666  0.1323666  0.3325376  0.792333   1.147971   1.634      0          0.3717683  94.803     0.6065789  0.6132568  0.5999012 
1017.6     -9999      1184.948   -9999      -9999      8.041      1.803      2.5        2.805      2.814      2.365      1.767      0.894      1.886      3.174      2.519      0.132922   0.132922   0.3322568  0.8113263  1.283501   1.645      0          0.3744871  95.339     0.6040449  0.5859389  0.6221509 
1017.8     -9999      1175.43    -9999      -9999      7.95       2.11       2.834      2.68       2.829      2.469      1.733      0.876      1.882      3.194      2.609      0.1327938  0.1327938  0.3313208  0.8069046  1.380783   1.658      0          0.3756055  95.629     0.6015968  0.568717   0.6344767 
1018       -9999      1165.167   -9999      -9999      7.909      2.015      2.635      2.576      2.769      2.544      1.776      0.881      1.781      3.192      2.788      0.1374539  0.1374539  0.3314144  0.9843251  1.42699    1.673      0.01085497 0.3863022  95.154     0.587759   0.5611241  0.6143939 
1018.2     -9999      1155.375   -9999      -9999      7.905      2.024      2.49       2.605      2.839      2.523      1.882      1.014      1.829      3.17       3.004      0.1441098  0.1441098  0.332444   1.307437   1.43158    1.687      0.05446947 0.4006009  94.335     0.5707098  0.5603888  0.5810307 
1018.4     -9999      1143.607   -9999      -9999      7.892      2.445      2.755      2.675      2.85       2.5        1.861      0.985      1.736      3.178      2.994      0.1502403  0.1502403  0.3320696  1.698137   1.4466     1.704      0.09244276 0.4123847  93.377     0.5509979  0.5580056  0.5439902 
1018.6     -9999      1126.504   -9999      -9999      7.875      2.134      3.168      2.543      2.735      2.455      1.762      0.883      1.643      3.247      2.97       0.1510434  0.1510434  0.3288404  1.757313   1.466478   1.73       0.1030438  0.4144246  92.799     0.5387787  0.5549045  0.5226529 
1018.8     -9999      1106.186   -9999      -9999      7.915      1.993      2.443      2.295      2.435      2.364      1.699      0.763      1.498      3.349      3.107      0.1470749  0.1470749  0.3240668  1.483684   1.420133   1.762      0.0898621  0.4085555  92.459     0.5363392  0.5622289  0.5104496 
1019       -9999      1083.702   -9999      -9999      8.012      1.717      2.373      2.173      2.324      2.26       1.851      0.829      1.581      3.42       3.376      0.1416935  0.1416935  0.320744   1.17941    1.313735   1.799      0.06895327 0.402606   92.298     0.5425773  0.5803947  0.5047599 
1019.2     -9999      1060.994   -9999      -9999      8.114      1.945      2.607      2.138      2.303      2.214      1.994      0.901      1.736      3.461      3.435      0.13485    0.13485    0.3188252  0.8808622  1.21044    1.837      0.03742203 0.395585   92.583     0.5575005  0.6001304  0.5148705 
1019.4     -9999      1035.947   -9999      -9999      8.117      2.12       2.621      2.135      2.257      2.183      2.057      0.945      1.764      3.518      3.446      0.1297783  0.1297783  0.3161576  0.7095237  1.207528   1.882      0.01597926 0.3911579  92.969     0.5647858  0.6007208  0.5288507 
