~Version
 VERS              .         2.0                           : CWLS LOG ASCII STANDARD - VERSION 2.0
 WRAP              .         NO                            : ONE LINE PER DEPTH STEP
 DLM               .         SPACE                         : DELIMITING CHARACTER(SPACE TAB OR COMMA)
~Well Information
#_______________________________________________________________________________
#
#PARAMETER_NAME    .UNIT     VALUE                         : DESCRIPTION
#_______________________________________________________________________________
STRT               .M        900                           : First reference value
STOP               .M        1192                          : Last reference value
STEP               .M        0.2                           : Step increment
NULL               .         -9999                         : Missing value
COMP               .         АО РД КМГ филиал "Инженерный  центр": Company
WELL               .         7908                          : Well name
FLD                .         Узень                         : Field
LOC                .                                       : Location
CNTY               .                                       : County
STAT               .                                       : State
CTRY               .         Казахстан                     : Country
SRVC               .                                       : Service Company
DATE               .         25.06.2010.                   : Date
UWI                .                                       : Unique Well ID
_скв_14_гор_       .         7                             : 
Block              .         7                             : 
Category           .         Нефтяная                      : 
Condition          .         В работе                      : 
Date               .         13.04.2003                    : 
EREF               .m        95.1                          : 100.8
Gorizont           .         14                            : 14
Interpretator      .         Бекбулатова А.А.              : 
Kupol              .         Основной                      : osnovnoi
Mud                .         0                             : 
Mud_density        .         0                             : 
Mud_resistivity    .         0                             : 
NGDU               .         НГДУ-2                        : 
ORIGINALWELLNAME   .         7908                          : 
Spud_date          .         2003                          : 1961
Viscosity          .         0                             : 
X                  .m        42252.8                       : 46154
Y                  .m        85000.93                      : 85761.93
YEAR               .         2019                          : 
Исправлено_14      .         +                             : 
Отбивки_горизонт_14 .         1                             : 
~Parameter Information Block
#_______________________________________________________________________________
#
#PARAMETER_NAME    .UNIT     VALUE                         : DESCRIPTION
#_______________________________________________________________________________
SET                .         LQC_KAZNIPI_Petrel            : 
TLFamily_CALI      .         Caliper                       : 
TLFamily_CILD      .         Conductivity                  : 
TLFamily_COLL      .         Net Reservoir Flag            : 
TLFamily_CSAT      .         Fluid Code                    : 
TLFamily_DEPT      .         Measured Depth                : 
TLFamily_GR        .         Russian Gamma Ray             : 
TLFamily_GZ1       .         Gradient 045                  : 
TLFamily_GZ2       .         Gradient 105                  : 
TLFamily_GZ3       .         Gradient 225                  : 
TLFamily_GZ4       .         Gradient 425                  : 
TLFamily_GZ5       .         Gradient 850                  : 
TLFamily_LLS       .         Lateral Log Resistivity       : 
TLFamily_MINV      .         Micro Gradient Resistivity    : 
TLFamily_MNOR      .         Micro Resistivity             : 
TLFamily_NGLD      .         Neutron Gamma                 : 
TLFamily_OGZ       .         Gradient Inverted 225         : 
TLFamily_PHIE      .         Effective Porosity            : 
TLFamily_PHIEN     .         Effective Porosity            : 
TLFamily_PHIT      .         Porosity                      : 
TLFamily_PRMB      .         Permeability                  : 
TLFamily_PRMB_DGR  .         Permeability                  : 
TLFamily_RT        .         Formation Resistivity         : 
TLFamily_SOIL_ARCHIE .         Oil Saturation                : 
TLFamily_SOIL_DW   .         Oil Saturation                : 
TLFamily_SP        .         Spontaneous Potential         : 
TLFamily_VSH_FIN   .         Shale Volume                  : 
TLFamily_VSH_GR    .         Shale Volume                  : 
TLFamily_VSH_SP    .         Shale Volume                  : 
~Curve Information
#_______________________________________________________________________________
#
#LOGNAME           .UNIT     LOG_ID                        : DESCRIPTION
#_______________________________________________________________________________
DEPT               .M                                      : Колонка глубины 
CALI               .м                                      : Каверномер 
CILD               .мСм/м                                  : Индукционный каротаж 
COLL               .unitless                               : Описание 
CSAT               .unitless                               : Описание 
GR                 .uR/h                                   : Гамма каротаж 
GZ1                .Ом·м                                   :  
GZ2                .Ом·м                                   :  
GZ3                .Ом·м                                   :  
GZ4                .Ом·м                                   :  
GZ5                .Ом·м                                   :  
LLS                .Ohmm                                   : Боковой каротаж 
MINV               .Ohmm                                   : Микро-градиент зонд 
MNOR               .Ohmm                                   : Микро-потенциал зонд 
NGLD               .у.е.                                   : Показания зонда НГК-60 аппаратуры ДРСТ-3-90 
OGZ                .Ом·м                                   :  
PHIE               .v/v                                    : Описание 
PHIEN              .v/v                                    :  
PHIT               .v/v                                    : Описание 
PRMB               .mD                                     :  
PRMB_DGR           .mD                                     :  
RT                 .ohmm                                   : УЭС пласта 
SOIL_ARCHIE        .v/v                                    :  
SOIL_DW            .v/v                                    :  
SP                 .мВ                                     : Потенциал самополяризации 
VSH_FIN            .v/v                                    : Описание 
VSH_GR             .v/v                                    : Shale volume 
VSH_SP             .v/v                                    : Shale Volume 
~Ascii
# ...
1149.6     0.217      842.702    1          2          8.152      3.671      6.005      5.041      2.855      1.87       2.97       1.489      2.689      2.916      4.148      0.3047482  0.3047482  0.3443312  1235.477   100.1565   2.312      0.5752134  0.6287817  70.084     0.1199484  0.09889403 0.1410028 
1149.8     0.216      844.289    1          2          8.316      3.695      5.741      5.033999   2.897      1.948      2.988      1.506      2.737      2.911      4.216001   0.3036676  0.3036676  0.3445652  1179.827   80.05972   2.308      0.5735507  0.6280406  69.77      0.1239322  0.1083644  0.1395    
1150       0.216      843.892    1          2          8.487      3.69       5.478001   5.012      2.945      2.074      3.028      1.448      2.526      2.879      4.288      0.3036004  0.3036004  0.3460628  1176.453   63.3865    2.309      0.5735552  0.6290092  69.473     0.1286739  0.1192062  0.1381416 
1150.2     0.215      842.306    1          2          8.53       3.717      5.553      4.99       2.997      2.196      3.056      1.417      2.438      2.823      4.34       0.3061273  0.3061273  0.3486836  1310.32    59.77157   2.314      0.5770521  0.6323124  68.932     0.1289587  0.122099   0.1358183 
1150.4     0.215      839.133    1          2          8.484      3.847      5.626      4.963      3.077      2.308      3.072      1.402      2.367      2.738      4.371      0.3107493  0.3107493  0.3526616  1595.838   63.64675   2.322      0.583212   0.6376505  68.732     0.127007   0.1190069  0.1350071 
1150.6     0.216      835.442    1          2          8.419      3.786      5.593      4.914      3.153      2.41       3.113      1.452      2.526      2.67       4.43       0.3144873  0.3144873  0.355844   1871.656   69.55476   2.333      0.5884438  0.6421935  68.946     0.1253233  0.1147706  0.1358761 
1150.8     0.217      831.556    1          2          8.363      3.876      5.684      4.865      3.269      2.514      3.206      1.514      2.719      2.625      4.512      0.3170308  0.3170308  0.35795    2086.116   75.0826    2.343      0.5921405  0.6453852  69.155     0.1239974  0.111242   0.1367528 
1151       0.218      828.741    1          2          8.336      3.841      5.827001   4.815001   3.433      2.612      3.272      1.561      2.857      2.614      4.578001   0.317898   0.317898   0.3584648  2164.713   77.90263   2.351      0.59376    0.646693   69.043     0.1229296  0.1095798  0.1362795 
1151.2     0.219      825.691    1          2          8.269      3.963      6.103      4.798      3.516      2.689      3.221      1.581      2.922      2.64       4.6        0.3175483  0.3175483  0.357248   2132.667   85.36678   2.36       0.5940988  0.6465139  68.741     0.1203021  0.1055612  0.135043  
1151.4     0.219      822.084    1          2          8.155      4.024      6.189      4.763      3.582      2.751      3.149      1.529      2.802      2.692      4.646      0.3163129  0.3163129  0.3548144  2023.211   99.74714   2.371      0.5936062  0.6453619  68.548     0.1166711  0.09905957 0.1342826 
1151.6     0.22       817.844    1          2          8.034      3.937      5.996      4.695      3.6        2.803      3.14       1.521      2.682      2.774      4.699      0.313633   0.313633   0.3509768  1804.685   117.6693   2.383      0.5915522  0.6427499  68.404     0.1131631  0.09259625 0.13373   
1151.8     0.22       814.148    1          2          7.966      3.951      6.041      4.647      3.607      2.834      3.166      1.483      2.589      2.845      4.726      0.311017   0.311017   0.347654   1614.166   129.1198   2.394      0.58945    0.64034    68.179     0.1110211  0.08915083 0.1328913 
1152       0.221      808.552    1          2          7.958      3.869      6.068      4.641      3.651      2.854      3.197      1.463      2.535      2.886      4.799      0.309245   0.309245   0.3457352  1496.67    130.5381   2.41       0.5886895  0.6395187  68.043     0.1105764  0.08875402 0.1323987 
1152.2     0.221      802.916    1          2          7.966      3.938      6.093      4.665      3.683      2.846      3.198      1.443      2.566      2.883      4.849      0.3093317  0.3093317  0.3458756  1502.216   129.1198   2.427      0.5901441  0.64091    68.023     0.110739   0.08915083 0.1323272 
1152.4     0.222      798.133    1          2          7.975      3.91       6.043      4.669      3.672      2.835      3.211      1.443      2.569      2.844      4.867      0.3110253  0.3110253  0.3477008  1614.734   127.5426   2.442      0.5932662  0.6439237  68.12      0.1111378  0.08959936 0.1326763 
1152.6     0.222      796.15     1          2          7.981      3.919      6.032      4.647999   3.631      2.823      3.219      1.461      2.597      2.788      4.881      0.3135008  0.3135008  0.3503216  1794.541   126.5018   2.448      0.5965297  0.6470841  68.278     0.1115782  0.08989965 0.1332567 
1152.8     0.222      794.563    1          2          8.014      3.839      6.038      4.606999   3.579      2.835      3.238      1.467      2.579      2.712      4.931001   0.3167002  0.3167002  0.3538784  2056.909   120.9275   2.453      0.6004648  0.6509953  68.41      0.1126611  0.09156927 0.1337528 
1153       0.222      791.564    1          2          8.064      3.83       6.055      4.619      3.542      2.836      3.278      1.48       2.624      2.627      5.018      0.3202145  0.3202145  0.3578564  2389.507   112.946    2.462      0.604966   0.6554852  68.468     0.1140662  0.0941583  0.1339741 
1153.2     0.222      789.581    1          2          8.108      3.961      6.209      4.675      3.487      2.836      3.306      1.48       2.63       2.567      5.17       0.32261    0.32261    0.3606644  2646.539   106.3593   2.468      0.60797    0.6585302  68.51      0.1153163  0.09649709 0.1341356 
1153.4     0.222      786.068    1          2          8.117      3.949      6.183      4.739      3.437      2.846      3.342      1.484      2.603      2.561      5.327      0.3226991  0.3226991  0.3609452  2656.61    105.0601   2.479      0.6088813  0.6594805  68.683     0.1158974  0.09698258 0.1348121 
1153.6     0.222      781.778    1          2          8.082      3.844      6.177001   4.769      3.396      2.84       3.341      1.495      2.578      2.591      5.495999   0.3214049  0.3214049  0.3595412  2513.95    110.2035   2.493      0.6085458  0.6590943  68.981     0.1155645  0.09510814 0.136021  
1153.8     0.222      773.984    1          2          8.02       3.917      6.217      4.778      3.351      2.823      3.343      1.485      2.541      2.632      5.696      0.3197984  0.3197984  0.3576224  2347.469   119.9406   2.518      0.6086704  0.6590205  69.296     0.1146183  0.09187619 0.1373603 
1154       0.221      765.381    1          2          7.949      3.87       6.153999   4.803      3.309      2.843      3.339      1.474      2.666      2.658      5.983      0.3191937  0.3191937  0.3564056  2287.703   132.1525   2.546      0.6100536  0.6599636  69.263     0.1127634  0.08830969 0.137217  
1154.2     0.221      754.399    1          2          7.946      3.851      6.186      4.813001   3.296      2.874      3.34       1.476      2.758      2.682      6.221      0.3181184  0.3181184  0.3552824  2185.156   132.695    2.584      0.6116154  0.6613745  69.23      0.1126182  0.08816209 0.1370744 
1154.4     0.221      742.227    1          2          7.999      4.042      6.256      4.83       3.279      2.894      3.355      1.48       2.787      2.734      6.393      0.3155518  0.3155518  0.3528488  1958.589   123.4301   2.626      0.6118137  0.6615989  68.789     0.1130211  0.09080655 0.1352357 
1154.6     0.222      726.486    1          2          8.093      3.936      6.289      4.878      3.285      2.933      3.308      1.455      2.682      2.783      6.404      0.3128991  0.3128991  0.3505556  1749.072   108.5603   2.683      0.6128697  0.6627455  68.079     0.1141107  0.09569335 0.1325281 
