~Version
 VERS              .         2.0                           : CWLS LOG ASCII STANDARD - VERSION 2.0
 WRAP              .         NO                            : ONE LINE PER DEPTH STEP
 DLM               .         SPACE                         : DELIMITING CHARACTER(SPACE TAB OR COMMA)
~Well Information
#_______________________________________________________________________________
#
#PARAMETER_NAME    .UNIT     VALUE                         : DESCRIPTION
#_______________________________________________________________________________
STRT               .M        900                           : First reference value
STOP               .M        1192                          : Last reference value
STEP               .M        0.2                           : Step increment
NULL               .         -9999                         : Missing value
COMP               .         АО РД КМГ филиал "Инженерный  центр": Company
WELL               .         7908                          : Well name
FLD                .         Узень                         : Field
LOC                .                                       : Location
CNTY               .                                       : County
STAT               .                                       : State
CTRY               .         Казахстан                     : Country
SRVC               .                                       : Service Company
DATE               .         25.06.2010.                   : Date
UWI                .                                       : Unique Well ID
_скв_14_гор_       .         7                             : 
Block              .         7                             : 
Category           .         Нефтяная                      : 
Condition          .         В работе                      : 
Date               .         13.04.2003                    : 
EREF               .m        95.1                          : 100.8
Gorizont           .         14                            : 14
Interpretator      .         Бекбулатова А.А.              : 
Kupol              .         Основной                      : osnovnoi
Mud                .         0                             : 
Mud_density        .         0                             : 
Mud_resistivity    .         0                             : 
NGDU               .         НГДУ-2                        : 
ORIGINALWELLNAME   .         7908                          : 
Spud_date          .         2003                          : 1961
Viscosity          .         0                             : 
X                  .m        42252.8                       : 46154
Y                  .m        85000.93                      : 85761.93
YEAR               .         2019                          : 
Исправлено_14      .         +                             : 
Отбивки_горизонт_14 .         1                             : 
~Parameter Information Block
#_______________________________________________________________________________
#
#PARAMETER_NAME    .UNIT     VALUE                         : DESCRIPTION
#_______________________________________________________________________________
SET                .         LQC_KAZNIPI_Petrel            : 
TLFamily_CALI      .         Caliper                       : 
TLFamily_CILD      .         Conductivity                  : 
TLFamily_COLL      .         Net Reservoir Flag            : 
TLFamily_CSAT      .         Fluid Code                    : 
TLFamily_DEPT      .         Measured Depth                : 
TLFamily_GR        .         Russian Gamma Ray             : 
TLFamily_GZ1       .         Gradient 045                  : 
TLFamily_GZ2       .         Gradient 105                  : 
TLFamily_GZ3       .         Gradient 225                  : 
TLFamily_GZ4       .         Gradient 425                  : 
TLFamily_GZ5       .         Gradient 850                  : 
TLFamily_LLS       .         Lateral Log Resistivity       : 
TLFamily_MINV      .         Micro Gradient Resistivity    : 
TLFamily_MNOR      .         Micro Resistivity             : 
TLFamily_NGLD      .         Neutron Gamma                 : 
TLFamily_OGZ       .         Gradient Inverted 225         : 
TLFamily_PHIE      .         Effective Porosity            : 
TLFamily_PHIEN     .         Effective Porosity            : 
TLFamily_PHIT      .         Porosity                      : 
TLFamily_PRMB      .         Permeability                  : 
TLFamily_PRMB_DGR  .         Permeability                  : 
TLFamily_RT        .         Formation Resistivity         : 
TLFamily_SOIL_ARCHIE .         Oil Saturation                : 
TLFamily_SOIL_DW   .         Oil Saturation                : 
TLFamily_SP        .         Spontaneous Potential         : 
TLFamily_VSH_FIN   .         Shale Volume                  : 
TLFamily_VSH_GR    .         Shale Volume                  : 
TLFamily_VSH_SP    .         Shale Volume                  : 
~Curve Information
#_______________________________________________________________________________
#
#LOGNAME           .UNIT     LOG_ID                        : DESCRIPTION
#_______________________________________________________________________________
DEPT               .M                                      : Колонка глубины 
CALI               .м                                      : Каверномер 
CILD               .мСм/м                                  : Индукционный каротаж 
COLL               .unitless                               : Описание 
CSAT               .unitless                               : Описание 
GR                 .uR/h                                   : Гамма каротаж 
GZ1                .Ом·м                                   :  
GZ2                .Ом·м                                   :  
GZ3                .Ом·м                                   :  
GZ4                .Ом·м                                   :  
GZ5                .Ом·м                                   :  
LLS                .Ohmm                                   : Боковой каротаж 
MINV               .Ohmm                                   : Микро-градиент зонд 
MNOR               .Ohmm                                   : Микро-потенциал зонд 
NGLD               .у.е.                                   : Показания зонда НГК-60 аппаратуры ДРСТ-3-90 
OGZ                .Ом·м                                   :  
PHIE               .v/v                                    : Описание 
PHIEN              .v/v                                    :  
PHIT               .v/v                                    : Описание 
PRMB               .mD                                     :  
PRMB_DGR           .mD                                     :  
RT                 .ohmm                                   : УЭС пласта 
SOIL_ARCHIE        .v/v                                    :  
SOIL_DW            .v/v                                    :  
SP                 .мВ                                     : Потенциал самополяризации 
VSH_FIN            .v/v                                    : Описание 
VSH_GR             .v/v                                    : Shale volume 
VSH_SP             .v/v                                    : Shale Volume 
~Ascii
# ...
957.2000000000001 -9999      799.846    -9999      -9999      5.966      2.951      5.722      4.953      4.034      3.96       2.491      1.48       3.066      3.764      3.786      0.1767362  0.1767362  0.3046448  5.257031   6.790304   2.437      0.3339283  0.5134626  91.531     0.3876019  0.2967741  0.4784298 
957.4      -9999      805.984    -9999      -9999      5.975      2.582      5.061999   5.048      4.148      3.955      2.805      1.649      3.341      3.629      4.145      0.1848497  0.1848497  0.3109628  7.430592   6.741417   2.418      0.3571076  0.5260959  91.176     0.3821608  0.297651   0.4666707 
957.6      -9999      808.593    -9999      -9999      5.966      2.505      4.801      5.256001   4.396      4.03       3.011      1.711      3.636      3.587      4.227      0.1895871  0.1895871  0.3129284  9.094327   6.790304   2.41       0.370143   0.5318618  90.682     0.3737616  0.2967741  0.4507491 
957.8      -9999      808.591    -9999      -9999      5.934      3.1        5.229      5.335      4.508      4.122      3.087      1.619      3.607      3.586      4.101      0.1915967  0.1915967  0.3129752  9.908166   6.967014   2.41       0.3759007  0.5338786  90.402     0.3678137  0.2936771  0.4419504 
958        -9999      807.797    -9999      -9999      5.947      3.114      4.871      5.33       4.459      4.152      2.989      1.568      3.441      3.595      3.946      0.1917353  0.1917353  0.312554   9.966926   6.894677   2.412      0.3765365  0.5338315  90.252     0.3661172  0.2949313  0.4373032 
958.2000000000001 -9999      807.797    -9999      -9999      6.066      2.992      4.507      5.401999   4.464      4.09       2.966      1.586      3.29       3.573      3.814      0.1904465  0.1904465  0.3135836  9.433849   6.266457   2.412      0.3728634  0.5334883  90.327     0.3731428  0.3066644  0.4396212 
958.4      -9999      807.8      -9999      -9999      6.333      3.181      4.905      5.423      4.443      3.99       2.926      1.548      3.325      3.538      3.655      0.1861881  0.1861881  0.3152216  7.867072   5.057394   2.412      0.3603891  0.5307235  90.573     0.3910106  0.3347166  0.4473046 
958.6      -9999      808.99     -9999      -9999      6.6        3.17       4.948      5.215      4.318      3.943      2.736      1.426      3.358      3.512      3.611      0.1809376  0.1809376  0.3164384  6.288704   4.081612   2.409      0.3438707  0.5261678  90.843     0.4106085  0.3653349  0.4558821 
958.8      -9999      811.167    -9999      -9999      6.789      3.255      5.15       4.91       4.129      3.902      2.527      1.378      3.32       3.571      3.779      0.1721207  0.1721207  0.3136772  4.317681   3.506976   2.402      0.3137562  0.5134655  91.254     0.4289591  0.3886869  0.4692313 
959        -9999      814.737    -9999      -9999      6.812      2.916      4.907      4.6        4.046      3.917      2.61       1.459      3.49       3.685      4.025      0.1643001  0.1643001  0.308342   3.093104   3.442813   2.392      0.2839922  0.4982871  91.618     0.4364906  0.3916287  0.4813525 
959.2000000000001 -9999      818.815    -9999      -9999      6.766      2.669      4.406      4.408      4.116      3.96       2.855      1.6        3.68       3.831      4.118      0.1568415  0.1568415  0.3015092  2.250311   3.572337   2.38       0.2526641  0.4807922  91.902     0.438387   0.3857672  0.4910069 
959.4      -9999      822.119    -9999      -9999      6.669      2.728      4.513      4.437      4.258      4.018      3.115      1.711      3.863      3.938      3.996      0.1525666  0.1525666  0.2965016  1.875262   3.861653   2.37       0.2329448  0.4686747  92.123     0.4361666  0.373693   0.4986402 
959.6      -9999      825.292    -9999      -9999      6.502      2.959      4.67       4.569      4.31       4.118      3.2        1.698      3.768      4.035      3.839      0.1491522  0.1491522  0.291962   1.621133   4.415719   2.361      0.2162757  0.4578781  92.495     0.432757   0.3537843  0.5117297 
959.8      -9999      829.543    -9999      -9999      6.359      3.173      4.689      4.782      4.316      4.171      3.156      1.652      3.718      4.092      3.771      0.1473258  0.1473258  0.2892944  1.499646   4.952922   2.349      0.2059237  0.4508175  92.804     0.430208   0.3375818  0.5228341 
960        -9999      834.321    -9999      -9999      6.316      3.34       4.917      4.928      4.364      4.176      3.101      1.584      3.743      4.103      3.623      0.1463921  0.1463921  0.2887796  1.441105   5.126894   2.336      0.1994326  0.447335   93.003     0.4314772  0.3328564  0.5300979 
960.2000000000001 -9999      841.857    -9999      -9999      6.453      3.524      5.407      4.88       4.317      4.092999   2.906      1.517      3.741      4.058      3.482      0.1467118  0.1467118  0.2908856  1.460885   4.592893   2.315      0.1975586  0.4477722  92.881     0.4368904  0.3481466  0.5256341 
960.4      -9999      848.6      -9999      -9999      6.681      3.281      5.456      4.687      4.148      3.965      2.735      1.465      3.414      3.99       3.305      0.1466077  0.1466077  0.294068   1.454418   3.824629   2.297      0.1941162  0.4491623  92.685     0.4468493  0.3751661  0.5185325 
960.6      -9999      854.822    -9999      -9999      6.921      3.088      5.153999   4.42       3.938      3.842      2.518      1.272      2.882      3.906      3.199      0.1481206  0.1481206  0.2979992  1.551355   3.154337   2.28       0.1985008  0.4537746  92.233     0.4541776  0.4058759  0.5024792 
960.8      -9999      860.159    -9999      -9999      7.161      3.09       5.12       4.187      3.735      3.759      2.407      1.159      2.57       3.822      3.245      0.1496211  0.1496211  0.3019304  1.653881   2.60152    2.266      0.2032064  0.4585954  91.696     0.4615432  0.4390996  0.4839869 
961        -9999      866.248    -9999      -9999      7.4        2.756      4.451      4.031001   3.562      3.762      2.356      1.119      2.672      3.737      3.48       0.1506432  0.1506432  0.3059084  1.727569   2.14731    2.25       0.2052786  0.4624466  91.159     0.4705006  0.4748873  0.4661141 
961.2000000000001 -9999      872.372    -9999      -9999      7.569      2.455      4.182      4.136      3.587      3.806      2.496      1.319      2.981      3.667      3.69       0.1495094  0.1495094  0.3091844  1.64602    1.874862   2.234      0.1973488  0.4625141  91.149     0.4838636  0.5019398  0.4657872 
961.4      -9999      876.893    -9999      -9999      7.635      2.566      4.317      4.342      3.628      3.844      2.653      1.392      2.823      3.615      3.697      0.1458514  0.1458514  0.311618   1.408249   1.778103   2.222      0.1777682  0.4586081  91.923     0.5023231  0.5129186  0.4917276 
961.6      -9999      877.943    -9999      -9999      7.585      2.82       4.425      4.397999   3.571      3.862      2.596      1.31       2.34       3.564      3.598      0.1427971  0.1427971  0.3140048  1.23625    1.850931   2.22       0.162118   0.4566139  93.083     0.5188113  0.5045796  0.5330431 
961.8      -9999      876.778    -9999      -9999      7.512      2.898      4.19       4.268      3.453      3.836      2.437      1.124      1.873      3.501      3.623      0.1403396  0.1403396  0.3169532  1.113239   1.962652   2.223      0.1498927  0.4566255  94.252     0.5351927  0.4926476  0.5777376 
962        -9999      873.266    -9999      -9999      7.523      2.822      4.001999   4.165      3.455      3.794      2.438      1.158      2.165      3.422      3.689      0.1389886  0.1389886  0.3206504  1.050905   1.945397   2.232      0.1443238  0.4597142  94.965     0.5504904  0.4944273  0.6065535 
962.2000000000001 -9999      870.49     -9999      -9999      7.653      2.636      3.852      4.2        3.526      3.818      2.627      1.296      2.712      3.343      3.627      0.1352738  0.1352738  0.3243476  0.8969251  1.752592   2.239      0.1251805  0.4590605  95.523     0.5729511  0.5159542  0.629948  
