~Version
 VERS              .         2.0                           : CWLS LOG ASCII STANDARD - VERSION 2.0
 WRAP              .         NO                            : ONE LINE PER DEPTH STEP
 DLM               .         SPACE                         : DELIMITING CHARACTER(SPACE TAB OR COMMA)
~Well Information
#_______________________________________________________________________________
#
#PARAMETER_NAME    .UNIT     VALUE                         : DESCRIPTION
#_______________________________________________________________________________
STRT               .M        900                           : First reference value
STOP               .M        1192                          : Last reference value
STEP               .M        0.2                           : Step increment
NULL               .         -9999                         : Missing value
COMP               .         АО РД КМГ филиал "Инженерный  центр": Company
WELL               .         7908                          : Well name
FLD                .         Узень                         : Field
LOC                .                                       : Location
CNTY               .                                       : County
STAT               .                                       : State
CTRY               .         Казахстан                     : Country
SRVC               .                                       : Service Company
DATE               .         25.06.2010.                   : Date
UWI                .                                       : Unique Well ID
_скв_14_гор_       .         7                             : 
Block              .         7                             : 
Category           .         Нефтяная                      : 
Condition          .         В работе                      : 
Date               .         13.04.2003                    : 
EREF               .m        95.1                          : 100.8
Gorizont           .         14                            : 14
Interpretator      .         Бекбулатова А.А.              : 
Kupol              .         Основной                      : osnovnoi
Mud                .         0                             : 
Mud_density        .         0                             : 
Mud_resistivity    .         0                             : 
NGDU               .         НГДУ-2                        : 
ORIGINALWELLNAME   .         7908                          : 
Spud_date          .         2003                          : 1961
Viscosity          .         0                             : 
X                  .m        42252.8                       : 46154
Y                  .m        85000.93                      : 85761.93
YEAR               .         2019                          : 
Исправлено_14      .         +                             : 
Отбивки_горизонт_14 .         1                             : 
~Parameter Information Block
#_______________________________________________________________________________
#
#PARAMETER_NAME    .UNIT     VALUE                         : DESCRIPTION
#_______________________________________________________________________________
SET                .         LQC_KAZNIPI_Petrel            : 
TLFamily_CALI      .         Caliper                       : 
TLFamily_CILD      .         Conductivity                  : 
TLFamily_COLL      .         Net Reservoir Flag            : 
TLFamily_CSAT      .         Fluid Code                    : 
TLFamily_DEPT      .         Measured Depth                : 
TLFamily_GR        .         Russian Gamma Ray             : 
TLFamily_GZ1       .         Gradient 045                  : 
TLFamily_GZ2       .         Gradient 105                  : 
TLFamily_GZ3       .         Gradient 225                  : 
TLFamily_GZ4       .         Gradient 425                  : 
TLFamily_GZ5       .         Gradient 850                  : 
TLFamily_LLS       .         Lateral Log Resistivity       : 
TLFamily_MINV      .         Micro Gradient Resistivity    : 
TLFamily_MNOR      .         Micro Resistivity             : 
TLFamily_NGLD      .         Neutron Gamma                 : 
TLFamily_OGZ       .         Gradient Inverted 225         : 
TLFamily_PHIE      .         Effective Porosity            : 
TLFamily_PHIEN     .         Effective Porosity            : 
TLFamily_PHIT      .         Porosity                      : 
TLFamily_PRMB      .         Permeability                  : 
TLFamily_PRMB_DGR  .         Permeability                  : 
TLFamily_RT        .         Formation Resistivity         : 
TLFamily_SOIL_ARCHIE .         Oil Saturation                : 
TLFamily_SOIL_DW   .         Oil Saturation                : 
TLFamily_SP        .         Spontaneous Potential         : 
TLFamily_VSH_FIN   .         Shale Volume                  : 
TLFamily_VSH_GR    .         Shale Volume                  : 
TLFamily_VSH_SP    .         Shale Volume                  : 
~Curve Information
#_______________________________________________________________________________
#
#LOGNAME           .UNIT     LOG_ID                        : DESCRIPTION
#_______________________________________________________________________________
DEPT               .M                                      : Колонка глубины 
CALI               .м                                      : Каверномер 
CILD               .мСм/м                                  : Индукционный каротаж 
COLL               .unitless                               : Описание 
CSAT               .unitless                               : Описание 
GR                 .uR/h                                   : Гамма каротаж 
GZ1                .Ом·м                                   :  
GZ2                .Ом·м                                   :  
GZ3                .Ом·м                                   :  
GZ4                .Ом·м                                   :  
GZ5                .Ом·м                                   :  
LLS                .Ohmm                                   : Боковой каротаж 
MINV               .Ohmm                                   : Микро-градиент зонд 
MNOR               .Ohmm                                   : Микро-потенциал зонд 
NGLD               .у.е.                                   : Показания зонда НГК-60 аппаратуры ДРСТ-3-90 
OGZ                .Ом·м                                   :  
PHIE               .v/v                                    : Описание 
PHIEN              .v/v                                    :  
PHIT               .v/v                                    : Описание 
PRMB               .mD                                     :  
PRMB_DGR           .mD                                     :  
RT                 .ohmm                                   : УЭС пласта 
SOIL_ARCHIE        .v/v                                    :  
SOIL_DW            .v/v                                    :  
SP                 .мВ                                     : Потенциал самополяризации 
VSH_FIN            .v/v                                    : Описание 
VSH_GR             .v/v                                    : Shale volume 
VSH_SP             .v/v                                    : Shale Volume 
~Ascii
# ...
1092.4     0.239      984.331    -9999      -9999      10.348     2.513      3.698      2.727      2.499      2.028      2.228      1.285      3.651      2.746      3.435      0.1857374  0.1857374  0.3522872  7.717289   2.083616   1.98       0.29684    0.5153462  92.721     0.5046964  0.4807621  0.5286308 
1092.6     0.239      965.968    -9999      -9999      10.285     2.506      3.391      2.593      2.303      2.075      2.229      1.219      3.344      2.745      3.295      0.1876611  0.1876611  0.352334   8.377155   2.192673   2.018      0.3093111  0.5218923  92.681     0.4990089  0.4708506  0.5271671 
1092.8     0.241      950.381    -9999      -9999      10.184     2.294      3.085      2.456      2.184      2.056      2.062      1.022      2.626      2.796      3.557      0.1867164  0.1867164  0.3499472  8.046345   2.379547   2.051      0.311529   0.5228455  92.864     0.4946388  0.4553852  0.5338924 
1093       0.242      933.053    -9999      -9999      10.104     1.965      2.814      2.526      2.231      2.123      1.956      1.165      2.857      2.915      3.986      0.1800573  0.1800573  0.344378   6.056976   2.538805   2.089      0.2955003  0.5157539  93.357     0.4979416  0.4434968  0.5523863 
1093.2     0.242      916.518    -9999      -9999      10.014     2.127      2.799      2.83       2.412      2.284      2.09       1.343      3.204      3.058      4.38       0.1712753  0.1712753  0.3376856  4.164781   2.730745   2.127      0.2703401  0.5048012  94.018     0.5042736  0.4304929  0.5780543 
1093.4     0.243      899.387    -9999      -9999      9.793      2.124      3.237      3.117      2.721      2.45       2.292      1.613      3.768      3.256      4.547      0.1640889  0.1640889  0.3284192  3.065374   3.265908   2.167      0.2491786  0.4926214  94.46      0.4979704  0.4001559  0.595785  
1093.6     0.243      886.818    -9999      -9999      9.551      2.618      3.578      3.324      2.873      2.632      2.694      1.684      3.948      3.459      4.543      0.1581613  0.1581613  0.3189188  2.380613   3.972945   2.198      0.2298791  0.4797206  94.683     0.487144   0.3693827  0.6049052 
1093.8     0.243      874.249    -9999      -9999      9.288      2.921      3.797      3.519      2.963      2.801      2.995      1.76       4.068      3.665      4.419      0.1535221  0.1535221  0.309278   1.953262   4.915934   2.229      0.2148269  0.4674354  94.694     0.4719875  0.3386167  0.6053582 
1094       0.242      863.541    -9999      -9999      9.13       3.044      3.95       3.696      3.072      2.794      3.298      1.757      3.949      3.776      4.325      0.1516259  0.1516259  0.3040832  1.801513   5.58692    2.257      0.2109175  0.462639   94.627     0.4619918  0.3213799  0.6026039 
1094.2     0.242      855.522    -9999      -9999      9.046      3.385      4.762      3.913      3.126      2.693      3.155      1.703      3.684      3.804      4.021      0.1530272  0.1530272  0.3027728  1.912465   5.980184   2.278      0.2206094  0.4655931  94.44      0.4537745  0.3125761  0.5949729 
1094.4     0.242      851.679    -9999      -9999      9.076      3.744      5.500999   3.909      3.027      2.612      2.848      1.547      3.349      3.74       3.66       0.1555082  0.1555082  0.305768   2.125925   5.83665    2.288      0.2330286  0.4732544  94.44      0.4553326  0.3156923  0.5949729 
1094.6     0.242      850.489    -9999      -9999      9.196      3.532      5.288      3.678      2.782      2.499      2.473      1.361      2.973      3.65       3.412      0.1570816  0.1570816  0.30998    2.273474   5.296161   2.291      0.240191   0.4800276  94.519     0.4633286  0.3284707  0.5981864 
1094.8     0.242      849.759    -9999      -9999      9.384      3.043      5.174      3.487      2.631      2.352      2.3        1.294      2.957      3.552      3.395      0.1584069  0.1584069  0.3145664  2.405684   4.548248   2.293      0.2460396  0.4865907  94.487     0.4732105  0.3495381  0.596883  
1095       0.243      851.911    -9999      -9999      9.66       2.725      4.833      3.46       2.612      2.267      2.334      1.328      2.961      3.46       3.471      0.1576504  0.1576504  0.318872   2.329304   3.637294   2.288      0.2421135  0.4893768  94.42      0.4885502  0.382939   0.5941615 
1095.2     0.244      856.256    -9999      -9999      9.852      2.612      4.676      3.552      2.667      2.271      2.401      1.357      3.089      3.385      3.563      0.156704   0.156704   0.322382   2.23716    3.113539   2.276      0.2362462  0.4903084  94.467     0.5020545  0.4080392  0.5960696 
1095.4     0.245      861.744    -9999      -9999      9.954      2.682      4.646      3.741      2.745      2.308      2.45       1.366      3.114      3.336      3.667      0.1556976  0.1556976  0.3246752  2.143161   2.8667     2.261      0.2295611  0.4896063  94.614     0.5120534  0.4220362  0.6020706 
1095.6     0.245      865.588    -9999      -9999      9.931      2.701      4.407      4.001999   2.803      2.364      2.578      1.368      3.306      3.346      3.827      0.1549221  0.1549221  0.3242072  2.073442   2.920594   2.251      0.2245924  0.4870431  94.737     0.5129851  0.4188386  0.6071315 
1095.8     0.245      869.431    -9999      -9999      9.874      2.582      4.165      4.186      2.851      2.426      2.636      1.412      3.429      3.388      3.835      0.1518313  0.1518313  0.3222416  1.817361   3.058564   2.241      0.2092116  0.4799935  95.088     0.516395   0.4110183  0.6217716 
1096       0.245      874.008    -9999      -9999      9.807      2.857      4.355      4.325      2.855      2.482      2.672      1.456      3.463      3.448      3.797      0.1469477  0.1469477  0.3194336  1.475661   3.229092   2.23       0.1844902  0.4693511  95.593     0.5226845  0.4020126  0.6433563 
1096.2     0.244      879.437    -9999      -9999      9.75       2.849      4.298      4.365      2.827      2.535      2.627      1.49       3.443      3.501      3.767      0.1418355  0.1418355  0.3169532  1.186577   3.381634   2.216      0.1564593  0.45792    96.126     0.5306597  0.3945065  0.666813  
1096.4     0.243      884.338    -9999      -9999      9.799      2.85       4.397999   4.342      2.815      2.536      2.543      1.434      3.362      3.532      3.794      0.1375558  0.1375558  0.3155024  0.9886095  3.25008    2.204      0.1314363  0.4486155  96.364     0.5392322  0.4009505  0.6775138 
1096.6     0.241      887.602    -9999      -9999      9.972      3.008      4.585      4.191      2.808      2.523      2.484      1.372      3.36       3.539      3.898      0.1323816  0.1323816  0.3151748  0.7928423  2.825217   2.195      0.1002166  0.4392267  96.491     0.5539187  0.4245556  0.6832818 
1096.8     0.239      887.825    -9999      -9999      10.196     2.85       4.472      4.021      2.743      2.499      2.413      1.325      3.284      3.543      4.072      0.1261757  0.1261757  0.3149876  0.6084678  2.356537   2.195      0.06179202 0.4290749  96.575     0.5721574  0.4571958  0.687119  
1097       0.238      885.049    -9999      -9999      10.423     2.714      4.363      3.876      2.706      2.443      2.42       1.345      3.314      3.543      4.146      0.1206349  0.1206349  0.3149876  0.4804062  1.960835   2.202      0.02582675 0.4206607  96.53      0.5889477  0.4928341  0.6850612 
1097.2     0.237      879.619    -9999      -9999      10.503     2.685      4.249      3.786      2.663      2.413      2.424      1.332      3.204      3.548      4.14       0.119638   0.119638   0.3147536  0.460409   1.837833   2.215      0.02146742 0.4203657  96.341     0.5912594  0.506045   0.6764738 
1097.4     0.236      871.363    -9999      -9999      10.55      2.732      4.281      3.71       2.68       2.434      2.4        1.249      3.065      3.55       4.392      0.1193285  0.1193285  0.31466    0.4543726  1.769199   2.237      0.02379574 0.4225776  96.194     0.5919135  0.513971   0.669856  
