~Version
 VERS              .         2.0                           : CWLS LOG ASCII STANDARD - VERSION 2.0
 WRAP              .         NO                            : ONE LINE PER DEPTH STEP
 DLM               .         SPACE                         : DELIMITING CHARACTER(SPACE TAB OR COMMA)
~Well Information
#_______________________________________________________________________________
#
#PARAMETER_NAME    .UNIT     VALUE                         : DESCRIPTION
#_______________________________________________________________________________
STRT               .M        900                           : First reference value
STOP               .M        1192                          : Last reference value
STEP               .M        0.2                           : Step increment
NULL               .         -9999                         : Missing value
COMP               .         АО РД КМГ филиал "Инженерный  центр": Company
WELL               .         7908                          : Well name
FLD                .         Узень                         : Field
LOC                .                                       : Location
CNTY               .                                       : County
STAT               .                                       : State
CTRY               .         Казахстан                     : Country
SRVC               .                                       : Service Company
DATE               .         25.06.2010.                   : Date
UWI                .                                       : Unique Well ID
_скв_14_гор_       .         7                             : 
Block              .         7                             : 
Category           .         Нефтяная                      : 
Condition          .         В работе                      : 
Date               .         13.04.2003                    : 
EREF               .m        95.1                          : 100.8
Gorizont           .         14                            : 14
Interpretator      .         Бекбулатова А.А.              : 
Kupol              .         Основной                      : osnovnoi
Mud                .         0                             : 
Mud_density        .         0                             : 
Mud_resistivity    .         0                             : 
NGDU               .         НГДУ-2                        : 
ORIGINALWELLNAME   .         7908                          : 
Spud_date          .         2003                          : 1961
Viscosity          .         0                             : 
X                  .m        42252.8                       : 46154
Y                  .m        85000.93                      : 85761.93
YEAR               .         2019                          : 
Исправлено_14      .         +                             : 
Отбивки_горизонт_14 .         1                             : 
~Parameter Information Block
#_______________________________________________________________________________
#
#PARAMETER_NAME    .UNIT     VALUE                         : DESCRIPTION
#_______________________________________________________________________________
SET                .         LQC_KAZNIPI_Petrel            : 
TLFamily_CALI      .         Caliper                       : 
TLFamily_CILD      .         Conductivity                  : 
TLFamily_COLL      .         Net Reservoir Flag            : 
TLFamily_CSAT      .         Fluid Code                    : 
TLFamily_DEPT      .         Measured Depth                : 
TLFamily_GR        .         Russian Gamma Ray             : 
TLFamily_GZ1       .         Gradient 045                  : 
TLFamily_GZ2       .         Gradient 105                  : 
TLFamily_GZ3       .         Gradient 225                  : 
TLFamily_GZ4       .         Gradient 425                  : 
TLFamily_GZ5       .         Gradient 850                  : 
TLFamily_LLS       .         Lateral Log Resistivity       : 
TLFamily_MINV      .         Micro Gradient Resistivity    : 
TLFamily_MNOR      .         Micro Resistivity             : 
TLFamily_NGLD      .         Neutron Gamma                 : 
TLFamily_OGZ       .         Gradient Inverted 225         : 
TLFamily_PHIE      .         Effective Porosity            : 
TLFamily_PHIEN     .         Effective Porosity            : 
TLFamily_PHIT      .         Porosity                      : 
TLFamily_PRMB      .         Permeability                  : 
TLFamily_PRMB_DGR  .         Permeability                  : 
TLFamily_RT        .         Formation Resistivity         : 
TLFamily_SOIL_ARCHIE .         Oil Saturation                : 
TLFamily_SOIL_DW   .         Oil Saturation                : 
TLFamily_SP        .         Spontaneous Potential         : 
TLFamily_VSH_FIN   .         Shale Volume                  : 
TLFamily_VSH_GR    .         Shale Volume                  : 
TLFamily_VSH_SP    .         Shale Volume                  : 
~Curve Information
#_______________________________________________________________________________
#
#LOGNAME           .UNIT     LOG_ID                        : DESCRIPTION
#_______________________________________________________________________________
DEPT               .M                                      : Колонка глубины 
CALI               .м                                      : Каверномер 
CILD               .мСм/м                                  : Индукционный каротаж 
COLL               .unitless                               : Описание 
CSAT               .unitless                               : Описание 
GR                 .uR/h                                   : Гамма каротаж 
GZ1                .Ом·м                                   :  
GZ2                .Ом·м                                   :  
GZ3                .Ом·м                                   :  
GZ4                .Ом·м                                   :  
GZ5                .Ом·м                                   :  
LLS                .Ohmm                                   : Боковой каротаж 
MINV               .Ohmm                                   : Микро-градиент зонд 
MNOR               .Ohmm                                   : Микро-потенциал зонд 
NGLD               .у.е.                                   : Показания зонда НГК-60 аппаратуры ДРСТ-3-90 
OGZ                .Ом·м                                   :  
PHIE               .v/v                                    : Описание 
PHIEN              .v/v                                    :  
PHIT               .v/v                                    : Описание 
PRMB               .mD                                     :  
PRMB_DGR           .mD                                     :  
RT                 .ohmm                                   : УЭС пласта 
SOIL_ARCHIE        .v/v                                    :  
SOIL_DW            .v/v                                    :  
SP                 .мВ                                     : Потенциал самополяризации 
VSH_FIN            .v/v                                    : Описание 
VSH_GR             .v/v                                    : Shale volume 
VSH_SP             .v/v                                    : Shale Volume 
~Ascii
# ...
920.8      -9999      1330.377   1          3          2.82       2.225      2.521      2.187      2.3        2.753      1.624      1.037      1.884      4.41       1.674      0.2358211  0.2358211  0.274412   65.33353   84.88075   1.465      0.3421248  0.4074433  68.094     0.1169423  0.1058076  0.1280769 
921        -9999      1335.396   1          3          2.847      2.453      2.468      2.189      2.267      2.716      1.623      1.042      1.906      4.382      1.683      0.236409   0.236409   0.2757224  66.99255   83.06063   1.459      0.3422846  0.4084761  69.184     0.1191315  0.1067483  0.1315147 
921.2000000000001 -9999      1339.635   1          3          2.864      2.386      2.482      2.191      2.239      2.677      1.595      1.029      1.953      4.353      1.675      0.2366937  0.2366937  0.2770796  67.81078   81.93468   1.455      0.3421265  0.4096351  70.702     0.1223816  0.1073449  0.1374184 
921.4      -9999      1344.327   1          3          2.883      2.179      2.488      2.164      2.19       2.613      1.557      0.994      1.972      4.291      1.667      0.2382591  0.2382591  0.2799812  72.49278   80.69433   1.45       0.3448354  0.4137946  72.22      0.1264306  0.1080156  0.1448456 
921.6      -9999      1349.88    1          3          2.905      1.924      2.437      2.095      2.1        2.532      1.512      0.963      1.947      4.223      1.645      0.2403573  0.2403573  0.2831636  79.27908   79.28155   1.444      0.348553   0.4185542  73.211     0.129716   0.1087975  0.1506345 
921.8      -9999      1354.516   1          3          2.909      2.258      2.398      2.02       2.048      2.459      1.492      0.957      1.918      4.187      1.607      0.2419845  0.2419845  0.2848484  84.9763    79.02737   1.439      0.3513149  0.4211903  73.244     0.1298907  0.1089402  0.1508411 
922        -9999      1357.36    1          3          2.885      1.771      2.317      1.947      1.997      2.386      1.472      0.965      1.955      4.194      1.589      0.2426983  0.2426983  0.2845208  87.60307   80.56485   1.436      0.3523429  0.4209276  72.318     0.1267349  0.1080865  0.1453833 
922.2000000000001 -9999      1357.756   1          3          2.847      1.811      2.283      1.892      1.949      2.297      1.469      0.982      2.054      4.227      1.581      0.242498   0.242498   0.2829764  86.85778   83.06063   1.435      0.351665   0.4187066  70.962     0.1226619  0.1067483  0.1385755 
922.4      -9999      1357.112   1          3          2.822      1.857      2.238      1.857      1.902      2.245      1.486      1.017      2.152      4.252      1.606      0.2423888  0.2423888  0.2818064  86.45448   84.74458   1.436      0.3516228  0.4174126  69.606     0.1194472  0.105877   0.1330173 
922.6      -9999      1356.716   1          3          2.82       1.933      2.165      1.863      1.898      2.226      1.524      1.034      2.115      4.274      1.661      0.2421107  0.2421107  0.2807768  85.43512   84.88075   1.436      0.3509743  0.4159012  68.25      0.1171698  0.1058076  0.1285321 
922.8      -9999      1357.112   1          3          2.803      1.82       2.21       1.905      1.91       2.202      1.554      1.027      2.024      4.269      1.699      0.2427097  0.2427097  0.2810108  87.64561   86.04719   1.436      0.3523694  0.4167944  67.674     0.116064   0.1052196  0.1269084 
923        -9999      1357.111   1          3          2.774      1.937      2.242      1.923      1.897      2.163      1.547      0.984      1.954      4.236      1.679      0.2440076  0.2440076  0.2825552  92.63421   88.0741    1.436      0.3553708  0.4199457  68.536     0.1168108  0.104224   0.1293975 
923.2000000000001 -9999      1356.715   1          3          2.751      1.984      2.253      1.885      1.855      2.121      1.526      0.957      1.942      4.198      1.646      0.2451141  0.2451141  0.2843336  97.1105    89.71554   1.436      0.357906   0.4231441  69.933     0.1188469  0.1034411  0.1342528 
923.4      -9999      1356.318   1          3          2.745      2.061      2.189      1.848      1.819      2.081      1.517      0.957      1.944      4.154      1.639      0.246428   0.246428   0.2863928  102.7078   90.14874   1.437      0.3610975  0.4270352  71.049     0.1211054  0.1032379  0.1389729 
923.6      -9999      1356.319   1          3          2.747      1.896      2.155      1.842      1.797      2.065      1.55       0.99       2.014      4.122      1.698      0.2481681  0.2481681  0.2878904  110.6198   90.00408   1.437      0.3650009  0.4304573  70.706     0.1203707  0.1033056  0.1374358 
923.8      -9999      1355.76    1          3          2.745      1.93       2.18       1.869      1.825      2.061      1.578      1.015      2.093      4.064      1.75       0.2516081  0.2516081  0.2906048  128.1004   90.14874   1.437      0.3725691  0.436829   69.63      0.1181718  0.1032379  0.1331058 
924        -9999      1353.176   1          3          2.749      2.083      2.256      1.9        1.849      2.062      1.588      1.019      2.101      4.019      1.786      0.254632   0.254632   0.2927108  145.7337   89.8597    1.44       0.3796709  0.4425873  67.857     0.1153904  0.1033733  0.1274075 
924.2000000000001 -9999      1348.813   1          3          2.771      2.11       2.392      1.894      1.826      2.045      1.575      1.011      2.044      4.038      1.804      0.2543796  0.2543796  0.2918216  144.1733   88.28648   1.445      0.3801439  0.4423448  65.91      0.1134606  0.1041216  0.1227997 
924.4      -9999      1344.503   1          3          2.803      2.092      2.319      1.854      1.787      2.016      1.558      1.01       2.03       4.106      1.806      0.2511531  0.2511531  0.2886392  125.6387   86.04719   1.449      0.3740268  0.4365429  65.482     0.1135941  0.1052196  0.1219686 
924.6      -9999      1339.948   1          3          2.834      2.119      2.307      1.812      1.747      1.981      1.543      1.021      2.101      4.189      1.796      0.2466952  0.2466952  0.2847548  103.8846   83.93205   1.454      0.3652131  0.4287791  66.646     0.1153322  0.1062944  0.1243699 
924.8      -9999      1334.367   1          3          2.874      1.956      2.254      1.775      1.718      1.969      1.535      1.016      2.134      4.246      1.82       0.2424912  0.2424912  0.2820872  86.83278   81.27949   1.46       0.356883   0.422655   69.402     0.1199878  0.1076974  0.1322783 
925        -9999      1326.148   1          3          2.916      2.173      2.261      1.786      1.723      1.948      1.55       1.012      2.122      4.304      1.901      0.2374478  0.2374478  0.2793728  70.02743   78.5845    1.47       0.3470968  0.4162219  72.23      0.1270453  0.1091905  0.1449001 
925.2000000000001 -9999      1318.216   1          3          2.96       2.29       2.278      1.833      1.747      1.912      1.572      1.029      2.103      4.356      1.952      0.2316545  0.2316545  0.2769392  54.69683   75.85693   1.478      0.3345955  0.4086993  75.058     0.1372263  0.110777   0.1636756 
925.4      -9999      1310.803   1          3          2.997      2.26       2.374      1.816      1.742      1.895      1.572      1.048      2.115      4.386      1.933      0.2256498  0.2256498  0.2755352  42.33893   73.63671   1.487      0.3211365  0.402154   77.886     0.1511679  0.1121288  0.1902069 
925.6      -9999      1303.403   1          3          3.01       2.207      2.313      1.769      1.707      1.888      1.577      1.066      2.152      4.399      1.921      0.2207943  0.2207943  0.2749268  34.4195    72.87218   1.495      0.3098922  0.3974907  79.956     0.1640378  0.1126077  0.2154679 
925.8      -9999      1294.281   1          3          2.998      2.133      2.255      1.781      1.705      1.842      1.604      1.073      2.17       4.413      1.952      0.2172007  0.2172007  0.2742716  29.52852   73.57763   1.506      0.3023623  0.3947009  81.226     0.1729422  0.1121656  0.2337188 
