~Version
 VERS              .         2.0                           : CWLS LOG ASCII STANDARD - VERSION 2.0
 WRAP              .         NO                            : ONE LINE PER DEPTH STEP
 DLM               .         SPACE                         : DELIMITING CHARACTER(SPACE TAB OR COMMA)
~Well Information
#_______________________________________________________________________________
#
#PARAMETER_NAME    .UNIT     VALUE                         : DESCRIPTION
#_______________________________________________________________________________
STRT               .M        900                           : First reference value
STOP               .M        1192                          : Last reference value
STEP               .M        0.2                           : Step increment
NULL               .         -9999                         : Missing value
COMP               .         АО РД КМГ филиал "Инженерный  центр": Company
WELL               .         7908                          : Well name
FLD                .         Узень                         : Field
LOC                .                                       : Location
CNTY               .                                       : County
STAT               .                                       : State
CTRY               .         Казахстан                     : Country
SRVC               .                                       : Service Company
DATE               .         25.06.2010.                   : Date
UWI                .                                       : Unique Well ID
_скв_14_гор_       .         7                             : 
Block              .         7                             : 
Category           .         Нефтяная                      : 
Condition          .         В работе                      : 
Date               .         13.04.2003                    : 
EREF               .m        95.1                          : 100.8
Gorizont           .         14                            : 14
Interpretator      .         Бекбулатова А.А.              : 
Kupol              .         Основной                      : osnovnoi
Mud                .         0                             : 
Mud_density        .         0                             : 
Mud_resistivity    .         0                             : 
NGDU               .         НГДУ-2                        : 
ORIGINALWELLNAME   .         7908                          : 
Spud_date          .         2003                          : 1961
Viscosity          .         0                             : 
X                  .m        42252.8                       : 46154
Y                  .m        85000.93                      : 85761.93
YEAR               .         2019                          : 
Исправлено_14      .         +                             : 
Отбивки_горизонт_14 .         1                             : 
~Parameter Information Block
#_______________________________________________________________________________
#
#PARAMETER_NAME    .UNIT     VALUE                         : DESCRIPTION
#_______________________________________________________________________________
SET                .         LQC_KAZNIPI_Petrel            : 
TLFamily_CALI      .         Caliper                       : 
TLFamily_CILD      .         Conductivity                  : 
TLFamily_COLL      .         Net Reservoir Flag            : 
TLFamily_CSAT      .         Fluid Code                    : 
TLFamily_DEPT      .         Measured Depth                : 
TLFamily_GR        .         Russian Gamma Ray             : 
TLFamily_GZ1       .         Gradient 045                  : 
TLFamily_GZ2       .         Gradient 105                  : 
TLFamily_GZ3       .         Gradient 225                  : 
TLFamily_GZ4       .         Gradient 425                  : 
TLFamily_GZ5       .         Gradient 850                  : 
TLFamily_LLS       .         Lateral Log Resistivity       : 
TLFamily_MINV      .         Micro Gradient Resistivity    : 
TLFamily_MNOR      .         Micro Resistivity             : 
TLFamily_NGLD      .         Neutron Gamma                 : 
TLFamily_OGZ       .         Gradient Inverted 225         : 
TLFamily_PHIE      .         Effective Porosity            : 
TLFamily_PHIEN     .         Effective Porosity            : 
TLFamily_PHIT      .         Porosity                      : 
TLFamily_PRMB      .         Permeability                  : 
TLFamily_PRMB_DGR  .         Permeability                  : 
TLFamily_RT        .         Formation Resistivity         : 
TLFamily_SOIL_ARCHIE .         Oil Saturation                : 
TLFamily_SOIL_DW   .         Oil Saturation                : 
TLFamily_SP        .         Spontaneous Potential         : 
TLFamily_VSH_FIN   .         Shale Volume                  : 
TLFamily_VSH_GR    .         Shale Volume                  : 
TLFamily_VSH_SP    .         Shale Volume                  : 
~Curve Information
#_______________________________________________________________________________
#
#LOGNAME           .UNIT     LOG_ID                        : DESCRIPTION
#_______________________________________________________________________________
DEPT               .M                                      : Колонка глубины 
CALI               .м                                      : Каверномер 
CILD               .мСм/м                                  : Индукционный каротаж 
COLL               .unitless                               : Описание 
CSAT               .unitless                               : Описание 
GR                 .uR/h                                   : Гамма каротаж 
GZ1                .Ом·м                                   :  
GZ2                .Ом·м                                   :  
GZ3                .Ом·м                                   :  
GZ4                .Ом·м                                   :  
GZ5                .Ом·м                                   :  
LLS                .Ohmm                                   : Боковой каротаж 
MINV               .Ohmm                                   : Микро-градиент зонд 
MNOR               .Ohmm                                   : Микро-потенциал зонд 
NGLD               .у.е.                                   : Показания зонда НГК-60 аппаратуры ДРСТ-3-90 
OGZ                .Ом·м                                   :  
PHIE               .v/v                                    : Описание 
PHIEN              .v/v                                    :  
PHIT               .v/v                                    : Описание 
PRMB               .mD                                     :  
PRMB_DGR           .mD                                     :  
RT                 .ohmm                                   : УЭС пласта 
SOIL_ARCHIE        .v/v                                    :  
SOIL_DW            .v/v                                    :  
SP                 .мВ                                     : Потенциал самополяризации 
VSH_FIN            .v/v                                    : Описание 
VSH_GR             .v/v                                    : Shale volume 
VSH_SP             .v/v                                    : Shale Volume 
~Ascii
900.0      -9999      780.593    -9999      -9999      10.953     2.075      4.559999   8.582      4.177      2.337      4.638      0.704      1.024      3.175      6.097      0.1570504  0.1570504  0.33221    2.270449   1.168347   2.497      0.2701523  0.5227556  78.926     0.5307868  0.6088668  0.4527068 
900.2000000000001 -9999      780.593    -9999      -9999      10.953     3.142      5.952      8.422      4.503      2.35       4.638      0.704      1.024      3.175      5.157001   0.1570504  0.1570504  0.33221    2.270449   1.168347   2.497      0.2701523  0.5227556  78.926     0.5307868  0.6088668  0.4527068 
900.4      -9999      775.078    -9999      -9999      10.965     3.923      6.104001   7.006      4.131      2.251      3.702      0.635      0.992      3.171      4.396      0.1607057  0.1607057  0.3323972  2.653489   1.15938    2.514      0.2869062  0.5286803  78.188     0.5202773  0.6107853  0.4297694 
900.6      -9999      776.383    -9999      -9999      11.101     3.503      4.712      5.698      3.774      1.957      2.707      0.61       0.96       3.135      4.348      0.1623301  0.1623301  0.334082   2.843844   1.062441   2.51       0.2925969  0.5315785  77.451     0.5204602  0.6329551  0.4079655 
900.8      -9999      777.688    -9999      -9999      11.377     3.339      4.627      5.099      3.789      1.754      2.552      0.588      0.951      3.065      4.61       0.159136   0.159136   0.337358   2.481665   0.8899145  2.506      0.2797076  0.5304941  77.161     0.5400666  0.6804511  0.3996821 
901        -9999      776.438    -9999      -9999      11.787     2.857      4.765999   4.588      3.878      1.743      2.526      0.655      1.142      2.965      4.883      0.1500744  0.1500744  0.342038   1.686167   0.6839563  2.51       0.2425398  0.5245264  77.374     0.5817078  0.7576656  0.40575   
901.2000000000001 -9999      772.025    -9999      -9999      12.068     2.601      5.117      4.141      3.922      1.839      2.496      0.796      1.37       2.865      5.231      0.1442899  0.1442899  0.346718   1.317517   0.5710542  2.524      0.2182026  0.523007   78.091     0.6134186  0.8        0.4268373 
901.4      -9999      764.449    -9999      -9999      12.179     2.482      4.761      3.964      4.046      2          2.689      0.947      1.465      2.812      5.731      0.1428321  0.1428321  0.3491984  1.238099   0.5317741  2.549      0.2148975  0.5257297  78.863     0.6253524  0.8        0.4507047 
901.6      -9999      756.266    -9999      -9999      12.121     2.287      4.268      4.175      4.289      2.147      3.214      0.994      1.752      2.806      6.061999   0.1392177  0.1392177  0.3494792  1.061228   0.5519494  2.577      0.2012797  0.5241323  79.59      0.6371559  0.8        0.4743118 
901.8      -9999      747.329    -9999      -9999      12.098     2.405      4.367      4.505      4.567      2.198      3.622      0.921      1.607      2.847      5.894      0.1349756  0.1349756  0.3475604  0.8855918  0.5601605  2.608      0.1840515  0.5199611  80.008     0.6441964  0.8        0.4883928 
902        -9999      738.331    -9999      -9999      12.129     2.872      4.857      4.795      4.5        2.154      3.525      0.815      1.493      2.889      5.32       0.132394   0.132394   0.3455948  0.7932606  0.5491219  2.64       0.1749466  0.5178055  80.117     0.6460631  0.8        0.4921261 
902.2000000000001 -9999      730.569    -9999      -9999      12.133     3.352      5.122      4.936999   3.983      2.077      3.102      0.758      1.107      2.93       4.859      0.1308769  0.1308769  0.343676   0.7435605  0.547713   2.668      0.1707391  0.5166326  80.046     0.6448457  0.8        0.4896913 
902.4      -9999      726.59     -9999      -9999      11.947     3.298      4.75       4.847      3.68       1.985      2.764      0.714      1.208      2.996      4.798      0.1282302  0.1282302  0.3405872  0.6641889  0.6171853  2.682      0.1579216  0.5115347  80.255     0.6435062  0.7901224  0.4968899 
902.6      -9999      725.4      -9999      -9999      11.566     3.147      4.765999   4.586999   3.512      1.957      2.696      0.73       1.486      3.11       4.83       0.1322404  0.1322404  0.335252   0.7880824  0.7882237  2.686      0.1807799  0.5123685  80.779     0.6151866  0.7150157  0.5153574 
902.8      -9999      725.523    -9999      -9999      11.123     2.754      4.85       4.375      3.433      2.025      2.708      0.844      1.959      3.258      4.917      0.1314305  0.1314305  0.3283256  0.7613237  1.04754    2.686      0.1763847  0.5047348  81.894     0.5966519  0.6366162  0.5566876 
903        -9999      726.179    -9999      -9999      10.735     2.641      4.843      4.509      3.518      2.125      3.086      1.313      2.892      3.373      5.225      0.1262201  0.1262201  0.3229436  0.6096213  1.343868   2.684      0.1465525  0.4919096  83.404     0.5961319  0.575045   0.6172189 
903.2000000000001 -9999      728.559    -9999      -9999      10.459     2.512      4.815001   4.993      3.798      2.216      3.804      1.399      2.904      3.435      5.479      0.1163176  0.1163176  0.320042   0.3996149  1.604403   2.675      0.0821632  0.472929   85.274     0.6173468  0.5349064  0.6997872 
903.4      -9999      732.361    -9999      -9999      10.371     2.763      5.197      5.45       4.011      2.271      4.295      1.476      3.221      3.45       5.204      0.1056818  0.1056818  0.31934    0.2538878  1.697658   2.661      0          0.4527928  86.77      0.647449   0.5227073  0.7721907 
903.6      -9999      737.668    -9999      -9999      10.472     3.405      5.997      5.599      3.953      2.284      4.271      1.236      2.732      3.433      4.647999   0.09957473 0.09957473 0.3201356  0.1956697  1.591068   2.642      0          0.4405075  87.652     0.6683663  0.5367326  0.8       
903.8      -9999      745.176    -9999      -9999      10.706     3.38       5.639      5.732999   3.843      2.236      3.831      1.268      2.939      3.37       4.236001   0.0969202  0.0969202  0.323084   0.1747251  1.369123   2.615      0          0.4359619  87.736     0.6853449  0.5706898  0.8       
904        -9999      754.176    -9999      -9999      10.941     3.494      5.761      6.011001   3.87       2.164      3.449      1.17       2.513      3.267      4.082      0.09741977 0.09741977 0.3279044  0.1784878  1.177383   2.584      0          0.43913    87.119     0.6984383  0.6069544  0.7899222 
904.2000000000001 -9999      764.364    -9999      -9999      11.175     3.638      6.168      6.035      3.994      2.178      3.117      1.035      2.289      3.152      4.02       0.1053482  0.1053482  0.3332864  0.2503009  1.013145   2.55       0          0.4559439  86.039     0.6907218  0.6453543  0.7360893 
904.4      -9999      774.157    -9999      -9999      11.41      3.432      6.319      5.814      4.076      2.344      2.884      1.066      2.218      3.037      4.152999   0.1144283  0.1144283  0.3386684  0.3686784  0.8712583  2.518      0.04217487 0.4733558  84.681     0.6795155  0.6863635  0.6726676 
904.6      -9999      784.14     -9999      -9999      11.643     2.941      6.252      5.705      4.152999   2.5        2.905      1.149      2.519      2.921      4.638      0.1224311  0.1224311  0.3440972  0.5186548  0.7502044  2.485      0.09133206 0.4875557  83.323     0.6717156  0.729596   0.6138352 
904.8      -9999      791.785    -9999      -9999      11.8       2.646      5.666      5.845      4.212      2.595      3.181      1.173      2.409      2.806      4.809      0.1300828  0.1300828  0.3494792  0.7187994  0.6782711  2.461      0.1341308  0.5010185  82.223     0.6648375  0.7602523  0.5694227 
905        -9999      795.902    -9999      -9999      11.901     2.953      6.222      5.86       4.222      2.709      3.175      1.063      2.307      2.734      4.882      0.1345269  0.1345269  0.3528488  0.8688059  0.6356847  2.448      0.1570046  0.5087037  81.52      0.6615815  0.7806513  0.5425117 
