~Version
 VERS              .         2.0                           : CWLS LOG ASCII STANDARD - VERSION 2.0
 WRAP              .         NO                            : ONE LINE PER DEPTH STEP
 DLM               .         SPACE                         : DELIMITING CHARACTER(SPACE TAB OR COMMA)
~Well Information
#_______________________________________________________________________________
#
#PARAMETER_NAME    .UNIT     VALUE                         : DESCRIPTION
#_______________________________________________________________________________
STRT               .M        900                           : First reference value
STOP               .M        1192                          : Last reference value
STEP               .M        0.2                           : Step increment
NULL               .         -9999                         : Missing value
COMP               .         АО РД КМГ филиал "Инженерный  центр": Company
WELL               .         7908                          : Well name
FLD                .         Узень                         : Field
LOC                .                                       : Location
CNTY               .                                       : County
STAT               .                                       : State
CTRY               .         Казахстан                     : Country
SRVC               .                                       : Service Company
DATE               .         25.06.2010.                   : Date
UWI                .                                       : Unique Well ID
_скв_14_гор_       .         7                             : 
Block              .         7                             : 
Category           .         Нефтяная                      : 
Condition          .         В работе                      : 
Date               .         13.04.2003                    : 
EREF               .m        95.1                          : 100.8
Gorizont           .         14                            : 14
Interpretator      .         Бекбулатова А.А.              : 
Kupol              .         Основной                      : osnovnoi
Mud                .         0                             : 
Mud_density        .         0                             : 
Mud_resistivity    .         0                             : 
NGDU               .         НГДУ-2                        : 
ORIGINALWELLNAME   .         7908                          : 
Spud_date          .         2003                          : 1961
Viscosity          .         0                             : 
X                  .m        42252.8                       : 46154
Y                  .m        85000.93                      : 85761.93
YEAR               .         2019                          : 
Исправлено_14      .         +                             : 
Отбивки_горизонт_14 .         1                             : 
~Parameter Information Block
#_______________________________________________________________________________
#
#PARAMETER_NAME    .UNIT     VALUE                         : DESCRIPTION
#_______________________________________________________________________________
SET                .         LQC_KAZNIPI_Petrel            : 
TLFamily_CALI      .         Caliper                       : 
TLFamily_CILD      .         Conductivity                  : 
TLFamily_COLL      .         Net Reservoir Flag            : 
TLFamily_CSAT      .         Fluid Code                    : 
TLFamily_DEPT      .         Measured Depth                : 
TLFamily_GR        .         Russian Gamma Ray             : 
TLFamily_GZ1       .         Gradient 045                  : 
TLFamily_GZ2       .         Gradient 105                  : 
TLFamily_GZ3       .         Gradient 225                  : 
TLFamily_GZ4       .         Gradient 425                  : 
TLFamily_GZ5       .         Gradient 850                  : 
TLFamily_LLS       .         Lateral Log Resistivity       : 
TLFamily_MINV      .         Micro Gradient Resistivity    : 
TLFamily_MNOR      .         Micro Resistivity             : 
TLFamily_NGLD      .         Neutron Gamma                 : 
TLFamily_OGZ       .         Gradient Inverted 225         : 
TLFamily_PHIE      .         Effective Porosity            : 
TLFamily_PHIEN     .         Effective Porosity            : 
TLFamily_PHIT      .         Porosity                      : 
TLFamily_PRMB      .         Permeability                  : 
TLFamily_PRMB_DGR  .         Permeability                  : 
TLFamily_RT        .         Formation Resistivity         : 
TLFamily_SOIL_ARCHIE .         Oil Saturation                : 
TLFamily_SOIL_DW   .         Oil Saturation                : 
TLFamily_SP        .         Spontaneous Potential         : 
TLFamily_VSH_FIN   .         Shale Volume                  : 
TLFamily_VSH_GR    .         Shale Volume                  : 
TLFamily_VSH_SP    .         Shale Volume                  : 
~Curve Information
#_______________________________________________________________________________
#
#LOGNAME           .UNIT     LOG_ID                        : DESCRIPTION
#_______________________________________________________________________________
DEPT               .M                                      : Колонка глубины 
CALI               .м                                      : Каверномер 
CILD               .мСм/м                                  : Индукционный каротаж 
COLL               .unitless                               : Описание 
CSAT               .unitless                               : Описание 
GR                 .uR/h                                   : Гамма каротаж 
GZ1                .Ом·м                                   :  
GZ2                .Ом·м                                   :  
GZ3                .Ом·м                                   :  
GZ4                .Ом·м                                   :  
GZ5                .Ом·м                                   :  
LLS                .Ohmm                                   : Боковой каротаж 
MINV               .Ohmm                                   : Микро-градиент зонд 
MNOR               .Ohmm                                   : Микро-потенциал зонд 
NGLD               .у.е.                                   : Показания зонда НГК-60 аппаратуры ДРСТ-3-90 
OGZ                .Ом·м                                   :  
PHIE               .v/v                                    : Описание 
PHIEN              .v/v                                    :  
PHIT               .v/v                                    : Описание 
PRMB               .mD                                     :  
PRMB_DGR           .mD                                     :  
RT                 .ohmm                                   : УЭС пласта 
SOIL_ARCHIE        .v/v                                    :  
SOIL_DW            .v/v                                    :  
SP                 .мВ                                     : Потенциал самополяризации 
VSH_FIN            .v/v                                    : Описание 
VSH_GR             .v/v                                    : Shale volume 
VSH_SP             .v/v                                    : Shale Volume 
~Ascii
# ...
1108       0.236      966.935    -9999      -9999      9.823      2.479      3.49       2.787      2.297      2.406      2.313      1.216      3.653      3.07       3.532      0.148221   0.148221   0.337124   1.558009   3.187523   2.015      0.1511568  0.462003   97.71      0.5724334  0.4041451  0.7407218 
1108.2     0.236      967.851    -9999      -9999      9.925      2.546      3.56       2.821      2.272      2.388      2.416      1.288      3.896      3.17       3.757      0.1399304  0.1399304  0.332444   1.093976   2.934818   2.013      0.1071024  0.4452748  97.874     0.5833746  0.4180085  0.7487407 
1108.4     0.236      967.677    -9999      -9999      10.046     2.574      3.552      2.902      2.267      2.389      2.553      1.358      4.083      3.253      3.99       0.131953   0.131953   0.3285596  0.778482   2.660892   2.014      0.06048603 0.4291295  98.031     0.5957775  0.4350722  0.7564827 
1108.6     0.236      965.958    -9999      -9999      10.153     2.731      3.689      3.039      2.315      2.397      2.667      1.351      4.127      3.265      4.148      0.1276826  0.1276826  0.327998   0.648859   2.440039   2.017      0.03385194 0.4220862  98.168     0.6070162  0.4507411  0.7632913 
1108.8     0.236      960.894    -9999      -9999      10.275     2.901      4.062      3.149      2.343      2.365      2.663      1.251      3.843      3.246      4.101      0.1249909  0.1249909  0.3288872  0.5784861  2.210502   2.028      0.0182644  0.4202314  98.231     0.6178675  0.4692962  0.766439  
1109       0.236      954.476    -9999      -9999      10.391     2.816      4.127      3.212      2.336      2.312      2.527      1.114      3.451      3.23       3.96       0.1222571  0.1222571  0.329636   0.5148205  2.012311   2.042      0.00239765 0.4184942  98.286     0.6284209  0.4876467  0.7691953 
1109.2     0.235      943.484    -9999      -9999      10.639     2.786      4.176      3.225      2.301      2.255      2.359      1.07       3.204      3.216      3.811      0.1170183  0.1170183  0.3302912  0.4117384  1.646178   2.066      0          0.413619   98.167     0.6462814  0.5293214  0.7632415 
1109.4     0.235      930.153    -9999      -9999      10.864     2.674      4.229      3.245      2.283      2.187      2.248      1.096      3.282      3.171      3.499      0.1144792  0.1144792  0.3323972  0.3694799  1.371978   2.095      0          0.4156313  97.91      0.6603575  0.5702047  0.7505104 
1109.6     0.234      915.947    -9999      -9999      11.073     2.566      4.081      3.226      2.237      2.122      2.192      1.091      3.393      3.092      3.028      0.1155529  0.1155529  0.3360944  0.3867921  1.158363   2.128      0          0.4262139  97.397     0.6683077  0.6110044  0.7256109 
1109.8     0.234      904.965    -9999      -9999      11.169     2.443      3.798      3.145      2.184      2.082      2.121      1.023      3.356      3.021      2.885      0.1211645  0.1211645  0.3394172  0.4913812  1.071723   2.153      0.01923395 0.4425165  96.682     0.6613718  0.630711   0.6920327 
1110       0.233      896.362    -9999      -9999      11.281     2.285      3.433      3.025      2.13       2.095      2.065      0.964      3.211      3.074      3.002      0.1214374  0.1214374  0.3369368  0.4971335  0.9787988  2.174      0.02560215 0.4430151  95.781     0.6530285  0.654507   0.6515501 
1110.2     0.232      890.335    -9999      -9999      11.182     2.078      3.087      2.91       2.152      2.215      2.113      0.993      3.235      3.302      3.318      0.1198585  0.1198585  0.3262664  0.4647597  1.0605     2.189      0.01760738 0.4306321  94.987     0.6254784  0.6334282  0.6175288 
1110.4     0.232      884.943    -9999      -9999      10.845     1.888      2.837      2.938      2.331      2.535      2.359      1.155      3.497      3.645      3.853      0.1315856  0.1315856  0.310214   0.7663777  2.532263   2.202      0.09682824 0.4332236  94.333     0.5412982  0.4439642  0.6386321 
1110.6     0.233      883.876    -9999      -9999      10.316     1.914      2.856      3.319      2.768      3.029      3.764      1.452      4.091      4.017      4.797      0.1371794  0.1371794  0.2928044  0.9728657  5.214945   2.205      0.1295463  0.4218184  93.719     0.4715909  0.33055    0.6126319 
1110.8     0.233      886.686    6          6          9.778      2.231      3.497      4.119      3.503      3.705      6.278      1.999      4.571      4.356      5.848      0.1401073  0.1401073  0.2769392  1.102263   10.87246   2.198      0.1441348  0.4054288  93.027     0.4146421  0.2448764  0.5844079 
1111       0.234      892.635    6          6          9.409      3.564      4.913      4.971      4.276      4.337      7.724      2.338      4.933      4.694      6.266      0.1379457  0.1379457  0.2611208  1.005189   17.99595   2.183      0.1296738  0.3777621  92.069     0.3732578  0.1993354  0.5471804 
1111.2     0.234      902.816    6          6          9.196      4.477      5.835      5.623      4.873      4.802      7.817      2.524      4.863      4.91       6.089001   0.13693    0.13693    0.251012   0.9625736  24.07142   2.159      0.1194977  0.3572223  91.177     0.345703   0.1770113  0.5143948 
1111.4     0.235      917.368    6          6          9.235      5.649      7.689      6.212      5.256001   4.891      6.472      2.462      4.871      4.913      5.668      0.1398892  0.1398892  0.2508716  1.092059   22.82295   2.125      0.129281   0.3573014  90.53      0.3363101  0.180903   0.4917173 
1111.6     0.235      936.614    6          6          9.76       6.659      10.111     6.596001   5.420001   4.442      5.69       2.157      4.659      4.7        4.921      0.1402254  0.1402254  0.26084    1.107828   11.14303   2.081      0.1225258  0.3663394  90.438     0.3654989  0.2424308  0.4885669 
1111.8     0.236      957.908    6          6          10.512     5.367      9.852      6.066      4.883      3.861      4.202      1.747      4.22       4.394      3.859      0.1303795  0.1303795  0.2751608  0.7279514  3.990299   2.035      0.05522797 0.3623006  91.018     0.4387313  0.3687258  0.5087367 
1112       0.236      976.823    -9999      -9999      11.394     3.457      7.296      4.716      3.755      3.253      2.944      1.225      3.666      4.085      2.85       0.1000076  0.1000076  0.289622   0.1993155  1.196484   1.995      0          0.3133441  92.043     0.5745891  0.6029789  0.5461993 
1112.2     0.236      996.509    -9999      -9999      11.943     2.654      5.932      3.484      2.525      2.529      2.031      1.057      3.315      3.776      2.414      0.07298008 0.07298008 0.3040832  0.06293991 0.5653338  1.956      0          0.2557543  93.428     0.7003125  0.8        0.600625  
1112.4     0.236      1011.854   -9999      -9999      12.266     2.296      4.68       2.963      1.991      1.913      2.011      1.014      3.298      3.467      2.348      0.07771099 0.07771099 0.3185444  0.07701125 0.3636966  1.926      0          0.2876296  94.813     0.7297982  0.8        0.6595964 
1112.6     0.237      1025.216   -9999      -9999      12.347     2.07       4.037      2.713      1.743      1.519      2.039      1.059      3.377      3.243      2.411      0.07852345 0.07852345 0.3290276  0.07972652 0.3256114  1.901      0          0.3010914  96.091     0.7591035  0.8        0.7182069 
1112.8     0.238      1032.291   -9999      -9999      12.144     1.933      3.28       2.614      1.566      1.342      2.098      1.061      3.423      3.125      2.561      0.07706958 0.07706958 0.33455    0.07493309 0.4296308  1.888      0          0.302803   96.961     0.7802437  0.8        0.7604874 
1113       0.239      1033.953   -9999      -9999      11.832     1.986      2.843      2.731      1.458      1.288      2.164      1.069      3.37       3.101      2.797      0.07970896 0.07970896 0.3356732  0.08386127 0.6578653  1.885      0          0.3109697  97.379     0.7756492  0.7697945  0.7815039 
