~Version
 VERS              .         2.0                           : CWLS LOG ASCII STANDARD - VERSION 2.0
 WRAP              .         NO                            : ONE LINE PER DEPTH STEP
 DLM               .         SPACE                         : DELIMITING CHARACTER(SPACE TAB OR COMMA)
~Well Information
#_______________________________________________________________________________
#
#PARAMETER_NAME    .UNIT     VALUE                         : DESCRIPTION
#_______________________________________________________________________________
STRT               .M        900                           : First reference value
STOP               .M        1192                          : Last reference value
STEP               .M        0.2                           : Step increment
NULL               .         -9999                         : Missing value
COMP               .         АО РД КМГ филиал "Инженерный  центр": Company
WELL               .         7908                          : Well name
FLD                .         Узень                         : Field
LOC                .                                       : Location
CNTY               .                                       : County
STAT               .                                       : State
CTRY               .         Казахстан                     : Country
SRVC               .                                       : Service Company
DATE               .         25.06.2010.                   : Date
UWI                .                                       : Unique Well ID
_скв_14_гор_       .         7                             : 
Block              .         7                             : 
Category           .         Нефтяная                      : 
Condition          .         В работе                      : 
Date               .         13.04.2003                    : 
EREF               .m        95.1                          : 100.8
Gorizont           .         14                            : 14
Interpretator      .         Бекбулатова А.А.              : 
Kupol              .         Основной                      : osnovnoi
Mud                .         0                             : 
Mud_density        .         0                             : 
Mud_resistivity    .         0                             : 
NGDU               .         НГДУ-2                        : 
ORIGINALWELLNAME   .         7908                          : 
Spud_date          .         2003                          : 1961
Viscosity          .         0                             : 
X                  .m        42252.8                       : 46154
Y                  .m        85000.93                      : 85761.93
YEAR               .         2019                          : 
Исправлено_14      .         +                             : 
Отбивки_горизонт_14 .         1                             : 
~Parameter Information Block
#_______________________________________________________________________________
#
#PARAMETER_NAME    .UNIT     VALUE                         : DESCRIPTION
#_______________________________________________________________________________
SET                .         LQC_KAZNIPI_Petrel            : 
TLFamily_CALI      .         Caliper                       : 
TLFamily_CILD      .         Conductivity                  : 
TLFamily_COLL      .         Net Reservoir Flag            : 
TLFamily_CSAT      .         Fluid Code                    : 
TLFamily_DEPT      .         Measured Depth                : 
TLFamily_GR        .         Russian Gamma Ray             : 
TLFamily_GZ1       .         Gradient 045                  : 
TLFamily_GZ2       .         Gradient 105                  : 
TLFamily_GZ3       .         Gradient 225                  : 
TLFamily_GZ4       .         Gradient 425                  : 
TLFamily_GZ5       .         Gradient 850                  : 
TLFamily_LLS       .         Lateral Log Resistivity       : 
TLFamily_MINV      .         Micro Gradient Resistivity    : 
TLFamily_MNOR      .         Micro Resistivity             : 
TLFamily_NGLD      .         Neutron Gamma                 : 
TLFamily_OGZ       .         Gradient Inverted 225         : 
TLFamily_PHIE      .         Effective Porosity            : 
TLFamily_PHIEN     .         Effective Porosity            : 
TLFamily_PHIT      .         Porosity                      : 
TLFamily_PRMB      .         Permeability                  : 
TLFamily_PRMB_DGR  .         Permeability                  : 
TLFamily_RT        .         Formation Resistivity         : 
TLFamily_SOIL_ARCHIE .         Oil Saturation                : 
TLFamily_SOIL_DW   .         Oil Saturation                : 
TLFamily_SP        .         Spontaneous Potential         : 
TLFamily_VSH_FIN   .         Shale Volume                  : 
TLFamily_VSH_GR    .         Shale Volume                  : 
TLFamily_VSH_SP    .         Shale Volume                  : 
~Curve Information
#_______________________________________________________________________________
#
#LOGNAME           .UNIT     LOG_ID                        : DESCRIPTION
#_______________________________________________________________________________
DEPT               .M                                      : Колонка глубины 
CALI               .м                                      : Каверномер 
CILD               .мСм/м                                  : Индукционный каротаж 
COLL               .unitless                               : Описание 
CSAT               .unitless                               : Описание 
GR                 .uR/h                                   : Гамма каротаж 
GZ1                .Ом·м                                   :  
GZ2                .Ом·м                                   :  
GZ3                .Ом·м                                   :  
GZ4                .Ом·м                                   :  
GZ5                .Ом·м                                   :  
LLS                .Ohmm                                   : Боковой каротаж 
MINV               .Ohmm                                   : Микро-градиент зонд 
MNOR               .Ohmm                                   : Микро-потенциал зонд 
NGLD               .у.е.                                   : Показания зонда НГК-60 аппаратуры ДРСТ-3-90 
OGZ                .Ом·м                                   :  
PHIE               .v/v                                    : Описание 
PHIEN              .v/v                                    :  
PHIT               .v/v                                    : Описание 
PRMB               .mD                                     :  
PRMB_DGR           .mD                                     :  
RT                 .ohmm                                   : УЭС пласта 
SOIL_ARCHIE        .v/v                                    :  
SOIL_DW            .v/v                                    :  
SP                 .мВ                                     : Потенциал самополяризации 
VSH_FIN            .v/v                                    : Описание 
VSH_GR             .v/v                                    : Shale volume 
VSH_SP             .v/v                                    : Shale Volume 
~Ascii
# ...
978        -9999      900.386    -9999      -9999      7.448      2.364      4.118      3.487      3.021      2.751      2.359      1.232      3.057      3.543      3.315      0.1394593  0.1394593  0.3149876  1.072216   2.066133   2.164      0.1343626  0.4458163  94.344     0.531904   0.482419   0.5813889 
978.2000000000001 -9999      900.386    -9999      -9999      7.549      2.55       4.12       3.542      3.056      2.709      2.42       1.162      2.807      3.496      3.415      0.1405569  0.1405569  0.3171872  1.123604   1.905209   2.164      0.1402532  0.4498403  94.102     0.5352433  0.4986596  0.571827  
978.4      -9999      900.245    -9999      -9999      7.615      2.756      3.954      3.579      2.997      2.716      2.418      1.018      2.377      3.511      3.478      0.1409673  0.1409673  0.3164852  1.143443   1.806885   2.165      0.1426194  0.4498029  93.646     0.5318724  0.5095665  0.5541783 
978.6      -9999      899.674    -9999      -9999      7.613      2.606      3.689      3.553      2.933      2.83       2.41       1.019      2.053      3.585      3.419      0.1398274  0.1398274  0.313022   1.089184   1.809788   2.166      0.1367222  0.4444434  93.282     0.524832   0.5092326  0.5404314 
978.8      -9999      898.543    -9999      -9999      7.571      2.506      3.599      3.54       2.926      2.911      2.53       1.038      2.283      3.64       3.385      0.1394691  0.1394691  0.310448   1.072667   1.871854   2.169      0.1353528  0.4414159  93.108     0.5181178  0.5022691  0.5339665 
979        -9999      897.494    -9999      -9999      7.526      2.65       3.843      3.627      2.938      2.749      2.578      1.039      2.443      3.631      3.35       0.1405475  0.1405475  0.3108692  1.123151   1.940716   2.171      0.1415049  0.4437546  93.199     0.5161265  0.4949139  0.537339  
979.2000000000001 -9999      896.7      -9999      -9999      7.544      2.799      4.082      3.717      2.935      2.766      2.574      1.106      2.49       3.559      3.267      0.1425902  0.1425902  0.3142388  1.225389   1.912873   2.173      0.1525925  0.4507252  93.336     0.5201474  0.497843   0.5424518 
979.4      -9999      896.974    -9999      -9999      7.603      2.641      3.989      3.747      2.971      2.773      2.477      1.232      2.684      3.468      3.2        0.1431901  0.1431901  0.3184976  1.257145   1.824376   2.173      0.1556854  0.4561837  93.665     0.531235   0.5075659  0.554904  
979.6      -9999      898.058    -9999      -9999      7.662      2.726      4.297      3.772      3.077      2.81       2.468      1.3        2.87       3.389      3.124      0.1425629  0.1425629  0.3221948  1.223963   1.739974   2.17       0.1519015  0.4588388  94.086     0.5443392  0.5174788  0.5711997 
979.8      -9999      900.981    -9999      -9999      7.672      2.736      4.346      3.817      3.08       2.765      2.452      1.125      2.8        3.363      3.012      0.1403975  0.1403975  0.3234116  1.115991   1.72606    2.163      0.1392164  0.4561554  94.559     0.5545881  0.519178   0.5899984 
980        -9999      906.411    -9999      -9999      7.668      2.724      4.186      3.774      2.962      2.831      2.35       0.986      2.578      3.389      2.828      0.1375443  0.1375443  0.3221948  0.9881259  1.731613   2.15       0.1212028  0.4490424  94.82      0.5595469  0.5184976  0.6005963 
980.2000000000001 -9999      916.996    -9999      -9999      7.664      2.685      4.036      3.635      2.838      2.822      2.21       1.094      2.709      3.454      2.707      0.1346819  0.1346819  0.3191528  0.8745689  1.737182   2.125      0.1000322  0.4381395  94.81      0.5590026  0.5178182  0.6001872 
980.4      -9999      931.001    -9999      -9999      7.658      2.369      3.456      3.501      2.921      2.728      2.272      1.309      3.124      3.519      2.73       0.1344424  0.1344424  0.3161108  0.8656797  1.745571   2.094      0.09239841 0.4301907  94.415     0.5505103  0.5168006  0.5842201 
980.6      -9999      946.742    -9999      -9999      7.595      2.281      3.699      3.531      3.054      2.856      2.481      1.388      3.314      3.584      2.767      0.1351365  0.1351365  0.3130688  0.8916906  1.836131   2.059      0.08928489 0.4229579  94.11      0.5391887  0.5062364  0.572141  
980.8      -9999      959.708    -9999      -9999      7.488      2.75       4.188      3.699      3.108      2.966      2.582      1.333      3.313      3.645      2.667      0.1371438  0.1371438  0.310214   0.9713904  2.000837   2.031      0.09510976 0.418837   93.801     0.5244552  0.4887867  0.5601237 
981        -9999      973.323    -9999      -9999      7.376      2.578      4.005      3.813      3.136      2.943      2.557      1.378      3.415      3.673      2.528      0.1410428  0.1410428  0.3089036  1.147128   2.189086   2.002      0.1109559  0.4192217  93.435     0.5086692  0.4711655  0.5461729 
981.2000000000001 -9999      990.651    -9999      -9999      7.326      2.761      4.05       3.832      3.296      2.929      2.517      1.5        3.368      3.63       2.538      0.1461378  0.1461378  0.310916   1.425557   2.278748   1.968      0.1310572  0.4243516  93.14      0.4993278  0.4635054  0.5351502 
981.4      -9999      1013.135   -9999      -9999      7.37       2.806      4.283      3.984      3.484      2.931      2.616      1.422      2.964      3.518      2.622      0.1503355  0.1503355  0.3161576  1.705045   2.199656   1.924      0.1431839  0.4299726  93.129     0.5024913  0.4702397  0.534743  
981.6      -9999      1037.206   -9999      -9999      7.502      3.007      4.714      4.177      3.367      2.896      2.521      1.128      2.091      3.369      2.587      0.1536145  0.1536145  0.3231308  1.960972   1.978473   1.879      0.1497446  0.4355836  93.172     0.5136858  0.4910352  0.5363364 
981.8      -9999      1058.104   -9999      -9999      7.647      2.998      4.739      4.164      3.109      2.771      2.246      0.796      1.388      3.219      2.403      0.1568553  0.1568553  0.3301508  2.251642   1.761055   1.842      0.1572369  0.4419339  93.145     0.5251378  0.5149403  0.5353353 
982        -9999      1075.035   -9999      -9999      7.819      2.669      4.064      3.924      2.899      2.607      1.96       0.624      1.035      3.069      2.253      0.1600228  0.1600228  0.3371708  2.577321   1.533915   1.813      0.1655939  0.4489808  92.968     0.5368121  0.5448102  0.5288141 
982.2000000000001 -9999      1087.846   -9999      -9999      7.956      2.309      3.691      3.606      2.807      2.519      1.848      0.611      1.061      2.947      2.248      0.1623619  0.1623619  0.3428804  2.847707   1.374148   1.791      0.1713398  0.4543666  92.842     0.5470256  0.5698368  0.5242144 
982.4      -9999      1097.242   -9999      -9999      8.097      1.979      3.411      3.418      2.783      2.495      1.854      0.681      1.418      2.869      2.355      0.1624423  0.1624423  0.3465308  2.85748    1.227074   1.776      0.1684211  0.4557609  92.695     0.557844   0.5967951  0.5188928 
982.6      -9999      1102.996   -9999      -9999      8.199      1.971      3.365      3.318      2.786      2.53       1.891      0.794      1.805      2.834      2.439      0.1617786  0.1617786  0.3481688  2.777736   1.130593   1.767      0.1634589  0.4551317  92.518     0.5648186  0.6170885  0.5125487 
982.8      -9999      1105.375   -9999      -9999      8.293      2.029      3.265      3.26       2.728      2.405      1.904      0.848      2.107      2.821      2.47       0.158136   0.158136   0.3487772  2.378042   1.04841    1.763      0.1457925  0.4504143  92.698     0.5777007  0.6364006  0.5190008 
983        -9999      1103.289   -9999      -9999      8.377      2.157      3.077      3.202      2.618      2.296      1.822      0.802      1.938      2.816      2.404      0.1529017  0.1529017  0.3490112  1.902256   0.9800379  1.766      0.1210814  0.4441618  93.119     0.5942711  0.654169   0.5343732 
