~Version
 VERS              .         2.0                           : CWLS LOG ASCII STANDARD - VERSION 2.0
 WRAP              .         NO                            : ONE LINE PER DEPTH STEP
 DLM               .         SPACE                         : DELIMITING CHARACTER(SPACE TAB OR COMMA)
~Well Information
#_______________________________________________________________________________
#
#PARAMETER_NAME    .UNIT     VALUE                         : DESCRIPTION
#_______________________________________________________________________________
STRT               .M        900                           : First reference value
STOP               .M        1192                          : Last reference value
STEP               .M        0.2                           : Step increment
NULL               .         -9999                         : Missing value
COMP               .         АО РД КМГ филиал "Инженерный  центр": Company
WELL               .         7908                          : Well name
FLD                .         Узень                         : Field
LOC                .                                       : Location
CNTY               .                                       : County
STAT               .                                       : State
CTRY               .         Казахстан                     : Country
SRVC               .                                       : Service Company
DATE               .         25.06.2010.                   : Date
UWI                .                                       : Unique Well ID
_скв_14_гор_       .         7                             : 
Block              .         7                             : 
Category           .         Нефтяная                      : 
Condition          .         В работе                      : 
Date               .         13.04.2003                    : 
EREF               .m        95.1                          : 100.8
Gorizont           .         14                            : 14
Interpretator      .         Бекбулатова А.А.              : 
Kupol              .         Основной                      : osnovnoi
Mud                .         0                             : 
Mud_density        .         0                             : 
Mud_resistivity    .         0                             : 
NGDU               .         НГДУ-2                        : 
ORIGINALWELLNAME   .         7908                          : 
Spud_date          .         2003                          : 1961
Viscosity          .         0                             : 
X                  .m        42252.8                       : 46154
Y                  .m        85000.93                      : 85761.93
YEAR               .         2019                          : 
Исправлено_14      .         +                             : 
Отбивки_горизонт_14 .         1                             : 
~Parameter Information Block
#_______________________________________________________________________________
#
#PARAMETER_NAME    .UNIT     VALUE                         : DESCRIPTION
#_______________________________________________________________________________
SET                .         LQC_KAZNIPI_Petrel            : 
TLFamily_CALI      .         Caliper                       : 
TLFamily_CILD      .         Conductivity                  : 
TLFamily_COLL      .         Net Reservoir Flag            : 
TLFamily_CSAT      .         Fluid Code                    : 
TLFamily_DEPT      .         Measured Depth                : 
TLFamily_GR        .         Russian Gamma Ray             : 
TLFamily_GZ1       .         Gradient 045                  : 
TLFamily_GZ2       .         Gradient 105                  : 
TLFamily_GZ3       .         Gradient 225                  : 
TLFamily_GZ4       .         Gradient 425                  : 
TLFamily_GZ5       .         Gradient 850                  : 
TLFamily_LLS       .         Lateral Log Resistivity       : 
TLFamily_MINV      .         Micro Gradient Resistivity    : 
TLFamily_MNOR      .         Micro Resistivity             : 
TLFamily_NGLD      .         Neutron Gamma                 : 
TLFamily_OGZ       .         Gradient Inverted 225         : 
TLFamily_PHIE      .         Effective Porosity            : 
TLFamily_PHIEN     .         Effective Porosity            : 
TLFamily_PHIT      .         Porosity                      : 
TLFamily_PRMB      .         Permeability                  : 
TLFamily_PRMB_DGR  .         Permeability                  : 
TLFamily_RT        .         Formation Resistivity         : 
TLFamily_SOIL_ARCHIE .         Oil Saturation                : 
TLFamily_SOIL_DW   .         Oil Saturation                : 
TLFamily_SP        .         Spontaneous Potential         : 
TLFamily_VSH_FIN   .         Shale Volume                  : 
TLFamily_VSH_GR    .         Shale Volume                  : 
TLFamily_VSH_SP    .         Shale Volume                  : 
~Curve Information
#_______________________________________________________________________________
#
#LOGNAME           .UNIT     LOG_ID                        : DESCRIPTION
#_______________________________________________________________________________
DEPT               .M                                      : Колонка глубины 
CALI               .м                                      : Каверномер 
CILD               .мСм/м                                  : Индукционный каротаж 
COLL               .unitless                               : Описание 
CSAT               .unitless                               : Описание 
GR                 .uR/h                                   : Гамма каротаж 
GZ1                .Ом·м                                   :  
GZ2                .Ом·м                                   :  
GZ3                .Ом·м                                   :  
GZ4                .Ом·м                                   :  
GZ5                .Ом·м                                   :  
LLS                .Ohmm                                   : Боковой каротаж 
MINV               .Ohmm                                   : Микро-градиент зонд 
MNOR               .Ohmm                                   : Микро-потенциал зонд 
NGLD               .у.е.                                   : Показания зонда НГК-60 аппаратуры ДРСТ-3-90 
OGZ                .Ом·м                                   :  
PHIE               .v/v                                    : Описание 
PHIEN              .v/v                                    :  
PHIT               .v/v                                    : Описание 
PRMB               .mD                                     :  
PRMB_DGR           .mD                                     :  
RT                 .ohmm                                   : УЭС пласта 
SOIL_ARCHIE        .v/v                                    :  
SOIL_DW            .v/v                                    :  
SP                 .мВ                                     : Потенциал самополяризации 
VSH_FIN            .v/v                                    : Описание 
VSH_GR             .v/v                                    : Shale volume 
VSH_SP             .v/v                                    : Shale Volume 
~Ascii
# ...
993.6      -9999      1098.04    -9999      -9999      8.247      2.521      3.805      3.88       3.242      2.686      2.055      1.102      2.381      2.985      2.462      0.1434325  0.1434325  0.341102   1.270213   1.087853   1.775      0.07296855 0.4240388  94.084     0.5989984  0.6268756  0.5711213 
993.8      -9999      1106.488   -9999      -9999      8.067      2.242      3.348      3.703      3.058      2.66       1.957      1.109      2.268      2.962      2.406      0.1513823  0.1513823  0.3421784  1.782894   1.256987   1.761      0.1122226  0.4343247  93.937     0.57817    0.5909545  0.5653855 
994        -9999      1112.314   -9999      -9999      8.043      2.229      3.301      3.599      3.042      2.617      1.966      1.092      2.218      2.922      2.34       0.1568146  0.1568146  0.3440504  2.247736   1.281442   1.752      0.1369961  0.4422195  93.495     0.5673811  0.5863232  0.5484391 
994.2000000000001 -9999      1114.028   -9999      -9999      8.079      2.38       3.428      3.417      2.941      2.516      1.967      1.004      2.067      2.871      2.247      0.1611398  0.1611398  0.3464372  2.703074   1.244935   1.749      0.1565281  0.4498116  92.993     0.5615073  0.593284   0.5297307 
994.4      -9999      1112.807   -9999      -9999      8.134      2.367      3.446      3.107      2.775      2.371      1.891      0.851      1.926      2.825      2.189      0.1626495  0.1626495  0.34859    2.882843   1.19116    1.751      0.1637994  0.454168   92.804     0.5634561  0.6040781  0.5228341 
994.6      -9999      1109.926   -9999      -9999      8.178      2.122      3.039      2.77       2.511      2.322      1.686      0.756      1.831      2.793      2.217      0.1624472  0.1624472  0.3500876  2.858078   1.149816   1.756      0.1640119  0.4561418  92.846     0.5686073  0.6128548  0.5243598 
994.8      -9999      1106.876   -9999      -9999      8.223      1.879      2.739      2.56       2.363      2.318      1.512      0.738      1.857      2.847      2.392      0.1557099  0.1557099  0.3475604  2.144286   1.109017   1.761      0.1337511  0.4456963  93.291     0.5813652  0.6219627  0.5407678 
995        -9999      1103.429   -9999      -9999      8.232      1.625      2.364      2.412      2.329      2.322      1.435      0.816      1.976      2.983      2.626      0.1457463  0.1457463  0.3411956  1.401953   1.101032   1.766      0.08361629 0.4260722  93.817     0.5922706  0.6238006  0.5607405 
995.2000000000001 -9999      1098.793   -9999      -9999      8.205      1.529      2.319      2.447      2.417      2.53       1.545      1.066      2.436      3.189      2.882      0.1353902  0.1353902  0.3315548  0.9013914  1.12516    1.774      0.02493024 0.4008788  94.07      0.5944381  0.6183034  0.5705729 
995.4      -9999      1092       -9999      -9999      8.131      1.445      2.173      2.647      2.616      2.714      1.951      1.366      3.065      3.395      2.972      0.1301283  0.1301283  0.321914   0.7201958  1.194032   1.785      0          0.382562   93.768     0.5811687  0.6034842  0.5588531 
995.6      -9999      1083.58    -9999      -9999      8.068      1.773      2.549      2.89       2.938      2.828      2.469      1.596      3.579      3.601      2.874      0.1250249  0.1250249  0.3122732  0.5793257  1.255979   1.798      0          0.3635851  93.369     0.5674191  0.5911482  0.5436899 
995.8      -9999      1077.102   -9999      -9999      8.015      2.309      2.766      3.053      3.061      2.901      2.947      1.62       3.683      3.79       2.645      0.1199083  0.1199083  0.303428   0.4657486  1.310574   1.809      0          0.3439283  93.035     0.5561202  0.5809659  0.5312744 
996        -9999      1075.616   -9999      -9999      7.984      2.939      2.988      3.058      3.016      2.923      2.987      1.465      3.296      3.922      2.37       0.1145725  0.1145725  0.2972504  0.3709521  1.343602   1.812      0          0.3247956  93.056     0.5535696  0.5750916  0.5320475 
996.2000000000001 -9999      1082.021   -9999      -9999      7.997      3.447      3.492      2.968      2.889      2.852      2.718      1.221      2.761      3.988      2.159      0.1098552  0.1098552  0.2941616  0.3033488  1.329651   1.801      0          0.3078388  93.256     0.5585043  0.5775477  0.539461  
996.4      -9999      1094.316   -9999      -9999      8.121      3.041      3.663      2.853      2.743      2.738      2.293      1.012      2.333      3.929      2.077      0.1054376  0.1054376  0.2969228  0.251257   1.203656   1.781      0          0.2980323  93.772     0.5802582  0.6015092  0.5590071 
996.6      -9999      1109.264   -9999      -9999      8.35       2.745      3.813      2.782      2.655      2.648      1.997      0.883      2.153      3.784      2.093      0.1014019  0.1014019  0.3037088  0.2115277  1.001513   1.757      0          0.2940695  94.251     0.6130512  0.6484044  0.5776981 
996.8      -9999      1123.816   -9999      -9999      8.655      2.423      3.975      2.757      2.582      2.576      1.86       0.884      2.194      3.561      2.073      0.09746265 0.09746265 0.3141452  0.1788145  0.783993   1.734      0          0.2956108  94.723     0.6566138  0.7165887  0.5966389 
997        -9999      1135.213   -9999      -9999      8.91       2.181      4.01       2.704      2.524      2.55       1.812      0.898      2.18       3.339      2.067      0.09605689 0.09605689 0.3245348  0.1684088  0.6388533  1.717      0          0.3039333  94.943     0.6923573  0.7790681  0.6056466 
997.2000000000001 -9999      1146.592   -9999      -9999      9.097      2.352      3.75       2.706      2.471      2.534      1.784      0.942      2.216      3.116      2.104      0.1002119  0.1002119  0.3349712  0.2010602  0.5497932  1.7        0          0.3246594  95.354     0.7113917  0.8        0.6227834 
997.4      -9999      1155.987   -9999      -9999      9.181      2.104      3.43       2.79       2.455      2.475      1.749      0.952      2.092      2.897      2.14       0.1080855  0.1080855  0.3452204  0.2812956  0.5139386  1.686      0          0.3519537  95.692     0.7185907  0.8        0.6371814 
997.6      -9999      1166.404   -9999      -9999      9.184      2.021      3.127      2.862      2.405      2.399      1.698      0.918      1.877      2.735      2.179      0.1137869  0.1137869  0.352802   0.3587297  0.512702   1.671      0          0.3694235  95.955     0.7242882  0.8        0.6485764 
997.8      -9999      1173.024   -9999      -9999      9.131      1.966      2.922      2.863      2.324      2.362      1.658      0.821      1.559      2.628      2.192      0.1203407  0.1203407  0.3578096  0.474417   0.5349888  1.661      0          0.385285   95.739     0.7196026  0.8        0.6392053 
998        -9999      1177.573   -9999      -9999      9.075      1.888      2.719      2.794      2.243      2.341      1.611      0.72       1.398      2.583      2.236      0.1277116  0.1277116  0.3599156  0.649662   0.5595905  1.655      0          0.3990946  94.983     0.7036484  0.8        0.6072968 
998.2000000000001 -9999      1177.573   -9999      -9999      9.022      1.779      2.456      2.719      2.216      2.322      1.628      0.69       1.387      2.582      2.322      0.1337274  0.1337274  0.3599624  0.8396798  0.5839152  1.655      0          0.4088429  94.084     0.6855606  0.8        0.5711213 
998.4      -9999      1175.458   -9999      -9999      8.974      1.763      2.362      2.666      2.251      2.325      1.707      0.705      1.284      2.624      2.388      0.1405113  0.1405113  0.3579968  1.121419   0.6068566  1.658      0.02551679 0.4177274  92.795     0.659047   0.7955864  0.5225076 
998.6      -9999      1171.889   -9999      -9999      8.938      1.784      2.447      2.618      2.265      2.322      1.832      0.73       1.152      2.703      2.384      0.1437497  0.1437497  0.3542996  1.287514   0.624652   1.663      0.04601429 0.419569   91.867     0.6380299  0.7862521  0.4898076 
