~Version
 VERS              .         2.0                           : CWLS LOG ASCII STANDARD - VERSION 2.0
 WRAP              .         NO                            : ONE LINE PER DEPTH STEP
 DLM               .         SPACE                         : DELIMITING CHARACTER(SPACE TAB OR COMMA)
~Well Information
#_______________________________________________________________________________
#
#PARAMETER_NAME    .UNIT     VALUE                         : DESCRIPTION
#_______________________________________________________________________________
STRT               .M        900                           : First reference value
STOP               .M        1192                          : Last reference value
STEP               .M        0.2                           : Step increment
NULL               .         -9999                         : Missing value
COMP               .         АО РД КМГ филиал "Инженерный  центр": Company
WELL               .         7908                          : Well name
FLD                .         Узень                         : Field
LOC                .                                       : Location
CNTY               .                                       : County
STAT               .                                       : State
CTRY               .         Казахстан                     : Country
SRVC               .                                       : Service Company
DATE               .         25.06.2010.                   : Date
UWI                .                                       : Unique Well ID
_скв_14_гор_       .         7                             : 
Block              .         7                             : 
Category           .         Нефтяная                      : 
Condition          .         В работе                      : 
Date               .         13.04.2003                    : 
EREF               .m        95.1                          : 100.8
Gorizont           .         14                            : 14
Interpretator      .         Бекбулатова А.А.              : 
Kupol              .         Основной                      : osnovnoi
Mud                .         0                             : 
Mud_density        .         0                             : 
Mud_resistivity    .         0                             : 
NGDU               .         НГДУ-2                        : 
ORIGINALWELLNAME   .         7908                          : 
Spud_date          .         2003                          : 1961
Viscosity          .         0                             : 
X                  .m        42252.8                       : 46154
Y                  .m        85000.93                      : 85761.93
YEAR               .         2019                          : 
Исправлено_14      .         +                             : 
Отбивки_горизонт_14 .         1                             : 
~Parameter Information Block
#_______________________________________________________________________________
#
#PARAMETER_NAME    .UNIT     VALUE                         : DESCRIPTION
#_______________________________________________________________________________
SET                .         LQC_KAZNIPI_Petrel            : 
TLFamily_CALI      .         Caliper                       : 
TLFamily_CILD      .         Conductivity                  : 
TLFamily_COLL      .         Net Reservoir Flag            : 
TLFamily_CSAT      .         Fluid Code                    : 
TLFamily_DEPT      .         Measured Depth                : 
TLFamily_GR        .         Russian Gamma Ray             : 
TLFamily_GZ1       .         Gradient 045                  : 
TLFamily_GZ2       .         Gradient 105                  : 
TLFamily_GZ3       .         Gradient 225                  : 
TLFamily_GZ4       .         Gradient 425                  : 
TLFamily_GZ5       .         Gradient 850                  : 
TLFamily_LLS       .         Lateral Log Resistivity       : 
TLFamily_MINV      .         Micro Gradient Resistivity    : 
TLFamily_MNOR      .         Micro Resistivity             : 
TLFamily_NGLD      .         Neutron Gamma                 : 
TLFamily_OGZ       .         Gradient Inverted 225         : 
TLFamily_PHIE      .         Effective Porosity            : 
TLFamily_PHIEN     .         Effective Porosity            : 
TLFamily_PHIT      .         Porosity                      : 
TLFamily_PRMB      .         Permeability                  : 
TLFamily_PRMB_DGR  .         Permeability                  : 
TLFamily_RT        .         Formation Resistivity         : 
TLFamily_SOIL_ARCHIE .         Oil Saturation                : 
TLFamily_SOIL_DW   .         Oil Saturation                : 
TLFamily_SP        .         Spontaneous Potential         : 
TLFamily_VSH_FIN   .         Shale Volume                  : 
TLFamily_VSH_GR    .         Shale Volume                  : 
TLFamily_VSH_SP    .         Shale Volume                  : 
~Curve Information
#_______________________________________________________________________________
#
#LOGNAME           .UNIT     LOG_ID                        : DESCRIPTION
#_______________________________________________________________________________
DEPT               .M                                      : Колонка глубины 
CALI               .м                                      : Каверномер 
CILD               .мСм/м                                  : Индукционный каротаж 
COLL               .unitless                               : Описание 
CSAT               .unitless                               : Описание 
GR                 .uR/h                                   : Гамма каротаж 
GZ1                .Ом·м                                   :  
GZ2                .Ом·м                                   :  
GZ3                .Ом·м                                   :  
GZ4                .Ом·м                                   :  
GZ5                .Ом·м                                   :  
LLS                .Ohmm                                   : Боковой каротаж 
MINV               .Ohmm                                   : Микро-градиент зонд 
MNOR               .Ohmm                                   : Микро-потенциал зонд 
NGLD               .у.е.                                   : Показания зонда НГК-60 аппаратуры ДРСТ-3-90 
OGZ                .Ом·м                                   :  
PHIE               .v/v                                    : Описание 
PHIEN              .v/v                                    :  
PHIT               .v/v                                    : Описание 
PRMB               .mD                                     :  
PRMB_DGR           .mD                                     :  
RT                 .ohmm                                   : УЭС пласта 
SOIL_ARCHIE        .v/v                                    :  
SOIL_DW            .v/v                                    :  
SP                 .мВ                                     : Потенциал самополяризации 
VSH_FIN            .v/v                                    : Описание 
VSH_GR             .v/v                                    : Shale volume 
VSH_SP             .v/v                                    : Shale Volume 
~Ascii
# ...
1128.8     0.219      759.035    1          2          8.674      3.286      5.750999   7.618      4.595      3.512      3.422      1.564      2.623      2.717      6.268      0.3123139  0.3123139  0.3536444  1705.965   49.10104   2.568      0.6041841  0.656729   61.719     0.1252438  0.1323078  0.1181799 
1129       0.219      767.052    1          2          8.722      3.436      6.289999   7.844      4.909      3.527      4.045      1.669      2.87       2.722      6.355      0.3115785  0.3115785  0.3534104  1653.288   45.98567   2.541      0.6013984  0.6544313  61.315     0.1267632  0.135897   0.1176293 
1129.2     0.22       770.204    1          2          8.762      4.043      6.932      7.901      5.164      3.398      4.553      1.553      2.782      2.722      6.100999   0.3111238  0.3111238  0.3534104  1621.53    43.54111   2.53       0.6000776  0.6534648  61.083     0.1281414  0.1389623  0.1173205 
1129.4     0.221      768.281    1          2          8.759      4.673      7.475999   7.366      4.965      3.133      4.337      1.412      2.594      2.713      5.771      0.31155    0.31155    0.3538316  1651.274   43.71985   2.537      0.6010717  0.6543814  61.235     0.1281261  0.13873    0.1175223 
1129.6     0.222      762.663    1          2          8.734      4.736      7.463      6.35       4.497      2.854      3.689      1.354      2.516      2.695      5.731      0.312556   0.312556   0.354674   1723.67    45.23822   2.555      0.603508   0.6565431  61.913     0.1276303  0.1368094  0.1184511 
1129.8     0.224      754.854    1          2          8.685      4.117      6.585      5.409      4.054      2.619      3.142      1.405      2.563      2.695      5.85       0.3128313  0.3128313  0.354674   1744.024   48.36892   2.582      0.6057614  0.6584721  63.239     0.1267961  0.1331219  0.1204703 
1130       0.225      745.855    1          2          8.637      3.631      6.43       4.945      3.857      2.492      3.058      1.455      2.545      2.747      5.915      0.3107489  0.3107489  0.3522404  1595.81    51.64574   2.613      0.605676   0.6581885  64.03      0.1257319  0.129606   0.1218577 
1130.2     0.226      737.252    1          2          8.452      3.357      6.149001   4.843      3.935      2.527      3.214      1.484      2.482      2.826      5.967      0.3089035  0.3089035  0.3485432  1475.025   66.4898    2.643      0.6057428  0.6572026  64.78      0.1201204  0.1169021  0.1233387 
1130.4     0.226      728.155    1          2          8.262      3.431      5.861001   4.917      4.112      2.697      3.457      1.465      2.378      2.974      6.021      0.3030599  0.3030599  0.3416168  1149.642   86.18674   2.677      0.6015273  0.6526251  66.856     0.1168391  0.10515    0.1285282 
1130.6     0.225      719.949    1          2          8.088      3.514      5.567      5.085      4.443      2.953      3.763      1.496      2.367      3.207      6.138      0.2926544  0.2926544  0.3307124  737.6111   109.3041   2.707      0.5913582  0.6427841  68.787     0.1153273  0.0954269  0.1352277 
1130.8     0.223      713.149    1          2          8.018      3.633      5.401      5.413      4.96       3.295      4.195      1.583      2.796      3.526      6.271999   0.2768164  0.2768164  0.3157832  375.378    120.2687   2.733      0.5729883  0.626175   70.743     0.1180813  0.09177373 0.1443889 
1131       0.221      710.769    6          6          7.957      3.781      5.922999   6.011001   5.583      3.86       4.674      1.958      3.643      3.842      6.315001   0.2610858  0.2610858  0.3009944  191.9113   130.7166   2.742      0.5513586  0.606688   72.213     0.1209351  0.08870452 0.1531658 
1131.2     0.22       713.143    6          6          7.865      4.181      6.602001   6.756      6.309      4.428      5.871      2.221      4.113      4.08       6.292      0.2494628  0.2494628  0.289856   116.9      148.2157   2.733      0.532486   0.5895355  73.259     0.1224036  0.08426857 0.1605386 
1131.4     0.22       720.982    6          6          7.796      4.12       7.065      7.712999   7.447001   4.892      7.639      2.216      3.737      4.212      6.055      0.2433592  0.2433592  0.2836784  90.10763   162.8609   2.703      0.5198093  0.5776962  73.614     0.1221793  0.08108781 0.1632708 
1131.6     0.22       735.709    6          6          7.739      4.787      9.06       8.812999   8.169      5.224      8.708      1.834      2.798      4.226      5.582      0.2439008  0.2439008  0.2830232  92.21301   176.0446   2.65       0.5162637  0.5733309  72.991     0.1185528  0.07855097 0.1585547 
1131.8     0.22       757.389    6          6          7.78       6.093      11.099     9.409      8.384      5.237      8.248      1.579      2.372      4.143      4.981      0.2487967  0.2487967  0.2869076  113.6256   166.4585   2.575      0.5181163  0.5741557  71.814     0.1154877  0.08036757 0.1506077 
1132       0.221      782.042    6          6          7.97       6.992001   13.002     9.453      7.948      4.916      6.409      1.518      2.443      4.005      4.232      0.2551395  0.2551395  0.293366   148.9224   128.4165   2.494      0.5214428  0.5773467  70.349     0.1158379  0.0893499  0.142326  
1132.2     0.221      809.753    6          6          8.2        7.079999   14.331     8.845      6.354001   4.362      4.731      1.534      2.612      3.783      3.515      0.2646179  0.2646179  0.3037556  223.1125   93.80193   2.408      0.5287102  0.5848743  68.884     0.1185991  0.1015768  0.1356214 
1132.4     0.22       840.973    1          2          8.404      5.697      13.031     7.824      5.044      3.704      3.652      1.472      2.549      3.474      3.049      0.2779682  0.2779682  0.3182168  394.2788   70.99417   2.32       0.5405291  0.5967604  67.371     0.1219654  0.1138147  0.1301162 
1132.6     0.22       877.249    1          2          8.464      4.869      11.587     6.903      4.142      3.078      3.175      1.437      2.497      3.153      2.829      0.2929233  0.2929233  0.3332396  746.1183   65.40908   2.224      0.5522365  0.6077678  66.186     0.1221707  0.117687   0.1266543 
1132.8     0.22       911.957    1          2          8.472      4.309      9.438      6.388999   3.479      2.531      3.074      1.443      2.515      2.933      2.783      0.303476   0.303476   0.3435356  1170.225   64.69835   2.139      0.5578154  0.6128586  65.342     0.1213928  0.1182132  0.1245723 
1133       0.219      942.77     1          2          8.451      3.836      8.153999   6.096      2.97       2.196      3.004      1.445      2.532      2.834      2.802      0.3084922  0.3084922  0.3481688  1449.382   66.58064   2.068      0.5571242  0.6120057  64.916     0.1202319  0.116837   0.1236269 
1133.2     0.219      966.534    1          2          8.455      3.717      7.043      5.949      2.746      2.048      2.953      1.434      2.497      2.797      2.818      0.3102826  0.3102826  0.3499004  1564.392   66.21796   2.017      0.5541569  0.6092133  64.621     0.1200538  0.1170979  0.1230098 
1133.4     0.218      986.559    1          2          8.459      3.681      6.145      5.817      2.602      1.989      2.918      1.417      2.456      2.775      2.842      0.3113253  0.3113253  0.35093    1635.527   65.85725   1.976      0.5511528  0.6064084  64.452     0.1200143  0.1173593  0.1226692 
1133.6     0.218      1001.507   1          2          8.434      3.733      5.761      5.647      2.499      1.994      2.869      1.429      2.478      2.773      2.89       0.3116843  0.3116843  0.3510236  1660.765   68.14443   1.946      0.5483726  0.603642   64.46      0.1192099  0.1157347  0.1226851 
1133.8     0.218      1012.889   1          2          8.389      3.707      5.466      5.477      2.421      2.041      2.821      1.455      2.529      2.783      2.965      0.3116528  0.3116528  0.3505556  1658.531   72.46347   1.924      0.5459165  0.6010606  64.571     0.1178873  0.1128666  0.122908  
