~Version
 VERS              .         2.0                           : CWLS LOG ASCII STANDARD - VERSION 2.0
 WRAP              .         NO                            : ONE LINE PER DEPTH STEP
 DLM               .         SPACE                         : DELIMITING CHARACTER(SPACE TAB OR COMMA)
~Well Information
#_______________________________________________________________________________
#
#PARAMETER_NAME    .UNIT     VALUE                         : DESCRIPTION
#_______________________________________________________________________________
STRT               .M        900                           : First reference value
STOP               .M        1192                          : Last reference value
STEP               .M        0.2                           : Step increment
NULL               .         -9999                         : Missing value
COMP               .         АО РД КМГ филиал "Инженерный  центр": Company
WELL               .         7908                          : Well name
FLD                .         Узень                         : Field
LOC                .                                       : Location
CNTY               .                                       : County
STAT               .                                       : State
CTRY               .         Казахстан                     : Country
SRVC               .                                       : Service Company
DATE               .         25.06.2010.                   : Date
UWI                .                                       : Unique Well ID
_скв_14_гор_       .         7                             : 
Block              .         7                             : 
Category           .         Нефтяная                      : 
Condition          .         В работе                      : 
Date               .         13.04.2003                    : 
EREF               .m        95.1                          : 100.8
Gorizont           .         14                            : 14
Interpretator      .         Бекбулатова А.А.              : 
Kupol              .         Основной                      : osnovnoi
Mud                .         0                             : 
Mud_density        .         0                             : 
Mud_resistivity    .         0                             : 
NGDU               .         НГДУ-2                        : 
ORIGINALWELLNAME   .         7908                          : 
Spud_date          .         2003                          : 1961
Viscosity          .         0                             : 
X                  .m        42252.8                       : 46154
Y                  .m        85000.93                      : 85761.93
YEAR               .         2019                          : 
Исправлено_14      .         +                             : 
Отбивки_горизонт_14 .         1                             : 
~Parameter Information Block
#_______________________________________________________________________________
#
#PARAMETER_NAME    .UNIT     VALUE                         : DESCRIPTION
#_______________________________________________________________________________
SET                .         LQC_KAZNIPI_Petrel            : 
TLFamily_CALI      .         Caliper                       : 
TLFamily_CILD      .         Conductivity                  : 
TLFamily_COLL      .         Net Reservoir Flag            : 
TLFamily_CSAT      .         Fluid Code                    : 
TLFamily_DEPT      .         Measured Depth                : 
TLFamily_GR        .         Russian Gamma Ray             : 
TLFamily_GZ1       .         Gradient 045                  : 
TLFamily_GZ2       .         Gradient 105                  : 
TLFamily_GZ3       .         Gradient 225                  : 
TLFamily_GZ4       .         Gradient 425                  : 
TLFamily_GZ5       .         Gradient 850                  : 
TLFamily_LLS       .         Lateral Log Resistivity       : 
TLFamily_MINV      .         Micro Gradient Resistivity    : 
TLFamily_MNOR      .         Micro Resistivity             : 
TLFamily_NGLD      .         Neutron Gamma                 : 
TLFamily_OGZ       .         Gradient Inverted 225         : 
TLFamily_PHIE      .         Effective Porosity            : 
TLFamily_PHIEN     .         Effective Porosity            : 
TLFamily_PHIT      .         Porosity                      : 
TLFamily_PRMB      .         Permeability                  : 
TLFamily_PRMB_DGR  .         Permeability                  : 
TLFamily_RT        .         Formation Resistivity         : 
TLFamily_SOIL_ARCHIE .         Oil Saturation                : 
TLFamily_SOIL_DW   .         Oil Saturation                : 
TLFamily_SP        .         Spontaneous Potential         : 
TLFamily_VSH_FIN   .         Shale Volume                  : 
TLFamily_VSH_GR    .         Shale Volume                  : 
TLFamily_VSH_SP    .         Shale Volume                  : 
~Curve Information
#_______________________________________________________________________________
#
#LOGNAME           .UNIT     LOG_ID                        : DESCRIPTION
#_______________________________________________________________________________
DEPT               .M                                      : Колонка глубины 
CALI               .м                                      : Каверномер 
CILD               .мСм/м                                  : Индукционный каротаж 
COLL               .unitless                               : Описание 
CSAT               .unitless                               : Описание 
GR                 .uR/h                                   : Гамма каротаж 
GZ1                .Ом·м                                   :  
GZ2                .Ом·м                                   :  
GZ3                .Ом·м                                   :  
GZ4                .Ом·м                                   :  
GZ5                .Ом·м                                   :  
LLS                .Ohmm                                   : Боковой каротаж 
MINV               .Ohmm                                   : Микро-градиент зонд 
MNOR               .Ohmm                                   : Микро-потенциал зонд 
NGLD               .у.е.                                   : Показания зонда НГК-60 аппаратуры ДРСТ-3-90 
OGZ                .Ом·м                                   :  
PHIE               .v/v                                    : Описание 
PHIEN              .v/v                                    :  
PHIT               .v/v                                    : Описание 
PRMB               .mD                                     :  
PRMB_DGR           .mD                                     :  
RT                 .ohmm                                   : УЭС пласта 
SOIL_ARCHIE        .v/v                                    :  
SOIL_DW            .v/v                                    :  
SP                 .мВ                                     : Потенциал самополяризации 
VSH_FIN            .v/v                                    : Описание 
VSH_GR             .v/v                                    : Shale volume 
VSH_SP             .v/v                                    : Shale Volume 
~Ascii
# ...
1165.2     0.221      1001.989   1          2          9.07       3.211      4.187      4.509      3.64       3.368      3.095      1.348      2.412      3.17       3.255      0.282287   0.282287   0.332444   474.0217   28.59106   1.945      0.5075558  0.5733348  69.658     0.1519909  0.1650011  0.1389807 
1165.4     0.221      1014.543   1          2          9.039      4.011      4.728      4.62       3.329      3.362      2.711      1.247      2.264      3.18       2.879      0.2821852  0.2821852  0.331976   471.9686   29.82743   1.921      0.5045226  0.5702639  69.789     0.1508811  0.1621733  0.139589  
1165.6     0.22       1035.44    1          2          9.033      3.585      4.419      4.197      3.002      3.184      2.335      1.165      2.147      3.144      2.691      0.2838775  0.2838775  0.3336608  507.2926   30.07281   1.883      0.5024531  0.5683094  69.894     0.1508584  0.1616316  0.1400852 
1165.8     0.22       1052.768   1          2          9.026      3.24       4.504001   3.649      2.797      2.99       2.238      1.116      2.109      3.074      2.55       0.287199   0.287199   0.3369368  584.4934   30.36168   1.851      0.5034909  0.5691682  69.968     0.1507208  0.161002   0.1404396 
1166       0.221      1071.286   1          2          9.022      3.123      4.449      3.309      2.664      2.842      2.282      1.147      2.222      2.993      2.451      0.2909544  0.2909544  0.3407276  686.0237   30.52797   1.819      0.5050431  0.5705597  70.086     0.1508279  0.1606433  0.1410126 
1166.2     0.222      1089.407   1          2          9.034      2.89       4.365      3.105      2.651      2.741      2.324      1.205      2.333      2.952      2.439      0.2925957  0.2925957  0.3426464  735.7684   30.03177   1.789      0.5036035  0.5694007  70.208     0.1516687  0.1617218  0.1416156 
1166.4     0.224      1111.891   1          2          9.052      3.012      4.208      3.021      2.686      2.673      2.415      1.262      2.406      2.917      2.35       0.2951144  0.2951144  0.3442844  819.2042   29.30255   1.753      0.5025728  0.5677706  70.749     0.1490001  0.1633532  0.1444213 
1166.6     0.226      1132.789   1          2          9.08       3.086      4.253      3.047      2.694      2.569      2.401      1.313      2.447      2.859      2.022      0.2978288  0.2978288  0.3469988  919.749    28.20326   1.721      0.5022388  0.5674229  72.927     0.1490001  0.1578189  0.1580908 
1166.8     0.228      1154.083   1          2          9.216      3.138      4.18       3.117      2.614      2.393      2.248      1.265      2.353      2.8        1.487      0.2983167  0.2983167  0.34976    939.0917   23.42289   1.689      0.4985509  0.5656314  76.232     0.1558887  0.1578189  0.146153  
1167       0.23       1175.377   1          2          9.401      3.371      4.241      3.101      2.45       2.235      1.954      1.211      2.372      2.787      1.137      0.2943787  0.2943787  0.3503684  793.8989   18.19366   1.658      0.4882844  0.5595498  81.026     0.1696659  0.1636518  0.146153  
1167.2     0.23       1194.116   1          2          9.613      3.193      3.849      2.942      2.258      2.168      1.743      1.114      2.219      2.826      1.041      0.2914169  0.2914169  0.3485432  699.6893   13.6203    1.632      0.4799145  0.5528045  86.696     0.1731102  0.1636518  0.1694848 
1167.4     0.231      1211.841   -9999      -9999      9.738      2.494      3.121      2.707      2.124      2.245      1.658      1.109      2.236      2.872      1.085      0.2892641  0.2892641  0.3463904  638.3077   29.65888   1.608      0.4802258  0.5529996  90.761     0.1731102  0.162549   0.1811507 
1167.6     0.231      1228.376   -9999      -9999      10.05      1.918      2.929      2.564      2.335      2.579      1.727      1.207      2.407      2.903      1.291      0.2832668  0.2832668  0.3449396  494.2487   20.57909   1.587      0.4673788  0.5449281  92.427     0.1868874  0.1887115  0.1869836 
1167.8     0.231      1244.526   -9999      -9999      10.312     2.493      2.83       2.69       2.741      3.013      1.883      1.287      2.675      2.925      1.558      0.2765541  0.2765541  0.34391    371.2022   15.14032   1.566      0.4527262  0.5364061  92.28      0.2041089  0.2139073  0.2278143 
1168       0.232      1256.302   -9999      -9999      10.588     2.484      2.931      3.04       3.094      3.475      2.057      1.266      2.774      2.925      1.778      0.2640513  0.2640513  0.34391    217.785    10.95775   1.551      0.4276454  0.5249875  92.212     0.2419962  0.2440963  0.2336472 
1168.2     0.232      1267.284   -9999      -9999      10.704     2.273      3.129      3.394      3.3        4.433      2.115      1.112      2.568      2.873      1.932      0.2596652  0.2596652  0.3463436  180.6287   9.56548    1.538      0.4169358  0.5215816  92.133     0.262662   0.2580233  0.256979  
1168.4     0.232      1281.205   -9999      -9999      10.973     2.17       3.032      3.517      3.671      5.861001   2.027      0.954      2.341      2.765      2.275      0.2578998  0.2578998  0.351398   167.5284   6.979989   1.521      0.410394   0.521592   91.986     0.2833278  0.293454   0.2744779 
1168.6     0.232      1297.344   -9999      -9999      11.261     2.81       3.139      3.64       4.823      7.167      1.815      0.967      2.37       2.643      3.24       0.2391397  0.2391397  0.3571076  75.26707   4.981224   1.502      0.3665819  0.5079498  92.014     0.3574786  0.3367972  0.3328074 
1168.8     0.233      1317.929   -9999      -9999      11.577     2.887      3.37       4.292      6.533      7.875999   1.717      1.015      2.602      2.518      4.391      0.2324219  0.2324219  0.3629576  56.51662   3.440114   1.479      0.345947   0.5031171  92.785     0.3955626  0.3917541  0.3386403 
1169       0.234      1340.413   -9999      -9999      12.081     2.612      5.037      5.452      7.362      7.989      1.672      1.13       2.945      2.42       4.292      0.2119505  0.2119505  0.367544   23.60455   1.906184   1.454      0.2855653  0.4837523  94.299     0.4714954  0.4985554  0.4444354 
1169.2     0.234      1364.087   -9999      -9999      12.544     2.555      4.696      5.688      5.621      7.472      1.699      1.209      3.266      2.376      3.125      0.1821151  0.1821151  0.3696032  6.612579   1.108196   1.429      0.1779789  0.449151   96.38      0.5681459  0.622151   0.5141407 
1169.4     0.235      1384.9     -9999      -9999      12.91      2.072      3.196      4.274      3.843      6.019      1.736      1.101      2.917      2.39       2.192      0.1509552  0.1509552  0.368948   1.75071    0.7217979  1.407      0.02495274 0.4034346  98.126     0.6605843  0.741187   0.5799816 
1169.6     0.235      1403.814   -9999      -9999      12.931     2.313      2.592      2.814      2.842      3.803      1.701      0.928      2.417      2.446      1.653      0.1439842  0.1439842  0.3663272  1.300452   0.7042584  1.388      0          0.3860892  98.595     0.6737667  0.7486697  0.5988638 
1169.8     0.235      1421.539   -9999      -9999      12.951     2.379      2.365      1.894      2.14       2.442      1.59       0.736      1.888      2.491      1.362      0.137122   0.137122   0.3642212  0.97049    0.6879501  1.371      0          0.3689381  99.117     0.6881793  0.7558665  0.620492  
1170       0.234      1439.66    -9999      -9999      12.96      1.82       2.055      1.216      1.483      1.874      1.439      0.747      1.955      2.538      1.238      0.1327496  0.1327496  0.3620216  0.8053851  0.6807351  1.354      0          0.3550521  99.351     0.6947635  0.7591275  0.6303995 
1170.2     0.234      1453.748   -9999      -9999      12.922     1.624      2.138      1.149      1.229      1.503      1.353      0.773      2.128      2.573      1.23       0.1346759  0.1346759  0.3603836  0.8743461  0.7117223  1.341      0          0.3533999  99.164     0.6839626  0.7454537  0.6224715 
