~Version
 VERS              .         2.0                           : CWLS LOG ASCII STANDARD - VERSION 2.0
 WRAP              .         NO                            : ONE LINE PER DEPTH STEP
 DLM               .         SPACE                         : DELIMITING CHARACTER(SPACE TAB OR COMMA)
~Well Information
#_______________________________________________________________________________
#
#PARAMETER_NAME    .UNIT     VALUE                         : DESCRIPTION
#_______________________________________________________________________________
STRT               .M        900                           : First reference value
STOP               .M        1192                          : Last reference value
STEP               .M        0.2                           : Step increment
NULL               .         -9999                         : Missing value
COMP               .         АО РД КМГ филиал "Инженерный  центр": Company
WELL               .         7908                          : Well name
FLD                .         Узень                         : Field
LOC                .                                       : Location
CNTY               .                                       : County
STAT               .                                       : State
CTRY               .         Казахстан                     : Country
SRVC               .                                       : Service Company
DATE               .         25.06.2010.                   : Date
UWI                .                                       : Unique Well ID
_скв_14_гор_       .         7                             : 
Block              .         7                             : 
Category           .         Нефтяная                      : 
Condition          .         В работе                      : 
Date               .         13.04.2003                    : 
EREF               .m        95.1                          : 100.8
Gorizont           .         14                            : 14
Interpretator      .         Бекбулатова А.А.              : 
Kupol              .         Основной                      : osnovnoi
Mud                .         0                             : 
Mud_density        .         0                             : 
Mud_resistivity    .         0                             : 
NGDU               .         НГДУ-2                        : 
ORIGINALWELLNAME   .         7908                          : 
Spud_date          .         2003                          : 1961
Viscosity          .         0                             : 
X                  .m        42252.8                       : 46154
Y                  .m        85000.93                      : 85761.93
YEAR               .         2019                          : 
Исправлено_14      .         +                             : 
Отбивки_горизонт_14 .         1                             : 
~Parameter Information Block
#_______________________________________________________________________________
#
#PARAMETER_NAME    .UNIT     VALUE                         : DESCRIPTION
#_______________________________________________________________________________
SET                .         LQC_KAZNIPI_Petrel            : 
TLFamily_CALI      .         Caliper                       : 
TLFamily_CILD      .         Conductivity                  : 
TLFamily_COLL      .         Net Reservoir Flag            : 
TLFamily_CSAT      .         Fluid Code                    : 
TLFamily_DEPT      .         Measured Depth                : 
TLFamily_GR        .         Russian Gamma Ray             : 
TLFamily_GZ1       .         Gradient 045                  : 
TLFamily_GZ2       .         Gradient 105                  : 
TLFamily_GZ3       .         Gradient 225                  : 
TLFamily_GZ4       .         Gradient 425                  : 
TLFamily_GZ5       .         Gradient 850                  : 
TLFamily_LLS       .         Lateral Log Resistivity       : 
TLFamily_MINV      .         Micro Gradient Resistivity    : 
TLFamily_MNOR      .         Micro Resistivity             : 
TLFamily_NGLD      .         Neutron Gamma                 : 
TLFamily_OGZ       .         Gradient Inverted 225         : 
TLFamily_PHIE      .         Effective Porosity            : 
TLFamily_PHIEN     .         Effective Porosity            : 
TLFamily_PHIT      .         Porosity                      : 
TLFamily_PRMB      .         Permeability                  : 
TLFamily_PRMB_DGR  .         Permeability                  : 
TLFamily_RT        .         Formation Resistivity         : 
TLFamily_SOIL_ARCHIE .         Oil Saturation                : 
TLFamily_SOIL_DW   .         Oil Saturation                : 
TLFamily_SP        .         Spontaneous Potential         : 
TLFamily_VSH_FIN   .         Shale Volume                  : 
TLFamily_VSH_GR    .         Shale Volume                  : 
TLFamily_VSH_SP    .         Shale Volume                  : 
~Curve Information
#_______________________________________________________________________________
#
#LOGNAME           .UNIT     LOG_ID                        : DESCRIPTION
#_______________________________________________________________________________
DEPT               .M                                      : Колонка глубины 
CALI               .м                                      : Каверномер 
CILD               .мСм/м                                  : Индукционный каротаж 
COLL               .unitless                               : Описание 
CSAT               .unitless                               : Описание 
GR                 .uR/h                                   : Гамма каротаж 
GZ1                .Ом·м                                   :  
GZ2                .Ом·м                                   :  
GZ3                .Ом·м                                   :  
GZ4                .Ом·м                                   :  
GZ5                .Ом·м                                   :  
LLS                .Ohmm                                   : Боковой каротаж 
MINV               .Ohmm                                   : Микро-градиент зонд 
MNOR               .Ohmm                                   : Микро-потенциал зонд 
NGLD               .у.е.                                   : Показания зонда НГК-60 аппаратуры ДРСТ-3-90 
OGZ                .Ом·м                                   :  
PHIE               .v/v                                    : Описание 
PHIEN              .v/v                                    :  
PHIT               .v/v                                    : Описание 
PRMB               .mD                                     :  
PRMB_DGR           .mD                                     :  
RT                 .ohmm                                   : УЭС пласта 
SOIL_ARCHIE        .v/v                                    :  
SOIL_DW            .v/v                                    :  
SP                 .мВ                                     : Потенциал самополяризации 
VSH_FIN            .v/v                                    : Описание 
VSH_GR             .v/v                                    : Shale volume 
VSH_SP             .v/v                                    : Shale Volume 
~Ascii
# ...
1071.6     0.254      1130.831   -9999      -9999      11.297     2.284      2.966      2.49       2.391      2.087      1.834      1.008      2.437      2.695      2.347      0.1141075  0.1141075  0.354674   0.3636685  0.9661991  1.723      0          0.3817675  101.483    0.7289894  0.6579789  0.8       
1071.8     0.254      1130.686   -9999      -9999      11.168     2.143      2.954      2.497      2.393      2.041      1.78       0.997      2.354      2.665      2.418      0.1200451  0.1200451  0.356078   0.4684726  1.072591   1.723      0          0.3940122  104.518    0.7152513  0.6305026  0.8       
1072       0.254      1131.375   -9999      -9999      11.091     2.114      2.95       2.485      2.356      2.042      1.768      0.987      2.27       2.645      2.508      0.1235965  0.1235965  0.357014   0.5450851  1.141601   1.722      0          0.4009675  104.963    0.7073259  0.6146518  0.8       
1072.2     0.255      1131.042   -9999      -9999      11.03      2.11       2.953      2.466      2.283      1.941      1.765      0.978      2.332      2.663      2.607      0.1247792  0.1247792  0.3561716  0.5732862  1.199409   1.723      0          0.4022112  103.751    0.7011891  0.6023782  0.8       
1072.4     0.256      1128.367   -9999      -9999      10.982     2.027      2.761      2.446      2.251      2.036      1.793      0.994      2.36       2.697      2.697      0.1247531  0.1247531  0.3545804  0.5726475  1.246947   1.727      0          0.4011196  100.774    0.6964465  0.5928929  0.8       
1072.6     0.256      1122.163   -9999      -9999      10.889     2.033      2.712      2.444      2.295      2.109      1.847      1.056      2.497      2.73       2.725      0.1361689  0.1361689  0.353036   0.9318293  1.344482   1.737      0.02014453 0.4194902  97.683     0.657173   0.5749378  0.7394083 
1072.8     0.254      1113.621   -9999      -9999      10.76      2.111      2.781      2.503      2.323      2.109      1.943      1.14       2.587      2.748      2.733      0.1589341  0.1589341  0.3521936  2.460383   1.492528   1.75       0.1465708  0.4527607  95.054     0.5856349  0.5509292  0.6203408 
1073       0.252      1102.811   -9999      -9999      10.615     2.279      3.019      2.605      2.289      2.053      1.982      1.147      2.597      2.771      2.702      0.1683169  0.1683169  0.3511172  3.671093   1.678484   1.767      0.1918328  0.466058   94.136     0.5539403  0.5251374  0.5827432 
1073.2     0.249      1092.226   -9999      -9999      10.589     2.338      3          2.667      2.227      1.997      1.943      1.097      2.566      2.8        2.657      0.1623483  0.1623483  0.34976    2.846044   1.714199   1.784      0.1697545  0.4599879  94.931     0.5679144  0.520642   0.6151868 
1073.4     0.246      1082.037   -9999      -9999      10.747     2.313      2.994      2.648      2.17       2.071      1.844      1.022      2.497      2.815      2.674      0.1506406  0.1506406  0.349058   1.72738    1.508323   1.801      0.1177647  0.4465813  95.836     0.6012648  0.548566   0.6539636 
1073.6     0.245      1074.897   -9999      -9999      11.035     2.189      2.97       2.57       2.053      1.865      1.784      0.998      2.526      2.808      2.713      0.1438894  0.1438894  0.3493856  1.295203   1.194562   1.813      0.08467628 0.4393491  95.563     0.6227159  0.603375   0.6420568 
1073.8     0.246      1067.485   -9999      -9999      11.304     2.075      2.793      2.454      1.951      1.852      1.781      0.973      2.501      2.792      2.758      0.1471653  0.1471653  0.3501344  1.489417   0.9607374  1.826      0.1054523  0.4466977  93.829     0.6150579  0.6595036  0.5706121 
1074       0.247      1058.486   -9999      -9999      11.427     1.911      2.654      2.327      1.922      1.935      1.801      0.963      2.467      2.821      2.864      0.1595364  0.1595364  0.3487772  2.52441    0.8696556  1.841      0.1693742  0.4639621  90.73      0.5734568  0.6868798  0.4600339 
1074.2     0.248      1046.587   -9999      -9999      11.346     1.896      2.589      2.267      2.016      1.955      1.844      1.046      2.588      2.922      3.064      0.173928   0.173928   0.3440504  4.66365    0.9286115  1.862      0.233654   0.4798639  87.35      0.5155225  0.6687266  0.3623185 
1074.4     0.247      1033.622   -9999      -9999      11.184     1.995      2.573      2.346      2.237      2.186      2.025      1.297      3.064      3.056      3.407      0.1789776  0.1789776  0.3377792  5.784387   1.058784   1.886      0.2569988  0.4830895  85.966     0.481217   0.6338471  0.3285869 
1074.6     0.245      1019.467   -9999      -9999      11.032     2.256      2.895      2.608      2.457      2.176      2.371      1.516      3.505      3.156      3.7        0.1727613  0.1727613  0.3330992  4.437269   1.197468   1.912      0.2386746  0.4750573  87.607     0.4858725  0.6027766  0.3689684 
1074.8     0.242      1000.626   -9999      -9999      10.969     2.905      3.743      2.908      2.522      2.05       2.594      1.5        3.536      3.197      3.681      0.1492198  0.1492198  0.3311804  1.625811   1.260144   1.948      0.1426092  0.4480862  92.273     0.5513958  0.5903497  0.512442  
1075       0.239      981.474    -9999      -9999      10.927     3.086      3.73       3.035      2.34       2.032      2.509      1.287      3.057      3.221      3.331      0.1191066  0.1191066  0.3300572  0.4500926  1.303739   1.986      0          0.4053639  96.774     0.6392441  0.5822076  0.6962806 
1075.2     0.237      966.247    -9999      -9999      10.766     2.929      3.546      2.918      2.218      2.099      2.203      1.083      2.558      3.251      2.992      0.1056136  0.1056136  0.3286532  0.2531499  1.485294   2.017      0          0.3831148  98.885     0.6758776  0.5520232  0.799732  
1075.4     0.236      956.454    -9999      -9999      10.574     2.356      3.397      2.747      2.184      2.18       1.985      1.059      2.373      3.265      2.949      0.1129277  0.1129277  0.327998   0.3458224  1.735147   2.038      0          0.3995018  98.606     0.6517282  0.5180661  0.7853903 
1075.6     0.237      949.712    -9999      -9999      10.383     2.155      3.37       2.645      2.185      2.16       1.941      1.1        2.441      3.243      2.992      0.1311623  0.1311623  0.3290276  0.7526656  2.025389   2.052      0.06380281 0.4337169  97.128     0.5995918  0.4863585  0.7128251 
1075.8     0.239      944.159    -9999      -9999      10.342     2.181      3.484      2.641      2.208      2.028      1.984      1.163      2.645      3.217      3.022      0.1445137  0.1445137  0.3302444  1.330154   2.093764   2.064      0.1419512  0.456401   95.65      0.5628204  0.4798093  0.6458315 
1076       0.241      943.443    -9999      -9999      10.272     2.257      3.25       2.661      2.261      2.102      2.042      1.279      2.858      3.226      3.092      0.1531717  0.1531717  0.3298232  1.92429    2.215878   2.066      0.1847218  0.4679632  94.607     0.5353074  0.468831   0.6017839 
1076.2     0.244      946.131    -9999      -9999      10.055     2.265      3.102      2.702      2.369      2.269      2.226      1.446      3.236      3.328      3.119      0.1578264  0.1578264  0.3250496  2.346854   2.641569   2.06       0.2046188  0.4684255  93.994     0.5067369  0.436369   0.5771049 
1076.4     0.247      951.952    -9999      -9999      9.658      2.53       3.298      2.853      2.506      2.433      2.621      1.582      3.403      3.478      3.052      0.1618283  0.1618283  0.3180296  2.78363    3.643189   2.047      0.2194621  0.4646874  93.659     0.4733371  0.3826858  0.5639884 
1076.6     0.249      959.318    -9999      -9999      9.193      2.898      3.951      3.101      2.672      2.569      2.983      1.558      3.36       3.622      2.997      0.1671895  0.1671895  0.3112904  3.498758   5.309044   2.031      0.2385081  0.4623421  93.167     0.4366693  0.328145   0.5451936 
