~Version
 VERS              .         2.0                           : CWLS LOG ASCII STANDARD - VERSION 2.0
 WRAP              .         NO                            : ONE LINE PER DEPTH STEP
 DLM               .         SPACE                         : DELIMITING CHARACTER(SPACE TAB OR COMMA)
~Well Information
#_______________________________________________________________________________
#
#PARAMETER_NAME    .UNIT     VALUE                         : DESCRIPTION
#_______________________________________________________________________________
STRT               .M        900                           : First reference value
STOP               .M        1192                          : Last reference value
STEP               .M        0.2                           : Step increment
NULL               .         -9999                         : Missing value
COMP               .         АО РД КМГ филиал "Инженерный  центр": Company
WELL               .         7908                          : Well name
FLD                .         Узень                         : Field
LOC                .                                       : Location
CNTY               .                                       : County
STAT               .                                       : State
CTRY               .         Казахстан                     : Country
SRVC               .                                       : Service Company
DATE               .         25.06.2010.                   : Date
UWI                .                                       : Unique Well ID
_скв_14_гор_       .         7                             : 
Block              .         7                             : 
Category           .         Нефтяная                      : 
Condition          .         В работе                      : 
Date               .         13.04.2003                    : 
EREF               .m        95.1                          : 100.8
Gorizont           .         14                            : 14
Interpretator      .         Бекбулатова А.А.              : 
Kupol              .         Основной                      : osnovnoi
Mud                .         0                             : 
Mud_density        .         0                             : 
Mud_resistivity    .         0                             : 
NGDU               .         НГДУ-2                        : 
ORIGINALWELLNAME   .         7908                          : 
Spud_date          .         2003                          : 1961
Viscosity          .         0                             : 
X                  .m        42252.8                       : 46154
Y                  .m        85000.93                      : 85761.93
YEAR               .         2019                          : 
Исправлено_14      .         +                             : 
Отбивки_горизонт_14 .         1                             : 
~Parameter Information Block
#_______________________________________________________________________________
#
#PARAMETER_NAME    .UNIT     VALUE                         : DESCRIPTION
#_______________________________________________________________________________
SET                .         LQC_KAZNIPI_Petrel            : 
TLFamily_CALI      .         Caliper                       : 
TLFamily_CILD      .         Conductivity                  : 
TLFamily_COLL      .         Net Reservoir Flag            : 
TLFamily_CSAT      .         Fluid Code                    : 
TLFamily_DEPT      .         Measured Depth                : 
TLFamily_GR        .         Russian Gamma Ray             : 
TLFamily_GZ1       .         Gradient 045                  : 
TLFamily_GZ2       .         Gradient 105                  : 
TLFamily_GZ3       .         Gradient 225                  : 
TLFamily_GZ4       .         Gradient 425                  : 
TLFamily_GZ5       .         Gradient 850                  : 
TLFamily_LLS       .         Lateral Log Resistivity       : 
TLFamily_MINV      .         Micro Gradient Resistivity    : 
TLFamily_MNOR      .         Micro Resistivity             : 
TLFamily_NGLD      .         Neutron Gamma                 : 
TLFamily_OGZ       .         Gradient Inverted 225         : 
TLFamily_PHIE      .         Effective Porosity            : 
TLFamily_PHIEN     .         Effective Porosity            : 
TLFamily_PHIT      .         Porosity                      : 
TLFamily_PRMB      .         Permeability                  : 
TLFamily_PRMB_DGR  .         Permeability                  : 
TLFamily_RT        .         Formation Resistivity         : 
TLFamily_SOIL_ARCHIE .         Oil Saturation                : 
TLFamily_SOIL_DW   .         Oil Saturation                : 
TLFamily_SP        .         Spontaneous Potential         : 
TLFamily_VSH_FIN   .         Shale Volume                  : 
TLFamily_VSH_GR    .         Shale Volume                  : 
TLFamily_VSH_SP    .         Shale Volume                  : 
~Curve Information
#_______________________________________________________________________________
#
#LOGNAME           .UNIT     LOG_ID                        : DESCRIPTION
#_______________________________________________________________________________
DEPT               .M                                      : Колонка глубины 
CALI               .м                                      : Каверномер 
CILD               .мСм/м                                  : Индукционный каротаж 
COLL               .unitless                               : Описание 
CSAT               .unitless                               : Описание 
GR                 .uR/h                                   : Гамма каротаж 
GZ1                .Ом·м                                   :  
GZ2                .Ом·м                                   :  
GZ3                .Ом·м                                   :  
GZ4                .Ом·м                                   :  
GZ5                .Ом·м                                   :  
LLS                .Ohmm                                   : Боковой каротаж 
MINV               .Ohmm                                   : Микро-градиент зонд 
MNOR               .Ohmm                                   : Микро-потенциал зонд 
NGLD               .у.е.                                   : Показания зонда НГК-60 аппаратуры ДРСТ-3-90 
OGZ                .Ом·м                                   :  
PHIE               .v/v                                    : Описание 
PHIEN              .v/v                                    :  
PHIT               .v/v                                    : Описание 
PRMB               .mD                                     :  
PRMB_DGR           .mD                                     :  
RT                 .ohmm                                   : УЭС пласта 
SOIL_ARCHIE        .v/v                                    :  
SOIL_DW            .v/v                                    :  
SP                 .мВ                                     : Потенциал самополяризации 
VSH_FIN            .v/v                                    : Описание 
VSH_GR             .v/v                                    : Shale volume 
VSH_SP             .v/v                                    : Shale Volume 
~Ascii
# ...
1035.2     -9999      781.522    -9999      -9999      6.441      2.585      3.449      3.24       3.151      2.408      3.122      1.565      3          4.585      5.557      0.1399619  0.1399619  0.266222   1.095451   4.637357   2.495      0.1928237  0.4280439  89.627     0.3826062  0.3467797  0.4184327 
1035.4     -9999      761.815    -9999      -9999      6.162      2.362      3.506      3.896      3.697      2.654      3.987      1.824      3.462      4.981      5.862      0.1327459  0.1327459  0.2476892  0.8052556  5.801626   2.559      0.1647261  0.3975133  88.271     0.3483131  0.3164691  0.380157  
1035.6     -9999      745.677    -9999      -9999      5.944      3.12       4.538      4.466      4.011      2.916      4.348      1.915      3.818      5.361      5.684      0.1216673  0.1216673  0.2299052  0.5020328  6.911307   2.614      0.1078084  0.3546014  87.554     0.3279935  0.2946414  0.3613457 
1035.8     -9999      731.788    -9999      -9999      5.785      3.802      5.31       4.629      3.961      3.208      4.078      1.813      3.578      5.65       5.679      0.1119455  0.1119455  0.21638    0.3316353  7.852337   2.663      0.04901609 0.3145963  87.234     0.3164681  0.2796767  0.3532595 
1036       -9999      722.392    -9999      -9999      5.638      3.675      5.02       4.77       4.069      3.411      3.409      1.852      3.577      5.847      6.156      0.1050493  0.1050493  0.2071604  0.2471302  8.835956   2.698      0.001007529 0.2832213  87.197     0.3094276  0.2665185  0.3523366 
1036.2     -9999      715.163    -9999      -9999      5.539      3.087      4.703      5.274      4.416999   3.524      4.328      2.06       3.988      5.967      6.277      0.09986766 0.09986766 0.2015444  0.1981296  9.566914   2.725      0          0.2603658  87.431     0.3081113  0.2580075  0.3582152 
1036.4     -9999      710.801    -9999      -9999      5.488      3.801      6.077      5.609      4.586999   3.619      4.479      2.079      4.108      6.081      5.701      0.09367051 0.09367051 0.1962092  0.1521119  9.966763   2.742      0          0.2317669  87.801     0.3107233  0.2537296  0.3677171 
1036.6     -9999      709.043    -9999      -9999      5.475      4.516      7.612      5.459      4.348      3.754      4.389      1.807      4.224      6.087      5.381      0.09242765 0.09242765 0.1959284  0.1442588  10.07133   2.748      0          0.2280191  88.064     0.3136387  0.2526506  0.3746267 
1036.8     -9999      710.294    -9999      -9999      5.495      3.992      6.39       5.374      4.181      3.714      3.705      1.876      3.808      5.985      5.487      0.09582774 0.09582774 0.200702   0.1667709  9.910911   2.744      0          0.2492746  88.313     0.3178008  0.2543125  0.3812891 
1037       -9999      716.66     -9999      -9999      5.588      3.967      6.437      5.618      4.15       3.526      4.063      1.794      3.562      5.782      5.279      0.1034834  0.1034834  0.2102024  0.2311649  9.197865   2.719      0          0.2882788  88.435     0.3233909  0.2621854  0.3845963 
1037.2     -9999      724.195    -9999      -9999      5.751      4.444      7.954      5.523      3.935      3.394      4.209      1.811      3.042      5.582      4.779      0.109564   0.109564   0.2195624  0.2996053  8.069631   2.691      0.03578216 0.3186298  88.635     0.3333285  0.2765767  0.3900802 
1037.4     -9999      732.401    -9999      -9999      5.95       3.953      7.188      5.183      3.535      3.22       3.795      1.47       2.666      5.386      4.467      0.1130019  0.1130019  0.2287352  0.346919   6.878096   2.661      0.05643125 0.3397408  89.207     0.3507068  0.2952215  0.4061922 
1037.6     -9999      739.021    -9999      -9999      6.15       3.954      7.117      5.141      3.304      3          3.243      1.363      2.401      5.193      4.539      0.1141829  0.1141829  0.2377676  0.3648401  5.857789   2.637      0.0609528  0.3549958  90.137     0.3744991  0.3152266  0.4337716 
1037.8     -9999      744.97     -9999      -9999      6.32       3.529      6.258999   5.203      3.182      2.883      3.059      1.322      2.32       5.029      4.869      0.1117128  0.1117128  0.2454428  0.3283596  5.110455   2.616      0.03929635 0.3598036  91.494     0.4052425  0.3332932  0.4771918 
1038       -9999      749.21     -9999      -9999      6.453      2.995      5.735      5.248      3.305      2.826      3.2        1.592      2.616      4.9        5.21       0.1056627  0.1056627  0.25148    0.2536803  4.592893   2.601      0          0.3544495  93.152     0.4418707  0.3481466  0.5355948 
1038.2     -9999      751.692    -9999      -9999      6.549      3.093      5.834      5.562      3.368      2.786      3.421      1.689      2.986      4.771      5.133      0.1022941  0.1022941  0.2575172  0.219732   4.252203   2.592      0          0.3554052  94.346     0.470373   0.3592775  0.5814684 
1038.4     -9999      751.296    -9999      -9999      6.562      3.651      6.338      5.723      3.22       2.767      3.366      1.723      3.261      4.614      4.878      0.105847   0.105847   0.2648648  0.2556829  4.208053   2.594      0          0.3748935  94.877     0.4818721  0.360812   0.6029322 
1038.6     -9999      749.409    -9999      -9999      6.489      3.59       5.752      5.565      3.005      2.718      3.146      1.41       3.009      4.438      4.754      0.115796   0.115796   0.2731016  0.3908238  4.462048   2.6        0.06618478 0.4074344  94.832     0.4766836  0.3522797  0.6010875 
1038.8     -9999      744.602    -9999      -9999      6.36       3.322      5.28       5.229      2.849      2.697      2.773      1.204      2.416      4.291      4.662      0.1279513  0.1279513  0.2799812  0.6563367  4.948948   2.617      0.1465542  0.4397412  94.402     0.4606966  0.3376925  0.5837008 
1039       -9999      739.843    -9999      -9999      6.318      2.91       4.688      4.963      2.837      2.73       2.791      1.172      2.227      4.197      4.643      0.1369963  0.1369963  0.2843804  0.9652997  5.118668   2.634      0.1982845  0.461055   93.802     0.4466184  0.3330747  0.5601622 
1039.2     -9999      735.172    -9999      -9999      6.305      2.513      4.562      5.076      3.006      2.777      3.029      1.287      2.403      4.148      4.547      0.1421296  0.1421296  0.2866736  1.201553   5.172371   2.651      0.2259034  0.4729094  93.387     0.4380122  0.3316582  0.5443661 
1039.4     -9999      731.65     -9999      -9999      6.199      2.812      5.16       5.299      3.122      2.919      3.27       1.439      2.737      4.172      4.218      0.1447497  0.1447497  0.2855504  1.343614   5.631821   2.663      0.2397346  0.4765168  93.082     0.4266687  0.3203311  0.5330062 
1039.6     -9999      730.857    -9999      -9999      5.931      3.227      5.193      5.147      3.216      3.093      3.228      1.423      2.667      4.296      4.089      0.1428916  0.1428916  0.2797472  1.241242   6.983815   2.666      0.2315371  0.4675245  93.164     0.4147141  0.2933884  0.5360397 
1039.8     -9999      733.872    -9999      -9999      5.637      3.06       4.652999   4.973      3.475      3.257      3.168      1.477      2.531      4.461      4.160999   0.1400206  0.1400206  0.2720252  1.098194   8.843051   2.656      0.2164515  0.4530088  93.098     0.400014   0.2664311  0.5335969 
1040       -9999      742.796    -9999      -9999      5.402      2.866      4.499      5.081      3.77       3.454      3.433      1.596      2.719      4.635      4.076      0.139587   0.139587   0.263882   1.078074   10.67923   2.624      0.2098506  0.4386783  92.351     0.3766513  0.2466761  0.5066267 
1040.2     -9999      755.248    -9999      -9999      5.234      3.014      4.968      5.394      4.112      3.667      3.856      1.773      2.957      4.808      3.851      0.1389685  0.1389685  0.2557856  1.050006   12.22128   2.581      0.2006142  0.4221668  91.414     0.3539912  0.2334577  0.4745247 
