~Version
 VERS              .         2.0                           : CWLS LOG ASCII STANDARD - VERSION 2.0
 WRAP              .         NO                            : ONE LINE PER DEPTH STEP
 DLM               .         SPACE                         : DELIMITING CHARACTER(SPACE TAB OR COMMA)
~Well Information
#_______________________________________________________________________________
#
#PARAMETER_NAME    .UNIT     VALUE                         : DESCRIPTION
#_______________________________________________________________________________
STRT               .M        900                           : First reference value
STOP               .M        1192                          : Last reference value
STEP               .M        0.2                           : Step increment
NULL               .         -9999                         : Missing value
COMP               .         АО РД КМГ филиал "Инженерный  центр": Company
WELL               .         7908                          : Well name
FLD                .         Узень                         : Field
LOC                .                                       : Location
CNTY               .                                       : County
STAT               .                                       : State
CTRY               .         Казахстан                     : Country
SRVC               .                                       : Service Company
DATE               .         25.06.2010.                   : Date
UWI                .                                       : Unique Well ID
_скв_14_гор_       .         7                             : 
Block              .         7                             : 
Category           .         Нефтяная                      : 
Condition          .         В работе                      : 
Date               .         13.04.2003                    : 
EREF               .m        95.1                          : 100.8
Gorizont           .         14                            : 14
Interpretator      .         Бекбулатова А.А.              : 
Kupol              .         Основной                      : osnovnoi
Mud                .         0                             : 
Mud_density        .         0                             : 
Mud_resistivity    .         0                             : 
NGDU               .         НГДУ-2                        : 
ORIGINALWELLNAME   .         7908                          : 
Spud_date          .         2003                          : 1961
Viscosity          .         0                             : 
X                  .m        42252.8                       : 46154
Y                  .m        85000.93                      : 85761.93
YEAR               .         2019                          : 
Исправлено_14      .         +                             : 
Отбивки_горизонт_14 .         1                             : 
~Parameter Information Block
#_______________________________________________________________________________
#
#PARAMETER_NAME    .UNIT     VALUE                         : DESCRIPTION
#_______________________________________________________________________________
SET                .         LQC_KAZNIPI_Petrel            : 
TLFamily_CALI      .         Caliper                       : 
TLFamily_CILD      .         Conductivity                  : 
TLFamily_COLL      .         Net Reservoir Flag            : 
TLFamily_CSAT      .         Fluid Code                    : 
TLFamily_DEPT      .         Measured Depth                : 
TLFamily_GR        .         Russian Gamma Ray             : 
TLFamily_GZ1       .         Gradient 045                  : 
TLFamily_GZ2       .         Gradient 105                  : 
TLFamily_GZ3       .         Gradient 225                  : 
TLFamily_GZ4       .         Gradient 425                  : 
TLFamily_GZ5       .         Gradient 850                  : 
TLFamily_LLS       .         Lateral Log Resistivity       : 
TLFamily_MINV      .         Micro Gradient Resistivity    : 
TLFamily_MNOR      .         Micro Resistivity             : 
TLFamily_NGLD      .         Neutron Gamma                 : 
TLFamily_OGZ       .         Gradient Inverted 225         : 
TLFamily_PHIE      .         Effective Porosity            : 
TLFamily_PHIEN     .         Effective Porosity            : 
TLFamily_PHIT      .         Porosity                      : 
TLFamily_PRMB      .         Permeability                  : 
TLFamily_PRMB_DGR  .         Permeability                  : 
TLFamily_RT        .         Formation Resistivity         : 
TLFamily_SOIL_ARCHIE .         Oil Saturation                : 
TLFamily_SOIL_DW   .         Oil Saturation                : 
TLFamily_SP        .         Spontaneous Potential         : 
TLFamily_VSH_FIN   .         Shale Volume                  : 
TLFamily_VSH_GR    .         Shale Volume                  : 
TLFamily_VSH_SP    .         Shale Volume                  : 
~Curve Information
#_______________________________________________________________________________
#
#LOGNAME           .UNIT     LOG_ID                        : DESCRIPTION
#_______________________________________________________________________________
DEPT               .M                                      : Колонка глубины 
CALI               .м                                      : Каверномер 
CILD               .мСм/м                                  : Индукционный каротаж 
COLL               .unitless                               : Описание 
CSAT               .unitless                               : Описание 
GR                 .uR/h                                   : Гамма каротаж 
GZ1                .Ом·м                                   :  
GZ2                .Ом·м                                   :  
GZ3                .Ом·м                                   :  
GZ4                .Ом·м                                   :  
GZ5                .Ом·м                                   :  
LLS                .Ohmm                                   : Боковой каротаж 
MINV               .Ohmm                                   : Микро-градиент зонд 
MNOR               .Ohmm                                   : Микро-потенциал зонд 
NGLD               .у.е.                                   : Показания зонда НГК-60 аппаратуры ДРСТ-3-90 
OGZ                .Ом·м                                   :  
PHIE               .v/v                                    : Описание 
PHIEN              .v/v                                    :  
PHIT               .v/v                                    : Описание 
PRMB               .mD                                     :  
PRMB_DGR           .mD                                     :  
RT                 .ohmm                                   : УЭС пласта 
SOIL_ARCHIE        .v/v                                    :  
SOIL_DW            .v/v                                    :  
SP                 .мВ                                     : Потенциал самополяризации 
VSH_FIN            .v/v                                    : Описание 
VSH_GR             .v/v                                    : Shale volume 
VSH_SP             .v/v                                    : Shale Volume 
~Ascii
# ...
1050.8     0.251      1420.557   -9999      -9999      11.452     1.473      1.871      1.721      1.698      1.836      1.302      0.747      1.975      2.303      1.9        0.1375811  0.1375811  0.3730196  0.9896795  0.8522266  1.372      0          0.3718474  97.578     0.7134499  0.6925814  0.7343184 
1051       0.251      1410.368   -9999      -9999      11.428     1.453      1.786      1.693      1.681      1.839      1.319      0.762      2.019      2.361      2.024      0.1306105  0.1306105  0.3703052  0.7351586  0.8689513  1.382      0          0.3595163  98.214     0.7263476  0.687107   0.7655883 
1051.2     0.252      1396.999   -9999      -9999      11.434     1.448      1.759      1.785      1.775      1.859      1.421      0.843      2.225      2.396      2.139      0.1276961  0.1276961  0.3686672  0.6492315  0.8647397  1.395      0          0.3556037  98.341     0.7302155  0.6884714  0.7719595 
1051.4     0.252      1379.911   -9999      -9999      11.419     1.581      2.057      1.882      1.869      1.86       1.531      0.884      2.344      2.418      2.165      0.1323667  0.1323667  0.3676376  0.7923386  0.8753079  1.412      0          0.3663618  97.712     0.7129421  0.685065   0.7408191 
1051.6     0.253      1358.22    -9999      -9999      11.352     1.711      2.087      1.86       1.795      1.824      1.576      0.902      2.362      2.428      2.103      0.1422655  0.1422655  0.3671696  1.208536   0.9241102  1.435      0          0.3869084  96.703     0.6815277  0.6700548  0.6930006 
1051.8     0.254      1334.943   -9999      -9999      11.332     1.793      2.077      1.758      1.714      1.766      1.524      0.859      2.101      2.443      2.076      0.1497662  0.1497662  0.3664676  1.664144   0.939199   1.46       0.02149069 0.4026783  95.693     0.656671   0.665638   0.6477039 
1052       0.255      1314.599   -9999      -9999      11.412     1.718      1.928      1.675      1.624      1.696      1.453      0.818      1.982      2.47       2.089      0.1526203  0.1526203  0.365204   1.879557   0.8802834  1.483      0.04448168 0.4101261  94.683     0.6441932  0.6834812  0.6049052 
1052.2     0.256      1297.667   -9999      -9999      11.512     1.638      1.883      1.649      1.579      1.65       1.424      0.819      1.855      2.536      2.147      0.1517017  0.1517017  0.3621152  1.807346   0.8118089  1.502      0.04516572 0.4094031  93.782     0.6376167  0.7064593  0.5687741 
1052.4     0.257      1284.702   -9999      -9999      11.507     1.671      1.922      1.67       1.604      1.664      1.429      0.864      1.98       2.608      2.208      0.1515485  0.1515485  0.3587456  1.795579   0.8151025  1.517      0.04877141 0.4086294  93.306     0.6278699  0.7052923  0.5504475 
1052.6     0.257      1266.581   -9999      -9999      11.224     1.652      2.008      1.716      1.639      1.692      1.487      0.951      2.159      2.734      2.279      0.1567281  0.1567281  0.3528488  2.239459   1.025038   1.539      0.08243075 0.4140729  93.197     0.5943051  0.6422864  0.5463237 
1052.8     0.258      1248.856   -9999      -9999      10.873     1.699      2.028      1.766      1.683      1.692      1.601      1.063      2.469      2.832      2.315      0.1628989  0.1628989  0.3482624  2.913671   1.362015   1.561      0.1186685  0.4219001  93.334     0.5617076  0.5719041  0.5515111 
1053       0.259      1231.836   -9999      -9999      10.509     1.757      2.059      1.87       1.735      1.754      1.761      1.122      2.694      2.939      2.31       0.1678683  0.1678683  0.3432548  3.601524   1.828925   1.582      0.1468028  0.4271581  93.449     0.5314742  0.5070499  0.5558985 
1053.2     0.26       1218.078   -9999      -9999      10.338     1.93       2.253      1.967      1.799      1.775      1.909      1.185      2.818      2.993      2.259      0.1681698  0.1681698  0.3407276  3.648131   2.100556   1.6        0.1526458  0.4281784  93.727     0.5229025  0.4791751  0.5666299 
1053.4     0.261      1205.906   -9999      -9999      10.159     2.207      2.458      2.058      1.823      1.743      1.967      1.165      2.811      3.035      2.204      0.1689087  0.1689087  0.338762   3.764935   2.428211   1.616      0.1598077  0.4299434  94.011     0.5147069  0.4516363  0.5777773 
1053.6     0.262      1195.594   -9999      -9999      10.013     2.316      2.729      2.1        1.794      1.761      1.903      1.062      2.696      3.058      2.151      0.1700769  0.1700769  0.3376856  3.957256   2.732959   1.63       0.1682097  0.4327892  94.204     0.5079052  0.4303505  0.5854599 
1053.8     0.263      1189.118   -9999      -9999      9.931      2.151      2.608      2.067      1.754      1.767      1.792      0.939      2.475      3.039      2.177      0.172892   0.172892   0.3385748  4.462078   2.920594   1.639      0.1821341  0.4388255  94.2       0.5020691  0.4188386  0.5852997 
1054       0.263      1185.378   -9999      -9999      10.037     1.943      2.446      2.082      1.762      1.747      1.764      0.949      2.443      2.982      2.245      0.1745378  0.1745378  0.3412424  4.786537   2.680356   1.644      0.1900136  0.4444089  93.98      0.5051655  0.4337794  0.5765515 
1054.2     0.262      1182.602   -9999      -9999      10.199     1.815      2.563      2.171      1.862      1.751      1.828      1.089      2.701      2.914      2.287      0.176027   0.176027   0.3444248  5.10042    2.350817   1.648      0.1969017  0.4500438  93.632     0.5102962  0.4576496  0.5629429 
1054.4     0.262      1181.015   -9999      -9999      10.329     2.027      2.661      2.263      1.902      1.767      1.855      1.17       2.958      2.876      2.213      0.1781414  0.1781414  0.3462032  5.581725   2.115921   1.65       0.205662   0.4546339  93.05      0.5092783  0.4777513  0.5408053 
1054.6     0.261      1178.636   -9999      -9999      10.357     2.22       2.835      2.297      1.89       1.785      1.779      1.121      2.894      2.883      2.119      0.17971    0.17971    0.3458756  5.967924   2.068485   1.653      0.2123759  0.456661   92.618     0.5035321  0.4821951  0.5248691 
1054.8     0.261      1176.653   -9999      -9999      10.359     2.276      2.721      2.268      1.838      1.789      1.661      1.002      2.597      2.898      2.1        0.1807527  0.1807527  0.3451736  6.239301   2.065138   1.656      0.217001   0.4576969  92.316     0.4982453  0.4825141  0.5139765 
1055       0.261      1175.565   -9999      -9999      10.371     2.171      2.653      2.256      1.815      1.818      1.614      0.957      2.391      2.897      2.159      0.1818759  0.1818759  0.3452204  6.545472   2.045167   1.658      0.2216553  0.4593723  92.078     0.4949833  0.4844325  0.5055342 
1055.2     0.261      1175.311   -9999      -9999      10.383     1.978      2.541      2.301      1.861      1.819      1.623      0.965      2.333      2.882      2.27       0.1841975  0.1841975  0.3459224  7.226753   2.025389   1.658      0.2302065  0.4627028  91.741     0.4900753  0.4863585  0.4937922 
1055.4     0.261      1174.518   -9999      -9999      10.377     1.967      2.661      2.369      1.921      1.814      1.678      1.025      2.472      2.868      2.347      0.1867915  0.1867915  0.3465776  8.072165   2.035255   1.659      0.2397407  0.466405   91.425     0.4842003  0.4853944  0.4830061 
1055.6     0.261      1173.226   -9999      -9999      10.348     2.027      2.66       2.399      1.986      1.855      1.732      1.083      2.591      2.882      2.339      0.1871012  0.1871012  0.3459224  8.179484   2.083616   1.661      0.2412658  0.4664572  91.389     0.4812764  0.4807621  0.4817908 
1055.8     0.263      1172.29    -9999      -9999      10.327     2.005      2.592      2.381      2          1.855      1.764      1.097      2.672      2.916      2.286      0.1855792  0.1855792  0.3443312  7.665393   2.119353   1.662      0.2360648  0.463407   91.475     0.4810668  0.4774353  0.4846983 
