~Version
 VERS              .         2.0                           : CWLS LOG ASCII STANDARD - VERSION 2.0
 WRAP              .         NO                            : ONE LINE PER DEPTH STEP
 DLM               .         SPACE                         : DELIMITING CHARACTER(SPACE TAB OR COMMA)
~Well Information
#_______________________________________________________________________________
#
#PARAMETER_NAME    .UNIT     VALUE                         : DESCRIPTION
#_______________________________________________________________________________
STRT               .M        900                           : First reference value
STOP               .M        1192                          : Last reference value
STEP               .M        0.2                           : Step increment
NULL               .         -9999                         : Missing value
COMP               .         АО РД КМГ филиал "Инженерный  центр": Company
WELL               .         7908                          : Well name
FLD                .         Узень                         : Field
LOC                .                                       : Location
CNTY               .                                       : County
STAT               .                                       : State
CTRY               .         Казахстан                     : Country
SRVC               .                                       : Service Company
DATE               .         25.06.2010.                   : Date
UWI                .                                       : Unique Well ID
_скв_14_гор_       .         7                             : 
Block              .         7                             : 
Category           .         Нефтяная                      : 
Condition          .         В работе                      : 
Date               .         13.04.2003                    : 
EREF               .m        95.1                          : 100.8
Gorizont           .         14                            : 14
Interpretator      .         Бекбулатова А.А.              : 
Kupol              .         Основной                      : osnovnoi
Mud                .         0                             : 
Mud_density        .         0                             : 
Mud_resistivity    .         0                             : 
NGDU               .         НГДУ-2                        : 
ORIGINALWELLNAME   .         7908                          : 
Spud_date          .         2003                          : 1961
Viscosity          .         0                             : 
X                  .m        42252.8                       : 46154
Y                  .m        85000.93                      : 85761.93
YEAR               .         2019                          : 
Исправлено_14      .         +                             : 
Отбивки_горизонт_14 .         1                             : 
~Parameter Information Block
#_______________________________________________________________________________
#
#PARAMETER_NAME    .UNIT     VALUE                         : DESCRIPTION
#_______________________________________________________________________________
SET                .         LQC_KAZNIPI_Petrel            : 
TLFamily_CALI      .         Caliper                       : 
TLFamily_CILD      .         Conductivity                  : 
TLFamily_COLL      .         Net Reservoir Flag            : 
TLFamily_CSAT      .         Fluid Code                    : 
TLFamily_DEPT      .         Measured Depth                : 
TLFamily_GR        .         Russian Gamma Ray             : 
TLFamily_GZ1       .         Gradient 045                  : 
TLFamily_GZ2       .         Gradient 105                  : 
TLFamily_GZ3       .         Gradient 225                  : 
TLFamily_GZ4       .         Gradient 425                  : 
TLFamily_GZ5       .         Gradient 850                  : 
TLFamily_LLS       .         Lateral Log Resistivity       : 
TLFamily_MINV      .         Micro Gradient Resistivity    : 
TLFamily_MNOR      .         Micro Resistivity             : 
TLFamily_NGLD      .         Neutron Gamma                 : 
TLFamily_OGZ       .         Gradient Inverted 225         : 
TLFamily_PHIE      .         Effective Porosity            : 
TLFamily_PHIEN     .         Effective Porosity            : 
TLFamily_PHIT      .         Porosity                      : 
TLFamily_PRMB      .         Permeability                  : 
TLFamily_PRMB_DGR  .         Permeability                  : 
TLFamily_RT        .         Formation Resistivity         : 
TLFamily_SOIL_ARCHIE .         Oil Saturation                : 
TLFamily_SOIL_DW   .         Oil Saturation                : 
TLFamily_SP        .         Spontaneous Potential         : 
TLFamily_VSH_FIN   .         Shale Volume                  : 
TLFamily_VSH_GR    .         Shale Volume                  : 
TLFamily_VSH_SP    .         Shale Volume                  : 
~Curve Information
#_______________________________________________________________________________
#
#LOGNAME           .UNIT     LOG_ID                        : DESCRIPTION
#_______________________________________________________________________________
DEPT               .M                                      : Колонка глубины 
CALI               .м                                      : Каверномер 
CILD               .мСм/м                                  : Индукционный каротаж 
COLL               .unitless                               : Описание 
CSAT               .unitless                               : Описание 
GR                 .uR/h                                   : Гамма каротаж 
GZ1                .Ом·м                                   :  
GZ2                .Ом·м                                   :  
GZ3                .Ом·м                                   :  
GZ4                .Ом·м                                   :  
GZ5                .Ом·м                                   :  
LLS                .Ohmm                                   : Боковой каротаж 
MINV               .Ohmm                                   : Микро-градиент зонд 
MNOR               .Ohmm                                   : Микро-потенциал зонд 
NGLD               .у.е.                                   : Показания зонда НГК-60 аппаратуры ДРСТ-3-90 
OGZ                .Ом·м                                   :  
PHIE               .v/v                                    : Описание 
PHIEN              .v/v                                    :  
PHIT               .v/v                                    : Описание 
PRMB               .mD                                     :  
PRMB_DGR           .mD                                     :  
RT                 .ohmm                                   : УЭС пласта 
SOIL_ARCHIE        .v/v                                    :  
SOIL_DW            .v/v                                    :  
SP                 .мВ                                     : Потенциал самополяризации 
VSH_FIN            .v/v                                    : Описание 
VSH_GR             .v/v                                    : Shale volume 
VSH_SP             .v/v                                    : Shale Volume 
~Ascii
# ...
1186       0.205      977.277    -9999      -9999      11.316     4.274      7.022999   4.276999   -9999      2.394      2.072      1.099      2.203      2.714      -9999      0.274604   0.274604   0.3537848  341.5783   4.670411   1.995      0.5084839  0.5947179  73.713     0.2399418  0.3457755  0.1341082 
1186.2     0.189      1002.141   -9999      -9999      11.501     3.715      6.457      4.148      -9999      2.737      1.825      1.029      2.248      2.631      -9999      0.27171    0.27171    0.3576692  301.9167   3.760425   1.945      0.4979835  0.5903106  75.728     0.2604823  0.3777685  0.1431961 
1186.4     0.179      1026.608   -9999      -9999      11.576     3.409      5.84       4.052      -9999      3.426      1.699      0.995      2.307      2.525      -9999      0.2730822  0.2730822  0.36263    320.1127   3.444144   1.899      0.4945358  0.5895491  77.11      0.2713569  0.3915669  0.151147  
1186.6     0.179      1046.712   -9999      -9999      11.592     2.767      5.081      4.007      -9999      4.224      1.784      0.925      2.219      2.485      -9999      0.2736364  0.2736364  0.364502   327.7696   3.380193   1.862      0.4907471  0.5870802  77.86      0.2753502  0.3945751  0.1561253 
1186.8     0.179      1063.644   -9999      -9999      11.609     2.35       3.952      4.352      -9999      4.782      1.942      0.958      2.218      2.444      -9999      0.2744716  0.2744716  0.3664208  339.6552   3.313543   1.832      0.4882109  0.5855107  78.326     0.2786339  0.3977968  0.1594709 
1187       0.18       1076.609   -9999      -9999      11.713     2.13       3.741      5.404      -9999      5.041999   2.006      0.961      2.375      2.381      -9999      0.2734869  0.2734869  0.3693692  325.6852   2.93348    1.81       0.4836873  0.5843141  78.792     0.2905526  0.4180864  0.1630188 
1187.2     0.181      1088.631   -9999      -9999      11.847     2.005      3.852      6.532      -9999      4.859      2.047      0.952      2.307      2.373      -9999      0.2683516  0.2683516  0.3697436  261.6261   2.50733    1.79       0.4723486  0.5789278  79.491     0.3072485  0.4457618  0.1687351 
1187.4     0.181      1100.01    -9999      -9999      11.996     2.183      4.815001   6.599      -9999      4.16       2.042      0.989      2.47       2.448      -9999      0.2583818  0.2583818  0.3662336  171.0074   2.105757   1.772      0.4520671  0.5676801  80.191     0.3268238  0.4786915  0.174956  
1187.6     0.181      1110.199   -9999      -9999      12.145     -9999      3.588      5.674      -9999      3.45       2.082      0.99       2.332      2.539      -9999      0.2475575  0.2475575  0.3619748  107.7762   1.768501   1.755      0.4286801  0.5547924  80.657     0.3467192  0.5140539  0.1793845 
1187.8     -9999      1121.7     -9999      -9999      12.246     -9999      3.462      4.581      -9999      2.655      1.953      1.019      2.583      2.64       -9999      0.2378742  0.2378742  0.357248   71.31244   1.571166   1.737      0.4056081  0.5415521  81.116     0.3617388  0.5394984  0.1839791 
1188       -9999      1133.476   -9999      -9999      12.236     -9999      3.381      3.612      -9999      1.981      1.789      0.959      2.707      2.719      -9999      0.2339851  0.2339851  0.3535508  60.41287   1.58968    1.719      0.394058   0.5331758  81.473     0.3623203  0.5369239  0.1877168 
1188.2     -9999      1146.893   -9999      -9999      12.114     -9999      3.132      -9999      -9999      1.692      1.675      0.908      2.61       2.813      -9999      0.2341526  0.2341526  0.3491516  60.84592   1.833903   1.699      0.3911007  0.527096   81.728     0.348482   0.5064875  0.1904764 
1188.4     -9999      1159.885   -9999      -9999      11.948     -9999      -9999      -9999      -9999      1.633      1.628      0.912      2.618      2.883      -9999      0.2369636  0.2369636  0.3458756  68.59605   2.227554   1.68       0.3942081  0.5241284  81.888     0.3300363  0.4678259  0.1922467 
1188.6     -9999      1172.85    -9999      -9999      11.83      -9999      -9999      -9999      -9999      -9999      1.616      0.929      2.842      2.922      -9999      0.2390776  0.2390776  0.3440504  75.06802   2.557762   1.662      0.3958297  0.5218272  82.048     0.3180995  0.4421516  0.1940473 
1188.8     -9999      1187.347   -9999      -9999      11.812     -9999      -9999      -9999      -9999      -9999      1.598      0.985      3.13       2.97       -9999      0.2371545  0.2371545  0.341804   69.15665   2.612266   1.641      0.3879234  0.515309   82.208     0.3171198  0.4383611  0.1958786 
1189       -9999      1204.279   -9999      -9999      11.99      -9999      -9999      -9999      -9999      -9999      1.594      1.081      3.464      3.074      -9999      0.2255519  0.2255519  0.3369368  42.16246   2.120611   1.618      0.3563409  0.4974616  82.368     0.3375301  0.4773195  0.1977406 
1189.2     -9999      1223.986   -9999      -9999      12.219     -9999      -9999      -9999      -9999      -9999      1.608      1.121      3.377      3.233      -9999      0.208683   0.208683   0.3294956  20.53402   1.621655   1.592      0.3059989  0.4700679  82.527     0.3660987  0.5325754  0.1996219 
1189.4     -9999      1244.487   -9999      -9999      12.436     -9999      -9999      -9999      -9999      -9999      1.644      1.129      2.84       3.38       -9999      0.1918744  0.1918744  0.322616   10.02623   1.257653   1.566      0.2475464  0.4402451  82.687     0.3961866  0.5908268  0.2015464 
1189.6     -9999      1263.798   -9999      -9999      12.506     -9999      -9999      -9999      -9999      -9999      1.915      1.233      2.531      3.477      -9999      0.1836926  0.1836926  0.3180764  7.072794   1.15864    1.542      0.2127542  0.421075   82.847     0.4072236  0.6109445  0.2035027 
1189.8     -9999      1281.509   -9999      -9999      12.542     -9999      -9999      -9999      -9999      -9999      2.271      1.415      2.472      3.495      -9999      0.1807712  0.1807712  0.317234   6.244244   1.110794   1.521      0.1965316  0.4124165  83.007     0.4135236  0.6215562  0.2054909 
1190       -9999      1296.854   -9999      -9999      12.542     -9999      -9999      -9999      -9999      -9999      2.477      1.548      2.978      3.495      -9999      0.1804378  0.1804378  0.317234   6.156087   1.110794   1.503      0.1907304  0.4084738  83.167     0.4145338  0.6215562  0.2075115 
1190.2     -9999      1311.078   -9999      -9999      -9999      -9999      -9999      -9999      -9999      -9999      2.233      1.407      3.222      -9999      -9999      -9999      -9999      -9999      -9999      -9999      1.486      -9999      -9999      83.167     0.207511   -9999      0.2075115 
1190.4     -9999      1321.39    -9999      -9999      -9999      -9999      -9999      -9999      -9999      -9999      1.81       1.131      3.235      -9999      -9999      -9999      -9999      -9999      -9999      -9999      1.475      -9999      -9999      -9999      -9999      -9999      -9999     
1190.6     -9999      1327.367   -9999      -9999      -9999      -9999      -9999      -9999      -9999      -9999      1.476      0.918      3.124      -9999      -9999      -9999      -9999      -9999      -9999      -9999      1.468      -9999      -9999      -9999      -9999      -9999      -9999     
1190.8     -9999      1329.35    -9999      -9999      -9999      -9999      -9999      -9999      -9999      -9999      1.352      0.897      2.963      -9999      -9999      -9999      -9999      -9999      -9999      -9999      1.466      -9999      -9999      -9999      -9999      -9999      -9999     
1191       -9999      1328.392   -9999      -9999      -9999      -9999      -9999      -9999      -9999      -9999      1.343      0.991      2.851      -9999      -9999      -9999      -9999      -9999      -9999      -9999      1.467      -9999      -9999      -9999      -9999      -9999      -9999     
