~Version
 VERS              .         2.0                           : CWLS LOG ASCII STANDARD - VERSION 2.0
 WRAP              .         NO                            : ONE LINE PER DEPTH STEP
 DLM               .         SPACE                         : DELIMITING CHARACTER(SPACE TAB OR COMMA)
~Well Information
#_______________________________________________________________________________
#
#PARAMETER_NAME    .UNIT     VALUE                         : DESCRIPTION
#_______________________________________________________________________________
STRT               .M        890                           : First reference value
STOP               .M        1172                          : Last reference value
STEP               .M        0.1                           : Step increment
NULL               .         -9999                         : Missing value
COMP               .                                       : Company
WELL               .         8367                          : Well name
FLD                .         Узень                         : Field
LOC                .                                       : Location
CNTY               .                                       : County
STAT               .                                       : State
CTRY               .                                       : Country
SRVC               .                                       : Service Company
DATE               .                                       : Date
UWI                .                                       : Unique Well ID
Block              .         7                             : 
Category           .         Нефтяная                      : 
Condition          .         В работе                      : 
Date               .         13.10.1993                    : 
EREF               .m        89.8                          : 100.8
Gorizont           .         14                            : 14
Interpretator      .         Танауова А.Б.                 : 
Kupol              .         Основной                      : osnovnoi
Mud                .         0                             : 
Mud_density        .         0                             : 
Mud_resistivity    .         0                             : 
NGDU               .         НГДУ-2                        : 
ORIGINALWELLNAME   .         8367                          : 
Spud_date          .         1993                          : 1961
Viscosity          .         0                             : 
X                  .m        41807.6                       : 46154
Y                  .m        84408.63                      : 85761.93
YEAR               .         2019                          : 
~Parameter Information Block
#_______________________________________________________________________________
#
#PARAMETER_NAME    .UNIT     VALUE                         : DESCRIPTION
#_______________________________________________________________________________
SET                .         LQC_KAZNIPI_Petrel            : 
PBBOTTOM           .M        1172                          : Глубина подошвы планшета
PBSCALE            .         1 _ 500                       : Вертикальный масштаб планшета
PBTOP              .M        890                           : Глубина кровли планшета
TLFamily_CALI      .         Caliper                       : 
TLFamily_CILD      .         Conductivity                  : 
TLFamily_COLL      .         Net Reservoir Flag            : 
TLFamily_CSAT      .         Fluid Code                    : 
TLFamily_DEPT      .         Measured Depth                : 
TLFamily_GR        .         Russian Gamma Ray             : 
TLFamily_GZ3       .         Gradient 225                  : 
TLFamily_LLS       .         Lateral Log Resistivity       : 
TLFamily_MINV      .         Micro Gradient Resistivity    : 
TLFamily_MNOR      .         Micro Resistivity             : 
TLFamily_NGLD      .         Neutron Gamma                 : 
TLFamily_OGZ       .         Gradient Inverted 225         : 
TLFamily_PHIE      .         Effective Porosity            : 
TLFamily_PHIEN     .         Effective Porosity            : 
TLFamily_PHIT      .         Porosity                      : 
TLFamily_PRMB      .         Permeability                  : 
TLFamily_PRMB_DGR  .         Permeability                  : 
TLFamily_RT        .         Formation Resistivity         : 
TLFamily_SOIL_ARCHIE .         Oil Saturation                : 
TLFamily_SOIL_DW   .         Oil Saturation                : 
TLFamily_SP        .         Spontaneous Potential         : 
TLFamily_VSH_FIN   .         Shale Volume                  : 
TLFamily_VSH_GR    .         Shale Volume                  : 
TLFamily_VSH_SP    .         Shale Volume                  : 
~Curve Information
#_______________________________________________________________________________
#
#LOGNAME           .UNIT     LOG_ID                        : DESCRIPTION
#_______________________________________________________________________________
DEPT               .M                                      : Колонка глубины 
CALI               .м                                      : Каверномер 
CILD               .мСм/м                                  : Индукционный каротаж 
COLL               .unitless                               : Описание 
CSAT               .unitless                               :  
GR                 .uR/h                                   : Гамма каротаж 
GZ3                .Ohmm                                   : 149.10 - 1385.50<_techsia_sc_> 197.50 - 1174.70 
LLS                .Ohmm                                   : Боковой каротаж 
MINV               .Ohmm                                   : Микро-градиент зонд 
MNOR               .Ohmm                                   : Микро-потенциал зонд 
NGLD               .у.е.                                   : Показания зонда НГК-60 аппаратуры ДРСТ-3-90 
OGZ                .Ohmm                                   : 144.60 - 1381.00<_techsia_sc_> 193.00 - 1170.20 
PHIE               .v/v                                    : Описание 
PHIEN              .v/v                                    :  
PHIT               .v/v                                    : Описание 
PRMB               .mD                                     :  
PRMB_DGR           .mD                                     :  
RT                 .ohmm                                   : УЭС пласта 
SOIL_ARCHIE        .v/v                                    :  
SOIL_DW            .v/v                                    :  
SP                 .мВ                                     : Потенциал самополяризации 
VSH_FIN            .v/v                                    : Описание 
VSH_GR             .v/v                                    : Shale volume 
VSH_SP             .v/v                                    : Shale Volume 
~Ascii
# ...
1113.2     0.225      633.9999   -9999      -9999      0.008      1.3918     1.334      1.531      1.127      1.205      1.0401     0.1926736  0.1926736  0.356625   10.37386   60297.22   1.577      0.2421818  0.4686315  194.727    0.4968224  0.02       0.4968224 
1113.3     0.225      647        -9999      -9999      0.005      1.633128   1.233      1.699      1.138      1.193      1.228235   0.1975     0.1975     0.359925   12.74491   60509.64   1.546      0.2513948  0.4714763  194.003    0.4921971  0.02       0.4921971 
1113.4     0.225      656        -9999      -9999      0.001      1.9163     1.226      2.1        1.139      1.181      1.4504     0.2014008  0.2014008  0.363225   15.05183   60794.13   1.524      0.2590724  0.4746688  193.719    0.4903764  0.02       0.4903764 
1113.5     0.224      662        -9999      -9999      0.004      2.089979   1.295      2.541      1.12       1.172      1.737028   0.2045368  0.2045368  0.3657     17.2058    60580.64   1.511      0.2660315  0.4777677  193.405    0.4883734  0.02       0.4883734 
1113.6     0.224      666.9999   -9999      -9999      0.025      2.2794     1.402      2.701      1.081      1.164      2.0803     0.2081842  0.2081842  0.3679     20.10178   59107.25   1.499      0.2745347  0.4812124  192.708    0.4839872  0.02       0.4839872 
1113.7     0.223      671.0002   -9999      -9999      -9999      2.319399   1.489      2.434      1.038      1.158      2.214285   0.211176   0.211176   0.36955    22.83758   -9999      1.49       0.2814669  0.4839735  192.057    0.4799212  -9999      0.4799212 
1113.8     0.223      676.0001   -9999      -9999      -9999      2.3601     1.492      1.888      1.005      1.155      2.3569     0.212334   0.212334   0.370375   23.99377   -9999      1.479      0.28239    0.483874   191.898    0.4789122  -9999      0.4789122 
1113.9     0.224      687        -9999      -9999      -9999      2.235775   1.393      1.368      0.997      1.155      2.172973   0.2109595  0.2109595  0.370375   22.6277    -9999      1.456      0.2729923  0.4784746  192.575    0.4830772  -9999      0.4830772 
1114       0.224      699        -9999      -9999      -9999      2.118      1.229      1.054      1.014      1.157      2.0034     0.2071033  0.2071033  0.369825   19.19616   -9999      1.431      0.2551877  0.4696162  194.176    0.493096   -9999      0.493096  
1114.1     0.224      705        -9999      -9999      -9999      1.546769   1.069      0.944      1.037      1.16       1.910863   0.2016051  0.2016051  0.369      15.18358   -9999      1.418      0.2342548  0.4607949  196.388    0.5072572  -9999      0.5072572 
1114.2     0.224      706.9999   -9999      -9999      -9999      1.1296     0.963      0.962      1.042      1.164      1.8226     0.1959826  0.1959826  0.3679     11.94623   -9999      1.414      0.2141153  0.4530346  198.477    0.5209619  -9999      0.5209619 
1114.3     0.223      705        -9999      -9999      -9999      1.1296     0.919      1.04       1.021      1.169      2.038735   0.1924829  0.1924829  0.366525   10.28985   -9999      1.418      0.2027427  0.4487028  199.444    0.5274001  -9999      0.5274001 
1114.4     0.224      699        -9999      -9999      -9999      1.1296     0.931      1.13       0.989      1.178      2.2805     0.1935191  0.1935191  0.36405    10.75477   -9999      1.431      0.2098529  0.450087   197.852    0.5167603  -9999      0.5167603 
1114.5     0.224      690.9999   -9999      -9999      -9999      1.01259    0.979      1.183      0.965      1.19       2.392261   0.2010317  0.2010317  0.36075    14.81674   -9999      1.447      0.2396111  0.4582414  192.749    0.4839948  -9999      0.4839948 
1114.6     0.224      681.9999   -9999      -9999      -9999      0.9077     1.039      1.174      0.947      1.204      2.5095     0.2149167  0.2149167  0.3569     26.78779   -9999      1.466      0.2869588  0.4724412  183.649    0.4302524  -9999      0.4302524 
1114.7     0.225      671.9999   -9999      -9999      -9999      0.8975432  1.091      1.118      0.926      1.217      2.61695    0.2321595  0.2321595  0.353325   55.88767   -9999      1.488      0.3379545  0.4893525  171.467    0.367168   -9999      0.367168  
1114.8     0.225      662        -9999      -9999      -9999      0.8875     1.136      1.06       0.908      1.227      2.729      0.2398651  0.2398651  0.350575   77.63208   -9999      1.511      0.3611318  0.497649   164.529    0.3354846  -9999      0.3354846 
1114.9     0.225      648.9999   -9999      -9999      -9999      1.010172   1.185      1.044      0.907      1.236      2.854896   0.2465981  0.2465981  0.3481     103.4553   -9999      1.541      0.3820783  0.5061365  157.813    0.3075817  -9999      0.3075817 
1115       0.224      635        -9999      -9999      -9999      1.1498     1.262      1.072      0.931      1.244      2.9866     0.2600106  0.2600106  0.3459     183.3096   -9999      1.575      0.4159464  0.5203271  144.645    0.260271   -9999      0.260271  
1115.1     0.222      618.9999   -9999      -9999      -9999      0.9986674  1.374      1.102      0.971      1.255      3.066725   0.2678528  0.2678528  0.342875   256.1188   -9999      1.616      0.4376902  0.5298986  133.535    0.22734    -9999      0.22734   
1115.2     0.22       600.9999   -9999      -9999      -9999      0.8674     1.523      1.092      1.011      1.269      3.149      0.2710177  0.2710177  0.339025   293.1318   -9999      1.664      0.4510064  0.5359797  125.045    0.2060827  -9999      0.2060827 
1115.3     0.218      582.0001   -9999      -9999      -9999      0.7123405  1.699      1.042      1.039      1.287      3.418839   0.2704229  0.2704229  0.334075   285.7892   -9999      1.718      0.4581368  0.5389999  119.02     0.1928853  -9999      0.1928853 
1115.4     0.217      562        -9999      -9999      -9999      0.585      1.896      0.992      1.051      1.306      3.7118     0.2681009  0.2681009  0.32885    258.8437   -9999      1.779      0.4629177  0.5411586  114.575    0.1840881  -9999      0.1840881 
1115.5     0.217      541.9999   -9999      -9999      -9999      0.7123405  2.106      0.962      1.06       1.324      4.106107   0.265359   0.265359   0.3239     230.2771   -9999      1.845      0.4672723  0.5434976  110.906    0.1773969  -9999      0.1773969 
1115.6     0.216      523.0001   -9999      -9999      -9999      0.8674     2.319      0.946      1.096      1.34       4.5423     0.2629988  0.2629988  0.3195     208.2257   -9999      1.912      0.472023   0.546302   107.247    0.1712157  -9999      0.1712157 
1115.7     0.215      502.9999   -9999      -9999      -9999      0.9446133  2.527      0.958      1.197      1.353      4.970425   0.2605542  0.2605542  0.315925   187.6091   -9999      1.988      0.4773591  0.5503879  105.09     0.1677903  -9999      0.1677903 
1115.8     0.214      482.9999   -9999      -9999      -9999      1.0287     2.737      1.062      1.392      1.364      5.4389     0.2585105  0.2585105  0.3129     171.9492   -9999      2.07       0.4836496  0.555452   103.131    0.1648166  -9999      0.1648166 
1115.9     0.213      463        -9999      -9999      -9999      1.106461   2.977      1.295      1.677      1.372      5.905809   0.2585926  0.2585926  0.3107     172.552    -9999      2.16       0.4939996  0.5630959  98.202     0.1579013  -9999      0.1579013 
1116       0.213      443.0001   1          2          -9999      1.1901     3.292      1.611      2.019      1.38       6.412799   0.258761   0.258761   0.3085     173.796    -9999      2.257      0.5046045  0.5709521  92.4       0.1507242  -9999      0.1507242 
1116.1     0.214      424        1          2          -9999      1.149042   3.704      1.901      2.359      1.388      6.715505   0.2587965  0.2587965  0.3063     174.0589   -9999      2.358      0.5147355  0.5785324  86.035     0.1439501  -9999      0.1439501 
1116.2     0.216      404.0001   1          2          0.067      1.1094     4.192      2.092      2.634      1.4        7.0325     0.2573763  0.2573763  0.303      163.829    56267.18   2.475      0.5233597  0.5850745  79.717     0.1382538  0.02       0.1382538 
