~Version
 VERS              .         2.0                           : CWLS LOG ASCII STANDARD - VERSION 2.0
 WRAP              .         NO                            : ONE LINE PER DEPTH STEP
 DLM               .         SPACE                         : DELIMITING CHARACTER(SPACE TAB OR COMMA)
~Well Information
#_______________________________________________________________________________
#
#PARAMETER_NAME    .UNIT     VALUE                         : DESCRIPTION
#_______________________________________________________________________________
STRT               .M        890                           : First reference value
STOP               .M        1172                          : Last reference value
STEP               .M        0.1                           : Step increment
NULL               .         -9999                         : Missing value
COMP               .                                       : Company
WELL               .         8367                          : Well name
FLD                .         Узень                         : Field
LOC                .                                       : Location
CNTY               .                                       : County
STAT               .                                       : State
CTRY               .                                       : Country
SRVC               .                                       : Service Company
DATE               .                                       : Date
UWI                .                                       : Unique Well ID
Block              .         7                             : 
Category           .         Нефтяная                      : 
Condition          .         В работе                      : 
Date               .         13.10.1993                    : 
EREF               .m        89.8                          : 100.8
Gorizont           .         14                            : 14
Interpretator      .         Танауова А.Б.                 : 
Kupol              .         Основной                      : osnovnoi
Mud                .         0                             : 
Mud_density        .         0                             : 
Mud_resistivity    .         0                             : 
NGDU               .         НГДУ-2                        : 
ORIGINALWELLNAME   .         8367                          : 
Spud_date          .         1993                          : 1961
Viscosity          .         0                             : 
X                  .m        41807.6                       : 46154
Y                  .m        84408.63                      : 85761.93
YEAR               .         2019                          : 
~Parameter Information Block
#_______________________________________________________________________________
#
#PARAMETER_NAME    .UNIT     VALUE                         : DESCRIPTION
#_______________________________________________________________________________
SET                .         LQC_KAZNIPI_Petrel            : 
PBBOTTOM           .M        1172                          : Глубина подошвы планшета
PBSCALE            .         1 _ 500                       : Вертикальный масштаб планшета
PBTOP              .M        890                           : Глубина кровли планшета
TLFamily_CALI      .         Caliper                       : 
TLFamily_CILD      .         Conductivity                  : 
TLFamily_COLL      .         Net Reservoir Flag            : 
TLFamily_CSAT      .         Fluid Code                    : 
TLFamily_DEPT      .         Measured Depth                : 
TLFamily_GR        .         Russian Gamma Ray             : 
TLFamily_GZ3       .         Gradient 225                  : 
TLFamily_LLS       .         Lateral Log Resistivity       : 
TLFamily_MINV      .         Micro Gradient Resistivity    : 
TLFamily_MNOR      .         Micro Resistivity             : 
TLFamily_NGLD      .         Neutron Gamma                 : 
TLFamily_OGZ       .         Gradient Inverted 225         : 
TLFamily_PHIE      .         Effective Porosity            : 
TLFamily_PHIEN     .         Effective Porosity            : 
TLFamily_PHIT      .         Porosity                      : 
TLFamily_PRMB      .         Permeability                  : 
TLFamily_PRMB_DGR  .         Permeability                  : 
TLFamily_RT        .         Formation Resistivity         : 
TLFamily_SOIL_ARCHIE .         Oil Saturation                : 
TLFamily_SOIL_DW   .         Oil Saturation                : 
TLFamily_SP        .         Spontaneous Potential         : 
TLFamily_VSH_FIN   .         Shale Volume                  : 
TLFamily_VSH_GR    .         Shale Volume                  : 
TLFamily_VSH_SP    .         Shale Volume                  : 
~Curve Information
#_______________________________________________________________________________
#
#LOGNAME           .UNIT     LOG_ID                        : DESCRIPTION
#_______________________________________________________________________________
DEPT               .M                                      : Колонка глубины 
CALI               .м                                      : Каверномер 
CILD               .мСм/м                                  : Индукционный каротаж 
COLL               .unitless                               : Описание 
CSAT               .unitless                               :  
GR                 .uR/h                                   : Гамма каротаж 
GZ3                .Ohmm                                   : 149.10 - 1385.50<_techsia_sc_> 197.50 - 1174.70 
LLS                .Ohmm                                   : Боковой каротаж 
MINV               .Ohmm                                   : Микро-градиент зонд 
MNOR               .Ohmm                                   : Микро-потенциал зонд 
NGLD               .у.е.                                   : Показания зонда НГК-60 аппаратуры ДРСТ-3-90 
OGZ                .Ohmm                                   : 144.60 - 1381.00<_techsia_sc_> 193.00 - 1170.20 
PHIE               .v/v                                    : Описание 
PHIEN              .v/v                                    :  
PHIT               .v/v                                    : Описание 
PRMB               .mD                                     :  
PRMB_DGR           .mD                                     :  
RT                 .ohmm                                   : УЭС пласта 
SOIL_ARCHIE        .v/v                                    :  
SOIL_DW            .v/v                                    :  
SP                 .мВ                                     : Потенциал самополяризации 
VSH_FIN            .v/v                                    : Описание 
VSH_GR             .v/v                                    : Shale volume 
VSH_SP             .v/v                                    : Shale Volume 
~Ascii
# ...
964.4      0.239      322        0          0          4.929      3.0055     3.459      1.724      1.877      1.346      3.2539     0.1573215  0.1573215  0.31785    2.296855   6.898541   3.106      0.3421882  0.5605239  224.727    0.4864501  0.2948639  0.6780363 
964.5      0.24       324        0          0          4.957      3.143531   3.643      1.659      1.936      1.344      3.191145   0.1555957  0.1555957  0.3184     2.133866   6.622737   3.086      0.3338216  0.5577082  225.778    0.4933465  0.2998176  0.6868755 
964.6      0.244      324.9999   0          0          4.977      3.2879     3.814      1.383      1.892      1.343      3.1296     0.1535302  0.1535302  0.318675   1.953937   6.432506   3.077      0.3250985  0.5550345  227.024    0.5004386  0.303407   0.6974703 
964.7000000000001 0.249      327.0001   0          0          4.984      3.328005   3.89       1.085      1.786      1.344      2.952913   0.1505205  0.1505205  0.3184     1.718554   6.367228   3.058      0.3113614  0.5500416  228.799    0.5087257  0.3046733  0.712778  
964.8      0.254      329        0          0          4.976      3.3686     3.865      0.885      1.678      1.347      2.7862     0.1482498  0.1482498  0.317575   1.559927   6.441889   3.04       0.300248   0.5453738  229.964    0.5131066  0.3032264  0.7229868 
964.9      0.26       330        0          0          4.957      3.213793   3.789      0.78       1.596      1.35       2.819452   0.1474511  0.1474511  0.31675    1.507684   6.622737   3.03       0.29586    0.5429544  230.329    0.513027   0.2998176  0.7262363 
965        0.265      330        0          0          4.926      3.0661     3.71       0.724      1.516      1.352      2.8531     0.1475368  0.1475368  0.3162     1.513204   6.928763   3.03       0.2962162  0.5425606  230.509    0.5111006  0.294338   0.7278631 
965.1      0.268      328.0001   0          0          4.885      3.116092   3.649      0.685      1.4        1.352      2.969957   0.1487358  0.1487358  0.3162     1.592595   7.355335   3.049      0.303207   0.5453829  230.485    0.5074673  0.2872443  0.7276903 
965.2000000000001 0.268      324.9999   0          0          4.834      3.1669     3.584      0.67       1.266      1.353      3.0916     0.1504452  0.1504452  0.315925   1.713043   7.922784   3.077      0.3130607  0.5491704  230.09     0.5014539  0.2786585  0.7242492 
965.3      0.265      320.0001   0          0          4.772      3.105811   3.478      0.701      1.201      1.355      2.989618   0.1526857  0.1526857  0.315375   1.884814   8.671908   3.125      0.3267567  0.5546766  229.307    0.4929977  0.2685657  0.7174297 
965.4      0.26       315        0          0          4.702      3.0459     3.332      0.789      1.295      1.358      2.891      0.1550649  0.1550649  0.31455    2.086102   9.603158   3.175      0.3406914  0.5600894  228.328    0.4832883  0.2576094  0.7089671 
965.5      0.253      309.9999   0          0          4.634      2.964102   3.213      0.893      1.528      1.363      2.847878   0.1566113  0.1566113  0.313175   2.228327   10.60347   3.226      0.3512346  0.5640639  227.453    0.4744355  0.2473942  0.7014768 
965.6      0.247      305        0          0          4.585      2.8845     3.236      1.009      1.804      1.368      2.8054     0.157323   0.157323   0.3118     2.297005   11.38827   3.279      0.3587143  0.567185   226.8      0.468112   0.2402853  0.6959387 
965.7000000000001 0.242      302        0          0          4.571      2.833652   3.439      1.243      2.068      1.374      3.016925   0.1567423  0.1567423  0.31015    2.240811   11.62298   3.311      0.3595708  0.5672582  226.267    0.4648719  0.238292   0.6914519 
965.8      0.239      300.9999   0          0          4.598      2.7837     3.769      1.781      2.377      1.383      3.2444     0.1544711  0.1544711  0.307675   2.033933   11.17456   3.322      0.352386   0.5633946  225.659    0.4642544  0.2421512  0.6863576 
965.9      0.238      300.9999   0          0          4.661      2.732784   4.127      2.619      2.781      1.389      3.329094   0.1523964  0.1523964  0.306025   1.861697   10.19439   3.322      0.3447141  0.5596643  224.858    0.4655412  0.2514008  0.6796816 
966        0.237      302        0          0          4.748      2.6828     4.463      3.431      3.184      1.389      3.416      0.1516017  0.1516017  0.306025   1.799659   8.980555   3.311      0.3406982  0.5580477  223.825    0.4679492  0.2647578  0.6711407 
966.1      0.236      304.0001   0          0          4.833      2.762321   4.758      3.8        3.409      1.379      3.264699   0.1537562  0.1537562  0.308775   1.972862   7.934337   3.289      0.3467112  0.5613916  222.587    0.4697538  0.2784928  0.6610149 
966.2000000000001 0.236      305.9999   0          0          4.888      2.8442     4.965      3.523      3.329      1.362      3.1201     0.1587104  0.1587104  0.31345    2.437022   7.323253   3.268      0.3625952  0.5693209  221.23     0.4689079  0.2877575  0.6500583 
966.3      0.237      309        0          0          4.907      2.913945   5.033999   2.788      2.991      1.341      3.042844   0.1656432  0.1656432  0.319225   3.275464   7.123279   3.236      0.383052   0.5790319  219.938    0.4653993  0.2910292  0.6397694 
966.4      0.24       309.9999   0          0          4.907      2.9854     4.936999   1.952      2.54       1.323      2.9675     0.1717893  0.1717893  0.324175   4.257089   7.123279   3.226      0.4014522  0.5881988  219.016    0.4617749  0.2910292  0.6325206 
966.5      0.244      309.9999   0          0          4.914      3.064989   4.71       1.314      2.132      1.31       2.904787   0.1755713  0.1755713  0.32775    5.002238   7.050988   3.226      0.4126975  0.5944036  218.697    0.4611476  0.2922439  0.6300514 
966.6      0.247      309        0          0          4.934      3.1467     4.401      0.976      1.861      1.305      2.8434     0.1758411  0.1758411  0.329125   5.06013    6.848459   3.236      0.4143336  0.5963052  219.1      0.4644967  0.2957425  0.633251  
966.7000000000001 0.249      306.9999   0          0          4.95       3.156784   4.069      0.878      1.736      1.307      2.829114   0.1735066  0.1735066  0.328575   4.580595   6.690639   3.257      0.4092724  0.5950947  220.105    0.4699041  0.2985714  0.6412367 
966.8      0.25       305        0          0          4.947      3.1669     3.777      0.946      1.719      1.315      2.8149     0.1694742  0.1694742  0.326375   3.856835   6.719946   3.279      0.3989509  0.5910759  221.553    0.475457   0.298039   0.652875  
966.9      0.249      302        0          0          4.926      2.958332   3.58       1.112      1.741      1.33       2.899528   0.1637209  0.1637209  0.32225    3.017633   6.928763   3.311      0.3834128  0.5843554  223.215    0.4803911  0.294338   0.6664442 
967        0.247      299.0001   0          0          4.903      2.7635     3.513      1.363      1.773      1.348      2.9867     0.1571303  0.1571303  0.3173     2.278199   7.164919   3.344      0.3639154  0.5758015  224.894    0.4853628  0.2903373  0.6803884 
967.1      0.244      298        0          0          4.892      2.753381   3.564      1.685      1.831      1.365      3.015164   0.1506474  0.1506474  0.312625   1.727879   7.280688   3.356      0.3412484  0.5657215  226.416    0.4908412  0.2884432  0.6932392 
967.2000000000001 0.24       298        0          0          4.889      2.7433     3.694      2.087      1.971      1.376      3.0439     0.1459473  0.1459473  0.3096     1.414021   7.31259    3.356      0.3228094  0.557801   227.661    0.4959173  0.2879288  0.7039058 
967.3      0.237      300.0001   0          0          4.884      2.871409   3.846      2.559      2.208      1.381      3.110032   0.1433713  0.1433713  0.308225   1.266898   7.366066   3.333      0.3100012  0.5520399  228.599    0.4995568  0.2870734  0.7120402 
967.4      0.233      304.0001   0          0          4.87       3.0055     3.98       3.002      2.468      1.38       3.1776     0.1430969  0.1430969  0.3085     1.252159   7.51788    3.289      0.3045255  0.5489776  229.251    0.5012216  0.2846919  0.7177513 
