~Version
 VERS              .         2.0                           : CWLS LOG ASCII STANDARD - VERSION 2.0
 WRAP              .         NO                            : ONE LINE PER DEPTH STEP
 DLM               .         SPACE                         : DELIMITING CHARACTER(SPACE TAB OR COMMA)
~Well Information
#_______________________________________________________________________________
#
#PARAMETER_NAME    .UNIT     VALUE                         : DESCRIPTION
#_______________________________________________________________________________
STRT               .M        890                           : First reference value
STOP               .M        1172                          : Last reference value
STEP               .M        0.1                           : Step increment
NULL               .         -9999                         : Missing value
COMP               .                                       : Company
WELL               .         8367                          : Well name
FLD                .         Узень                         : Field
LOC                .                                       : Location
CNTY               .                                       : County
STAT               .                                       : State
CTRY               .                                       : Country
SRVC               .                                       : Service Company
DATE               .                                       : Date
UWI                .                                       : Unique Well ID
Block              .         7                             : 
Category           .         Нефтяная                      : 
Condition          .         В работе                      : 
Date               .         13.10.1993                    : 
EREF               .m        89.8                          : 100.8
Gorizont           .         14                            : 14
Interpretator      .         Танауова А.Б.                 : 
Kupol              .         Основной                      : osnovnoi
Mud                .         0                             : 
Mud_density        .         0                             : 
Mud_resistivity    .         0                             : 
NGDU               .         НГДУ-2                        : 
ORIGINALWELLNAME   .         8367                          : 
Spud_date          .         1993                          : 1961
Viscosity          .         0                             : 
X                  .m        41807.6                       : 46154
Y                  .m        84408.63                      : 85761.93
YEAR               .         2019                          : 
~Parameter Information Block
#_______________________________________________________________________________
#
#PARAMETER_NAME    .UNIT     VALUE                         : DESCRIPTION
#_______________________________________________________________________________
SET                .         LQC_KAZNIPI_Petrel            : 
PBBOTTOM           .M        1172                          : Глубина подошвы планшета
PBSCALE            .         1 _ 500                       : Вертикальный масштаб планшета
PBTOP              .M        890                           : Глубина кровли планшета
TLFamily_CALI      .         Caliper                       : 
TLFamily_CILD      .         Conductivity                  : 
TLFamily_COLL      .         Net Reservoir Flag            : 
TLFamily_CSAT      .         Fluid Code                    : 
TLFamily_DEPT      .         Measured Depth                : 
TLFamily_GR        .         Russian Gamma Ray             : 
TLFamily_GZ3       .         Gradient 225                  : 
TLFamily_LLS       .         Lateral Log Resistivity       : 
TLFamily_MINV      .         Micro Gradient Resistivity    : 
TLFamily_MNOR      .         Micro Resistivity             : 
TLFamily_NGLD      .         Neutron Gamma                 : 
TLFamily_OGZ       .         Gradient Inverted 225         : 
TLFamily_PHIE      .         Effective Porosity            : 
TLFamily_PHIEN     .         Effective Porosity            : 
TLFamily_PHIT      .         Porosity                      : 
TLFamily_PRMB      .         Permeability                  : 
TLFamily_PRMB_DGR  .         Permeability                  : 
TLFamily_RT        .         Formation Resistivity         : 
TLFamily_SOIL_ARCHIE .         Oil Saturation                : 
TLFamily_SOIL_DW   .         Oil Saturation                : 
TLFamily_SP        .         Spontaneous Potential         : 
TLFamily_VSH_FIN   .         Shale Volume                  : 
TLFamily_VSH_GR    .         Shale Volume                  : 
TLFamily_VSH_SP    .         Shale Volume                  : 
~Curve Information
#_______________________________________________________________________________
#
#LOGNAME           .UNIT     LOG_ID                        : DESCRIPTION
#_______________________________________________________________________________
DEPT               .M                                      : Колонка глубины 
CALI               .м                                      : Каверномер 
CILD               .мСм/м                                  : Индукционный каротаж 
COLL               .unitless                               : Описание 
CSAT               .unitless                               :  
GR                 .uR/h                                   : Гамма каротаж 
GZ3                .Ohmm                                   : 149.10 - 1385.50<_techsia_sc_> 197.50 - 1174.70 
LLS                .Ohmm                                   : Боковой каротаж 
MINV               .Ohmm                                   : Микро-градиент зонд 
MNOR               .Ohmm                                   : Микро-потенциал зонд 
NGLD               .у.е.                                   : Показания зонда НГК-60 аппаратуры ДРСТ-3-90 
OGZ                .Ohmm                                   : 144.60 - 1381.00<_techsia_sc_> 193.00 - 1170.20 
PHIE               .v/v                                    : Описание 
PHIEN              .v/v                                    :  
PHIT               .v/v                                    : Описание 
PRMB               .mD                                     :  
PRMB_DGR           .mD                                     :  
RT                 .ohmm                                   : УЭС пласта 
SOIL_ARCHIE        .v/v                                    :  
SOIL_DW            .v/v                                    :  
SP                 .мВ                                     : Потенциал самополяризации 
VSH_FIN            .v/v                                    : Описание 
VSH_GR             .v/v                                    : Shale volume 
VSH_SP             .v/v                                    : Shale Volume 
~Ascii
# ...
983        0.257      352        0          0          5.953      3.2879     3.904      0.834      1.405      1.208      2.0038     0.1576216  0.1576216  0.3558     2.32644    1.551381   2.841      0.3152129  0.5719063  221.566    0.6005408  0.5422973  0.6587843 
983.1      0.26       357.0001   0          0          5.857      3.347902   3.887      0.722      1.355      1.211      1.999044   0.1608035  0.1608035  0.354975   2.664586   1.784318   2.801      0.3225372  0.5714517  222.275    0.5883984  0.5121883  0.6646085 
983.2000000000001 0.265      362.0001   0          0          5.763      3.409      3.776      0.661      1.304      1.214      1.9943     0.162888   0.162888   0.35415    2.912316   2.046257   2.762      0.3256716  0.5698979  223.511    0.5795819  0.4843271  0.6748368 
983.3      0.269      366        0          0          5.684      3.306612   3.621      0.647      1.264      1.214      2.11023    0.164088   0.164088   0.35415    3.065249   2.295912   2.732      0.3265262  0.5687383  225.294    0.5759455  0.4620874  0.6898037 
983.4      0.274      369        0          0          5.616      3.2073     3.462      0.645      1.225      1.216      2.2329     0.1637599  0.1637599  0.3536     3.022662   2.535064   2.71       0.3227867  0.5662446  227.279    0.5752729  0.4437639  0.7067819 
983.5      0.278      372.0001   0          0          5.557      3.237409   3.312      0.632      1.171      1.222      2.265955   0.1622215  0.1622215  0.35195    2.830702   2.762658   2.688      0.3145798  0.5616448  228.958    0.5749348  0.4284553  0.7214142 
983.6      0.281      374.0001   0          0          5.518      3.2678     3.171      0.61       1.105      1.232      2.2995     0.1596158  0.1596158  0.3492     2.532969   2.924209   2.674      0.303139   0.5556428  229.97     0.5744976  0.4186272  0.730368  
983.7000000000001 0.282      376.0001   0          0          5.507      3.080905   3.048      0.589      1.041      1.243      2.197068   0.156514   0.156514   0.346175   2.219101   2.971459   2.66       0.2893777  0.5487337  230.326    0.5747303  0.4158961  0.7335644 
983.8      0.282      378        0          0          5.521      2.9047     2.975      0.571      0.993      1.248      2.0992     0.1547578  0.1547578  0.3448     2.058956   2.911454   2.646      0.2805798  0.5444916  230.19     0.5758856  0.4193751  0.7323962 
983.9      0.281      381        0          0          5.541      2.95467    2.98       0.551      0.963      1.243      2.103995   0.1559276  0.1559276  0.346175   2.164287   2.827827   2.625      0.2826054  0.5450953  229.759    0.5765073  0.4243956  0.728619  
984        0.28       385.9999   0          0          5.552      3.0055     3.07       0.529      0.945      1.227      2.1088     0.161026   0.161026   0.350575   2.689987   2.782861   2.591      0.2981487  0.551175   228.957    0.5743909  0.4271825  0.7215993 
984.1      0.28       393        0          0          5.554      2.944379   3.212      0.512      0.938      1.204      2.146611   0.1691591  0.1691591  0.3569     3.805361   2.774762   2.545      0.321956   0.5604114  227.636    0.5689117  0.4276911  0.7101322 
984.2000000000001 0.281      402.0001   0          0          5.554      2.8845     3.35       0.509      0.937      1.182      2.1851     0.1780259  0.1780259  0.36295    5.554294   2.774762   2.488      0.3445345  0.5684894  225.639    0.5603762  0.4276911  0.6930612 
984.3      0.283      412        0          0          5.558      2.924572   3.43       0.523      0.942      1.163      2.301357   0.1865904  0.1865904  0.368175   8.00323    2.758635   2.427      0.363445   0.5746754  223.096    0.5502563  0.4287103  0.6718023 
984.4      0.284      424        0          0          5.566      2.9652     3.404      0.55       0.947      1.149      2.4238     0.1938158  0.1938158  0.372025   10.89174   2.726664   2.358      0.375772   0.5774953  220.331    0.5400277  0.4307559  0.6492996 
984.5      0.285      436.0001   0          0          5.575      2.701307   3.264      0.587      0.939      1.139      2.494227   0.1995646  0.1995646  0.374775   13.91804   2.691139   2.294      0.383554   0.5783858  217.743    0.5309407  0.4330688  0.6288126 
984.6      0.287      448        0          0          5.586      2.4609     3.021      0.622      0.897      1.132      2.5667     0.2037389  0.2037389  0.3767     16.63017   2.648345   2.232      0.3867344  0.5773336  215.609    0.5241246  0.4359127  0.6123365 
984.7000000000001 0.291      458.0001   0          0          5.601      2.470979   2.72       0.642      0.819      1.13       2.419372   0.2056623  0.2056623  0.37725    18.05191   2.591086   2.183      0.3853635  0.5745636  213.992    0.5199627  0.4398207  0.6001046 
984.8      0.298      466.0001   0          0          5.618      2.4811     2.403      0.629      0.726      1.134      2.2805     0.2051037  0.2051037  0.37615    17.62694   2.527688   2.146      0.3789437  0.5696907  212.951    0.5183221  0.4442923  0.5923519 
984.9      0.307      470.9999   0          0          5.629      2.248276   2.096      0.588      0.652      1.144      2.266155   0.2023946  0.2023946  0.3734     15.70352   2.487493   2.123      0.3685246  0.5631616  212.52     0.5181981  0.4472099  0.5891864 
985        0.315      473.0001   0          0          5.626      2.0373     1.803      0.539      0.615      1.159      2.2519     0.1979356  0.1979356  0.369275   12.98388   2.498392   2.114      0.3548677  0.5554057  212.896    0.5192104  0.4464122  0.5920086 
985.1      0.32       470.9999   0          0          5.614      2.096927   1.533      0.504      0.61       1.176      2.30844    0.1922753  0.1922753  0.3646     10.19915   2.542464   2.123      0.3396759  0.5478019  214.114    0.5221959  0.4432361  0.6011558 
985.2000000000001 0.319      466.0001   0          0          5.614      2.1583     1.32       0.488      0.619      1.197      2.3664     0.1839763  0.1839763  0.358825   7.158898   2.542464   2.146      0.3172684  0.5379757  216.119    0.5298444  0.4432361  0.6164528 
985.3      0.313      458.0001   0          0          5.642      2.022956   1.194      0.482      0.626      1.22       2.3664     0.1732195  0.1732195  0.3525     4.524835   2.440814   2.183      0.2862355  0.5260082  218.605    0.5432743  0.4506826  0.6358662 
985.4      0.305      448        0          0          5.688      1.8961     1.17       0.484      0.638      1.245      2.3664     0.1607715  0.1607715  0.345625   2.660948   2.282568   2.232      0.2462296  0.5118325  221.257    0.5601621  0.4631885  0.6571358 
985.5      0.297      437        0          0          5.723      2.022956   1.239      0.498      0.667      1.27       2.514562   0.1488604  0.1488604  0.33875    1.601084   2.169073   2.288      0.2032817  0.4974472  223.779    0.575423   0.4729359  0.6779101 
985.6      0.291      425.9999   0          0          5.707      2.1583     1.399      0.528      0.718      1.295      2.672      0.1383696  0.1383696  0.331875   1.023528   2.22024    2.347      0.1610063  0.4835771  226.894    0.5863799  0.4684546  0.7043052 
985.7000000000001 0.284      415.0001   0          0          5.625      2.127835   1.63       0.557      0.779      1.322      2.728503   0.1311586  0.1311586  0.32445    0.7525455  2.502035   2.41       0.1318297  0.4727824  229.305    0.5857316  0.4461467  0.7253166 
985.8      0.276      404.0001   0          0          5.492      2.0978     1.909      0.586      0.848      1.35       2.7862     0.1271262  0.1271262  0.31675    0.6336405  3.037124   2.475      0.1189659  0.4657044  230.623    0.5746177  0.4122006  0.7370347 
985.9      0.266      392        0          0          5.35       1.885341   2.209      0.653      0.953      1.378      2.842972   0.1231836  0.1231836  0.30905    0.5355705  3.735315   2.551      0.1072182  0.4592584  231.803    0.5632316  0.3788033  0.7476598 
986        0.256      380.0001   0          0          5.246      1.6944     2.541      0.863      1.164      1.402      2.9009     0.1189096  0.1189096  0.30245    0.4463267  4.346541   2.632      0.09274034 0.4533154  232.751    0.556183   0.3560728  0.7562932 
