~Version
 VERS              .         2.0                           : CWLS LOG ASCII STANDARD - VERSION 2.0
 WRAP              .         NO                            : ONE LINE PER DEPTH STEP
 DLM               .         SPACE                         : DELIMITING CHARACTER(SPACE TAB OR COMMA)
~Well Information
#_______________________________________________________________________________
#
#PARAMETER_NAME    .UNIT     VALUE                         : DESCRIPTION
#_______________________________________________________________________________
STRT               .M        890                           : First reference value
STOP               .M        1172                          : Last reference value
STEP               .M        0.1                           : Step increment
NULL               .         -9999                         : Missing value
COMP               .                                       : Company
WELL               .         8367                          : Well name
FLD                .         Узень                         : Field
LOC                .                                       : Location
CNTY               .                                       : County
STAT               .                                       : State
CTRY               .                                       : Country
SRVC               .                                       : Service Company
DATE               .                                       : Date
UWI                .                                       : Unique Well ID
Block              .         7                             : 
Category           .         Нефтяная                      : 
Condition          .         В работе                      : 
Date               .         13.10.1993                    : 
EREF               .m        89.8                          : 100.8
Gorizont           .         14                            : 14
Interpretator      .         Танауова А.Б.                 : 
Kupol              .         Основной                      : osnovnoi
Mud                .         0                             : 
Mud_density        .         0                             : 
Mud_resistivity    .         0                             : 
NGDU               .         НГДУ-2                        : 
ORIGINALWELLNAME   .         8367                          : 
Spud_date          .         1993                          : 1961
Viscosity          .         0                             : 
X                  .m        41807.6                       : 46154
Y                  .m        84408.63                      : 85761.93
YEAR               .         2019                          : 
~Parameter Information Block
#_______________________________________________________________________________
#
#PARAMETER_NAME    .UNIT     VALUE                         : DESCRIPTION
#_______________________________________________________________________________
SET                .         LQC_KAZNIPI_Petrel            : 
PBBOTTOM           .M        1172                          : Глубина подошвы планшета
PBSCALE            .         1 _ 500                       : Вертикальный масштаб планшета
PBTOP              .M        890                           : Глубина кровли планшета
TLFamily_CALI      .         Caliper                       : 
TLFamily_CILD      .         Conductivity                  : 
TLFamily_COLL      .         Net Reservoir Flag            : 
TLFamily_CSAT      .         Fluid Code                    : 
TLFamily_DEPT      .         Measured Depth                : 
TLFamily_GR        .         Russian Gamma Ray             : 
TLFamily_GZ3       .         Gradient 225                  : 
TLFamily_LLS       .         Lateral Log Resistivity       : 
TLFamily_MINV      .         Micro Gradient Resistivity    : 
TLFamily_MNOR      .         Micro Resistivity             : 
TLFamily_NGLD      .         Neutron Gamma                 : 
TLFamily_OGZ       .         Gradient Inverted 225         : 
TLFamily_PHIE      .         Effective Porosity            : 
TLFamily_PHIEN     .         Effective Porosity            : 
TLFamily_PHIT      .         Porosity                      : 
TLFamily_PRMB      .         Permeability                  : 
TLFamily_PRMB_DGR  .         Permeability                  : 
TLFamily_RT        .         Formation Resistivity         : 
TLFamily_SOIL_ARCHIE .         Oil Saturation                : 
TLFamily_SOIL_DW   .         Oil Saturation                : 
TLFamily_SP        .         Spontaneous Potential         : 
TLFamily_VSH_FIN   .         Shale Volume                  : 
TLFamily_VSH_GR    .         Shale Volume                  : 
TLFamily_VSH_SP    .         Shale Volume                  : 
~Curve Information
#_______________________________________________________________________________
#
#LOGNAME           .UNIT     LOG_ID                        : DESCRIPTION
#_______________________________________________________________________________
DEPT               .M                                      : Колонка глубины 
CALI               .м                                      : Каверномер 
CILD               .мСм/м                                  : Индукционный каротаж 
COLL               .unitless                               : Описание 
CSAT               .unitless                               :  
GR                 .uR/h                                   : Гамма каротаж 
GZ3                .Ohmm                                   : 149.10 - 1385.50<_techsia_sc_> 197.50 - 1174.70 
LLS                .Ohmm                                   : Боковой каротаж 
MINV               .Ohmm                                   : Микро-градиент зонд 
MNOR               .Ohmm                                   : Микро-потенциал зонд 
NGLD               .у.е.                                   : Показания зонда НГК-60 аппаратуры ДРСТ-3-90 
OGZ                .Ohmm                                   : 144.60 - 1381.00<_techsia_sc_> 193.00 - 1170.20 
PHIE               .v/v                                    : Описание 
PHIEN              .v/v                                    :  
PHIT               .v/v                                    : Описание 
PRMB               .mD                                     :  
PRMB_DGR           .mD                                     :  
RT                 .ohmm                                   : УЭС пласта 
SOIL_ARCHIE        .v/v                                    :  
SOIL_DW            .v/v                                    :  
SP                 .мВ                                     : Потенциал самополяризации 
VSH_FIN            .v/v                                    : Описание 
VSH_GR             .v/v                                    : Shale volume 
VSH_SP             .v/v                                    : Shale Volume 
~Ascii
# ...
1150.4     0.253      469        1          2          -9999      1.5734     2.915      2.858      2.073      1.378      0.8969     0.2115244  0.2115244  0.30905    23.17948   -9999      2.132      0.3935354  0.5203346  156.267    0.295532   -9999      0.295532  
1150.5     0.253      461.9999   1          2          -9999      1.790388   2.941      3.159      2.372      1.375      0.9297003  0.2134688  0.2134688  0.309875   25.18363   -9999      2.165      0.4026704  0.5265325  155.368    0.29214    -9999      0.29214   
1150.6     0.253      454        1          2          -9999      2.0373     3.105      3.242      2.674      1.374      0.9637     0.2118486  0.2118486  0.31015    23.50218   -9999      2.203      0.4035833  0.5294113  156.895    0.2978831  -9999      0.2978831 
1150.7     0.253      446.9999   1          2          -9999      1.965432   3.383      3.005      2.777      1.371      1.080653   0.2089109  0.2089109  0.310975   20.73457   -9999      2.237      0.4006087  0.5310622  159.825    0.3092851  -9999      0.3092851 
1150.8     0.254      441.9999   1          2          -9999      1.8961     3.641      2.611      2.671      1.364      1.2118     0.206583   0.206583   0.3129     18.77484   -9999      2.262      0.3978787  0.5332333  162.994    0.3221728  -9999      0.3221728 
1150.9     0.254      443.0001   1          2          -9999      2.151235   3.736      2.347      2.52       1.35       1.325697   0.2073895  0.2073895  0.31675    19.4319    -9999      2.257      0.3992952  0.5368285  165.179    0.3313953  -9999      0.3313953 
1151       0.253      446.9999   1          2          -9999      2.4407     3.623      2.324      2.439      1.334      1.4503     0.2112958  0.2112958  0.32115    22.95454   -9999      2.237      0.4065053  0.5420438  165.531    0.3328916  -9999      0.3328916 
1151.1     0.253      454        1          2          -9999      2.273632   3.412      2.39       2.37       1.318      1.542894   0.2178172  0.2178172  0.32555    30.31521   -9999      2.203      0.4178425  0.5478652  164.03     0.3264632  -9999      0.3264632 
1151.2     0.253      464        1          2          -9999      2.118      3.228      2.366      2.19       1.306      1.6414     0.2247068  0.2247068  0.32885    40.66999   -9999      2.155      0.4275322  0.5513253  161.412    0.3155853  -9999      0.3155853 
1151.3     0.254      473.0001   1          2          -9999      2.157973   3.074      2.285      1.919      1.298      2.071579   0.230204   0.230204   0.33105    51.41561   -9999      2.114      0.4343813  0.5532265  158.918    0.3055939  -9999      0.3055939 
1151.4     0.255      482        1          2          -9999      2.1987     2.821      2.359      1.735      1.291      2.6145     0.2338494  0.2338494  0.332975   60.06422   -9999      2.075      0.4371718  0.5534794  157.582    0.3003807  -9999      0.3003807 
1151.5     0.256      489        1          2          -9999      2.833276   2.404      2.652      1.757      1.284      3.135283   0.23557    0.23557    0.3349     64.63783   -9999      2.045      0.436919   0.5530899  157.747    0.3009999  -9999      0.3009999 
1151.6     0.255      494.0001   1          2          -0.077     3.651      1.953      2.938      1.885      1.272      3.7598     0.2371416  0.2371416  0.3382     69.11864   66615.97   2.024      0.4374521  0.5545821  159.095    0.3062377  0.02       0.3062377 
1151.7     0.255      496.0001   1          2          -9999      3.942003   1.689      2.937      1.913      1.256      3.87712    0.2392144  0.2392144  0.3426     75.50719   -9999      2.016      0.4406614  0.5586647  160.868    0.3132898  -9999      0.3132898 
1151.8     0.255      496.0001   1          2          -9999      4.2562     1.727      2.596      1.756      1.238      3.9981     0.2419958  0.2419958  0.34755    85.01736   -9999      2.016      0.4462648  0.5644519  162.481    0.3198611  -9999      0.3198611 
1151.9     0.257      496.9999   1          2          -9999      3.920186   1.971      2.106      1.502      1.223      3.531526   0.2444295  0.2444295  0.351675   94.31588   -9999      2.012      0.4505579  0.5688155  163.715    0.3249864  -9999      0.3249864 
1152       0.26       500.0001   1          2          -9999      3.6107     2.223      1.663      1.284      1.215      3.1194     0.2450384  0.2450384  0.353875   96.79742   -9999      2          0.450206   0.56955    164.857    0.3298078  -9999      0.3298078 
1152.1     0.263      505        1          2          -9999      2.881459   2.31       1.354      1.165      1.217      2.421281   0.2422974  0.2422974  0.353325   86.11784   -9999      1.98       0.4421683  0.5649809  166.399    0.3364474  -9999      0.3364474 
1152.2     0.266      512.0001   -9999      -9999      -9999      2.2995     2.174      1.204      1.143      1.227      1.8794     0.2360471  0.2360471  0.350575   65.96641   -9999      1.953      0.4256366  0.555225   168.794    0.3470543  -9999      0.3470543 
1152.3     0.266      517.9999   -9999      -9999      -9999      1.736339   1.893      1.203      1.185      1.241      1.454718   0.2271939  0.2271939  0.346725   45.22103   -9999      1.931      0.4030265  0.5426916  172.086    0.3622154  -9999      0.3622154 
1152.4     0.266      521.9999   -9999      -9999      -9999      1.3111     1.613      1.312      1.258      1.256      1.126      0.2168286  0.2168286  0.3426     29.06363   -9999      1.916      0.3759673  0.5287912  175.999    0.3811254  -9999      0.3811254 
1152.5     0.266      523.0001   -9999      -9999      -9999      1.066418   1.457      1.443      1.328      1.269      1.05202    0.2064361  0.2064361  0.339025   18.65758   -9999      1.912      0.3480542  0.5158563  180.058    0.4017846  -9999      0.4017846 
1152.6     0.266      521.9999   -9999      -9999      -9999      0.8674     1.464      1.525      1.364      1.277      0.9829     0.197327   0.197327   0.336825   12.65126   -9999      1.916      0.3225841  0.5056366  183.969    0.4227211  -9999      0.4227211 
1152.7     0.266      520.9999   -9999      -9999      -9999      0.9068527  1.581      1.54       1.357      1.28       0.9923545  0.1896715  0.1896715  0.336      9.12714    -9999      1.919      0.2993463  0.4974723  187.658    0.4434197  -9999      0.4434197 
1152.8     0.266      520.9999   -9999      -9999      -9999      0.9481     1.729      1.515      1.317      1.282      1.0019     0.182161   0.182161   0.33545    6.625539   -9999      1.919      0.274252   0.4889181  191.255    0.4645123  -9999      0.4645123 
1152.9     0.267      523.0001   -9999      -9999      -9999      0.9680403  1.843      1.481      1.254      1.286      1.057696   0.1736067  0.1736067  0.33435    4.600184   -9999      1.912      0.2419047  0.4772508  194.944    0.4871009  -9999      0.4871009 
1153       0.267      525.9999   -9999      -9999      -9999      0.9884     1.897      1.44       1.167      1.292      1.1166     0.1636358  0.1636358  0.3327     3.006702   -9999      1.901      0.1996632  0.4620222  198.883    0.5123156  -9999      0.5123156 
1153.1     0.268      527.975    -9999      -9999      -9999      1.018201   1.898      1.383      1.069      1.296      1.158658   0.1531837  0.1531837  0.3316     1.925269   -9999      1.894      0.1508367  0.4462021  203.109    0.5406555  -9999      0.5406555 
1153.2     0.269      529.9999   -9999      -9999      -9999      1.0489     1.862      1.324      1.006      1.296      1.2023     0.1431628  0.1431628  0.3316     1.255687   -9999      1.887      0.09773038 0.4309581  207.427    0.5710217  -9999      0.5710217 
1153.3     0.269      533.0001   -9999      -9999      -9999      0.9538427  1.812      1.303      1.026      1.293      1.239863   0.1342492  0.1342492  0.332425   0.8585768  -9999      1.876      0.04315061 0.4165642  211.438    0.6005327  -9999      0.6005327 
1153.4     0.267      534.9999   -9999      -9999      -9999      0.8674     1.769      1.349      1.123      1.289      1.2786     0.1275525  0.1275525  0.333525   0.6452665  -9999      1.869      0          0.4058116  214.531    0.6241592  -9999      0.6241592 
