~Version
 VERS              .         2.0                           : CWLS LOG ASCII STANDARD - VERSION 2.0
 WRAP              .         NO                            : ONE LINE PER DEPTH STEP
 DLM               .         SPACE                         : DELIMITING CHARACTER(SPACE TAB OR COMMA)
~Well Information
#_______________________________________________________________________________
#
#PARAMETER_NAME    .UNIT     VALUE                         : DESCRIPTION
#_______________________________________________________________________________
STRT               .M        890                           : First reference value
STOP               .M        1172                          : Last reference value
STEP               .M        0.1                           : Step increment
NULL               .         -9999                         : Missing value
COMP               .                                       : Company
WELL               .         8367                          : Well name
FLD                .         Узень                         : Field
LOC                .                                       : Location
CNTY               .                                       : County
STAT               .                                       : State
CTRY               .                                       : Country
SRVC               .                                       : Service Company
DATE               .                                       : Date
UWI                .                                       : Unique Well ID
Block              .         7                             : 
Category           .         Нефтяная                      : 
Condition          .         В работе                      : 
Date               .         13.10.1993                    : 
EREF               .m        89.8                          : 100.8
Gorizont           .         14                            : 14
Interpretator      .         Танауова А.Б.                 : 
Kupol              .         Основной                      : osnovnoi
Mud                .         0                             : 
Mud_density        .         0                             : 
Mud_resistivity    .         0                             : 
NGDU               .         НГДУ-2                        : 
ORIGINALWELLNAME   .         8367                          : 
Spud_date          .         1993                          : 1961
Viscosity          .         0                             : 
X                  .m        41807.6                       : 46154
Y                  .m        84408.63                      : 85761.93
YEAR               .         2019                          : 
~Parameter Information Block
#_______________________________________________________________________________
#
#PARAMETER_NAME    .UNIT     VALUE                         : DESCRIPTION
#_______________________________________________________________________________
SET                .         LQC_KAZNIPI_Petrel            : 
PBBOTTOM           .M        1172                          : Глубина подошвы планшета
PBSCALE            .         1 _ 500                       : Вертикальный масштаб планшета
PBTOP              .M        890                           : Глубина кровли планшета
TLFamily_CALI      .         Caliper                       : 
TLFamily_CILD      .         Conductivity                  : 
TLFamily_COLL      .         Net Reservoir Flag            : 
TLFamily_CSAT      .         Fluid Code                    : 
TLFamily_DEPT      .         Measured Depth                : 
TLFamily_GR        .         Russian Gamma Ray             : 
TLFamily_GZ3       .         Gradient 225                  : 
TLFamily_LLS       .         Lateral Log Resistivity       : 
TLFamily_MINV      .         Micro Gradient Resistivity    : 
TLFamily_MNOR      .         Micro Resistivity             : 
TLFamily_NGLD      .         Neutron Gamma                 : 
TLFamily_OGZ       .         Gradient Inverted 225         : 
TLFamily_PHIE      .         Effective Porosity            : 
TLFamily_PHIEN     .         Effective Porosity            : 
TLFamily_PHIT      .         Porosity                      : 
TLFamily_PRMB      .         Permeability                  : 
TLFamily_PRMB_DGR  .         Permeability                  : 
TLFamily_RT        .         Formation Resistivity         : 
TLFamily_SOIL_ARCHIE .         Oil Saturation                : 
TLFamily_SOIL_DW   .         Oil Saturation                : 
TLFamily_SP        .         Spontaneous Potential         : 
TLFamily_VSH_FIN   .         Shale Volume                  : 
TLFamily_VSH_GR    .         Shale Volume                  : 
TLFamily_VSH_SP    .         Shale Volume                  : 
~Curve Information
#_______________________________________________________________________________
#
#LOGNAME           .UNIT     LOG_ID                        : DESCRIPTION
#_______________________________________________________________________________
DEPT               .M                                      : Колонка глубины 
CALI               .м                                      : Каверномер 
CILD               .мСм/м                                  : Индукционный каротаж 
COLL               .unitless                               : Описание 
CSAT               .unitless                               :  
GR                 .uR/h                                   : Гамма каротаж 
GZ3                .Ohmm                                   : 149.10 - 1385.50<_techsia_sc_> 197.50 - 1174.70 
LLS                .Ohmm                                   : Боковой каротаж 
MINV               .Ohmm                                   : Микро-градиент зонд 
MNOR               .Ohmm                                   : Микро-потенциал зонд 
NGLD               .у.е.                                   : Показания зонда НГК-60 аппаратуры ДРСТ-3-90 
OGZ                .Ohmm                                   : 144.60 - 1381.00<_techsia_sc_> 193.00 - 1170.20 
PHIE               .v/v                                    : Описание 
PHIEN              .v/v                                    :  
PHIT               .v/v                                    : Описание 
PRMB               .mD                                     :  
PRMB_DGR           .mD                                     :  
RT                 .ohmm                                   : УЭС пласта 
SOIL_ARCHIE        .v/v                                    :  
SOIL_DW            .v/v                                    :  
SP                 .мВ                                     : Потенциал самополяризации 
VSH_FIN            .v/v                                    : Описание 
VSH_GR             .v/v                                    : Shale volume 
VSH_SP             .v/v                                    : Shale Volume 
~Ascii
# ...
1169       -9999      429        0          0          -9999      3.2073     2.962      3.957      1.999      1.266      1.6604     0.0968516  0.0968516  0.33985    0.1742147  -9999      2.331      0          0.4288404  228.679    0.7363588  -9999      0.7363588 
1169.1     -9999      427        0          0          -9999      2.9553     2.933      4.041      2.068      1.25       1.739611   0.09287719 0.09287719 0.34425    0.1470513  -9999      2.342      0          0.4272696  231.492    0.7617358  -9999      0.7617358 
1169.2     -9999      423        0          0          -9999      2.7231     2.906      4.022      2.176      1.234      1.8226     0.09230643 0.09230643 0.34865    0.1435149  -9999      2.364      0          0.4336858  233.128    0.7767987  -9999      0.7767987 
1169.3     -9999      418        0          0          -9999      2.469215   2.915      3.762      2.263      1.217      1.89275    0.09735097 0.09735097 0.353325   0.1779648  -9999      2.392      0          0.4516158  233.012    0.7756789  -9999      0.7756789 
1169.4     -9999      414        0          0          -9999      2.239      2.981      3.249      2.266      1.204      1.9656     0.1077507  0.1077507  0.3569     0.2773083  -9999      2.415      0          0.4758749  230.767    0.7549978  -9999      0.7549978 
1169.5     -9999      410.0001   0          0          -9999      2.394968   3.08       2.665      2.206      1.197      1.956027   0.1214466  0.1214466  0.358825   0.497328   -9999      2.439      0.0897032  0.5012356  226.772    0.7193286  -9999      0.7193286 
1169.6     -9999      406.9999   0          0          -9999      2.5618     3.15       2.218      2.154      1.202      1.9465     0.1341354  0.1341354  0.35745    0.8544208  -9999      2.457      0.1680531  0.5191077  221.78     0.6767108  -9999      0.6767108 
1169.7     -9999      405        0          0          -9999      2.718366   3.143      1.972      2.123      1.215      1.818277   0.1439001  0.1439001  0.353875   1.295797   -9999      2.469      0.2192296  0.5294079  216.799    0.6362876  -9999      0.6362876 
1169.8     -9999      402.9999   0          0          -9999      2.8845     3.076      1.834      2.019      1.233      1.6985     0.1498397  0.1498397  0.348925   1.669372   -9999      2.481      0.2479682  0.533422   212.533    0.6032887  -9999      0.6032887 
1169.9     -9999      400.0001   0          0          -9999      2.934516   3.007      1.684      1.776      1.255      1.584955   0.152046   0.152046   0.342875   1.834081   -9999      2.5        0.2601348  0.5326588  209.211    0.5782698  -9999      0.5782698 
1170       -9999      398        0          0          -9999      2.9854     2.973      1.504      1.464      1.279      1.479      0.1513503  0.1513503  0.336275   1.780459   -9999      2.513      0.2589793  0.5273757  206.722    0.560378   -9999      0.560378  
1170.1     -9999      395.0001   0          0          -9999      2.872308   2.954      1.352      1.232      1.309      -9999      0.1476652  0.1476652  0.328025   1.521515   -9999      2.532      0.2455703  0.517345   204.75     0.5465448  -9999      0.5465448 
1170.2     -9999      393        0          0          -9999      2.7635     2.916      1.277      1.166      1.342      -9999      0.1422642  0.1422642  0.31895    1.208472   -9999      2.545      0.2225556  0.5031577  203.131    0.5354115  -9999      0.5354115 
1170.3     -9999      389        0          0          -9999      2.702323   2.876      1.269      1.243      1.376      -9999      0.1359916  0.1359916  0.3096     0.9248081  -9999      2.571      0.1952623  0.4877989  201.752    0.5260862  -9999      0.5260862 
1170.4     -9999      384.9999   0          0          -9999      2.6425     2.913      1.296      1.403      1.407      -9999      0.1298895  0.1298895  0.301075   0.712897   -9999      2.597      0.1663789  0.4723938  200.651    0.518744   -9999      0.518744  
1170.5     -9999      379.0001   0          0          -9999      2.365759   3.071      1.334      1.587      1.43       -9999      0.125317   0.125317   0.29475    0.5865886  -9999      2.639      0.1463996  0.462455   199.846    0.5134333  -9999      0.5134333 
1170.6     -9999      373.0001   0          0          -9999      2.118      3.317      1.37       1.744      1.441      -9999      0.1232129  0.1232129  0.291725   0.5362419  -9999      2.681      0.1401129  0.459823   199.42     0.5106426  -9999      0.5106426 
1170.7     -9999      367        0          0          -9999      1.905655   3.557      1.385      1.838      1.439      -9999      0.1238211  0.1238211  0.292275   0.5503337  -9999      2.725      0.1503083  0.4658148  199.393    0.5104662  -9999      0.5104662 
1170.8     -9999      362.0001   0          0          -9999      1.7146     3.714      1.38       1.854      1.429      -9999      0.1256873  0.1256873  0.295025   0.5959256  -9999      2.762      0.1665979  0.475445   199.802    0.5131445  -9999      0.5131445 
1170.9     -9999      359        0          0          -9999      1.588946   3.769      1.401      1.811      1.419      -9999      0.1267032  0.1267032  0.297775   0.6223117  -9999      2.786      0.1757736  0.4822957  200.599    0.5183995  -9999      0.5183995 
1171       -9999      357.0001   0          0          -9999      1.4725     3.721      1.521      1.751      1.414      -9999      0.1254906  0.1254906  0.29915    0.5909477  -9999      2.801      0.1709335  0.4833305  201.775    0.5262405  -9999      0.5262405 
1171.1     -9999      353.0001   0          0          -9999      1.242781   3.583      1.754      1.739      1.414      -9999      0.1221806  0.1221806  0.29915    0.5131445  -9999      2.833      0.155917   0.48115    203.257    0.5362708  -9999      0.5362708 
1171.2     -9999      349        0          0          -9999      1.0489     3.37       2.047      1.848      1.416      -9999      0.1177978  0.1177978  0.2986     0.4256569  -9999      2.865      0.1332102  0.4764815  204.943    0.5478854  -9999      0.5478854 
1171.3     -9999      342.9999   0          0          -9999      1.225657   3.134      2.339      2.109      1.419      -9999      0.1130491  0.1130491  0.297775   0.3476176  -9999      2.915      0.1088479  0.4722417  206.637    0.5597754  -9999      0.5597754 
1171.4     -9999      334        0          0          -9999      1.4322     2.978      2.614      2.49       1.421      -9999      0.1090322  0.1090322  0.297225   0.2928865  -9999      2.994      0.09178887 0.4718027  208.108    0.5702811  -9999      0.5702811 
1171.5     -9999      323        0          0          -9999      1.567051   3.004      2.848      2.894      1.422      -9999      0.1061474  0.1061474  0.29695    0.2589797  -9999      3.096      0.0848294  0.4752712  209.2      0.5781896  -9999      0.5781896 
1171.6     -9999      311        0          0          -9999      1.7146     3.291      2.978      3.229      1.423      -9999      0.1043333  0.1043333  0.296675   0.2396978  -9999      3.215      0.08728361 0.4816068  209.838    0.5828536  -9999      0.5828536 
1171.7     -9999      297        0          0          -9999      1.994331   3.815      2.983      3.462      1.422      -9999      0.1040023  0.1040023  0.29695    0.2363374  -9999      3.367      0.1043807  0.4931773  210.088    0.58469    -9999      0.58469   
1171.8     -9999      284        0          0          -9999      2.3197     4.49       2.931      3.615      1.42       -9999      0.1047124  0.1047124  0.2975     0.243605   -9999      3.521      0.1281636  0.506167   210.022    0.5842048  -9999      0.5842048 
1171.9     -9999      272        0          0          -9999      2.25839    5.183      2.933      3.738      1.42       -9999      0.105318   0.105318   0.2975     0.2499789  -9999      3.676      0.1498921  0.5176765  209.772    0.5823697  -9999      0.5823697 
1172       -9999      261        -9999      -9999      -9999      2.1987     5.798      3.023      3.848      1.422      -9999      0.1055504  0.1055504  0.29695    0.2524686  -9999      3.831      0.1678082  0.5273395  209.448    0.5799988  -9999      0.5799988 
