~Version
 VERS              .         2.0                           : CWLS LOG ASCII STANDARD - VERSION 2.0
 WRAP              .         NO                            : ONE LINE PER DEPTH STEP
 DLM               .         SPACE                         : DELIMITING CHARACTER(SPACE TAB OR COMMA)
~Well Information
#_______________________________________________________________________________
#
#PARAMETER_NAME    .UNIT     VALUE                         : DESCRIPTION
#_______________________________________________________________________________
STRT               .M        890                           : First reference value
STOP               .M        1172                          : Last reference value
STEP               .M        0.1                           : Step increment
NULL               .         -9999                         : Missing value
COMP               .                                       : Company
WELL               .         8367                          : Well name
FLD                .         Узень                         : Field
LOC                .                                       : Location
CNTY               .                                       : County
STAT               .                                       : State
CTRY               .                                       : Country
SRVC               .                                       : Service Company
DATE               .                                       : Date
UWI                .                                       : Unique Well ID
Block              .         7                             : 
Category           .         Нефтяная                      : 
Condition          .         В работе                      : 
Date               .         13.10.1993                    : 
EREF               .m        89.8                          : 100.8
Gorizont           .         14                            : 14
Interpretator      .         Танауова А.Б.                 : 
Kupol              .         Основной                      : osnovnoi
Mud                .         0                             : 
Mud_density        .         0                             : 
Mud_resistivity    .         0                             : 
NGDU               .         НГДУ-2                        : 
ORIGINALWELLNAME   .         8367                          : 
Spud_date          .         1993                          : 1961
Viscosity          .         0                             : 
X                  .m        41807.6                       : 46154
Y                  .m        84408.63                      : 85761.93
YEAR               .         2019                          : 
~Parameter Information Block
#_______________________________________________________________________________
#
#PARAMETER_NAME    .UNIT     VALUE                         : DESCRIPTION
#_______________________________________________________________________________
SET                .         LQC_KAZNIPI_Petrel            : 
PBBOTTOM           .M        1172                          : Глубина подошвы планшета
PBSCALE            .         1 _ 500                       : Вертикальный масштаб планшета
PBTOP              .M        890                           : Глубина кровли планшета
TLFamily_CALI      .         Caliper                       : 
TLFamily_CILD      .         Conductivity                  : 
TLFamily_COLL      .         Net Reservoir Flag            : 
TLFamily_CSAT      .         Fluid Code                    : 
TLFamily_DEPT      .         Measured Depth                : 
TLFamily_GR        .         Russian Gamma Ray             : 
TLFamily_GZ3       .         Gradient 225                  : 
TLFamily_LLS       .         Lateral Log Resistivity       : 
TLFamily_MINV      .         Micro Gradient Resistivity    : 
TLFamily_MNOR      .         Micro Resistivity             : 
TLFamily_NGLD      .         Neutron Gamma                 : 
TLFamily_OGZ       .         Gradient Inverted 225         : 
TLFamily_PHIE      .         Effective Porosity            : 
TLFamily_PHIEN     .         Effective Porosity            : 
TLFamily_PHIT      .         Porosity                      : 
TLFamily_PRMB      .         Permeability                  : 
TLFamily_PRMB_DGR  .         Permeability                  : 
TLFamily_RT        .         Formation Resistivity         : 
TLFamily_SOIL_ARCHIE .         Oil Saturation                : 
TLFamily_SOIL_DW   .         Oil Saturation                : 
TLFamily_SP        .         Spontaneous Potential         : 
TLFamily_VSH_FIN   .         Shale Volume                  : 
TLFamily_VSH_GR    .         Shale Volume                  : 
TLFamily_VSH_SP    .         Shale Volume                  : 
~Curve Information
#_______________________________________________________________________________
#
#LOGNAME           .UNIT     LOG_ID                        : DESCRIPTION
#_______________________________________________________________________________
DEPT               .M                                      : Колонка глубины 
CALI               .м                                      : Каверномер 
CILD               .мСм/м                                  : Индукционный каротаж 
COLL               .unitless                               : Описание 
CSAT               .unitless                               :  
GR                 .uR/h                                   : Гамма каротаж 
GZ3                .Ohmm                                   : 149.10 - 1385.50<_techsia_sc_> 197.50 - 1174.70 
LLS                .Ohmm                                   : Боковой каротаж 
MINV               .Ohmm                                   : Микро-градиент зонд 
MNOR               .Ohmm                                   : Микро-потенциал зонд 
NGLD               .у.е.                                   : Показания зонда НГК-60 аппаратуры ДРСТ-3-90 
OGZ                .Ohmm                                   : 144.60 - 1381.00<_techsia_sc_> 193.00 - 1170.20 
PHIE               .v/v                                    : Описание 
PHIEN              .v/v                                    :  
PHIT               .v/v                                    : Описание 
PRMB               .mD                                     :  
PRMB_DGR           .mD                                     :  
RT                 .ohmm                                   : УЭС пласта 
SOIL_ARCHIE        .v/v                                    :  
SOIL_DW            .v/v                                    :  
SP                 .мВ                                     : Потенциал самополяризации 
VSH_FIN            .v/v                                    : Описание 
VSH_GR             .v/v                                    : Shale volume 
VSH_SP             .v/v                                    : Shale Volume 
~Ascii
# ...
1131.8     0.236      466.0001   0          0          -9999      0.9481     2.35       1.09       1.056      1.414      2.4809     0.04420208 0.04420208 0.29915    0.01844539 -9999      2.146      0          0.1735564  231.019    0.7725694  -9999      0.7725694 
1131.9     0.235      460.9999   0          0          -9999      0.9680403  2.47       1.214      1.264      1.419      2.624731   0.03578118 0.03578118 0.297775   0.0128799  -9999      2.169      0          0.1330649  233.303    0.7939206  -9999      0.7939206 
1132       0.233      457        0          0          -0.035     0.9884     2.54       1.436      1.541      1.424      2.7769     0.0423247  0.0423247  0.2964     0.01702606 63415.03   2.188      0          0.1669718  230.742    0.7699251  0.02       0.7699251 
1132.1     0.232      452.9999   0          0          -0.02      0.9150805  2.59       1.7        1.813      1.428      2.907336   0.06100287 0.06100287 0.2953     0.0377641  62309.56   2.208      0          0.2456696  224.045    0.7099913  0.02       0.7099913 
1132.2     0.231      448.9999   0          0          -0.01      0.8472     2.646      1.932      2.021      1.432      3.0439     0.08608538 0.08608538 0.2942     0.1100698  61583.25   2.227      0          0.3232281  214.425    0.6306503  0.02       0.6306503 
1132.3     0.231      444        0          0          -0.003     1.161901   2.73       2.082      2.166      1.437      3.048646   0.1121724  0.1121724  0.292825   0.3348591  61079.88   2.252      0          0.3838202  203.17     0.5474322  0.02       0.5474322 
1132.4     0.23       437.9999   0          0          0.002      1.5935     2.851      2.151      2.289      1.442      3.0534     0.1357729  0.1357729  0.29145    0.9162232  60722.88   2.283      0.1359094  0.4279152  191.551    0.4717488  0.02       0.4717488 
1132.5     0.229      432        0          0          0.004      1.747462   3.008      2.173      2.416      1.445      3.015009   0.1452942  0.1452942  0.290625   1.37518    60580.64   2.315      0.1907443  0.4453998  186.237    0.4403963  0.02       0.4403963 
1132.6     0.229      424.9999   0          0          0.005      1.9163     3.18       2.174      2.513      1.443      2.9771     0.1554168  0.1554168  0.291175   2.117653   60509.64   2.353      0.2426571  0.4646777  180.994    0.4113884  0.02       0.4113884 
1132.7     0.228      418        1          2          0.006      1.936345   3.323      2.161      2.532      1.439      2.870232   0.1732011  0.1732011  0.292275   4.521293   60438.8    2.392      0.3161485  0.4924324  170.925    0.36083    0.02       0.36083   
1132.8     0.229      412        1          2          0.005      1.9566     3.379      2.132      2.474      1.437      2.7672     0.1860177  0.1860177  0.292825   7.810122   60509.64   2.427      0.3617386  0.5108951  162.554    0.3236583  0.02       0.3236583 
1132.9     0.229      406        1          2          0.003      2.093043   3.326      2.102      2.391      1.439      2.599839   0.1938848  0.1938848  0.292275   10.92381   60651.72   2.463      0.3885936  0.5220445  156.183    0.2981522  0.02       0.2981522 
1133       0.229      400.0001   1          2          0.002      2.239      3.197      2.104      2.351      1.441      2.4426     0.1985416  0.1985416  0.291725   13.32386   60722.88   2.5        0.4052785  0.5296487  151.923    0.282374   0.02       0.282374  
1133.1     0.229      392        1          2          -9999      2.114541   3.07       2.161      2.387      1.44       2.389626   0.2020816  0.2020816  0.292      15.49529   -9999      2.551      0.4198863  0.5379934  149.106    0.27248    -9999      0.27248   
1133.2     0.228      383        1          2          -9999      1.997      3.026      2.27       2.504      1.438      2.3378     0.2055293  0.2055293  0.29255    17.94978   -9999      2.611      0.4345731  0.547001   146.499    0.2636991  -9999      0.2636991 
1133.3     0.228      370.9999   1          2          -9999      2.04678    3.102      2.409      2.689      1.439      2.43594    0.2093296  0.2093296  0.292275   21.10815   -9999      2.695      0.4517318  0.5572292  142.638    0.2513497  -9999      0.2513497 
1133.4     0.228      359        1          2          -9999      2.0978     3.318      2.561      2.923      1.448      2.5382     0.2128945  0.2128945  0.2898     24.57433   -9999      2.786      0.4680905  0.5653951  136.424    0.2330469  -9999      0.2330469 
1133.5     0.228      346        1          2          -9999      2.336383   3.667      2.703      3.171      1.462      2.704549   0.2164218  0.2164218  0.28595    28.56376   -9999      2.89       0.4845898  0.5728713  127.809    0.2106914  -9999      0.2106914 
1133.6     0.228      333        1          2          -9999      2.6021     4.152999   2.805      3.385      1.476      2.8818     0.2199179  0.2199179  0.2821     33.15674   -9999      3.003      0.5007997  0.5804867  117.625    0.1884305  -9999      0.1884305 
1133.7     0.227      318.9999   1          2          -9999      2.888895   4.746      2.841      3.522      1.485      2.96636    0.223498   0.223498   0.279625   38.62626   -9999      3.135      0.5176081  0.5900986  107.343    0.1700819  -9999      0.1700819 
1133.8     0.227      305.9999   1          2          -9999      3.2073     5.393      2.808      3.566      1.489      3.0534     0.2267077  0.2267077  0.278525   44.29289   -9999      3.268      0.5327612  0.6000203  98.324     0.1570223  -9999      0.1570223 
1133.9     0.226      294        1          2          -9999      3.187036   6.013      2.731      3.544      1.488      3.039066   0.2297773  0.2297773  0.2788     50.48839   -9999      3.401      0.5467666  0.6103624  91.26      0.1485536  -9999      0.1485536 
1134       0.226      283.0001   1          2          -9999      3.1669     6.524001   2.64       3.496      1.479      3.0248     0.2339919  0.2339919  0.281275   60.43039   -9999      3.534      0.5618437  0.6226219  86.138     0.1432822  -9999      0.1432822 
1134.1     0.225      276        1          2          -9999      3.43772    6.877      2.565      3.465      1.462      2.932698   0.2398469  0.2398469  0.28595    77.57188   -9999      3.623      0.5761502  0.6346557  82.226     0.1397064  -9999      0.1397064 
1134.2     0.225      271        1          2          0.001      3.7317     7.039001   2.527      3.467      1.439      2.8434     0.2470962  0.2470962  0.292275   105.6766   60794.13   3.69       0.5905372  0.6470066  78.842     0.1369055  0.02       0.1369055 
1134.3     0.224      269        1          2          0.001      3.7317     7.043      2.54       3.495      1.416      2.726549   0.2542443  0.2542443  0.2986     143.3439   60794.13   3.717      0.6019462  0.6567786  75.532     0.1344112  0.02       0.1344112 
1134.4     0.224      270        1          2          0.002      3.7317     6.939001   2.599      3.53       1.396      2.6145     0.2604328  0.2604328  0.3041     186.6406   60722.88   3.704      0.6095557  0.6632264  72.499     0.1323247  0.02       0.1323247 
1134.5     0.224      272        1          2          0.004      3.791718   6.801      2.673      3.548      1.384      2.33193    0.2642249  0.2642249  0.3074     219.4043   60580.64   3.676      0.6130654  0.6660959  70.154     0.1308335  0.02       0.1308335 
1134.6     0.224      276        1          2          0.005      3.8527     6.674      2.731      3.547      1.378      2.0799     0.2660958  0.2660958  0.30905    237.6283   60509.64   3.623      0.612806   0.6657004  69.048     0.1301642  0.02       0.1301642 
1134.7     0.224      283.0001   1          2          -9999      3.98169    6.579999   2.769      3.551      1.381      1.787554   0.2651973  0.2651973  0.308225   228.6944   -9999      3.534      0.6071047  0.6605086  69.426     0.1303869  -9999      0.1303869 
1134.8     0.225      294        1          2          -9999      4.115      6.499      2.797      3.554      1.391      1.5363     0.2620077  0.2620077  0.305475   199.6074   -9999      3.401      0.5957299  0.6503523  71.582     0.131719   -9999      0.131719  
