~Version
 VERS              .         2.0                           : CWLS LOG ASCII STANDARD - VERSION 2.0
 WRAP              .         NO                            : ONE LINE PER DEPTH STEP
 DLM               .         SPACE                         : DELIMITING CHARACTER(SPACE TAB OR COMMA)
~Well Information
#_______________________________________________________________________________
#
#PARAMETER_NAME    .UNIT     VALUE                         : DESCRIPTION
#_______________________________________________________________________________
STRT               .M        890                           : First reference value
STOP               .M        1172                          : Last reference value
STEP               .M        0.1                           : Step increment
NULL               .         -9999                         : Missing value
COMP               .                                       : Company
WELL               .         8367                          : Well name
FLD                .         Узень                         : Field
LOC                .                                       : Location
CNTY               .                                       : County
STAT               .                                       : State
CTRY               .                                       : Country
SRVC               .                                       : Service Company
DATE               .                                       : Date
UWI                .                                       : Unique Well ID
Block              .         7                             : 
Category           .         Нефтяная                      : 
Condition          .         В работе                      : 
Date               .         13.10.1993                    : 
EREF               .m        89.8                          : 100.8
Gorizont           .         14                            : 14
Interpretator      .         Танауова А.Б.                 : 
Kupol              .         Основной                      : osnovnoi
Mud                .         0                             : 
Mud_density        .         0                             : 
Mud_resistivity    .         0                             : 
NGDU               .         НГДУ-2                        : 
ORIGINALWELLNAME   .         8367                          : 
Spud_date          .         1993                          : 1961
Viscosity          .         0                             : 
X                  .m        41807.6                       : 46154
Y                  .m        84408.63                      : 85761.93
YEAR               .         2019                          : 
~Parameter Information Block
#_______________________________________________________________________________
#
#PARAMETER_NAME    .UNIT     VALUE                         : DESCRIPTION
#_______________________________________________________________________________
SET                .         LQC_KAZNIPI_Petrel            : 
PBBOTTOM           .M        1172                          : Глубина подошвы планшета
PBSCALE            .         1 _ 500                       : Вертикальный масштаб планшета
PBTOP              .M        890                           : Глубина кровли планшета
TLFamily_CALI      .         Caliper                       : 
TLFamily_CILD      .         Conductivity                  : 
TLFamily_COLL      .         Net Reservoir Flag            : 
TLFamily_CSAT      .         Fluid Code                    : 
TLFamily_DEPT      .         Measured Depth                : 
TLFamily_GR        .         Russian Gamma Ray             : 
TLFamily_GZ3       .         Gradient 225                  : 
TLFamily_LLS       .         Lateral Log Resistivity       : 
TLFamily_MINV      .         Micro Gradient Resistivity    : 
TLFamily_MNOR      .         Micro Resistivity             : 
TLFamily_NGLD      .         Neutron Gamma                 : 
TLFamily_OGZ       .         Gradient Inverted 225         : 
TLFamily_PHIE      .         Effective Porosity            : 
TLFamily_PHIEN     .         Effective Porosity            : 
TLFamily_PHIT      .         Porosity                      : 
TLFamily_PRMB      .         Permeability                  : 
TLFamily_PRMB_DGR  .         Permeability                  : 
TLFamily_RT        .         Formation Resistivity         : 
TLFamily_SOIL_ARCHIE .         Oil Saturation                : 
TLFamily_SOIL_DW   .         Oil Saturation                : 
TLFamily_SP        .         Spontaneous Potential         : 
TLFamily_VSH_FIN   .         Shale Volume                  : 
TLFamily_VSH_GR    .         Shale Volume                  : 
TLFamily_VSH_SP    .         Shale Volume                  : 
~Curve Information
#_______________________________________________________________________________
#
#LOGNAME           .UNIT     LOG_ID                        : DESCRIPTION
#_______________________________________________________________________________
DEPT               .M                                      : Колонка глубины 
CALI               .м                                      : Каверномер 
CILD               .мСм/м                                  : Индукционный каротаж 
COLL               .unitless                               : Описание 
CSAT               .unitless                               :  
GR                 .uR/h                                   : Гамма каротаж 
GZ3                .Ohmm                                   : 149.10 - 1385.50<_techsia_sc_> 197.50 - 1174.70 
LLS                .Ohmm                                   : Боковой каротаж 
MINV               .Ohmm                                   : Микро-градиент зонд 
MNOR               .Ohmm                                   : Микро-потенциал зонд 
NGLD               .у.е.                                   : Показания зонда НГК-60 аппаратуры ДРСТ-3-90 
OGZ                .Ohmm                                   : 144.60 - 1381.00<_techsia_sc_> 193.00 - 1170.20 
PHIE               .v/v                                    : Описание 
PHIEN              .v/v                                    :  
PHIT               .v/v                                    : Описание 
PRMB               .mD                                     :  
PRMB_DGR           .mD                                     :  
RT                 .ohmm                                   : УЭС пласта 
SOIL_ARCHIE        .v/v                                    :  
SOIL_DW            .v/v                                    :  
SP                 .мВ                                     : Потенциал самополяризации 
VSH_FIN            .v/v                                    : Описание 
VSH_GR             .v/v                                    : Shale volume 
VSH_SP             .v/v                                    : Shale Volume 
~Ascii
# ...
1001.6     0.225      312.0001   0          0          4.903      2.7433     3.97       3.322      2.804      1.435      4.0457     0.1526911  0.1526911  0.293375   1.885242   7.164919   3.205      0.3347156  0.5402689  208.076    0.426315   0.2903373  0.5622927 
1001.7     0.225      311        0          0          4.842      2.723075   4.037      3.513      2.943      1.448      4.04575    0.1530837  0.1530837  0.2898     1.917081   7.830963   3.215      0.3371719  0.5379915  206.125    0.4142917  0.2799881  0.5485954 
1001.8     0.226      309.9999   0          0          4.788      2.703      4.077      3.526      2.949      1.459      4.0458     0.1539493  0.1539493  0.286775   1.989171   8.472059   3.226      0.3414751  0.5368367  203.98     0.4025022  0.2711348  0.5338696 
1001.9     0.227      309        0          0          4.721      2.811762   4.076      3.456      2.829      1.473      4.218657   0.1545424  0.1545424  0.282925   2.040128   9.340928   3.236      0.3446292  0.5344335  201.54     0.3890383  0.2605383  0.5175382 
1002       0.227      308        0          0          4.619      2.9249     4.023      3.349      2.63       1.493      4.3989     0.1545394  0.1545394  0.277425   2.039871   10.8378    3.247      0.3456611  0.5296464  198.775    0.3723806  0.245196   0.4995652 
1002.1     0.227      305.9999   0          0          4.475      2.780117   3.93       3.217      2.44       1.518      4.488585   0.1540475  0.1540475  0.27055    1.997526   13.36815   3.268      0.3458239  0.523384   195.826    0.3530377  0.2250617  0.4810137 
1002.2     0.226      303        0          0          4.296      2.6425     3.848      3.084      2.364      1.545      4.5801     0.1531954  0.1531954  0.263125   1.926235   17.35207   3.3        0.3456548  0.516605   193.015    0.3331199  0.2023232  0.4639167 
1002.3     0.225      300.0001   0          0          4.107      2.751166   3.839      3.014      2.469      1.569      4.556238   0.1523761  0.1523761  0.256525   1.860083   22.85389   3.333      0.3456538  0.5105495  190.724    0.3156028  0.1808029  0.4504028 
1002.4     0.225      296.0001   0          0          3.934      2.8643     3.96       3.127      2.784      1.588      4.5325     0.1516043  0.1516043  0.2513     1.799855   29.40649   3.378      0.3468769  0.5067764  189.108    0.3021082  0.1631172  0.4410991 
1002.5     0.224      290        0          0          3.796      2.751166   4.22       3.523      3.257      1.6        4.570491   0.1513548  0.1513548  0.248      1.780802   35.95643   3.448      0.3522042  0.5076008  188.113    0.2928643  0.1502584  0.4354702 
1002.6     0.224      284        0          0          3.7        2.6425     4.585      4.201      3.803      1.608      4.6088     0.1511084  0.1511084  0.2458     1.762187   41.35522   3.521      0.3576309  0.5098055  187.487    0.2869443  0.1419159  0.4319727 
1002.7     0.224      277.0001   0          0          3.647      2.6425     4.965      4.96       4.303      1.613      4.555997   0.1509559  0.1509559  0.244425   1.750761   44.67569   3.61       0.3645531  0.5140615  186.945    0.2832398  0.1375102  0.4289694 
1002.8     0.224      272        0          0          3.637      2.6425     5.255      5.48       4.632      1.617      4.5038     0.1507279  0.1507279  0.243325   1.733819   45.33146   3.676      0.3691027  0.5168498  186.134    0.2805974  0.1366945  0.4245003 
1002.9     0.224      267.9999   0          0          3.656      2.929468   5.396      5.569      4.728      1.616      4.298732   0.1521827  0.1521827  0.2436     1.844809   44.09362   3.731      0.3787039  0.5225976  184.535    0.277022   0.1382486  0.4157954 
1003       0.224      265        0          0          3.682      3.2476     5.393      5.303      4.605      1.608      4.103      0.1564796  0.1564796  0.2458     2.215843   42.4543    3.774      0.3968414  0.5331404  181.732    0.270668   0.140404   0.4009319 
1003.1     0.224      264        0          0          3.696      3.206996   5.309      4.973      4.381      1.596      3.841839   0.1631425  0.1631425  0.2491     2.944097   41.59696   3.788      0.4193633  0.5454355  177.483    0.2604774  0.1415785  0.3793763 
1003.2     0.225      263        0          0          3.691      3.1669     5.193999   4.793      4.171      1.585      3.5973     0.1704641  0.1704641  0.252125   4.023155   41.90116   3.802      0.4421119  0.5574984  172.107    0.2474573  0.1411579  0.3537566 
1003.3     0.225      261        0          0          3.666      3.285721   5.084      4.756      4.025      1.584      3.451183   0.1754383  0.1754383  0.2524     4.973948   43.45575   3.831      0.4578506  0.5646247  166.128    0.2332173  0.1390737  0.3273609 
1003.4     0.225      259        0          0          3.621      3.409      4.99       4.693      3.904      1.594      3.311      0.1773051  0.1773051  0.24965    5.386153   46.40078   3.861      0.4647882  0.5654144  160.141    0.219227   0.1353993  0.3030547 
1003.5     0.225      258        0          0          3.563      3.316957   4.909      4.486      3.757      1.615      3.18947    0.175789   0.175789   0.243875   5.0489     50.49294   3.876      0.4617504  0.5586946  154.45     0.2063212  0.1308062  0.2818363 
1003.6     0.225      256.0001   0          0          3.507      3.2274     4.835001   4.199      3.599      1.641      3.0724     0.1723514  0.1723514  0.236725   4.360382   54.78609   3.906      0.4543898  0.5489874  149.14     0.1950714  0.1265194  0.2636235 
1003.7     0.225      255        0          0          3.469      3.114474   4.761      4.012      3.49       1.664      2.935814   0.1690021  0.1690021  0.2304     3.779951   57.90535   3.922      0.4460477  0.53898    144.339    0.1860543  0.1236908  0.2484179 
1003.8     0.225      253        0          0          3.457      3.0055     4.699      4.062      3.479      1.683      2.8053     0.1659127  0.1659127  0.225175   3.313323   58.92679   3.953      0.4391507  0.5310106  140.243    0.1795828  0.1228108  0.2363548 
1003.9     0.225      251        0          0          3.467      3.229177   4.661      4.307      3.551      1.696      2.781348   0.1635794  0.1635794  0.2216     2.999471   58.07434   3.984      0.4342669  0.5256649  137.266    0.1758202  0.1235437  0.2280966 
1004       0.225      249.0001   0          0          3.501      3.4695     4.655      4.589      3.664      1.703      2.7576     0.1619627  0.1619627  0.219675   2.799626   55.26722   4.016      0.43149    0.5231794  135.616    0.1748858  0.1260685  0.2237032 
1004.1     0.225      246        0          0          3.552      3.509618   4.673      4.765999   3.793      1.702      2.842202   0.1616608  0.1616608  0.21995    2.763806   51.30881   4.065001   0.4337968  0.5260416  135.464    0.1766341  0.1299528  0.2233153 
1004.2     0.225      243        0          0          3.612      3.5502     4.715      4.862      3.979      1.692      2.9294     0.1631162  0.1631162  0.2227     2.940799   47.01332   4.115      0.4414131  0.5340778  136.637    0.180557   0.1346761  0.226438  
1004.3     0.225      240.0001   0          0          3.677      3.831505   4.791      5.043      4.29       1.674      3.046365   0.1660649  0.1660649  0.22765    3.334903   42.76474   4.166999   0.4532928  0.546297   139.123    0.1866214  0.1399869  0.2332559 
1004.4     0.225      236        0          0          3.765      4.1351     4.943      5.455      4.756      1.653      3.168      0.1688336  0.1688336  0.233425   3.752895   37.61793   4.237      0.465306   0.5596415  142.825    0.1957314  0.1475122  0.2439507 
1004.5     0.225      233        0          0          3.891      4.31283    5.198      6.032      5.276      1.627      3.114956   0.1715158  0.1715158  0.240575   4.207724   31.30803   4.292      0.4757783  0.5729393  147.849    0.2092702  0.1589967  0.2595438 
1004.6     0.225      231        0          0          4.055      4.4982     5.548      6.527999   5.668      1.594      3.0628     0.1744583  0.1744583  0.24965    4.770336   24.65293   4.329      0.4855638  0.586831   154.002    0.2278537  0.1752943  0.280413  
