~Version
 VERS              .         2.0                           : CWLS LOG ASCII STANDARD - VERSION 2.0
 WRAP              .         NO                            : ONE LINE PER DEPTH STEP
 DLM               .         SPACE                         : DELIMITING CHARACTER(SPACE TAB OR COMMA)
~Well Information
#_______________________________________________________________________________
#
#PARAMETER_NAME    .UNIT     VALUE                         : DESCRIPTION
#_______________________________________________________________________________
STRT               .M        890                           : First reference value
STOP               .M        1172                          : Last reference value
STEP               .M        0.1                           : Step increment
NULL               .         -9999                         : Missing value
COMP               .                                       : Company
WELL               .         8367                          : Well name
FLD                .         Узень                         : Field
LOC                .                                       : Location
CNTY               .                                       : County
STAT               .                                       : State
CTRY               .                                       : Country
SRVC               .                                       : Service Company
DATE               .                                       : Date
UWI                .                                       : Unique Well ID
Block              .         7                             : 
Category           .         Нефтяная                      : 
Condition          .         В работе                      : 
Date               .         13.10.1993                    : 
EREF               .m        89.8                          : 100.8
Gorizont           .         14                            : 14
Interpretator      .         Танауова А.Б.                 : 
Kupol              .         Основной                      : osnovnoi
Mud                .         0                             : 
Mud_density        .         0                             : 
Mud_resistivity    .         0                             : 
NGDU               .         НГДУ-2                        : 
ORIGINALWELLNAME   .         8367                          : 
Spud_date          .         1993                          : 1961
Viscosity          .         0                             : 
X                  .m        41807.6                       : 46154
Y                  .m        84408.63                      : 85761.93
YEAR               .         2019                          : 
~Parameter Information Block
#_______________________________________________________________________________
#
#PARAMETER_NAME    .UNIT     VALUE                         : DESCRIPTION
#_______________________________________________________________________________
SET                .         LQC_KAZNIPI_Petrel            : 
PBBOTTOM           .M        1172                          : Глубина подошвы планшета
PBSCALE            .         1 _ 500                       : Вертикальный масштаб планшета
PBTOP              .M        890                           : Глубина кровли планшета
TLFamily_CALI      .         Caliper                       : 
TLFamily_CILD      .         Conductivity                  : 
TLFamily_COLL      .         Net Reservoir Flag            : 
TLFamily_CSAT      .         Fluid Code                    : 
TLFamily_DEPT      .         Measured Depth                : 
TLFamily_GR        .         Russian Gamma Ray             : 
TLFamily_GZ3       .         Gradient 225                  : 
TLFamily_LLS       .         Lateral Log Resistivity       : 
TLFamily_MINV      .         Micro Gradient Resistivity    : 
TLFamily_MNOR      .         Micro Resistivity             : 
TLFamily_NGLD      .         Neutron Gamma                 : 
TLFamily_OGZ       .         Gradient Inverted 225         : 
TLFamily_PHIE      .         Effective Porosity            : 
TLFamily_PHIEN     .         Effective Porosity            : 
TLFamily_PHIT      .         Porosity                      : 
TLFamily_PRMB      .         Permeability                  : 
TLFamily_PRMB_DGR  .         Permeability                  : 
TLFamily_RT        .         Formation Resistivity         : 
TLFamily_SOIL_ARCHIE .         Oil Saturation                : 
TLFamily_SOIL_DW   .         Oil Saturation                : 
TLFamily_SP        .         Spontaneous Potential         : 
TLFamily_VSH_FIN   .         Shale Volume                  : 
TLFamily_VSH_GR    .         Shale Volume                  : 
TLFamily_VSH_SP    .         Shale Volume                  : 
~Curve Information
#_______________________________________________________________________________
#
#LOGNAME           .UNIT     LOG_ID                        : DESCRIPTION
#_______________________________________________________________________________
DEPT               .M                                      : Колонка глубины 
CALI               .м                                      : Каверномер 
CILD               .мСм/м                                  : Индукционный каротаж 
COLL               .unitless                               : Описание 
CSAT               .unitless                               :  
GR                 .uR/h                                   : Гамма каротаж 
GZ3                .Ohmm                                   : 149.10 - 1385.50<_techsia_sc_> 197.50 - 1174.70 
LLS                .Ohmm                                   : Боковой каротаж 
MINV               .Ohmm                                   : Микро-градиент зонд 
MNOR               .Ohmm                                   : Микро-потенциал зонд 
NGLD               .у.е.                                   : Показания зонда НГК-60 аппаратуры ДРСТ-3-90 
OGZ                .Ohmm                                   : 144.60 - 1381.00<_techsia_sc_> 193.00 - 1170.20 
PHIE               .v/v                                    : Описание 
PHIEN              .v/v                                    :  
PHIT               .v/v                                    : Описание 
PRMB               .mD                                     :  
PRMB_DGR           .mD                                     :  
RT                 .ohmm                                   : УЭС пласта 
SOIL_ARCHIE        .v/v                                    :  
SOIL_DW            .v/v                                    :  
SP                 .мВ                                     : Потенциал самополяризации 
VSH_FIN            .v/v                                    : Описание 
VSH_GR             .v/v                                    : Shale volume 
VSH_SP             .v/v                                    : Shale Volume 
~Ascii
# ...
1094.6     0.251      363.0001   0          0          0          3.5098     2.895      1.45       1.275      1.216      2.1757     0.161671   0.161671   0.3536     2.765018   60865.46   2.755      0.3204443  0.5677156  206.841    0.5816029  0.02       0.5816029 
1094.7     0.253      368.0001   0          0          0          3.417845   2.949      1.538      1.293      1.206      2.218185   0.1629544  0.1629544  0.35635    2.920581   60865.46   2.717      0.3206949  0.5680883  207.446    0.5860472  0.02       0.5860472 
1094.8     0.255      373.0001   0          0          -0.002     3.3283     2.998      1.537      1.357      1.193      2.2615     0.1641604  0.1641604  0.359925   3.074734   61008.3    2.681      0.3208055  0.5690943  208.415    0.593226   0.02       0.593226  
1094.9     0.256      377        0          0          -0.01      3.162785   3.035      1.432      1.422      1.179      2.183816   0.1648606  0.1648606  0.363775   3.167932   61583.25   2.653      0.3199764  0.5703817  209.688    0.602771   0.02       0.602771  
1095       0.258      382.0001   0          0          -0.027     3.0055     3.049      1.276      1.435      1.166      2.1088     0.1650079  0.1650079  0.36735    3.187896   62823.06   2.618      0.3162573  0.5702989  211.054    0.6131579  0.02       0.6131579 
1095.1     0.258      385.9999   0          0          -0.046     2.964926   3.032      1.149      1.386      1.156      2.132517   0.1647363  0.1647363  0.3701     3.151192   64238.24   2.591      0.3119367  0.5698123  212.242    0.6223141  0.02       0.6223141 
1095.2     0.257      390.0001   0          0          -0.053     2.9249     2.988      1.106      1.316      1.155      2.1565     0.162741   0.162741   0.370375   2.89412    64767.63   2.564      0.3011681  0.5657849  213.125    0.6291939  0.02       0.6291939 
1095.3     0.255      394        0          0          -0.044     2.944981   2.936      1.159      1.273      1.163      2.166029   0.1588277  0.1588277  0.368175   2.449244   64087.76   2.538      0.2827732  0.5579492  213.786    0.6343858  0.02       0.6343858 
1095.4     0.254      396.9999   0          0          -0.024     2.9652     2.897      1.286      1.252      1.177      2.1756     0.1534201  0.1534201  0.364325   1.944777   62602.44   2.519      0.2581936  0.5475801  214.383    0.6391059  0.02       0.6391059 
1095.5     0.256      399        0          0          -0.008     2.841573   2.879      1.419      1.217      1.189      2.185129   0.148479   0.148479   0.361025   1.575251   61438.99   2.506      0.2348837  0.5382714  215.008    0.6440787  0.02       0.6440787 
1095.6     0.258      400.0001   0          0          -0.001     2.7231     2.88       1.466      1.145      1.197      2.1947     0.1448287  0.1448287  0.358825   1.348146   60936.87   2.5        0.217235   0.5316828  215.557    0.6484736  0.02       0.6484736 
1095.7     0.259      401        0          0          0.001      2.682497   2.894      1.377      1.062      1.202      2.260465   0.1426578  0.1426578  0.35745    1.228926   60794.13   2.494      0.2059755  0.5273841  215.857    0.6508856  0.02       0.6508856 
1095.8     0.257      402.0001   0          0          0          2.6425     2.925      1.186      1.017      1.205      2.3282     0.1420983  0.1420983  0.356625   1.199952   60865.46   2.488      0.2023525  0.5254411  215.757    0.6500808  0.02       0.6500808 
1095.9     0.254      402.0001   0          0          -9999      2.591559   2.966      0.987      1.037      1.209      2.26031    0.1421902  0.1421902  0.355525   1.204661   -9999      2.488      0.2028012  0.5246181  215.307    0.6464692  -9999      0.6464692 
1096       0.252      402.0001   0          0          -9999      2.5416     3.001      0.852      1.11       1.214      2.1944     0.1424639  0.1424639  0.35415    1.218809   -9999      2.488      0.2041357  0.5237776  214.681    0.6414729  -9999      0.6414729 
1096.1     0.25       402.0001   0          0          -9999      2.459576   3.014      0.794      1.194      1.217      2.223063   0.1431518  0.1431518  0.353325   1.255095   -9999      2.488      0.2074675  0.523907   214.103    0.6368884  -9999      0.6368884 
1096.2     0.249      402.0001   0          0          -0.002     2.3802     3.004      0.779      1.252      1.217      2.2521     0.1442506  0.1442506  0.353325   1.315315   61008.3    2.488      0.2127281  0.5252339  213.681    0.6335587  0.02       0.6335587 
1096.3     0.249      402.0001   0          0          -9999      2.329255   2.989      0.765      1.27       1.212      2.390874   0.1463831  0.1463831  0.3547     1.44055    -9999      2.488      0.2227263  0.5289379  213.389    0.6312633  -9999      0.6312633 
1096.4     0.249      402.0001   0          0          -9999      2.2794     2.987      0.736      1.26       1.204      2.5382     0.1492195  0.1492195  0.3569     1.625793   -9999      2.488      0.2356101  0.5340716  213.143    0.6293349  -9999      0.6293349 
1096.5     0.25       401        0          0          -9999      2.463561   3.004      0.691      1.242      1.196      2.523809   0.1520285  0.1520285  0.3591     1.832713   -9999      2.494      0.2487753  0.5396087  212.907    0.6274894  -9999      0.6274894 
1096.6     0.252      401        0          0          -9999      2.6626     3.025      0.651      1.226      1.19       2.5095     0.154075   0.154075   0.36075    1.999868   -9999      2.494      0.2574735  0.5431993  212.753    0.6262878  -9999      0.6262878 
1096.7     0.253      400.0001   0          0          -9999      2.601397   3.037      0.635      1.213      1.185      2.461338   0.155414   0.155414   0.362125   2.117402   -9999      2.5        0.263879   0.5462949  212.767    0.6263969  -9999      0.6263969 
1096.8     0.252      401        0          0          -0.011     2.5416     3.036      0.707      1.207      1.182      2.4141     0.1556541  0.1556541  0.36295    2.139196   61655.5    2.494      0.2640387  0.5466592  212.994    0.6281692  0.02       0.6281692 
1096.9     0.249      401        0          0          -9999      2.385507   3.026      0.948      1.237      1.181      2.498621   0.1548874  0.1548874  0.363225   2.070372   -9999      2.494      0.2608665  0.5460471  213.397    0.6313261  -9999      0.6313261 
1097       0.246      402.0001   0          0          -9999      2.239      3.021      1.376      1.334      1.183      2.5861     0.1529346  0.1529346  0.362675   1.904927   -9999      2.488      0.2518082  0.5429301  213.937    0.6355769  -9999      0.6355769 
1097.1     0.243      402.0001   0          0          -9999      2.394968   3.048      1.835      1.488      1.189      2.637931   0.1496249  0.1496249  0.361025   1.654147   -9999      2.488      0.2374143  0.5379078  214.572    0.6406063  -9999      0.6406063 
1097.2     0.241      402.0001   0          0          -9999      2.5618     3.127      2.05       1.632      1.198      2.6908     0.1452891  0.1452891  0.35855    1.374882   -9999      2.488      0.2176315  0.5308689  215.279    0.6462451  -9999      0.6462451 
1097.3     0.24       402.0001   0          0          -9999      2.479787   3.231      1.889      1.695      1.203      2.618273   0.141888   0.141888   0.357175   1.189236   -9999      2.488      0.2013229  0.5256521  216.043    0.6523849  -9999      0.6523849 
1097.4     0.242      402.9999   0          0          -0.026     2.4004     3.289      1.473      1.645      1.204      2.5477     0.1393238  0.1393238  0.3569     1.066039   62749.43   2.481      0.187462   0.5216038  216.899    0.6593218  0.02       0.6593218 
1097.5     0.244      404.0001   0          0          -0.038     2.369957   3.254      1.058      1.512      1.2        2.53336    0.1377131  0.1377131  0.358      0.9952659  63638.51   2.475      0.178258   0.5199601  217.903    0.667536   0.02       0.667536  
1097.6     0.247      405        0          0          -0.032     2.3399     3.145      0.79       1.343      1.194      2.5191     0.1361938  0.1361938  0.35965    0.9328183  63192.41   2.469      0.169334   0.5188822  219.064    0.6771401  0.02       0.6771401 
