~Version
 VERS              .         2.0                           : CWLS LOG ASCII STANDARD - VERSION 2.0
 WRAP              .         NO                            : ONE LINE PER DEPTH STEP
 DLM               .         SPACE                         : DELIMITING CHARACTER(SPACE TAB OR COMMA)
~Well Information
#_______________________________________________________________________________
#
#PARAMETER_NAME    .UNIT     VALUE                         : DESCRIPTION
#_______________________________________________________________________________
STRT               .M        890                           : First reference value
STOP               .M        1172                          : Last reference value
STEP               .M        0.1                           : Step increment
NULL               .         -9999                         : Missing value
COMP               .                                       : Company
WELL               .         8367                          : Well name
FLD                .         Узень                         : Field
LOC                .                                       : Location
CNTY               .                                       : County
STAT               .                                       : State
CTRY               .                                       : Country
SRVC               .                                       : Service Company
DATE               .                                       : Date
UWI                .                                       : Unique Well ID
Block              .         7                             : 
Category           .         Нефтяная                      : 
Condition          .         В работе                      : 
Date               .         13.10.1993                    : 
EREF               .m        89.8                          : 100.8
Gorizont           .         14                            : 14
Interpretator      .         Танауова А.Б.                 : 
Kupol              .         Основной                      : osnovnoi
Mud                .         0                             : 
Mud_density        .         0                             : 
Mud_resistivity    .         0                             : 
NGDU               .         НГДУ-2                        : 
ORIGINALWELLNAME   .         8367                          : 
Spud_date          .         1993                          : 1961
Viscosity          .         0                             : 
X                  .m        41807.6                       : 46154
Y                  .m        84408.63                      : 85761.93
YEAR               .         2019                          : 
~Parameter Information Block
#_______________________________________________________________________________
#
#PARAMETER_NAME    .UNIT     VALUE                         : DESCRIPTION
#_______________________________________________________________________________
SET                .         LQC_KAZNIPI_Petrel            : 
PBBOTTOM           .M        1172                          : Глубина подошвы планшета
PBSCALE            .         1 _ 500                       : Вертикальный масштаб планшета
PBTOP              .M        890                           : Глубина кровли планшета
TLFamily_CALI      .         Caliper                       : 
TLFamily_CILD      .         Conductivity                  : 
TLFamily_COLL      .         Net Reservoir Flag            : 
TLFamily_CSAT      .         Fluid Code                    : 
TLFamily_DEPT      .         Measured Depth                : 
TLFamily_GR        .         Russian Gamma Ray             : 
TLFamily_GZ3       .         Gradient 225                  : 
TLFamily_LLS       .         Lateral Log Resistivity       : 
TLFamily_MINV      .         Micro Gradient Resistivity    : 
TLFamily_MNOR      .         Micro Resistivity             : 
TLFamily_NGLD      .         Neutron Gamma                 : 
TLFamily_OGZ       .         Gradient Inverted 225         : 
TLFamily_PHIE      .         Effective Porosity            : 
TLFamily_PHIEN     .         Effective Porosity            : 
TLFamily_PHIT      .         Porosity                      : 
TLFamily_PRMB      .         Permeability                  : 
TLFamily_PRMB_DGR  .         Permeability                  : 
TLFamily_RT        .         Formation Resistivity         : 
TLFamily_SOIL_ARCHIE .         Oil Saturation                : 
TLFamily_SOIL_DW   .         Oil Saturation                : 
TLFamily_SP        .         Spontaneous Potential         : 
TLFamily_VSH_FIN   .         Shale Volume                  : 
TLFamily_VSH_GR    .         Shale Volume                  : 
TLFamily_VSH_SP    .         Shale Volume                  : 
~Curve Information
#_______________________________________________________________________________
#
#LOGNAME           .UNIT     LOG_ID                        : DESCRIPTION
#_______________________________________________________________________________
DEPT               .M                                      : Колонка глубины 
CALI               .м                                      : Каверномер 
CILD               .мСм/м                                  : Индукционный каротаж 
COLL               .unitless                               : Описание 
CSAT               .unitless                               :  
GR                 .uR/h                                   : Гамма каротаж 
GZ3                .Ohmm                                   : 149.10 - 1385.50<_techsia_sc_> 197.50 - 1174.70 
LLS                .Ohmm                                   : Боковой каротаж 
MINV               .Ohmm                                   : Микро-градиент зонд 
MNOR               .Ohmm                                   : Микро-потенциал зонд 
NGLD               .у.е.                                   : Показания зонда НГК-60 аппаратуры ДРСТ-3-90 
OGZ                .Ohmm                                   : 144.60 - 1381.00<_techsia_sc_> 193.00 - 1170.20 
PHIE               .v/v                                    : Описание 
PHIEN              .v/v                                    :  
PHIT               .v/v                                    : Описание 
PRMB               .mD                                     :  
PRMB_DGR           .mD                                     :  
RT                 .ohmm                                   : УЭС пласта 
SOIL_ARCHIE        .v/v                                    :  
SOIL_DW            .v/v                                    :  
SP                 .мВ                                     : Потенциал самополяризации 
VSH_FIN            .v/v                                    : Описание 
VSH_GR             .v/v                                    : Shale volume 
VSH_SP             .v/v                                    : Shale Volume 
~Ascii
# ...
945.8      0.236      272        0          0          4.467      4.5386     5.36       4.324      3.545      1.412      3.9026     0.1546763  0.1546763  0.2997     2.051819   13.5249    3.676      0.3831528  0.5784178  214.937    0.4394657  0.223993   0.6549384 
945.9      0.236      271        0          0          4.534      4.667859   5.303      3.943      3.29       1.415      3.766683   0.1503113  0.1503113  0.298875   1.703286   12.26685   3.69       0.3687072  0.5738221  216.492    0.4501931  0.2331031  0.6672831 
946        0.236      272        0          0          4.589      4.800799   5.125      4.121      3.405      1.417      3.6355     0.1465398  0.1465398  0.298325   1.45021    11.32208   3.676      0.3534273  0.5683368  217.955    0.4599551  0.2408579  0.6790522 
946.1      0.237      275        0          0          4.634      4.667859   5.008      4.527999   3.684      1.421      3.625938   0.1426507  0.1426507  0.297225   1.228556   10.60347   3.636      0.3346941  0.5604867  219.232    0.468407   0.2473942  0.6894198 
946.2000000000001 0.237      278        0          0          4.682      4.5386     5.025      4.661      3.783      1.429      3.6164     0.1377699  0.1377699  0.295025   0.9976806  9.887151   3.597      0.3107331  0.5501656  220.343    0.4765305  0.2545619  0.698499  
946.3      0.237      280        0          0          4.737      4.667859   5.1        4.395      3.608      1.44       3.611647   0.131953   0.131953   0.292      0.778479   9.125665   3.571      0.2819024  0.538178   221.37     0.484991   0.2630305  0.7069514 
946.4      0.237      281        0          0          4.781      4.800799   5.099      4.026      3.357      1.451      3.6069     0.1263798  0.1263798  0.288975   0.6137871  8.558921   3.559      0.2532203  0.5268051  222.389    0.4927129  0.2700078  0.7154179 
946.5      0.237      280        0          0          4.793      4.455534   4.97       3.842      3.224      1.461      3.460738   0.1219551  0.1219551  0.286225   0.5082319  8.410558   3.571      0.2308929  0.5184284  223.37     0.4977877  0.2719427  0.7236326 
946.6      0.236      278        0          0          4.763      4.1351     4.767      3.797      3.152      1.468      3.3205     0.1196035  0.1196035  0.2843     0.4597325  8.786389   3.597      0.2203977  0.5146505  224.25     0.4990802  0.2671314  0.7310291 
946.7000000000001 0.236      274        0          0          4.708      4.094602   4.564      3.685      2.988      1.471      3.311036   0.1192264  0.1192264  0.283475   0.4523966  9.519565   3.65       0.2235978  0.51674    224.954    0.4977232  0.2585307  0.7369157 
946.8      0.236      271        0          0          4.645      4.0545     4.378      3.496      2.745      1.473      3.3016     0.11957    0.11957    0.282925   0.4590757  10.43486   3.69       0.2294925  0.5192867  225.454    0.4950151  0.2490188  0.7410115 
946.9      0.236      267.9999   0          0          4.587      4.013947   4.2        3.432      2.605      1.473      3.455417   0.1206971  0.1206971  0.282925   0.4816832  11.35513   3.731      0.2397156  0.5235884  225.676    0.4915996  0.2405714  0.7426277 
947        0.236      265        0          0          4.539      3.9738     4.074      3.639      2.728      1.475      3.6164     0.1214923  0.1214923  0.282375   0.4982982  12.1778    3.774      0.2481053  0.5268803  225.564    0.4875235  0.2337977  0.7412493 
947.1      0.236      263        0          0          4.5        3.983838   4.076      3.988      3.097      1.48       3.719918   0.1218156  0.1218156  0.281      0.5052183  12.88991   3.802      0.2524416  0.5276415  225.054    0.4823769  0.2284347  0.7363191 
947.2000000000001 0.236      262        0          0          4.466      3.9939     4.266      4.202      3.55       1.487      3.8264     0.1219539  0.1219539  0.279075   0.508207   13.54462   3.817      0.2545586  0.5267292  224.202    0.4761245  0.2238597  0.7283892 
947.3      0.236      262        0          0          4.43       3.860575   4.599      4.119      3.864      1.493      3.807152   0.122717   0.122717   0.277425   0.5250183  14.27413   3.817      0.2585973  0.5260675  223.119    0.4688121  0.2191155  0.7185088 
947.4      0.236      262        0          0          4.393      3.7317     4.968      3.82       3.868      1.493      3.788      0.1251963  0.1251963  0.277425   0.5835756  15.06485   3.817      0.2714013  0.5296001  221.98     0.4612991  0.2143442  0.708254  
947.5      0.236      262        0          0          4.365      3.670702   5.257      3.534      3.581      1.483      3.661952   0.1300733  0.1300733  0.280175   0.7185071  15.69224   3.817      0.2952526  0.5391603  220.933    0.4548536  0.2108027  0.6989046 
947.6      0.236      262        0          0          4.364      3.6107     5.409      3.434      3.207      1.466      3.5401     0.1360354  0.1360354  0.28485    0.9265389  15.71512   3.817      0.3222314  0.5515531  220.072    0.4509534  0.2106773  0.6912295 
947.7000000000001 0.236      263        0          0          4.405      3.826171   5.438001   3.544      2.99       1.445      3.462908   0.1417827  0.1417827  0.290625   1.183909   14.80371   3.802      0.3450146  0.563161   219.517    0.4510371  0.2158802  0.686194  
947.8      0.236      265        0          0          4.496      4.0545     5.401999   3.751      3.003      1.427      3.3874     0.1449752  0.1449752  0.295575   1.356594   12.96527   3.774      0.3553622  0.5697719  219.397    0.4563631  0.2278916  0.6848345 
947.9      0.235      269        0          0          4.627      3.983274   5.373      3.888      3.105      1.413      3.260991   0.145139   0.145139   0.299425   1.366106   10.71218   3.717      0.3513804  0.570124   219.898    0.4675334  0.2463659  0.6887009 
948        0.234      272        0          0          4.781      3.9133     5.383      3.826      3.095      1.401      3.1393     0.1430399  0.1430399  0.302725   1.249118   8.558921   3.676      0.3396699  0.5682729  221.01     0.4838943  0.2700078  0.6977808 
948.1      0.233      276        0          0          4.933      4.003021   5.401      3.579      2.917      1.388      3.105771   0.1403032  0.1403032  0.3063     1.111509   6.858446   3.623      0.3238738  0.5651292  222.529    0.5030207  0.2955666  0.7104749 
948.2000000000001 0.233      278.9999   0          0          5.067      4.0948     5.34       3.311      2.694      1.376      3.0726     0.1374039  0.1374039  0.3096     0.9822267  5.641882   3.584      0.3079594  0.5622753  224.066    0.5218063  0.3200978  0.7235148 
948.3      0.233      282.0001   0          0          5.18       4.054249   5.142      3.21       2.584      1.367      3.029244   0.1344172  0.1344172  0.312075   0.8647488  4.785329   3.546      0.2910483  0.5585368  225.334    0.5383571  0.3423603  0.7343538 
948.4      0.233      286        0          0          5.278      4.014101   4.849      3.322      2.604      1.363      2.9865     0.1307688  0.1307688  0.313175   0.7401404  4.148513   3.497      0.2690954  0.5519128  226.296    0.5527459  0.3629176  0.7425743 
948.5      0.233      290        0          0          5.364      3.922301   4.588      3.498      2.631      1.366      3.000865   0.1256223  0.1256223  0.31235    0.5942752  3.659884   3.448      0.2380546  0.5412978  227.13     0.5658415  0.3819721  0.749711  
948.6      0.234      294.9999   0          0          5.422      3.8326     4.457      3.515      2.525      1.37       3.0153     0.1210263  0.1210263  0.31125    0.4884939  3.363273   3.39       0.2066239  0.5300467  228.028    0.5764354  0.3953845  0.7574863 
948.7000000000001 0.235      297        0          0          5.436      3.6146     4.416999   3.265      2.261      1.372      3.132281   0.1185231  0.1185231  0.3107     0.43903    3.295355   3.367      0.1894648  0.524349   229.001    0.5823541  0.3986919  0.7660164 
948.8      0.236      298        0          0          5.396      3.409      4.329      2.905      1.951      1.365      3.2538     0.1206763  0.1206763  0.312625   0.481255   3.493141   3.356      0.2008485  0.5285108  229.908    0.5816628  0.3893147  0.774011  
