~Version
 VERS              .         2.0                           : CWLS LOG ASCII STANDARD - VERSION 2.0
 WRAP              .         NO                            : ONE LINE PER DEPTH STEP
 DLM               .         SPACE                         : DELIMITING CHARACTER(SPACE TAB OR COMMA)
~Well Information
#_______________________________________________________________________________
#
#PARAMETER_NAME    .UNIT     VALUE                         : DESCRIPTION
#_______________________________________________________________________________
STRT               .M        890                           : First reference value
STOP               .M        1172                          : Last reference value
STEP               .M        0.1                           : Step increment
NULL               .         -9999                         : Missing value
COMP               .                                       : Company
WELL               .         8367                          : Well name
FLD                .         Узень                         : Field
LOC                .                                       : Location
CNTY               .                                       : County
STAT               .                                       : State
CTRY               .                                       : Country
SRVC               .                                       : Service Company
DATE               .                                       : Date
UWI                .                                       : Unique Well ID
Block              .         7                             : 
Category           .         Нефтяная                      : 
Condition          .         В работе                      : 
Date               .         13.10.1993                    : 
EREF               .m        89.8                          : 100.8
Gorizont           .         14                            : 14
Interpretator      .         Танауова А.Б.                 : 
Kupol              .         Основной                      : osnovnoi
Mud                .         0                             : 
Mud_density        .         0                             : 
Mud_resistivity    .         0                             : 
NGDU               .         НГДУ-2                        : 
ORIGINALWELLNAME   .         8367                          : 
Spud_date          .         1993                          : 1961
Viscosity          .         0                             : 
X                  .m        41807.6                       : 46154
Y                  .m        84408.63                      : 85761.93
YEAR               .         2019                          : 
~Parameter Information Block
#_______________________________________________________________________________
#
#PARAMETER_NAME    .UNIT     VALUE                         : DESCRIPTION
#_______________________________________________________________________________
SET                .         LQC_KAZNIPI_Petrel            : 
PBBOTTOM           .M        1172                          : Глубина подошвы планшета
PBSCALE            .         1 _ 500                       : Вертикальный масштаб планшета
PBTOP              .M        890                           : Глубина кровли планшета
TLFamily_CALI      .         Caliper                       : 
TLFamily_CILD      .         Conductivity                  : 
TLFamily_COLL      .         Net Reservoir Flag            : 
TLFamily_CSAT      .         Fluid Code                    : 
TLFamily_DEPT      .         Measured Depth                : 
TLFamily_GR        .         Russian Gamma Ray             : 
TLFamily_GZ3       .         Gradient 225                  : 
TLFamily_LLS       .         Lateral Log Resistivity       : 
TLFamily_MINV      .         Micro Gradient Resistivity    : 
TLFamily_MNOR      .         Micro Resistivity             : 
TLFamily_NGLD      .         Neutron Gamma                 : 
TLFamily_OGZ       .         Gradient Inverted 225         : 
TLFamily_PHIE      .         Effective Porosity            : 
TLFamily_PHIEN     .         Effective Porosity            : 
TLFamily_PHIT      .         Porosity                      : 
TLFamily_PRMB      .         Permeability                  : 
TLFamily_PRMB_DGR  .         Permeability                  : 
TLFamily_RT        .         Formation Resistivity         : 
TLFamily_SOIL_ARCHIE .         Oil Saturation                : 
TLFamily_SOIL_DW   .         Oil Saturation                : 
TLFamily_SP        .         Spontaneous Potential         : 
TLFamily_VSH_FIN   .         Shale Volume                  : 
TLFamily_VSH_GR    .         Shale Volume                  : 
TLFamily_VSH_SP    .         Shale Volume                  : 
~Curve Information
#_______________________________________________________________________________
#
#LOGNAME           .UNIT     LOG_ID                        : DESCRIPTION
#_______________________________________________________________________________
DEPT               .M                                      : Колонка глубины 
CALI               .м                                      : Каверномер 
CILD               .мСм/м                                  : Индукционный каротаж 
COLL               .unitless                               : Описание 
CSAT               .unitless                               :  
GR                 .uR/h                                   : Гамма каротаж 
GZ3                .Ohmm                                   : 149.10 - 1385.50<_techsia_sc_> 197.50 - 1174.70 
LLS                .Ohmm                                   : Боковой каротаж 
MINV               .Ohmm                                   : Микро-градиент зонд 
MNOR               .Ohmm                                   : Микро-потенциал зонд 
NGLD               .у.е.                                   : Показания зонда НГК-60 аппаратуры ДРСТ-3-90 
OGZ                .Ohmm                                   : 144.60 - 1381.00<_techsia_sc_> 193.00 - 1170.20 
PHIE               .v/v                                    : Описание 
PHIEN              .v/v                                    :  
PHIT               .v/v                                    : Описание 
PRMB               .mD                                     :  
PRMB_DGR           .mD                                     :  
RT                 .ohmm                                   : УЭС пласта 
SOIL_ARCHIE        .v/v                                    :  
SOIL_DW            .v/v                                    :  
SP                 .мВ                                     : Потенциал самополяризации 
VSH_FIN            .v/v                                    : Описание 
VSH_GR             .v/v                                    : Shale volume 
VSH_SP             .v/v                                    : Shale Volume 
~Ascii
# ...
1076       0.239      321        0          0          -9999      3.8527     4.098      0.605      1.881      1.254      2.0512     0.1657651  0.1657651  0.34315    3.292528   -9999      3.115      0.3723218  0.5897188  200.615    0.5375301  -9999      0.5375301 
1076.1     0.243      329        0          0          -9999      3.698359   3.901      0.625      1.481      1.246      1.855958   0.1717607  0.1717607  0.34535    4.2519     -9999      3.04       0.3844484  0.5919092  198.917    0.5260281  -9999      0.5260281 
1076.2     0.249      337.9999   0          0          -9999      3.5502     3.587      0.618      1.239      1.237      1.6793     0.176306   0.176306   0.347825   5.16147    -9999      2.959      0.3906192  0.5922923  197.977    0.5197545  -9999      0.5197545 
1076.3     0.254      348        0          0          -9999      3.255575   3.243      0.605      1.142      1.228      1.721763   0.1794765  0.1794765  0.3503     5.908775   -9999      2.874      0.3917427  0.5909284  197.659    0.5176471  -9999      0.5176471 
1076.4     0.255      357.0001   0          0          -9999      2.9854     2.965      0.607      1.121      1.219      1.7653     0.1814159  0.1814159  0.352775   6.418306   -9999      2.801      0.3900907  0.5891286  197.904    0.5192701  -9999      0.5192701 
1076.5     0.254      367        0          0          -9999      2.851235   2.795      0.622      1.127      1.21       1.750841   0.1822907  0.1822907  0.35525    6.662307   -9999      2.725      0.3847499  0.5859916  198.632    0.524119   -9999      0.524119  
1076.6     0.252      375.0001   0          0          -9999      2.7231     2.72       0.637      1.148      1.202      1.7365     0.1819116  0.1819116  0.35745    6.555438   -9999      2.667      0.3773789  0.5827612  199.793    0.5319346  -9999      0.5319346 
1076.7     0.251      383        0          0          -9999      2.469215   2.695      0.648      1.176      1.198      1.658498   0.1798701  0.1798701  0.35855    6.008824   -9999      2.611      0.3649362  0.5772722  201.187    0.5414541  -9999      0.5414541 
1076.8     0.253      389        0          0          -9999      2.239      2.677      0.659      1.204      1.197      1.584      0.1770007  0.1770007  0.358825   5.316673   -9999      2.571      0.3512961  0.5715607  202.561    0.5509828  -9999      0.5509828 
1076.9     0.255      394        0          0          -9999      2.32803    2.64       0.668      1.225      1.201      1.734409   0.1732063  0.1732063  0.357725   4.522293   -9999      2.538      0.3349166  0.5643716  203.722    0.5591477  -9999      0.5591477 
1077       0.258      399        0          0          -9999      2.4206     2.587      0.668      1.229      1.208      1.8991     0.1691217  0.1691217  0.3558     3.799281   -9999      2.506      0.3168927  0.5561176  204.642    0.565692   -9999      0.565692  
1077.1     0.26       402.9999   0          0          -9999      2.296362   2.537      0.656      1.213      1.217      1.941379   0.1647938  0.1647938  0.353325   3.158924   -9999      2.481      0.297999   0.5475256  205.424    0.5713066  -9999      0.5713066 
1077.2     0.262      407.9999   0          0          -9999      2.1785     2.511      0.642      1.179      1.225      1.9846     0.1609266  0.1609266  0.351125   2.678609   -9999      2.451      0.2792259  0.5388783  206.122    0.5763587  -9999      0.5763587 
1077.3     0.263      410.9999   0          0          -9999      2.305876   2.511      0.637      1.137      1.232      1.921652   0.1575898  0.1575898  0.3492     2.323287   -9999      2.433      0.2634081  0.5319141  206.709    0.5806371  -9999      0.5806371 
1077.4     0.264      412        0          0          -9999      2.4407     2.53       0.64       1.098      1.238      1.8607     0.1550815  0.1550815  0.34755    2.087586   -9999      2.427      0.2521769  0.5271127  207.064    0.5832377  -9999      0.5832377 
1077.5     0.263      412        0          0          -9999      2.358672   2.55       0.64       1.071      1.242      2.025272   0.1538144  0.1538144  0.34645    1.977761   -9999      2.427      0.2468141  0.5247179  207.133    0.5837443  -9999      0.5837443 
1077.6     0.26       410.0001   0          0          -9999      2.2794     2.575      0.632      1.075      1.248      2.2044     0.1527187  0.1527187  0.3448     1.887467   -9999      2.439      0.243862   0.5231972  206.904    0.5820644  -9999      0.5820644 
1077.7     0.255      406        0          0          -9999      2.378113   2.627      0.617      1.142      1.256      2.374303   0.1516258  0.1516258  0.3426     1.801508   -9999      2.463      0.2426057  0.5223399  206.445    0.5787096  -9999      0.5787096 
1077.8     0.249      402.0001   0          0          -9999      2.4811     2.761      0.615      1.304      1.267      2.5573     0.1501473  0.1501473  0.339575   1.691414   -9999      2.488      0.2397255  0.5203456  205.8      0.5740234  -9999      0.5740234 
1077.9     0.243      395.9999   0          0          -9999      2.693876   3.021      0.652      1.532      1.28       2.660277   0.1483451  0.1483451  0.336      1.566277   -9999      2.525      0.2369912  0.5185391  205.055    0.5686513  -9999      0.5686513 
1078       0.238      390.0001   0          0          -9999      2.9249     3.388      0.748      1.741      1.296      2.7674     0.1457293  0.1457293  0.3316     1.400939   -9999      2.564      0.2306307  0.5150428  204.299    0.5632444  -9999      0.5632444 
1078.1     0.238      384        0          0          -9999      3.213238   3.739      0.881      1.853      1.311      2.870336   0.1431967  0.1431967  0.327475   1.257501   -9999      2.604      0.224447   0.51181    203.619    0.5584191  -9999      0.5584191 
1078.2     0.241      379.0001   0          0          -9999      3.53       3.908      1.001      1.845      1.324      2.9771     0.1409914  0.1409914  0.3239     1.144619   -9999      2.639      0.2188021  0.5088767  203.03     0.5542685  -9999      0.5542685 
1078.3     0.244      376.0001   0          0          -9999      3.289883   3.841      1.081      1.744      1.332      2.991366   0.1400232  0.1400232  0.3217     1.098318   -9999      2.66       0.2170175  0.5074602  202.497    0.5505356  -9999      0.5505356 
1078.4     0.246      374.0001   0          0          -9999      3.0661     3.659      1.228      1.602      1.334      3.0057     0.1405718  0.1405718  0.32115    1.124318   -9999      2.674      0.2215992  0.5089374  202.019    0.5472066  -9999      0.5472066 
1078.5     0.245      372.0001   0          0          -9999      2.889515   3.576      1.647      1.508      1.332      2.933226   0.1419567  0.1419567  0.3217     1.192727   -9999      2.688      0.2301063  0.5125269  201.654    0.5446765  -9999      0.5446765 
1078.6     0.242      369        0          0          -9999      2.7231     3.701      2.41       1.542      1.33       2.8625     0.1428785  0.1428785  0.32225    1.240552   -9999      2.71       0.2373569  0.5161989  201.491    0.5435499  -9999      0.5435499 
1078.7     0.239      365        0          0          -9999      2.773091   3.953      3.2        1.681      1.331      2.760534   0.1425078  0.1425078  0.321975   1.221091   -9999      2.74       0.239568   0.5181302  201.533    0.5438401  -9999      0.5438401 
1078.8     0.239      362.0001   0          0          -9999      2.824      4.129      3.454      1.781      1.335      2.6622     0.1410199  0.1410199  0.320875   1.146008   -9999      2.762      0.2354592  0.517136   201.703    0.5450156  -9999      0.5450156 
1078.9     0.242      360        0          0          -9999      2.689707   4.086      2.932      1.718      1.338      2.545021   0.1397169  0.1397169  0.32005    1.084061   -9999      2.778      0.2313394  0.5160809  201.912    0.5464639  -9999      0.5464639 
1079       0.247      359        0          0          -9999      2.5618     3.848      1.96       1.513      1.333      2.433      0.1404246  0.1404246  0.321425   1.117282   -9999      2.786      0.2357466  0.5189803  202.203    0.5484861  -9999      0.5484861 
