~Version
 VERS              .         2.0                           : CWLS LOG ASCII STANDARD - VERSION 2.0
 WRAP              .         NO                            : ONE LINE PER DEPTH STEP
 DLM               .         SPACE                         : DELIMITING CHARACTER(SPACE TAB OR COMMA)
~Well Information
#_______________________________________________________________________________
#
#PARAMETER_NAME    .UNIT     VALUE                         : DESCRIPTION
#_______________________________________________________________________________
STRT               .M        890                           : First reference value
STOP               .M        1172                          : Last reference value
STEP               .M        0.1                           : Step increment
NULL               .         -9999                         : Missing value
COMP               .                                       : Company
WELL               .         8367                          : Well name
FLD                .         Узень                         : Field
LOC                .                                       : Location
CNTY               .                                       : County
STAT               .                                       : State
CTRY               .                                       : Country
SRVC               .                                       : Service Company
DATE               .                                       : Date
UWI                .                                       : Unique Well ID
Block              .         7                             : 
Category           .         Нефтяная                      : 
Condition          .         В работе                      : 
Date               .         13.10.1993                    : 
EREF               .m        89.8                          : 100.8
Gorizont           .         14                            : 14
Interpretator      .         Танауова А.Б.                 : 
Kupol              .         Основной                      : osnovnoi
Mud                .         0                             : 
Mud_density        .         0                             : 
Mud_resistivity    .         0                             : 
NGDU               .         НГДУ-2                        : 
ORIGINALWELLNAME   .         8367                          : 
Spud_date          .         1993                          : 1961
Viscosity          .         0                             : 
X                  .m        41807.6                       : 46154
Y                  .m        84408.63                      : 85761.93
YEAR               .         2019                          : 
~Parameter Information Block
#_______________________________________________________________________________
#
#PARAMETER_NAME    .UNIT     VALUE                         : DESCRIPTION
#_______________________________________________________________________________
SET                .         LQC_KAZNIPI_Petrel            : 
PBBOTTOM           .M        1172                          : Глубина подошвы планшета
PBSCALE            .         1 _ 500                       : Вертикальный масштаб планшета
PBTOP              .M        890                           : Глубина кровли планшета
TLFamily_CALI      .         Caliper                       : 
TLFamily_CILD      .         Conductivity                  : 
TLFamily_COLL      .         Net Reservoir Flag            : 
TLFamily_CSAT      .         Fluid Code                    : 
TLFamily_DEPT      .         Measured Depth                : 
TLFamily_GR        .         Russian Gamma Ray             : 
TLFamily_GZ3       .         Gradient 225                  : 
TLFamily_LLS       .         Lateral Log Resistivity       : 
TLFamily_MINV      .         Micro Gradient Resistivity    : 
TLFamily_MNOR      .         Micro Resistivity             : 
TLFamily_NGLD      .         Neutron Gamma                 : 
TLFamily_OGZ       .         Gradient Inverted 225         : 
TLFamily_PHIE      .         Effective Porosity            : 
TLFamily_PHIEN     .         Effective Porosity            : 
TLFamily_PHIT      .         Porosity                      : 
TLFamily_PRMB      .         Permeability                  : 
TLFamily_PRMB_DGR  .         Permeability                  : 
TLFamily_RT        .         Formation Resistivity         : 
TLFamily_SOIL_ARCHIE .         Oil Saturation                : 
TLFamily_SOIL_DW   .         Oil Saturation                : 
TLFamily_SP        .         Spontaneous Potential         : 
TLFamily_VSH_FIN   .         Shale Volume                  : 
TLFamily_VSH_GR    .         Shale Volume                  : 
TLFamily_VSH_SP    .         Shale Volume                  : 
~Curve Information
#_______________________________________________________________________________
#
#LOGNAME           .UNIT     LOG_ID                        : DESCRIPTION
#_______________________________________________________________________________
DEPT               .M                                      : Колонка глубины 
CALI               .м                                      : Каверномер 
CILD               .мСм/м                                  : Индукционный каротаж 
COLL               .unitless                               : Описание 
CSAT               .unitless                               :  
GR                 .uR/h                                   : Гамма каротаж 
GZ3                .Ohmm                                   : 149.10 - 1385.50<_techsia_sc_> 197.50 - 1174.70 
LLS                .Ohmm                                   : Боковой каротаж 
MINV               .Ohmm                                   : Микро-градиент зонд 
MNOR               .Ohmm                                   : Микро-потенциал зонд 
NGLD               .у.е.                                   : Показания зонда НГК-60 аппаратуры ДРСТ-3-90 
OGZ                .Ohmm                                   : 144.60 - 1381.00<_techsia_sc_> 193.00 - 1170.20 
PHIE               .v/v                                    : Описание 
PHIEN              .v/v                                    :  
PHIT               .v/v                                    : Описание 
PRMB               .mD                                     :  
PRMB_DGR           .mD                                     :  
RT                 .ohmm                                   : УЭС пласта 
SOIL_ARCHIE        .v/v                                    :  
SOIL_DW            .v/v                                    :  
SP                 .мВ                                     : Потенциал самополяризации 
VSH_FIN            .v/v                                    : Описание 
VSH_GR             .v/v                                    : Shale volume 
VSH_SP             .v/v                                    : Shale Volume 
~Ascii
# ...
927.2000000000001 0.24       207        0          0          3.643      5.527      5.304      4.086999   5.322      1.539      6.851      0.1259648  0.1259648  0.264775   0.6030205  44.93687   4.831      0.3511251  0.5705377  213.067    0.4206369  0.1371833  0.7040904 
927.3      0.239      203        0          0          3.635      5.577172   5.575      4.106      4.895      1.565      6.822441   0.1159595  0.1159595  0.257625   0.3935593  45.46376   4.926      0.3089704  0.5536646  215.177    0.4292892  0.1365319  0.7220465 
927.4      0.239      198        0          0          3.588      5.6278     5.743999   4.107      4.099      1.597      6.794      0.1054524  0.1054524  0.248825   0.2514156  48.6866    5.051      0.2581492  0.5332965  216.815    0.4344625  0.1327665  0.7361584 
927.5      0.239      191        0          0          3.492      5.587355   5.737      4.124      3.448      1.634      7.033093   0.0946651  0.0946651  0.23865    0.158703   55.99679   5.236      0.1986834  0.5103648  218.093    0.436318   0.1253952  0.7472407 
927.6      0.239      182        0          0          3.355      5.547201   5.565      4.159      3.195      1.677      7.2806     0.08277607 0.08277607 0.226825   0.09558103 68.36968   5.495      0.1195024  0.4818744  219.26     0.4365119  0.1155788  0.7574449 
927.7000000000001 0.239      174        0          0          3.205      5.383381   5.33       4.149      3.212      1.726      8.07262    0.06907203 0.06907203 0.21335    0.05327698 85.07287   5.747      0          0.4384591  220.529    0.437206   0.10571    0.768702  
927.8      0.239      167        0          0          3.078      5.2244     5.163      4.346      3.694      1.78       8.9508     0.05358428 0.05358428 0.1985     0.0275213  102.3677   5.987999   0          0.372021   221.816    0.4391386  0.09801613 0.780261  
927.9      0.24       162        0          0          3.005      5.770734   5.15       5.423      5.413      1.835      10.21629   0.03763543 0.03763543 0.183375   0.01393983 113.8574   6.173      0          0.2721297  222.834    0.441635   0.0938498  0.7894203 
928        0.239      160        0          0          2.995      6.374199   5.361001   7.905      8.938001   1.882      11.6607    0.02430657 0.02430657 0.17045    0.007895409 115.5287   6.25       0          0.1426308  223.194    0.4428589  0.09329302 0.7924248 
928.1      0.24       159        0          0          3.036      7.242904   5.846      11.06      13.149     1.911      12.51659   0.01672448 0.01672448 0.162475   0.005713942 108.8286   6.289      0          0.03570483 222.739    0.4416682  0.09559698 0.7877395 
928.2000000000001 0.24       159        0          0          3.111      8.23       6.666      13.366     15.682     1.914      13.4353    0.01714519 0.01714519 0.16165    0.005817395 97.56162   6.289      0          0.0367111  221.507    0.4378933  0.09995976 0.7758269 
928.3      0.24       157        0          0          3.201      8.439141   7.742001   14.291     15.419     1.897      13.27651   0.02358158 0.02358158 0.166325   0.007655018 85.57021   6.369      0          0.1283908  219.794    0.4325559  0.1054587  0.759653  
928.4      0.241      154        0          0          3.283      8.6536     8.815999   14.698     13.525     1.871      13.1196    0.03278729 0.03278729 0.173475   0.01133596 75.93269   6.494      0          0.232119   217.877    0.4263264  0.1107318  0.7419209 
928.5      0.241      151        0          0          3.339      8.387251   9.541      15.186     11.84      1.85       12.19497   0.0407859  0.0407859  0.17925    0.01594454 69.98245   6.623      0          0.3026487  215.979    0.4195881  0.1144837  0.7246926 
928.6      0.242      149        0          0          3.359      8.1291     9.66       14.839     10.614     1.841      11.3355    0.04570529 0.04570529 0.181725   0.01966668 67.97233   6.711      0          0.3373605  214.164    0.412181   0.1158542  0.7085077 
928.7000000000001 0.243      148        0          0          3.354      7.768083   9.22       12.932     9.16       1.843      10.60095   0.04771743 0.04771743 0.181175   0.02142893 68.46938   6.757      0          0.3471837  212.432    0.4044168  0.1155101  0.6933236 
928.8      0.242      149        0          0          3.354      7.4231     8.497      10.534     7.590001   1.847      9.914      0.04883496 0.04883496 0.180075   0.02247501 68.46938   6.711      0          0.347085   210.877    0.3976971  0.1155101  0.6798841 
928.9      0.241      153        0          0          3.378      7.018736   7.863999   9.505      6.898      1.842      9.701829   0.0516153  0.0516153  0.18145    0.02530455 66.11623   6.536      0          0.3535084  209.692    0.3934385  0.1171714  0.6697056 
929        0.24       157        0          0          3.425      6.6364     7.572999   10.214     7.546      1.821      9.4942     0.05756349 0.05756349 0.187225   0.03261171 61.73964   6.369      0          0.3814316  209.202    0.3929137  0.1204945  0.6653329 
929.1      0.239      161        0          0          3.487      6.85471    7.666999   11.248     8.665      1.785      9.286733   0.06631888 0.06631888 0.197125   0.04737448 56.40627   6.211      0          0.4230455  209.537    0.3963822  0.1250227  0.6677418 
929.2000000000001 0.239      164        0          0          3.55       7.080201   8.024      11.134     8.941      1.743      9.0838     0.07563405 0.07563405 0.208675   0.07048297 51.45856   6.098      0.09293464 0.4640861  210.639    0.4031543  0.1297983  0.6765105 
929.3      0.24       165        0          0          3.593      7.298728   8.403      9.648999   7.844      1.71       8.693621   0.08207304 0.08207304 0.21775    0.09275768 48.33316   6.060999   0.1528218  0.4919699  212.186    0.4111423  0.1331621  0.6891224 
929.4      0.24       163        0          0          3.582      7.524      8.547      7.573999   5.951      1.696      8.3202     0.08374558 0.08374558 0.2216     0.09961604 49.11416   6.135      0.1723039  0.5042855  213.88     0.4177407  0.1322934  0.703188  
929.5      0.242      159        0          0          3.508      7.534043   8.296      5.802      4.299      1.709      7.964497   0.07885645 0.07885645 0.218025   0.0808669  54.70631   6.289      0.1378721  0.4945413  215.501    0.4217229  0.1265947  0.7168511 
929.6      0.243      154        0          0          3.396      7.544099   7.66       4.683      3.473      1.743      7.624      0.06886237 0.06886237 0.208675   0.05280272 64.40457   6.494      0.04435929 0.4634311  216.917    0.4236746  0.1184331  0.7289161 
929.7000000000001 0.244      151        0          0          3.286      6.890485   6.863999   4.037      3.329      1.793      7.450271   0.05479606 0.05479606 0.194925   0.02898104 75.60146   6.623      0          0.399852   218.019    0.4246332  0.1109296  0.7383367 
929.8      0.245      148        0          0          3.194      6.2935     6.206      3.864      3.649      1.846      7.2805     0.04028811 0.04028811 0.18035    0.01560959 86.4475    6.757      0          0.3100126  218.675    0.42443    0.1050204  0.7438396 
929.9      0.245      145        0          0          3.123      6.171263   5.876      4.632999   4.588      1.894      7.16991    0.02752401 0.02752401 0.16715    0.00905669 95.87048   6.897      0          0.1973891  218.906    0.423109   0.100676   0.745542  
930        0.244      144        0          0          3.091      6.0514     5.906      6.859      6.506001   1.927      7.061      0.01887921 0.01887921 0.158075   0.006263929 100.4468   6.944      0          0.08604881 218.869    0.4218054  0.09877725 0.7448335 
930.1      0.244      146        0          0          3.12       6.240108   6.209      9.939      9.043      1.937      7.065849   0.0159757  0.0159757  0.155325   0.005534352 96.2905    6.849      0          0.03327505 218.823    0.4222706  0.1004965  0.7440447 
930.2000000000001 0.243      149        0          0          3.223      6.4347     6.76       12.177     10.971     1.923      7.070701   0.01870162 0.01870162 0.159175   0.006216664 82.87047   6.711      0          0.07340499 218.916    0.4256769  0.1068483  0.7445055 
