~Version
 VERS              .         2.0                           : CWLS LOG ASCII STANDARD - VERSION 2.0
 WRAP              .         NO                            : ONE LINE PER DEPTH STEP
 DLM               .         SPACE                         : DELIMITING CHARACTER(SPACE TAB OR COMMA)
~Well Information
#_______________________________________________________________________________
#
#PARAMETER_NAME    .UNIT     VALUE                         : DESCRIPTION
#_______________________________________________________________________________
STRT               .M        890                           : First reference value
STOP               .M        1172                          : Last reference value
STEP               .M        0.1                           : Step increment
NULL               .         -9999                         : Missing value
COMP               .                                       : Company
WELL               .         8367                          : Well name
FLD                .         Узень                         : Field
LOC                .                                       : Location
CNTY               .                                       : County
STAT               .                                       : State
CTRY               .                                       : Country
SRVC               .                                       : Service Company
DATE               .                                       : Date
UWI                .                                       : Unique Well ID
Block              .         7                             : 
Category           .         Нефтяная                      : 
Condition          .         В работе                      : 
Date               .         13.10.1993                    : 
EREF               .m        89.8                          : 100.8
Gorizont           .         14                            : 14
Interpretator      .         Танауова А.Б.                 : 
Kupol              .         Основной                      : osnovnoi
Mud                .         0                             : 
Mud_density        .         0                             : 
Mud_resistivity    .         0                             : 
NGDU               .         НГДУ-2                        : 
ORIGINALWELLNAME   .         8367                          : 
Spud_date          .         1993                          : 1961
Viscosity          .         0                             : 
X                  .m        41807.6                       : 46154
Y                  .m        84408.63                      : 85761.93
YEAR               .         2019                          : 
~Parameter Information Block
#_______________________________________________________________________________
#
#PARAMETER_NAME    .UNIT     VALUE                         : DESCRIPTION
#_______________________________________________________________________________
SET                .         LQC_KAZNIPI_Petrel            : 
PBBOTTOM           .M        1172                          : Глубина подошвы планшета
PBSCALE            .         1 _ 500                       : Вертикальный масштаб планшета
PBTOP              .M        890                           : Глубина кровли планшета
TLFamily_CALI      .         Caliper                       : 
TLFamily_CILD      .         Conductivity                  : 
TLFamily_COLL      .         Net Reservoir Flag            : 
TLFamily_CSAT      .         Fluid Code                    : 
TLFamily_DEPT      .         Measured Depth                : 
TLFamily_GR        .         Russian Gamma Ray             : 
TLFamily_GZ3       .         Gradient 225                  : 
TLFamily_LLS       .         Lateral Log Resistivity       : 
TLFamily_MINV      .         Micro Gradient Resistivity    : 
TLFamily_MNOR      .         Micro Resistivity             : 
TLFamily_NGLD      .         Neutron Gamma                 : 
TLFamily_OGZ       .         Gradient Inverted 225         : 
TLFamily_PHIE      .         Effective Porosity            : 
TLFamily_PHIEN     .         Effective Porosity            : 
TLFamily_PHIT      .         Porosity                      : 
TLFamily_PRMB      .         Permeability                  : 
TLFamily_PRMB_DGR  .         Permeability                  : 
TLFamily_RT        .         Formation Resistivity         : 
TLFamily_SOIL_ARCHIE .         Oil Saturation                : 
TLFamily_SOIL_DW   .         Oil Saturation                : 
TLFamily_SP        .         Spontaneous Potential         : 
TLFamily_VSH_FIN   .         Shale Volume                  : 
TLFamily_VSH_GR    .         Shale Volume                  : 
TLFamily_VSH_SP    .         Shale Volume                  : 
~Curve Information
#_______________________________________________________________________________
#
#LOGNAME           .UNIT     LOG_ID                        : DESCRIPTION
#_______________________________________________________________________________
DEPT               .M                                      : Колонка глубины 
CALI               .м                                      : Каверномер 
CILD               .мСм/м                                  : Индукционный каротаж 
COLL               .unitless                               : Описание 
CSAT               .unitless                               :  
GR                 .uR/h                                   : Гамма каротаж 
GZ3                .Ohmm                                   : 149.10 - 1385.50<_techsia_sc_> 197.50 - 1174.70 
LLS                .Ohmm                                   : Боковой каротаж 
MINV               .Ohmm                                   : Микро-градиент зонд 
MNOR               .Ohmm                                   : Микро-потенциал зонд 
NGLD               .у.е.                                   : Показания зонда НГК-60 аппаратуры ДРСТ-3-90 
OGZ                .Ohmm                                   : 144.60 - 1381.00<_techsia_sc_> 193.00 - 1170.20 
PHIE               .v/v                                    : Описание 
PHIEN              .v/v                                    :  
PHIT               .v/v                                    : Описание 
PRMB               .mD                                     :  
PRMB_DGR           .mD                                     :  
RT                 .ohmm                                   : УЭС пласта 
SOIL_ARCHIE        .v/v                                    :  
SOIL_DW            .v/v                                    :  
SP                 .мВ                                     : Потенциал самополяризации 
VSH_FIN            .v/v                                    : Описание 
VSH_GR             .v/v                                    : Shale volume 
VSH_SP             .v/v                                    : Shale Volume 
~Ascii
# ...
1038.8     0.272      527.9999   0          0          -0.009     1.4927     1.436      0.988      1.045      1.123      1.4504     0.1954373  0.1954373  0.379175   11.67164   61511.07   1.894      0.3131708  0.535541   205.446    0.5567808  0.02       0.5567808 
1038.9     0.268      525.9999   0          0          -0.002     1.542277   1.475      0.955      1.075      1.133      1.35153    0.1947387  0.1947387  0.376425   11.32901   61008.3    1.901      0.312217   0.5336782  204.554    0.5505644  0.02       0.5505644 
1039       0.266      525.9999   0          0          -0.004     1.5935     1.546      0.904      1.094      1.143      1.2594     0.1945262  0.1945262  0.373675   11.22676   61151.55   1.901      0.3115624  0.5313812  203.44     0.5428752  0.02       0.5428752 
1039.1     0.267      526.9999   0          0          -0.011     1.583418   1.624      0.855      1.086      1.152      1.245119   0.1950359  0.1950359  0.3712     11.47348   61655.5    1.898      0.3126204  0.529579   202.113    0.5338308  0.02       0.5338308 
1039.2     0.27       529        0          0          -0.028     1.5734     1.673      0.819      1.054      1.155      1.231      0.1972512  0.1972512  0.370375   12.61038   62896.77   1.89       0.3179985  0.5300144  200.741    0.5246177  0.02       0.5246177 
1039.3     0.275      531.0001   0          0          -0.053     1.661674   1.659      0.792      1.016      1.154      1.331775   0.2000169  0.2000169  0.37065    14.18916   64767.63   1.883      0.3250451  0.5319063  199.6      0.5170699  0.02       0.5170699 
1039.4     0.278      533.0001   0          0          -0.072     1.7549     1.576      0.765      0.985      1.15       1.4408     0.2026133  0.2026133  0.37175    15.85066   66226.61   1.876      0.3314168  0.534236   198.905    0.5125356  0.02       0.5125356 
1039.5     0.278      534.9999   0          0          -9999      1.774985   1.458      0.738      0.967      1.147      1.450319   0.2037298  0.2037298  0.372575   16.62374   -9999      1.869      0.333441   0.5349959  198.764    0.5116521  -9999      0.5116521 
1039.6     0.277      537        0          0          -9999      1.7953     1.367      0.725      0.971      1.147      1.4599     0.2029784  0.2029784  0.372575   16.09943   -9999      1.862      0.3301138  0.5334474  199.105    0.5139291  -9999      0.5139291 
1039.7     0.276      539.0001   0          0          -9999      1.603505   1.347      0.747      0.997      1.149      1.525238   0.2007637  0.2007637  0.372025   14.64838   -9999      1.855      0.322486   0.5301342  199.863    0.5189735  -9999      0.5189735 
1039.8     0.275      541.9999   0          0          -9999      1.4322     1.388      0.815      1.032      1.151      1.5935     0.1978206  0.1978206  0.371475   12.92037   -9999      1.845      0.3119721  0.5257106  200.944    0.5262255  -9999      0.5262255 
1039.9     0.277      545.0001   0          0          -9999      1.510699   1.44       0.897      1.058      1.15       1.617076   0.1950284  0.1950284  0.37175    11.46985   -9999      1.835      0.301622   0.5219976  202.312    0.53552    -9999      0.53552   
1040       0.278      546.9999   0          0          -9999      1.5935     1.459      0.939      1.066      1.147      1.641      0.192357   0.192357   0.372575   10.23474   -9999      1.828      0.2919135  0.5191672  203.847    0.5461151  -9999      0.5461151 
1040.1     0.28       548.9999   0          0          -9999      1.5935     1.441      0.932      1.067      1.143      1.597627   0.1897514  0.1897514  0.373675   9.158272   -9999      1.821      0.282161   0.5165733  205.446    0.5573444  -9999      0.5573444 
1040.2     0.28       549.9999   0          0          -0.073     1.5935     1.409      0.929      1.073      1.137      1.5554     0.1875634  0.1875634  0.375325   8.342319   66304.31   1.818      0.274312   0.5153244  207.073    0.5689747  0.02       0.5689747 
1040.3     0.28       549.9999   0          0          -0.055     1.478446   1.386      0.983      1.078      1.133      1.634489   0.1845078  0.1845078  0.376425   7.323005   64919.63   1.818      0.263856   0.5131414  208.803    0.5815674  0.02       0.5815674 
1040.4     0.279      548.9999   0          0          -0.029     1.3717     1.382      1.074      1.07       1.131      1.7176     0.1805057  0.1805057  0.376975   6.173922   62970.5    1.821      0.2502413  0.5098983  210.662    0.5953615  0.02       0.5953615 
1040.5     0.278      547.9999   0          0          -9999      1.351349   1.399      1.136      1.055      1.13       1.810536   0.1763004  0.1763004  0.37725    5.160239   -9999      1.825      0.2354768  0.5062618  212.456    0.6089381  -9999      0.6089381 
1040.6     0.274      545.0001   0          0          -9999      1.3313     1.45       1.143      1.07       1.128      1.9085     0.173306   0.173306   0.3778     4.541564   -9999      1.835      0.2259718  0.5048647  213.85     0.6196788  -9999      0.6196788 
1040.7     0.271      540        0          0          -9999      1.419198   1.549      1.144      1.149      1.124      1.889253   0.1727193  0.1727193  0.3789     4.429327   -9999      1.852      0.2270344  0.5074074  214.503    0.6247902  -9999      0.6247902 
1040.8     0.269      534.9999   0          0          -0.01      1.5129     1.69       1.2        1.268      1.119      1.8702     0.1744223  0.1744223  0.380275   4.763026   61583.25   1.869      0.2368911  0.5125622  214.369    0.623796   0.02       0.623796  
1040.9     0.27       529.9999   0          0          -0.002     1.375512   1.829      1.3        1.349      1.116      1.860726   0.1772034  0.1772034  0.3811     5.362842   61008.3    1.887      0.2507103  0.5184285  213.597    0.6178684  0.02       0.6178684 
1041       0.274      525.9999   0          0          0          1.2506     1.904      1.367      1.316      1.118      1.8513     0.1793848  0.1793848  0.38055    5.885733   60865.46   1.901      0.2612196  0.5219924  212.511    0.6095914  0.02       0.6095914 
1041.1     0.278      524        0          0          -0.001     1.209577   1.888      1.349      1.174      1.125      1.884306   0.1807587  0.1807587  0.378625   6.240903   60936.87   1.908      0.2673771  0.5227507  211.184    0.5995949  0.02       0.5995949 
1041.2     0.281      523.0001   0          0          -0.002     1.1699     1.796      1.28       1.003      1.135      1.9179     0.1822568  0.1822568  0.375875   6.652678   61008.3    1.912      0.2733394  0.522597   209.449    0.5867218  0.02       0.5867218 
1041.3     0.283      523.0001   0          0          -0.002     1.118365   1.681      1.226      0.893      1.143      1.814989   0.1860849  0.1860849  0.373675   7.832535   61008.3    1.912      0.2863764  0.5246616  206.933    0.5684547  0.02       0.5684547 
1041.4     0.283      520.9999   0          0          -0.002     1.0691     1.586      1.206      0.872      1.149      1.7176     0.1921658  0.1921658  0.372025   10.1516    61008.3    1.919      0.3072737  0.5301004  203.604    0.5450279  0.02       0.5450279 
1041.5     0.282      517.9999   0          0          -0.001     1.254691   1.524      1.204      0.91       1.152      1.76937    0.1993172  0.1993172  0.3712     13.77199   60936.87   1.931      0.3309319  0.5375453  200.036    0.5208569  0.02       0.5208569 
1041.6     0.279      513.9999   0          0          -0.001     1.4725     1.497      1.207      0.974      1.155      1.8227     0.2045387  0.2045387  0.370375   17.20724   60936.87   1.946      0.3482036  0.5433569  197.231    0.5025343  0.02       0.5025343 
1041.7     0.277      508.9999   0          0          -9999      1.492563   1.503      1.22       1.043      1.159      1.982587   0.2056866  0.2056866  0.369275   18.07064   -9999      1.965      0.3543237  0.5457501  196.161    0.4957223  -9999      0.4957223 
1041.8     0.276      502.9999   0          0          -9999      1.5129     1.549      1.237      1.117      1.165      2.1565     0.2022403  0.2022403  0.367625   15.60055   -9999      1.988      0.3483197  0.5441383  197.006    0.5011656  -9999      0.5011656 
