~Version
 VERS              .         2.0                           : CWLS LOG ASCII STANDARD - VERSION 2.0
 WRAP              .         NO                            : ONE LINE PER DEPTH STEP
 DLM               .         SPACE                         : DELIMITING CHARACTER(SPACE TAB OR COMMA)
~Well Information
#_______________________________________________________________________________
#
#PARAMETER_NAME    .UNIT     VALUE                         : DESCRIPTION
#_______________________________________________________________________________
STRT               .M        890                           : First reference value
STOP               .M        1172                          : Last reference value
STEP               .M        0.1                           : Step increment
NULL               .         -9999                         : Missing value
COMP               .                                       : Company
WELL               .         8367                          : Well name
FLD                .         Узень                         : Field
LOC                .                                       : Location
CNTY               .                                       : County
STAT               .                                       : State
CTRY               .                                       : Country
SRVC               .                                       : Service Company
DATE               .                                       : Date
UWI                .                                       : Unique Well ID
Block              .         7                             : 
Category           .         Нефтяная                      : 
Condition          .         В работе                      : 
Date               .         13.10.1993                    : 
EREF               .m        89.8                          : 100.8
Gorizont           .         14                            : 14
Interpretator      .         Танауова А.Б.                 : 
Kupol              .         Основной                      : osnovnoi
Mud                .         0                             : 
Mud_density        .         0                             : 
Mud_resistivity    .         0                             : 
NGDU               .         НГДУ-2                        : 
ORIGINALWELLNAME   .         8367                          : 
Spud_date          .         1993                          : 1961
Viscosity          .         0                             : 
X                  .m        41807.6                       : 46154
Y                  .m        84408.63                      : 85761.93
YEAR               .         2019                          : 
~Parameter Information Block
#_______________________________________________________________________________
#
#PARAMETER_NAME    .UNIT     VALUE                         : DESCRIPTION
#_______________________________________________________________________________
SET                .         LQC_KAZNIPI_Petrel            : 
PBBOTTOM           .M        1172                          : Глубина подошвы планшета
PBSCALE            .         1 _ 500                       : Вертикальный масштаб планшета
PBTOP              .M        890                           : Глубина кровли планшета
TLFamily_CALI      .         Caliper                       : 
TLFamily_CILD      .         Conductivity                  : 
TLFamily_COLL      .         Net Reservoir Flag            : 
TLFamily_CSAT      .         Fluid Code                    : 
TLFamily_DEPT      .         Measured Depth                : 
TLFamily_GR        .         Russian Gamma Ray             : 
TLFamily_GZ3       .         Gradient 225                  : 
TLFamily_LLS       .         Lateral Log Resistivity       : 
TLFamily_MINV      .         Micro Gradient Resistivity    : 
TLFamily_MNOR      .         Micro Resistivity             : 
TLFamily_NGLD      .         Neutron Gamma                 : 
TLFamily_OGZ       .         Gradient Inverted 225         : 
TLFamily_PHIE      .         Effective Porosity            : 
TLFamily_PHIEN     .         Effective Porosity            : 
TLFamily_PHIT      .         Porosity                      : 
TLFamily_PRMB      .         Permeability                  : 
TLFamily_PRMB_DGR  .         Permeability                  : 
TLFamily_RT        .         Formation Resistivity         : 
TLFamily_SOIL_ARCHIE .         Oil Saturation                : 
TLFamily_SOIL_DW   .         Oil Saturation                : 
TLFamily_SP        .         Spontaneous Potential         : 
TLFamily_VSH_FIN   .         Shale Volume                  : 
TLFamily_VSH_GR    .         Shale Volume                  : 
TLFamily_VSH_SP    .         Shale Volume                  : 
~Curve Information
#_______________________________________________________________________________
#
#LOGNAME           .UNIT     LOG_ID                        : DESCRIPTION
#_______________________________________________________________________________
DEPT               .M                                      : Колонка глубины 
CALI               .м                                      : Каверномер 
CILD               .мСм/м                                  : Индукционный каротаж 
COLL               .unitless                               : Описание 
CSAT               .unitless                               :  
GR                 .uR/h                                   : Гамма каротаж 
GZ3                .Ohmm                                   : 149.10 - 1385.50<_techsia_sc_> 197.50 - 1174.70 
LLS                .Ohmm                                   : Боковой каротаж 
MINV               .Ohmm                                   : Микро-градиент зонд 
MNOR               .Ohmm                                   : Микро-потенциал зонд 
NGLD               .у.е.                                   : Показания зонда НГК-60 аппаратуры ДРСТ-3-90 
OGZ                .Ohmm                                   : 144.60 - 1381.00<_techsia_sc_> 193.00 - 1170.20 
PHIE               .v/v                                    : Описание 
PHIEN              .v/v                                    :  
PHIT               .v/v                                    : Описание 
PRMB               .mD                                     :  
PRMB_DGR           .mD                                     :  
RT                 .ohmm                                   : УЭС пласта 
SOIL_ARCHIE        .v/v                                    :  
SOIL_DW            .v/v                                    :  
SP                 .мВ                                     : Потенциал самополяризации 
VSH_FIN            .v/v                                    : Описание 
VSH_GR             .v/v                                    : Shale volume 
VSH_SP             .v/v                                    : Shale Volume 
~Ascii
# ...
908.6      0.229      498.0001   1          3          1.759      1.7146     2.028      1.984      1.896      1.511      1.4027     0.2446189  0.2446189  0.272475   95.08087   1115.964   2.008      0.4504154  0.4996896  105.019    0.08441246 0.03695362 0.1318713 
908.7000000000001 0.228      498.0001   1          3          1.77       1.510843   1.995      1.994      1.901      1.505      1.416928   0.2460356  0.2460356  0.274125   101.003    1090.826   2.008      0.4531727  0.5026452  106.176    0.08511937 0.03729901 0.1329397 
908.8      0.226      498.0001   1          3          1.78       1.3313     1.998      2.018      1.927      1.497      1.4313     0.2480903  0.2480903  0.276325   110.2533   1068.466   2.008      0.4571191  0.5066732  106.786    0.08555986 0.03761579 0.1335039 
908.9      0.225      499        1          3          1.796      1.571823   2.005      2.043      1.959      1.489      1.519248   0.2501695  0.2501695  0.278525   120.4771   1033.638   2.004      0.4605465  0.5101689  107.045    0.08592575 0.03812826 0.1337232 
909        0.225      500.9999   1          3          1.814      1.8558     2.006      2.056      1.976      1.48       1.6126     0.2525424  0.2525424  0.281      133.3082   995.8118   1.996      0.4639587  0.5136349  107.12     0.08623507 0.03871314 0.133757  
909.1      0.225      501.9999   1          3          1.822      1.653078   2.007      2.051      1.97       1.477      1.682629   0.253328   0.253328   0.281825   137.8503   979.4479   1.992      0.4649032  0.5146083  107.138    0.08635443 0.03897595 0.1337329 
909.2000000000001 0.225      502.9999   1          3          1.813      1.4725     2.017      2.034      1.953      1.485      1.7557     0.2511899  0.2511899  0.279625   125.8361   997.8766   1.988      0.4604298  0.5101634  107.101    0.08616679 0.03868041 0.1336532 
909.3      0.225      503.9999   1          3          1.79       1.266489   2.04       2.019      1.942      1.499      1.726812   0.2474944  0.2474944  0.275775   107.4869   1046.564   1.984      0.4529027  0.5026207  106.953    0.08569869 0.03793527 0.1334621 
909.4      0.224      503.9999   1          3          1.766      1.0893     2.076      2.016      1.946      1.513      1.6984     0.243847   0.243847   0.271925   92.00181   1099.901   1.984      0.4457822  0.4954084  106.526    0.08508482 0.03717304 0.1329966 
909.5      0.223      503.9999   1          3          1.753      1.231295   2.113      2.026      1.96       1.524      1.610263   0.2410313  0.2410313  0.2689     81.59121   1129.919   1.984      0.4401477  0.4896386  105.674    0.08445041 0.03676658 0.1321342 
909.6      0.223      502.9999   1          3          1.754      1.3918     2.135      2.045      1.979      1.53       1.5267     0.2395931  0.2395931  0.26725    76.73689   1127.581   1.988      0.4377535  0.4870419  104.284    0.0838087  0.03679768 0.1308197 
909.7000000000001 0.222      501.9999   1          3          1.769      1.421728   2.135      2.071      2.006      1.533      1.448339   0.2389552  0.2389552  0.266425   74.67708   1093.088   1.992      0.4369777  0.486064   102.45     0.08324196 0.03726748 0.1292164 
909.8      0.222      501.9999   1          3          1.797      1.4523     2.122      2.101      2.043      1.535      1.374      0.2385232  0.2385232  0.265875   73.31382   1031.499   1.992      0.4360897  0.4850576  100.441    0.08288436 0.03816053 0.1276082 
909.9      0.222      501.9999   1          3          1.835      1.521263   2.114      2.123      2.076      1.542      1.349939   0.2366107  0.2366107  0.26395    67.5712    953.4279   1.992      0.4321219  0.4811279  98.645     0.08284641 0.03940684 0.126286  
910        0.222      501.9999   1          3          1.875      1.5935     2.117      2.119      2.082      1.554      1.3263     0.2332249  0.2332249  0.26065    58.48565   877.6223   1.992      0.4249485  0.4741465  97.442     0.08310632 0.04076276 0.1254499 
910.1      0.222      501.9999   1          3          1.908      1.623517   2.124      2.091      2.054      1.569      1.307111   0.2289623  0.2289623  0.256525   48.76355   819.6417   1.992      0.4156354  0.4651202  96.989     0.08352333 0.04191643 0.1251302 
910.2000000000001 0.223      500.9999   1          3          1.921      1.6541     2.135      2.062      2.013      1.579      1.2882     0.2261107  0.2261107  0.253775   43.17941   797.8667   1.996      0.4097778  0.4594604  97.268     0.08383124 0.04237983 0.1252827 
910.3      0.224      499        1          3          1.91       1.623517   2.151      2.049      1.978      1.58       1.30716    0.2258227  0.2258227  0.2535     42.65221   816.2533   2.004      0.4102302  0.4599112  98.028     0.08387072 0.04198739 0.125754  
910.4      0.225      496.0001   1          3          1.875      1.5935     2.171      2.047      1.95       1.572      1.3264     0.2281149  0.2281149  0.2557     47.03275   877.6223   2.016      0.4170308  0.466487   99.046     0.08359106 0.04076276 0.1264194 
910.5      0.226      489.9999   1          3          1.829      1.500007   2.181      2.04       1.926      1.561      1.316765   0.2312729  0.2312729  0.258725   53.81379   965.3498   2.041      0.4272918  0.4764096  100.139    0.08318812 0.03920738 0.1271689 
910.6      0.226      484.0001   1          3          1.787      1.412      2.159      2.027      1.91       1.554      1.3072     0.2332883  0.2332883  0.26065    58.64394   1053.086   2.066      0.4348413  0.48371    101.278    0.08291427 0.03783914 0.1279894 
910.7000000000001 0.227      478        1          3          1.763      1.31813    2.096      2.019      1.909      1.555      1.344858   0.232988   0.232988   0.260375   57.89767   1106.757   2.092      0.4375177  0.4863353  102.482    0.08299096 0.03707885 0.1289031 
910.8      0.227      473.0001   1          3          1.756      1.2305     2.006      2.022      1.924      1.564      1.3836     0.2303761  0.2303761  0.2579     51.79436   1122.919   2.114      0.4347493  0.4837308  103.788    0.0834057  0.03685998 0.1299514 
910.9      0.227      466.9999   1          3          1.763      1.364413   1.92       2.037      1.943      1.579      1.41191    0.2260185  0.2260185  0.253775   43.01001   1106.757   2.141      0.4286821  0.4779944  105.186    0.08411052 0.03707885 0.1311422 
911        0.228      463        1          3          1.783      1.5129     1.871      2.061      1.975      1.596      1.4408     0.2210293  0.2210293  0.2491     34.76612   1061.847   2.16       0.4198765  0.469697   106.594    0.08506285 0.03771136 0.1324143 
911.1      0.228      460        1          3          1.804      1.610596   1.874      2.095      2.031      1.611      1.382365   0.2165937  0.2165937  0.244975   28.77389   1016.652   2.174      0.4113303  0.4616849  107.862    0.08600403 0.03838711 0.133621  
911.2000000000001 0.228      458.0001   1          3          1.809      1.7146     1.937      2.132      2.121      1.621      1.3263     0.2136733  0.2136733  0.242225   25.40422   1006.178   2.183      0.4054827  0.456166   108.75     0.0865203  0.03854978 0.1344908 
911.3      0.228      459.0001   1          3          1.791      1.416302   2.058      2.166      2.227      1.625      1.462597   0.212619   0.212619   0.241125   24.28721   1044.398   2.179      0.4024019  0.4530916  109.082    0.08638185 0.03796737 0.1347963 
911.4      0.229      461.9999   1          3          1.764      1.1699     2.243      2.243      2.363      1.625      1.6129     0.2128207  0.2128207  0.241125   24.49709   1104.467   2.165      0.4010865  0.4515484  108.776    0.0857705  0.03711022 0.1344308 
911.5      0.23       466.9999   1          3          1.748      1.399517   2.481      2.464      2.582      1.621      1.718963   0.2141418  0.2141418  0.242225   25.91693   1141.681   2.141      0.4011814  0.4513713  107.998    0.08510059 0.03661143 0.1335897 
911.6      0.231      474.0001   1          3          1.747      1.6742     2.759      2.87       2.906      1.612      1.832      0.2167886  0.2167886  0.2447     29.01411   1144.048   2.11       0.4034854  0.4534405  107.016    0.08457997 0.03658048 0.1325794 
