~Version
 VERS              .         2.0                           : CWLS LOG ASCII STANDARD - VERSION 2.0
 WRAP              .         NO                            : ONE LINE PER DEPTH STEP
 DLM               .         SPACE                         : DELIMITING CHARACTER(SPACE TAB OR COMMA)
~Well Information
#_______________________________________________________________________________
#
#PARAMETER_NAME    .UNIT     VALUE                         : DESCRIPTION
#_______________________________________________________________________________
STRT               .M        890                           : First reference value
STOP               .M        1172                          : Last reference value
STEP               .M        0.1                           : Step increment
NULL               .         -9999                         : Missing value
COMP               .                                       : Company
WELL               .         8367                          : Well name
FLD                .         Узень                         : Field
LOC                .                                       : Location
CNTY               .                                       : County
STAT               .                                       : State
CTRY               .                                       : Country
SRVC               .                                       : Service Company
DATE               .                                       : Date
UWI                .                                       : Unique Well ID
Block              .         7                             : 
Category           .         Нефтяная                      : 
Condition          .         В работе                      : 
Date               .         13.10.1993                    : 
EREF               .m        89.8                          : 100.8
Gorizont           .         14                            : 14
Interpretator      .         Танауова А.Б.                 : 
Kupol              .         Основной                      : osnovnoi
Mud                .         0                             : 
Mud_density        .         0                             : 
Mud_resistivity    .         0                             : 
NGDU               .         НГДУ-2                        : 
ORIGINALWELLNAME   .         8367                          : 
Spud_date          .         1993                          : 1961
Viscosity          .         0                             : 
X                  .m        41807.6                       : 46154
Y                  .m        84408.63                      : 85761.93
YEAR               .         2019                          : 
~Parameter Information Block
#_______________________________________________________________________________
#
#PARAMETER_NAME    .UNIT     VALUE                         : DESCRIPTION
#_______________________________________________________________________________
SET                .         LQC_KAZNIPI_Petrel            : 
PBBOTTOM           .M        1172                          : Глубина подошвы планшета
PBSCALE            .         1 _ 500                       : Вертикальный масштаб планшета
PBTOP              .M        890                           : Глубина кровли планшета
TLFamily_CALI      .         Caliper                       : 
TLFamily_CILD      .         Conductivity                  : 
TLFamily_COLL      .         Net Reservoir Flag            : 
TLFamily_CSAT      .         Fluid Code                    : 
TLFamily_DEPT      .         Measured Depth                : 
TLFamily_GR        .         Russian Gamma Ray             : 
TLFamily_GZ3       .         Gradient 225                  : 
TLFamily_LLS       .         Lateral Log Resistivity       : 
TLFamily_MINV      .         Micro Gradient Resistivity    : 
TLFamily_MNOR      .         Micro Resistivity             : 
TLFamily_NGLD      .         Neutron Gamma                 : 
TLFamily_OGZ       .         Gradient Inverted 225         : 
TLFamily_PHIE      .         Effective Porosity            : 
TLFamily_PHIEN     .         Effective Porosity            : 
TLFamily_PHIT      .         Porosity                      : 
TLFamily_PRMB      .         Permeability                  : 
TLFamily_PRMB_DGR  .         Permeability                  : 
TLFamily_RT        .         Formation Resistivity         : 
TLFamily_SOIL_ARCHIE .         Oil Saturation                : 
TLFamily_SOIL_DW   .         Oil Saturation                : 
TLFamily_SP        .         Spontaneous Potential         : 
TLFamily_VSH_FIN   .         Shale Volume                  : 
TLFamily_VSH_GR    .         Shale Volume                  : 
TLFamily_VSH_SP    .         Shale Volume                  : 
~Curve Information
#_______________________________________________________________________________
#
#LOGNAME           .UNIT     LOG_ID                        : DESCRIPTION
#_______________________________________________________________________________
DEPT               .M                                      : Колонка глубины 
CALI               .м                                      : Каверномер 
CILD               .мСм/м                                  : Индукционный каротаж 
COLL               .unitless                               : Описание 
CSAT               .unitless                               :  
GR                 .uR/h                                   : Гамма каротаж 
GZ3                .Ohmm                                   : 149.10 - 1385.50<_techsia_sc_> 197.50 - 1174.70 
LLS                .Ohmm                                   : Боковой каротаж 
MINV               .Ohmm                                   : Микро-градиент зонд 
MNOR               .Ohmm                                   : Микро-потенциал зонд 
NGLD               .у.е.                                   : Показания зонда НГК-60 аппаратуры ДРСТ-3-90 
OGZ                .Ohmm                                   : 144.60 - 1381.00<_techsia_sc_> 193.00 - 1170.20 
PHIE               .v/v                                    : Описание 
PHIEN              .v/v                                    :  
PHIT               .v/v                                    : Описание 
PRMB               .mD                                     :  
PRMB_DGR           .mD                                     :  
RT                 .ohmm                                   : УЭС пласта 
SOIL_ARCHIE        .v/v                                    :  
SOIL_DW            .v/v                                    :  
SP                 .мВ                                     : Потенциал самополяризации 
VSH_FIN            .v/v                                    : Описание 
VSH_GR             .v/v                                    : Shale volume 
VSH_SP             .v/v                                    : Shale Volume 
~Ascii
# ...
1020.2     0.22       233        0          0          -9999      3.651      3.75       1.683      1.683      1.641      3.4638     0.1147825  0.1147825  0.236725   0.3742898  -9999      4.292      0.2562379  0.4940566  174.706    0.3695228  -9999      0.3695228 
1020.3     0.218      236        0          0          -9999      3.942003   3.869      2.094      2.109      1.588      3.539278   0.1253808  0.1253808  0.2513     0.5881855  -9999      4.237      0.307122   0.5255355  177.166    0.3815733  -9999      0.3815733 
1020.4     0.218      236        0          0          0.149      4.2562     4.219      2.707      2.61       1.545      3.6164     0.1308841  0.1308841  0.263125   0.7437892  51109.46   4.237      0.3325662  0.5463316  180.924    0.4007299  0.02       0.4007299 
1020.5     0.217      234.9999   0          0          0.001      4.472551   4.613      3.223      3.068      1.519      3.543975   0.1341001  0.1341001  0.270275   0.8531349  60794.13   4.255      0.3478274  0.5588391  183.173    0.4126511  0.02       0.4126511 
1020.6     0.217      232        0          0          0.003      4.6999     4.94       3.545      3.526      1.513      3.473      0.1342953  0.1342953  0.271925   0.8602678  60651.72   4.31       0.3525669  0.5635483  183.986    0.4170595  0.02       0.4170595 
1020.7     0.217      230.0001   0          0          0.004      4.556513   5.199      3.769      4.007      1.528      3.410589   0.1310221  0.1310221  0.2678     0.7481798  60580.64   4.348      0.3412217  0.5571775  183.504    0.4144784  0.02       0.4144784 
1020.8     0.217      229        0          0          0.004      4.4175     5.444      4.026      4.39       1.559      3.3493     0.1250498  0.1250498  0.259275   0.5799398  60580.64   4.367      0.315304   0.5411145  182.051    0.4067432  0.02       0.4067432 
1020.9     0.217      229        0          0          -9999      4.766791   5.703001   4.345      4.559      1.597      3.377779   0.1184656  0.1184656  0.248825   0.4379531  -9999      4.367      0.2822766  0.5194804  179.801    0.3950286  -9999      0.3950286 
1021       0.218      229        0          0          -9999      5.1437     5.947      4.673      4.58       1.632      3.4065     0.1133399  0.1133399  0.2392     0.3519557  -9999      4.367      0.2540882  0.4992369  177.099    0.3813943  -9999      0.3813943 
1021.1     0.218      229        0          0          -9999      5.283013   6.144      4.984001   4.679      1.657      3.34871    0.1107807  0.1107807  0.232325   0.3155623  -9999      4.367      0.2391023  0.485655   174.415    0.3683161  -9999      0.3683161 
1021.2     0.218      229        0          0          -9999      5.4261     6.263      5.295      4.96       1.672      3.2919     0.1099229  0.1099229  0.2282     0.3042262  -9999      4.367      0.2339334  0.4783745  172.317    0.3584155  -9999      0.3584155 
1021.3     0.218      229        0          0          -9999      5.52603    6.292      5.581      5.265      1.677      3.130493   0.1100789  0.1100789  0.226825   0.3062571  -9999      4.367      0.2348791  0.4767036  171.311    0.353776   -9999      0.353776  
1021.4     0.217      231        0          0          -9999      5.6278     6.187      5.676      5.288      1.674      2.977      0.1105809  0.1105809  0.22765    0.3128854  -9999      4.329      0.2347734  0.4765005  171.519    0.3547547  -9999      0.3547547 
1021.5     0.217      233        0          0          -9999      5.577172   5.922999   5.396      4.888      1.665      2.962816   0.1107932  0.1107932  0.230125   0.3157305  -9999      4.292      0.2329669  0.4781359  172.986    0.3616116  -9999      0.3616116 
1021.6     0.218      238        0          0          -9999      5.527      5.499      4.658      4.173      1.649      2.9487     0.1110408  0.1110408  0.234525   0.3190822  -9999      4.202      0.2268056  0.4791741  175.609    0.3741946  -9999      0.3741946 
1021.7     0.221      245        0          0          -9999      5.37357    4.973      3.611      3.372      1.628      2.958085   0.1103093  0.1103093  0.2403     0.309282   -9999      4.082      0.2116969  0.4782073  179.548    0.3939111  -9999      0.3939111 
1021.8     0.227      254        0          0          -9999      5.2244     4.403      2.51       2.615      1.6        2.9675     0.1089591  0.1089591  0.248      0.2919748  -9999      3.937      0.1895566  0.4766558  184.718    0.421336   -9999      0.421336  
1021.9     0.237      265        0          0          -9999      4.901789   3.835      1.599      1.943      1.562      2.890193   0.1080772  0.1080772  0.25845    0.281197   -9999      3.774      0.1674431  0.4776225  190.757    0.455675   -9999      0.455675  
1022       0.249      278        0          0          -9999      4.5991     3.307      0.989      1.418      1.511      2.8149     0.1098251  0.1098251  0.272475   0.3029595  -9999      3.597      0.1602784  0.4855853  196.841    0.4928786  -9999      0.4928786 
1022.1     0.258      291        0          0          -9999      4.086425   2.874      0.627      1.128      1.452      2.972773   0.1147548  0.1147548  0.2887     0.3738483  -9999      3.436      0.1742299  0.5007296  202.082    0.5271066  -9999      0.5271066 
1022.2     0.259      302        0          0          -9999      3.6309     2.649      0.476      1.153      1.393      3.1395     0.1220674  0.1220674  0.304925   0.5106716  -9999      3.311      0.2037583  0.5196947  206.008    0.554114   -9999      0.554114  
1022.3     0.252      309.9999   0          0          -9999      3.680955   2.72       0.57       1.467      1.348      3.409353   0.1283605  0.1283605  0.3173     0.6678901  -9999      3.226      0.2285091  0.5341671  208.591    0.572544   -9999      0.572544  
1022.4     0.241      314        0          0          -9999      3.7317     3.107      1.036      1.97       1.325      3.7024     0.1307083  0.1307083  0.323625   0.7382323  -9999      3.185      0.236021   0.5400711  210.24     0.584596   -9999      0.584596  
1022.5     0.233      314        0          0          -9999      3.761828   3.664      1.823      2.453      1.324      3.801183   0.1284392  0.1284392  0.3239     0.6701376  -9999      3.185      0.2242791  0.537385   211.278    0.5923054  -9999      0.5923054 
1022.6     0.23       309.9999   0          0          -9999      3.7922     4.160999   2.623      2.692      1.336      3.9026     0.1233247  0.1233247  0.3206     0.5388049  -9999      3.226      0.2011434  0.5304798  212.01     0.5978038  -9999      0.5978038 
1022.7     0.231      305        0          0          -9999      3.881938   4.416      3.029      2.594      1.353      3.791262   0.1168059  0.1168059  0.315925   0.408025   -9999      3.279      0.1688304  0.5206586  212.748    0.6033912  -9999      0.6033912 
1022.8     0.236      302        0          0          -9999      3.9738     4.389      2.829      2.253      1.367      3.6831     0.1115645  0.1115645  0.312075   0.326289   -9999      3.311      0.138855   0.5113147  213.3      0.6076077  -9999      0.6076077 
1022.9     0.242      302        0          0          -9999      3.787902   4.19       2.191      1.877      1.376      3.70225    0.1086114  0.1086114  0.3096     0.2876763  -9999      3.311      0.1184979  0.5041363  213.486    0.6090564  -9999      0.6090564 
1023       0.247      305.9999   0          0          -9999      3.6107     3.945      1.473      1.605      1.378      3.7215     0.1081156  0.1081156  0.30905    0.2816575  -9999      3.268      0.1095328  0.4995071  213.46     0.6088921  -9999      0.6088921 
1023.1     0.25       312.0001   0          0          -9999      3.549684   3.737      0.968      1.456      1.37       3.8435     0.1105807  0.1105807  0.31125    0.3128825  -9999      3.205      0.1188343  0.5008941  213.35     0.6080887  -9999      0.6080887 
1023.2     0.251      318.9999   0          0          -9999      3.4897     3.58       0.739      1.389      1.355      3.9695     0.114549   0.114549   0.315375   0.3705813  -9999      3.135      0.13658    0.5058157  213.408    0.6085636  -9999      0.6085636 
