~Version
 VERS              .         2.0                           : CWLS LOG ASCII STANDARD - VERSION 2.0
 WRAP              .         NO                            : ONE LINE PER DEPTH STEP
 DLM               .         SPACE                         : DELIMITING CHARACTER(SPACE TAB OR COMMA)
~Well Information
#_______________________________________________________________________________
#
#PARAMETER_NAME    .UNIT     VALUE                         : DESCRIPTION
#_______________________________________________________________________________
STRT               .M        890                           : First reference value
STOP               .M        1172                          : Last reference value
STEP               .M        0.1                           : Step increment
NULL               .         -9999                         : Missing value
COMP               .                                       : Company
WELL               .         8367                          : Well name
FLD                .         Узень                         : Field
LOC                .                                       : Location
CNTY               .                                       : County
STAT               .                                       : State
CTRY               .                                       : Country
SRVC               .                                       : Service Company
DATE               .                                       : Date
UWI                .                                       : Unique Well ID
Block              .         7                             : 
Category           .         Нефтяная                      : 
Condition          .         В работе                      : 
Date               .         13.10.1993                    : 
EREF               .m        89.8                          : 100.8
Gorizont           .         14                            : 14
Interpretator      .         Танауова А.Б.                 : 
Kupol              .         Основной                      : osnovnoi
Mud                .         0                             : 
Mud_density        .         0                             : 
Mud_resistivity    .         0                             : 
NGDU               .         НГДУ-2                        : 
ORIGINALWELLNAME   .         8367                          : 
Spud_date          .         1993                          : 1961
Viscosity          .         0                             : 
X                  .m        41807.6                       : 46154
Y                  .m        84408.63                      : 85761.93
YEAR               .         2019                          : 
~Parameter Information Block
#_______________________________________________________________________________
#
#PARAMETER_NAME    .UNIT     VALUE                         : DESCRIPTION
#_______________________________________________________________________________
SET                .         LQC_KAZNIPI_Petrel            : 
PBBOTTOM           .M        1172                          : Глубина подошвы планшета
PBSCALE            .         1 _ 500                       : Вертикальный масштаб планшета
PBTOP              .M        890                           : Глубина кровли планшета
TLFamily_CALI      .         Caliper                       : 
TLFamily_CILD      .         Conductivity                  : 
TLFamily_COLL      .         Net Reservoir Flag            : 
TLFamily_CSAT      .         Fluid Code                    : 
TLFamily_DEPT      .         Measured Depth                : 
TLFamily_GR        .         Russian Gamma Ray             : 
TLFamily_GZ3       .         Gradient 225                  : 
TLFamily_LLS       .         Lateral Log Resistivity       : 
TLFamily_MINV      .         Micro Gradient Resistivity    : 
TLFamily_MNOR      .         Micro Resistivity             : 
TLFamily_NGLD      .         Neutron Gamma                 : 
TLFamily_OGZ       .         Gradient Inverted 225         : 
TLFamily_PHIE      .         Effective Porosity            : 
TLFamily_PHIEN     .         Effective Porosity            : 
TLFamily_PHIT      .         Porosity                      : 
TLFamily_PRMB      .         Permeability                  : 
TLFamily_PRMB_DGR  .         Permeability                  : 
TLFamily_RT        .         Formation Resistivity         : 
TLFamily_SOIL_ARCHIE .         Oil Saturation                : 
TLFamily_SOIL_DW   .         Oil Saturation                : 
TLFamily_SP        .         Spontaneous Potential         : 
TLFamily_VSH_FIN   .         Shale Volume                  : 
TLFamily_VSH_GR    .         Shale Volume                  : 
TLFamily_VSH_SP    .         Shale Volume                  : 
~Curve Information
#_______________________________________________________________________________
#
#LOGNAME           .UNIT     LOG_ID                        : DESCRIPTION
#_______________________________________________________________________________
DEPT               .M                                      : Колонка глубины 
CALI               .м                                      : Каверномер 
CILD               .мСм/м                                  : Индукционный каротаж 
COLL               .unitless                               : Описание 
CSAT               .unitless                               :  
GR                 .uR/h                                   : Гамма каротаж 
GZ3                .Ohmm                                   : 149.10 - 1385.50<_techsia_sc_> 197.50 - 1174.70 
LLS                .Ohmm                                   : Боковой каротаж 
MINV               .Ohmm                                   : Микро-градиент зонд 
MNOR               .Ohmm                                   : Микро-потенциал зонд 
NGLD               .у.е.                                   : Показания зонда НГК-60 аппаратуры ДРСТ-3-90 
OGZ                .Ohmm                                   : 144.60 - 1381.00<_techsia_sc_> 193.00 - 1170.20 
PHIE               .v/v                                    : Описание 
PHIEN              .v/v                                    :  
PHIT               .v/v                                    : Описание 
PRMB               .mD                                     :  
PRMB_DGR           .mD                                     :  
RT                 .ohmm                                   : УЭС пласта 
SOIL_ARCHIE        .v/v                                    :  
SOIL_DW            .v/v                                    :  
SP                 .мВ                                     : Потенциал самополяризации 
VSH_FIN            .v/v                                    : Описание 
VSH_GR             .v/v                                    : Shale volume 
VSH_SP             .v/v                                    : Shale Volume 
~Ascii
890.0      0.269      270        0          0          7.234      6.7373     3.271      0.871      1.48       1.329      3.5115     -9999      -9999      -9999      -9999      -9999      3.704      -9999      -9999      194.64     -9999      0.1363721  0.8       
890.1      0.269      270        0          0          7.234      6.406425   3.271      0.871      1.48       1.329      3.943167   -9999      -9999      -9999      -9999      -9999      3.704      -9999      -9999      194.64     -9999      0.1363721  0.8       
890.2000000000001 0.261      266        0          0          7.37       6.0918     3.49       1.642      2.261      1.313      4.4279     -9999      -9999      -9999      -9999      -9999      3.759      -9999      -9999      195.548    -9999      0.1493503  0.8       
890.3      0.25       258        0          0          7.598      6.687932   4.007      2.714      3.288      1.286      4.846923   -9999      -9999      -9999      -9999      -9999      3.876      -9999      -9999      196.862    -9999      0.173938   0.8       
890.4      0.239      252        0          0          7.854      7.3424     4.863      3.364      3.801      1.257      5.305601   -9999      -9999      -9999      -9999      -9999      3.968      -9999      -9999      197.954    -9999      0.2064005  0.8       
890.5      0.233      250        0          0          8.08       7.961775   5.896      3.225      3.45       1.234      5.276721   -9999      -9999      -9999      -9999      -9999      4          -9999      -9999      198.398    -9999      0.2400592  0.8       
890.6      0.235      252        0          0          8.243      8.6334     6.729      2.579      2.522      1.22       5.248      -9999      -9999      -9999      -9999      -9999      3.968      -9999      -9999      197.943    -9999      0.267693   0.8       
890.7000000000001 0.243      257        0          0          8.337      8.016294   7.015999   2.057      1.668      1.214      4.820215   -9999      -9999      -9999      -9999      -9999      3.891      -9999      -9999      196.627    -9999      0.2850526  0.8       
890.8      0.255      267        0          0          8.367      7.443299   6.666      1.932      1.259      1.217      4.4273     -9999      -9999      -9999      -9999      -9999      3.745      -9999      -9999      194.673    -9999      0.2908265  0.8       
890.9      0.27       275        0          0          8.345      6.448987   5.94       2.002      1.205      1.226      4.100434   -9999      -9999      -9999      -9999      -9999      3.636      -9999      -9999      192.478    -9999      0.2865811  0.8       
891        0.287      278        0          0          8.272      5.5875     5.187      1.967      1.242      1.236      3.7977     -9999      -9999      -9999      -9999      -9999      3.597      -9999      -9999      190.33     -9999      0.2729328  0.8       
891.1      0.302      280        0          0          8.164      4.990843   4.647999   1.731      1.207      1.247      3.831004   -9999      -9999      -9999      -9999      -9999      3.571      -9999      -9999      188.413    -9999      0.2539237  0.8       
891.2000000000001 0.313      283.0001   0          0          8.034      4.4579     4.346      1.389      1.11       1.259      3.8646     -9999      -9999      -9999      -9999      -9999      3.534      -9999      -9999      186.229    -9999      0.2327902  0.8       
891.3      0.319      286        0          0          7.9        4.467988   4.182      1.067      1.013      1.271      3.883554   -9999      -9999      -9999      -9999      -9999      3.497      -9999      -9999      184.712    -9999      0.2128455  0.8       
891.4      0.321      289.0001   0          0          7.77       4.4781     4.067999   0.866      0.956      1.283      3.9026     -9999      -9999      -9999      -9999      -9999      3.46       -9999      -9999      184.027    -9999      0.1951308  0.8       
891.5      0.321      290        0          0          7.649      4.186185   3.965      0.849      0.932      1.293      3.916924   -9999      -9999      -9999      -9999      -9999      3.448      -9999      -9999      183.647    -9999      0.1799698  0.8       
891.6      0.317      289.0001   0          0          7.547      3.9133     3.879      1.093      0.964      1.299      3.9313     -9999      -9999      -9999      -9999      -9999      3.46       -9999      -9999      183.74     -9999      0.1681083  0.8       
891.7000000000001 0.311      287        0          0          7.476      3.608966   3.808      1.629      1.126      1.302      4.085718   -9999      -9999      -9999      -9999      -9999      3.484      -9999      -9999      184.5      -9999      0.1603164  0.8       
891.8      0.302      282.0001   0          0          7.454      3.3283     3.771      2.379      1.464      1.301      4.2462     -9999      -9999      -9999      -9999      -9999      3.546      -9999      -9999      185.825    -9999      0.1579761  0.8       
891.9      0.291      276        0          0          7.484      3.3283     3.807      3.076      1.854      1.299      4.496521   -9999      -9999      -9999      -9999      -9999      3.623      -9999      -9999      187.408    -9999      0.161176   0.8       
892        0.279      270        0          0          7.563      3.3283     3.98       3.495      2.138      1.294      4.7616     -9999      -9999      -9999      -9999      -9999      3.704      -9999      -9999      188.908    -9999      0.1699159  0.8       
892.1      0.266      266        0          0          7.673      3.505152   4.309      3.738      2.365      1.289      5.048742   -9999      -9999      -9999      -9999      -9999      3.759      -9999      -9999      190.214    -9999      0.1828802  0.8       
892.2000000000001 0.255      263        0          0          7.797      3.6914     4.746      4.09       2.754      1.285      5.3532     -9999      -9999      -9999      -9999      -9999      3.802      -9999      -9999      191.39     -9999      0.1986844  0.8       
892.3      0.251      262        0          0          7.905      3.906956   5.181      4.545      3.299      1.284      5.39583    -9999      -9999      -9999      -9999      -9999      3.817      -9999      -9999      192.519    -9999      0.2135581  0.8       
892.4      0.251      261        0          0          7.96       4.1351     5.503      4.627      3.603      1.287      5.4388     -9999      -9999      -9999      -9999      -9999      3.831      -9999      -9999      193.64     -9999      0.2215555  0.8       
892.5      0.256      261        0          0          7.933      4.076333   5.655001   3.999      3.347      1.295      5.219738   -9999      -9999      -9999      -9999      -9999      3.831      -9999      -9999      194.76     -9999      0.2175928  0.8       
892.6      0.265      263        0          0          7.819      4.0184     5.627999   2.924      2.679      1.31       5.009501   -9999      -9999      -9999      -9999      -9999      3.802      -9999      -9999      195.889    -9999      0.2016277  0.8       
892.7000000000001 0.278      264        0          0          7.659      4.36445    5.468999   2.024      2.069      1.329      4.714515   -9999      -9999      -9999      -9999      -9999      3.788      -9999      -9999      196.917    -9999      0.1811768  0.8       
892.8      0.294      264        0          0          7.511      4.740301   5.231      1.614      1.784      1.35       4.4369     -9999      -9999      -9999      -9999      -9999      3.788      -9999      -9999      197.629    -9999      0.1641113  0.8       
892.9      0.31       262        0          0          7.418      4.555134   4.979      1.512      1.742      1.369      4.281581   -9999      -9999      -9999      -9999      -9999      3.817      -9999      -9999      197.739    -9999      0.15422    0.8       
893        0.32       257        0          0          7.371      4.377201   4.760001   1.424      1.765      1.384      4.1317     -9999      -9999      -9999      -9999      -9999      3.891      -9999      -9999      197.173    -9999      0.1494502  0.8       
