~Version
 VERS              .         2.0                           : CWLS LOG ASCII STANDARD - VERSION 2.0
 WRAP              .         NO                            : ONE LINE PER DEPTH STEP
 DLM               .         SPACE                         : DELIMITING CHARACTER(SPACE TAB OR COMMA)
~Well Information
#_______________________________________________________________________________
#
#PARAMETER_NAME    .UNIT     VALUE                         : DESCRIPTION
#_______________________________________________________________________________
STRT               .M        890                           : First reference value
STOP               .M        1172                          : Last reference value
STEP               .M        0.1                           : Step increment
NULL               .         -9999                         : Missing value
COMP               .                                       : Company
WELL               .         8367                          : Well name
FLD                .         Узень                         : Field
LOC                .                                       : Location
CNTY               .                                       : County
STAT               .                                       : State
CTRY               .                                       : Country
SRVC               .                                       : Service Company
DATE               .                                       : Date
UWI                .                                       : Unique Well ID
Block              .         7                             : 
Category           .         Нефтяная                      : 
Condition          .         В работе                      : 
Date               .         13.10.1993                    : 
EREF               .m        89.8                          : 100.8
Gorizont           .         14                            : 14
Interpretator      .         Танауова А.Б.                 : 
Kupol              .         Основной                      : osnovnoi
Mud                .         0                             : 
Mud_density        .         0                             : 
Mud_resistivity    .         0                             : 
NGDU               .         НГДУ-2                        : 
ORIGINALWELLNAME   .         8367                          : 
Spud_date          .         1993                          : 1961
Viscosity          .         0                             : 
X                  .m        41807.6                       : 46154
Y                  .m        84408.63                      : 85761.93
YEAR               .         2019                          : 
~Parameter Information Block
#_______________________________________________________________________________
#
#PARAMETER_NAME    .UNIT     VALUE                         : DESCRIPTION
#_______________________________________________________________________________
SET                .         LQC_KAZNIPI_Petrel            : 
PBBOTTOM           .M        1172                          : Глубина подошвы планшета
PBSCALE            .         1 _ 500                       : Вертикальный масштаб планшета
PBTOP              .M        890                           : Глубина кровли планшета
TLFamily_CALI      .         Caliper                       : 
TLFamily_CILD      .         Conductivity                  : 
TLFamily_COLL      .         Net Reservoir Flag            : 
TLFamily_CSAT      .         Fluid Code                    : 
TLFamily_DEPT      .         Measured Depth                : 
TLFamily_GR        .         Russian Gamma Ray             : 
TLFamily_GZ3       .         Gradient 225                  : 
TLFamily_LLS       .         Lateral Log Resistivity       : 
TLFamily_MINV      .         Micro Gradient Resistivity    : 
TLFamily_MNOR      .         Micro Resistivity             : 
TLFamily_NGLD      .         Neutron Gamma                 : 
TLFamily_OGZ       .         Gradient Inverted 225         : 
TLFamily_PHIE      .         Effective Porosity            : 
TLFamily_PHIEN     .         Effective Porosity            : 
TLFamily_PHIT      .         Porosity                      : 
TLFamily_PRMB      .         Permeability                  : 
TLFamily_PRMB_DGR  .         Permeability                  : 
TLFamily_RT        .         Formation Resistivity         : 
TLFamily_SOIL_ARCHIE .         Oil Saturation                : 
TLFamily_SOIL_DW   .         Oil Saturation                : 
TLFamily_SP        .         Spontaneous Potential         : 
TLFamily_VSH_FIN   .         Shale Volume                  : 
TLFamily_VSH_GR    .         Shale Volume                  : 
TLFamily_VSH_SP    .         Shale Volume                  : 
~Curve Information
#_______________________________________________________________________________
#
#LOGNAME           .UNIT     LOG_ID                        : DESCRIPTION
#_______________________________________________________________________________
DEPT               .M                                      : Колонка глубины 
CALI               .м                                      : Каверномер 
CILD               .мСм/м                                  : Индукционный каротаж 
COLL               .unitless                               : Описание 
CSAT               .unitless                               :  
GR                 .uR/h                                   : Гамма каротаж 
GZ3                .Ohmm                                   : 149.10 - 1385.50<_techsia_sc_> 197.50 - 1174.70 
LLS                .Ohmm                                   : Боковой каротаж 
MINV               .Ohmm                                   : Микро-градиент зонд 
MNOR               .Ohmm                                   : Микро-потенциал зонд 
NGLD               .у.е.                                   : Показания зонда НГК-60 аппаратуры ДРСТ-3-90 
OGZ                .Ohmm                                   : 144.60 - 1381.00<_techsia_sc_> 193.00 - 1170.20 
PHIE               .v/v                                    : Описание 
PHIEN              .v/v                                    :  
PHIT               .v/v                                    : Описание 
PRMB               .mD                                     :  
PRMB_DGR           .mD                                     :  
RT                 .ohmm                                   : УЭС пласта 
SOIL_ARCHIE        .v/v                                    :  
SOIL_DW            .v/v                                    :  
SP                 .мВ                                     : Потенциал самополяризации 
VSH_FIN            .v/v                                    : Описание 
VSH_GR             .v/v                                    : Shale volume 
VSH_SP             .v/v                                    : Shale Volume 
~Ascii
# ...
1057.4     0.248      363.0001   0          0          0          2.5416     3.112      1.338      1.298      1.315      2.1183     0.1141786  0.1141786  0.326375   0.3647735  60865.46   2.755      0.0800161  0.4838367  215.791    0.6430193  0.02       0.6430193 
1057.5     0.248      363.0001   0          0          0.001      2.363941   3.014      1.259      1.375      1.319      2.099164   0.1159008  0.1159008  0.325275   0.3925746  60794.13   2.755      0.0919336  0.4854119  214.706    0.6344672  0.02       0.6344672 
1057.6     0.247      362.0001   0          0          0.001      2.1987     3.017      1.212      1.561      1.322      2.0802     0.1180695  0.1180695  0.32445    0.4306176  60794.13   2.762      0.1075412  0.4885734  213.542    0.6253954  0.02       0.6253954 
1057.7     0.246      361.0001   0          0          0.001      2.354528   3.104      1.178      1.746      1.323      2.164348   0.1207319  0.1207319  0.324175   0.4823973  60794.13   2.77       0.1258936  0.4930613  212.386    0.6164944  0.02       0.6164944 
1057.8     0.246      361.0001   0          0          0          2.5214     3.204      1.136      1.829      1.322      2.2519     0.122568   0.122568   0.32445    0.5216928  60865.46   2.77       0.1373095  0.4960595  211.763    0.6117636  0.02       0.6117636 
1057.9     0.246      362.0001   0          0          0          2.62031    3.252      1.075      1.799      1.319      2.24228    0.1233347  0.1233347  0.325275   0.5390326  60865.46   2.762      0.1408166  0.4972754  211.78     0.6119404  0.02       0.6119404 
1058       0.246      363.0001   0          0          -0.003     2.7231     3.234      0.995      1.735      1.316      2.2327     0.1217476  0.1217476  0.3261     0.5037537  61079.88   2.755      0.1300345  0.4951259  212.725    0.6192498  0.02       0.6192498 
1058.1     0.245      364        0          0          -0.013     2.567399   3.201      0.908      1.734      1.315      2.194269   0.1174611  0.1174611  0.326375   0.4195872  61800.27   2.747      0.1012225  0.4882044  214.492    0.6330724  0.02       0.6330724 
1058.2     0.242      365        0          0          -0.031     2.4206     3.24       0.838      1.817      1.315      2.1565     0.1122532  0.1122532  0.326375   0.336016   63118.35   2.74       0.06389245 0.4793468  216.471    0.6488538  0.02       0.6488538 
1058.3     0.238      367        0          0          -0.05      2.440667   3.402      0.799      1.915      1.314      2.093531   0.1089139  0.1089139  0.32665    0.2914124  64540.18   2.725      0.03646514 0.4727193  217.819    0.6598063  0.02       0.6598063 
1058.4     0.236      370.0001   0          0          -0.052     2.4609     3.634      0.799      1.922      1.311      2.0324     0.109362   0.109362   0.327475   0.2970352  64691.72   2.703      0.03624551 0.4721997  217.953    0.6609485  0.02       0.6609485 
1058.5     0.239      375.0001   0          0          -9999      2.719602   3.787      0.825      1.795      1.308      1.984178   0.1131839  0.1131839  0.3283     0.3496216  -9999      2.667      0.05874783 0.4757974  216.827    0.651867   -9999      0.651867  
1058.6     0.248      382.0001   0          0          -9999      3.0055     3.699      0.857      1.567      1.307      1.9371     0.1180886  0.1180886  0.328575   0.4309682  -9999      2.618      0.08496165 0.4790018  215.065    0.6378376  -9999      0.6378376 
1058.7     0.26       390.0001   0          0          -9999      2.628906   3.343      0.867      1.326      1.306      1.878926   0.122432   0.122432   0.32885    0.5186752  -9999      2.564      0.1045851  0.4805189  213.489    0.6255091  -9999      0.6255091 
1058.8     0.272      398        0          0          -9999      2.2995     2.835      0.84       1.145      1.303      1.8225     0.1253502  0.1253502  0.329675   0.5874183  -9999      2.513      0.1144584  0.4805078  212.665    0.6191661  -9999      0.6191661 
1058.9     0.281      406        0          0          -9999      2.206885   2.357      0.779      1.046      1.296      1.8034     0.1273792  0.1273792  0.3316     0.6405169  -9999      2.463      0.1184824  0.4802198  212.618    0.6188508  -9999      0.6188508 
1059       0.282      410.9999   0          0          -9999      2.118      2.033      0.731      1.022      1.284      1.7845     0.1297704  0.1297704  0.3349     0.7092835  -9999      2.433      0.1276435  0.4837954  212.968    0.621605   -9999      0.621605  
1059.1     0.279      415.0001   0          0          -9999      2.014627   1.883      0.76       1.051      1.264      1.863788   0.1342451  0.1342451  0.3404     0.8584251  -9999      2.41       0.1492405  0.4929526  213.362    0.6247119  -9999      0.6247119 
1059.2     0.271      417        0          0          -9999      1.9163     1.884      0.915      1.118      1.241      1.9466     0.1398214  0.1398214  0.346725   1.088902   -9999      2.398      0.1769431  0.50498    213.647    0.6269807  -9999      0.6269807 
1059.3     0.262      419.0001   0          0          -9999      2.089979   1.979      1.165      1.196      1.222      2.030636   0.1445123  0.1445123  0.35195    1.330076   -9999      2.387      0.1985342  0.5144152  213.848    0.6285991  -9999      0.6285991 
1059.4     0.256      421        0          0          -9999      2.2794     2.119      1.412      1.244      1.213      2.1183     0.1466201  0.1466201  0.354425   1.455187   -9999      2.375      0.2067047  0.5179109  213.984    0.6297116  -9999      0.6297116 
1059.5     0.255      423        0          0          -9999      2.154953   2.26       1.557      1.232      1.216      2.197953   0.1458361  0.1458361  0.3536     1.407334   -9999      2.364      0.2012535  0.5151249  213.962    0.6295875  -9999      0.6295875 
1059.6     0.257      424        0          0          -9999      2.0373     2.384      1.568      1.162      1.227      2.2806     0.1435205  0.1435205  0.350575   1.274986   -9999      2.358      0.1890742  0.5089886  213.681    0.6274379  -9999      0.6274379 
1059.7     0.262      425.9999   0          0          -9999      2.0373     2.485      1.489      1.07       1.239      2.246901   0.1416616  0.1416616  0.347275   1.177807   -9999      2.347      0.1780124  0.5025122  213.114    0.623071   -9999      0.623071  
1059.8     0.266      428        0          0          -9999      2.0373     2.551      1.397      1.004      1.25       2.2137     0.1404712  0.1404712  0.34425    1.119505   -9999      2.336      0.1701217  0.4970175  212.389    0.6175114  -9999      0.6175114 
1059.9     0.27       429.9999   0          0          -9999      1.912476   2.574      1.357      0.992      1.259      2.135986   0.1396531  0.1396531  0.341775   1.081114   -9999      2.326      0.1642079  0.4925421  211.729    0.6124908  -9999      0.6124908 
1060       0.273      432        0          0          -9999      1.7953     2.559      1.384      1.036      1.265      2.061      0.1389478  0.1389478  0.340125   1.049078   -9999      2.315      0.1586446  0.4888285  211.348    0.609628   -9999      0.609628  
1060.1     0.274      434.0001   0          0          -9999      2.004913   2.518      1.44       1.109      1.268      2.051478   0.1378783  0.1378783  0.3393     1.002303   -9999      2.304      0.1510684  0.4853691  211.439    0.6103687  -9999      0.6103687 
1060.2     0.272      433.0001   0          0          -9999      2.239      2.469      1.461      1.179      1.267      2.042      0.136526   0.136526   0.339575   0.9461295  -9999      2.309      0.1446199  0.4843427  212.077    0.6153001  -9999      0.6153001 
1060.3     0.269      431.0001   0          0          -9999      2.027291   2.433      1.43       1.225      1.261      2.144383   0.1350476  0.1350476  0.341225   0.8883149  -9999      2.32       0.1383937  0.485121   213.297    0.62478    -9999      0.62478   
1060.4     0.265      427        0          0          -9999      1.8356     2.435      1.399      1.259      1.248      2.2519     0.134244   0.134244   0.3448     0.8583853  -9999      2.342      0.1377307  0.4898448  214.981    0.6380485  -9999      0.6380485 
