~Version
 VERS              .         2.0                           : CWLS LOG ASCII STANDARD - VERSION 2.0
 WRAP              .         NO                            : ONE LINE PER DEPTH STEP
 DLM               .         SPACE                         : DELIMITING CHARACTER(SPACE TAB OR COMMA)
~Well Information
#_______________________________________________________________________________
#
#PARAMETER_NAME    .UNIT     VALUE                         : DESCRIPTION
#_______________________________________________________________________________
STRT               .м        0                             : First reference value
STOP               .м        1167.4                        : Last reference value
STEP               .м        0.2                           : Step increment
NULL               .         -9999                         : Missing value
COMP               .                                       : Company
WELL               .         9421                          : Well name
FLD                .         Узень                         : Field
LOC                .                                       : Location
CNTY               .                                       : County
STAT               .                                       : State
CTRY               .                                       : Country
SRVC               .                                       : Service Company
DATE               .                                       : Date
UWI                .                                       : Unique Well ID
Block              .         7                             : 
Category           .         Нефтяная                      : 
Condition          .         В работе                      : 
Date               .         14.05.2016                    : 
EREF               .m        92.9                          : 100.8
GRP                .                                       : Group name
Gor                .         13                            : 
Gorizont           .         13                            : 14
ISS                .                                       : Well surveys
Interpretator      .         Кайсанов Е.К                  : 
Kupol              .         Основной                      : osnovnoi
Mud                .         Глинистый                     : 
Mud_density        .         1,34                          : 
Mud_resistivity    .         0,33                          : 
NGDU               .         НГДУ-2                        : 
ORIGINALWELLNAME   .         9421                          : 
Spud_date          .         2016                          : 1961
TIME               .                                       : LOG TIME
Viscosity          .         40                            : 
X                  .m        41760.27                      : 46154
Y                  .m        84652.7                       : 85761.93
YEAR               .         2019                          : 
Сдали_за_3_кв_2019 .         3                             : 
~Parameter Information Block
#_______________________________________________________________________________
#
#PARAMETER_NAME    .UNIT     VALUE                         : DESCRIPTION
#_______________________________________________________________________________
SET                .         LQC_KAZNIPI_Petrel            : 
TLFamily_CALI      .         Caliper                       : 
TLFamily_CILD      .         Conductivity                  : 
TLFamily_DEPT      .         Measured Depth                : 
TLFamily_DT        .         Compressional Slowness        : 
TLFamily_GR        .         Russian Gamma Ray             : 
TLFamily_GZ3       .         Gradient 225                  : 
TLFamily_IK1       .         Resistivity 05                : 
TLFamily_IK2       .         Resistivity 07                : 
TLFamily_IK3       .         Resistivity 10                : 
TLFamily_IK4       .         Resistivity 14                : 
TLFamily_IK5       .         Resistivity 20                : 
TLFamily_LLS       .         Lateral Log Resistivity       : 
TLFamily_MBK       .         Micro Lateral Log Resistivity : 
TLFamily_MINV      .         Micro Gradient Resistivity    : 
TLFamily_MNOR      .         Micro Resistivity             : 
TLFamily_NGLD      .         Neutron Far                   : 
TLFamily_NNKTB_1   .         Neutron Far                   : 
TLFamily_NNKTM_1   .         Neutron Near                  : 
TLFamily_NPHI      .         Neutron Porosity              : 
TLFamily_OGZ3      .         Gradient Inverted 225         : 
TLFamily_PHIE      .         Effective Porosity            : 
TLFamily_PHIED     .         Effective Porosity            : 
TLFamily_PHIEN     .         Effective Porosity            : 
TLFamily_PHIES     .         Effective Porosity            : 
TLFamily_PHIT      .         Porosity                      : 
TLFamily_PRMB      .         Permeability                  : 
TLFamily_PRMB_DGR  .         Permeability                  : 
TLFamily_RHOB      .         Bulk Density                  : 
TLFamily_RT        .         Formation Resistivity         : 
TLFamily_SOIL_ARCHIE .         Oil Saturation                : 
TLFamily_SOIL_DW   .         Oil Saturation                : 
TLFamily_SP        .         Spontaneous Potential         : 
TLFamily_VSH_FIN   .         Shale Volume                  : 
TLFamily_VSH_GR    .         Shale Volume                  : 
TLFamily_VSH_SP    .         Shale Volume                  : 
~Curve Information
#_______________________________________________________________________________
#
#LOGNAME           .UNIT     LOG_ID                        : DESCRIPTION
#_______________________________________________________________________________
DEPT               .м                                      : Колонка глубины 
CALI               .м                                      : Каверномер 
CILD               .мСм/м                                  : Проводимость 
DT                 .мкс/м                                  : Интервальное время пробега продольной волны 
GR                 .uR/h                                   : Гамма каротаж 
GZ3                .Ohmm                                   : Градиент-зонд  длиной 2.25м 
IK1                .OHMM                                   : И0.10И0.40 
IK2                .OHMM                                   : И0.14И0.56 
IK3                .OHMM                                   : И0.20И0.8 
IK4                .OHMM                                   : И0.28И1.12 
IK5                .OHMM                                   : И0.40И1.60 
LLS                .Ohmm                                   : Боковой каротаж 
MBK                .Ohmm                                   : Микробоковой каротаж 
MINV               .Ohmm                                   : Микро-градиент зонд 
MNOR               .Ohmm                                   : Микро-потенциал зонд 
NGLD               .у.е.                                   : Показания зонда НГК-60 аппаратуры ДРСТ-3-90 
NNKTB_1            .у.е.                                   : Показания большого зонда 2ННКт аппаратуры СРК 
NNKTM_1            .у.е.                                   : Показания малого зонда 2ННКт аппаратуры СРК 
NPHI               .v/v                                    : Total porosity 
OGZ3               .Ohmm                                   : Обращенный градиент-зонд 
PHIE               .v/v                                    : Описание 
PHIED              .v/v                                    :  
PHIEN              .v/v                                    :  
PHIES              .v/v                                    :  
PHIT               .v/v                                    : Описание 
PRMB               .mD                                     :  
PRMB_DGR           .mD                                     :  
RHOB               .г/см3                                  : Плотность по ГГКп 
RT                 .ohmm                                   : Удельное электрическое сопротивление 
SOIL_ARCHIE        .v/v                                    :  
SOIL_DW            .v/v                                    :  
SP                 .мВ                                     : Потенциал самополяризации 
VSH_FIN            .v/v                                    : Описание 
VSH_GR             .v/v                                    : Shale volume 
VSH_SP             .v/v                                    : Shale Volume 
~Ascii
# ...
999.4      0.234      528.54     366.6      7.78       2.2        2.323      2.119      2.066      1.95       1.892      1.94       1.8        2.65       2.07       -9999      3.39       1.92       -9999      2.22       0.1530204  0.1092418  -9999      0.1967991  0.2235925  1.911912   1.060223   2.321      1.94       0.1595653  0.3049456  385.98     0.4501785  0.6334957  0.2668613 
999.6      0.234      532.48     364.615    7.71       2.19       2.109      1.995      1.969      1.892      1.878      1.95       1.78       2.72       2          -9999      3.32       1.91       -9999      2.22       0.1598017  0.1208239  -9999      0.1987795  0.2285342  2.553134   1.160266   2.306      1.95       0.1926639  0.327684   385.86     0.4384433  0.6105949  0.2662917 
999.8      0.249      511.77     365.536    7.51       2.24       2.29       2.067      2.027      1.971      1.954      1.97       1.64       1.85       1.83       -9999      3.23       1.91       -9999      2.17       0.1691521  0.1292924  -9999      0.2090118  0.2331637  3.804217   1.501218   2.303      1.97       0.2353445  0.3542732  385.83     0.408329   0.5496248  0.2670331 
1000       0.234      482.39     358.091    7.18       2.21       2.712      2.451      2.343      2.2        2.073      2.01       1.89       2.71       2.24       -9999      3.14       1.92       -9999      2.2        0.2078975  0.2        -9999      0.215795   0.2652641  19.85751   2.296445   2.336      2.01       0.3670691  0.4558983  385.94     0.3659405  0.4620435  0.2698374 
1000.2     0.241      477.09     358.764    6.85       2.26       2.381      2.242      2.249      2.151      2.096      2.06       1.94       3.21       2          -9999      3.15       1.94       -9999      2.16       0.1967382  0.1658683  -9999      0.2276081  0.2484979  12.33751   3.512921   2.393      2.06       0.3435264  0.4287121  386        0.3301741  0.3884181  0.2719301 
1000.4     0.236      475.05     365.283    6.75       2.27       2.51       2.305      2.275      2.163      2.105      2.04       1.7        2.21       1.95       -9999      3.23       1.95       -9999      2.12       0.2078343  0.1790419  -9999      0.2366267  0.25793    19.80402   3.995872   2.371      2.04       0.3712875  0.4509954  385.83     0.31956    0.3685158  0.2706043 
1000.6     0.236      466.2      365.166    6.82       2.3        2.718      2.524      2.443      2.274      2.145      2.01       1.91       2.87       2.07       -9999      3.35       1.94       -9999      2.11       0.2135404  0.1922156  -9999      0.2348653  0.2644667  25.26069   3.651331   2.349      2.01       0.3816613  0.4610515  385.53     0.3248578  0.3823372  0.2673785 
1000.8     0.232      481.92     367.729    7.05       2.35       2.811      2.465      2.34       2.209      2.075      1.99       1.89       3.67       2.38       -9999      3.34       1.91       -9999      2.09       0.2235714  0.2167664  -9999      0.2303764  0.2778339  38.74745   2.715075   2.308      1.99       0.4031008  0.4836701  384.99     0.3461395  0.4315056  0.2607734 
1001       0.238      542        378.303    7.26       2.36       1.904      1.848      1.857      1.829      1.845      1.86       1.55       2.26       1.96       -9999      3.28       1.86       -9999      2.16       0.2521088  0.2712575  -9999      0.2329601  0.3094272  130.8653   2.071579   2.217      1.86       0.4450803  0.5229676  384.08     0.3656335  0.4819009  0.2493661 
1001.2     0.236      586.51     384.231    7.72       2.37       1.875      1.774      1.767      1.721      1.705      1.72       1.54       2.07       1.76       -9999      3.15       1.81       -9999      2.24       0.1984336  0.1788135  -9999      0.2180537  0.265538   13.26263   1.145416   2.213      1.72       0.290858   0.4006123  383.46     0.4280579  0.6138149  0.2423007 
1001.4     0.243      604.22     381.167    8          2.39       1.796      1.732      1.745      1.714      1.655      1.66       1.5        1.97       1.72       -9999      3.08       1.78       -9999      2.36       0.1669784  0.1334058  -9999      0.2005509  0.2416375  3.467387   0.7985872  2.271      1.66       0.1619852  0.3074772  383.3      0.4762495  0.7112122  0.2412869 
1001.6     0.231      647.24     383.459    8.07       2.32       1.663      1.575      1.663      1.599      1.545      1.63       1.55       2.03       1.75       -9999      2.95       1.76       -9999      2.48       0.1645021  0.1309632  -9999      0.1980409  0.2413131  3.119863   0.72973    2.27       1.63       0.1437119  0.2962807  383.28     0.4899768  0.7378864  0.2420671 
1001.8     0.227      704.72     379.566    7.92       2.29       1.451      1.411      1.451      1.429      1.419      1.61       1.38       1.6        1.46       -9999      2.89       1.77       -9999      2.55       0.1882193  0.1732735  -9999      0.2031652  0.2609383  8.579003   0.8852721  2.209      1.61       0.2340658  0.3602318  383.49     0.4638734  0.6819059  0.2458409 
1002       0.224      700.77     363.759    7.65       2.19       1.398      1.395      1.41       1.415      1.427      1.64       1.38       1.79       1.47       -9999      2.85       1.79       -9999      2.61       0.1969448  0.1904833  -9999      0.2034062  0.2629947  12.44667   1.253497   2.196      1.64       0.2700579  0.3807708  383.8      0.4213316  0.5916259  0.2510374 
1002.2     0.228      622.66     357.146    7.41       2.14       1.732      1.703      1.74       1.612      1.606      1.73       1.56       1.72       1.68       -9999      2.9        1.84       -9999      2.61       0.17735    0.1471953  -9999      0.2075048  0.2384391  5.396487   1.707603   2.28       1.73       0.2200977  0.3331245  384.22     0.389686   0.5214621  0.25791   
1002.4     0.23       540.83     354.308    7.2        2.05       2.218      2.045      2.045      1.906      1.849      1.89       1.84       1.89       2.03       -9999      3.04       1.88       -9999      2.67       0.202203   0.1922156  -9999      0.2121905  0.2596663  15.57575   2.238039   2.349      1.89       0.3325683  0.4252441  384.72     0.3665577  0.4669298  0.2661857 
1002.6     0.226      517.06     343.882    7.09       2.13       2.536      2.215      2.134      1.996      1.934      1.99       1.82       2.79       2.25       -9999      3.14       1.9        -9999      2.65       0.1962199  0.1868263  -9999      0.2056135  0.252077   12.06776   2.578724   2.358      1.99       0.3312548  0.4229172  385.03     0.3563119  0.4406805  0.2719433 
1002.8     0.226      535.04     333.77     7.26       2.1        2.332      2.117      2.012      1.898      1.869      2.01       1.79       2.51       2.11       -9999      3.24       1.9        -9999      2.66       0.1986213  0.2083832  -9999      0.1888595  0.2578161  13.36926   2.071579   2.322      2.01       0.3414003  0.4361399  385.04     0.3776026  0.4819009  0.2733043 
1003       0.227      558.97     328.551    7.5        2.1        2.273      1.99       1.922      1.822      1.789      1.98       1.68       2.06       1.83       -9999      3.25       1.9        -9999      2.68       0.1448518  0.1167392  -9999      0.1729645  0.2092718  1.349478   1.52068    2.323      1.98       0.1268367  0.2683314  385.08     0.4109341  0.5467414  0.2751268 
1003.2     0.227      554.93     333.924    7.48       2.08       2.049      1.975      1.941      1.865      1.802      1.99       1.63       2.2        1.81       -9999      3.29       1.9        -9999      2.72       0.1354751  0.09191804 -9999      0.1790321  0.1996626  0.9046603  1.560367   2.365      1.99       0.07661534 0.2287748  385.18     0.409451   0.5410199  0.2778821 
1003.4     0.224      520.02     337.069    7.34       2.05       2.608      2.302      2.2        2.067      1.923      2.05       1.88       3.21       2.32       -9999      3.37       1.92       -9999      2.78       0.1340746  0.08031223 -9999      0.1878369  0.1954579  0.8522055  1.868732   2.391      2.05       0.08111859 0.2272547  385.27     0.3915636  0.5026115  0.2805157 
