~Version
 VERS              .         2.0                           : CWLS LOG ASCII STANDARD - VERSION 2.0
 WRAP              .         NO                            : ONE LINE PER DEPTH STEP
 DLM               .         SPACE                         : DELIMITING CHARACTER(SPACE TAB OR COMMA)
~Well Information
#_______________________________________________________________________________
#
#PARAMETER_NAME    .UNIT     VALUE                         : DESCRIPTION
#_______________________________________________________________________________
STRT               .м        0                             : First reference value
STOP               .м        1167.4                        : Last reference value
STEP               .м        0.2                           : Step increment
NULL               .         -9999                         : Missing value
COMP               .                                       : Company
WELL               .         9421                          : Well name
FLD                .         Узень                         : Field
LOC                .                                       : Location
CNTY               .                                       : County
STAT               .                                       : State
CTRY               .                                       : Country
SRVC               .                                       : Service Company
DATE               .                                       : Date
UWI                .                                       : Unique Well ID
Block              .         7                             : 
Category           .         Нефтяная                      : 
Condition          .         В работе                      : 
Date               .         14.05.2016                    : 
EREF               .m        92.9                          : 100.8
GRP                .                                       : Group name
Gor                .         13                            : 
Gorizont           .         13                            : 14
ISS                .                                       : Well surveys
Interpretator      .         Кайсанов Е.К                  : 
Kupol              .         Основной                      : osnovnoi
Mud                .         Глинистый                     : 
Mud_density        .         1,34                          : 
Mud_resistivity    .         0,33                          : 
NGDU               .         НГДУ-2                        : 
ORIGINALWELLNAME   .         9421                          : 
Spud_date          .         2016                          : 1961
TIME               .                                       : LOG TIME
Viscosity          .         40                            : 
X                  .m        41760.27                      : 46154
Y                  .m        84652.7                       : 85761.93
YEAR               .         2019                          : 
Сдали_за_3_кв_2019 .         3                             : 
~Parameter Information Block
#_______________________________________________________________________________
#
#PARAMETER_NAME    .UNIT     VALUE                         : DESCRIPTION
#_______________________________________________________________________________
SET                .         LQC_KAZNIPI_Petrel            : 
TLFamily_CALI      .         Caliper                       : 
TLFamily_CILD      .         Conductivity                  : 
TLFamily_DEPT      .         Measured Depth                : 
TLFamily_DT        .         Compressional Slowness        : 
TLFamily_GR        .         Russian Gamma Ray             : 
TLFamily_GZ3       .         Gradient 225                  : 
TLFamily_IK1       .         Resistivity 05                : 
TLFamily_IK2       .         Resistivity 07                : 
TLFamily_IK3       .         Resistivity 10                : 
TLFamily_IK4       .         Resistivity 14                : 
TLFamily_IK5       .         Resistivity 20                : 
TLFamily_LLS       .         Lateral Log Resistivity       : 
TLFamily_MBK       .         Micro Lateral Log Resistivity : 
TLFamily_MINV      .         Micro Gradient Resistivity    : 
TLFamily_MNOR      .         Micro Resistivity             : 
TLFamily_NGLD      .         Neutron Far                   : 
TLFamily_NNKTB_1   .         Neutron Far                   : 
TLFamily_NNKTM_1   .         Neutron Near                  : 
TLFamily_NPHI      .         Neutron Porosity              : 
TLFamily_OGZ3      .         Gradient Inverted 225         : 
TLFamily_PHIE      .         Effective Porosity            : 
TLFamily_PHIED     .         Effective Porosity            : 
TLFamily_PHIEN     .         Effective Porosity            : 
TLFamily_PHIES     .         Effective Porosity            : 
TLFamily_PHIT      .         Porosity                      : 
TLFamily_PRMB      .         Permeability                  : 
TLFamily_PRMB_DGR  .         Permeability                  : 
TLFamily_RHOB      .         Bulk Density                  : 
TLFamily_RT        .         Formation Resistivity         : 
TLFamily_SOIL_ARCHIE .         Oil Saturation                : 
TLFamily_SOIL_DW   .         Oil Saturation                : 
TLFamily_SP        .         Spontaneous Potential         : 
TLFamily_VSH_FIN   .         Shale Volume                  : 
TLFamily_VSH_GR    .         Shale Volume                  : 
TLFamily_VSH_SP    .         Shale Volume                  : 
~Curve Information
#_______________________________________________________________________________
#
#LOGNAME           .UNIT     LOG_ID                        : DESCRIPTION
#_______________________________________________________________________________
DEPT               .м                                      : Колонка глубины 
CALI               .м                                      : Каверномер 
CILD               .мСм/м                                  : Проводимость 
DT                 .мкс/м                                  : Интервальное время пробега продольной волны 
GR                 .uR/h                                   : Гамма каротаж 
GZ3                .Ohmm                                   : Градиент-зонд  длиной 2.25м 
IK1                .OHMM                                   : И0.10И0.40 
IK2                .OHMM                                   : И0.14И0.56 
IK3                .OHMM                                   : И0.20И0.8 
IK4                .OHMM                                   : И0.28И1.12 
IK5                .OHMM                                   : И0.40И1.60 
LLS                .Ohmm                                   : Боковой каротаж 
MBK                .Ohmm                                   : Микробоковой каротаж 
MINV               .Ohmm                                   : Микро-градиент зонд 
MNOR               .Ohmm                                   : Микро-потенциал зонд 
NGLD               .у.е.                                   : Показания зонда НГК-60 аппаратуры ДРСТ-3-90 
NNKTB_1            .у.е.                                   : Показания большого зонда 2ННКт аппаратуры СРК 
NNKTM_1            .у.е.                                   : Показания малого зонда 2ННКт аппаратуры СРК 
NPHI               .v/v                                    : Total porosity 
OGZ3               .Ohmm                                   : Обращенный градиент-зонд 
PHIE               .v/v                                    : Описание 
PHIED              .v/v                                    :  
PHIEN              .v/v                                    :  
PHIES              .v/v                                    :  
PHIT               .v/v                                    : Описание 
PRMB               .mD                                     :  
PRMB_DGR           .mD                                     :  
RHOB               .г/см3                                  : Плотность по ГГКп 
RT                 .ohmm                                   : Удельное электрическое сопротивление 
SOIL_ARCHIE        .v/v                                    :  
SOIL_DW            .v/v                                    :  
SP                 .мВ                                     : Потенциал самополяризации 
VSH_FIN            .v/v                                    : Описание 
VSH_GR             .v/v                                    : Shale volume 
VSH_SP             .v/v                                    : Shale Volume 
~Ascii
# ...
1104.4     0.227      498.75     340.019    8.98       2.33       2.507      2.26       2.178      2.074      2.005      2.17       1.89       3.85       2.2        -9999      3.41       1.9        -9999      3.26       0.1076628  0.05301058 -9999      0.162315   0.1832794  0.2762703  3.747441   2.403      2.17       0          0.1472154  387.83     0.4823573  0.3783024  0.5864122 
1104.6     0.227      500.75     338.054    8.77       2.31       2.554      2.262      2.192      2.083      1.997      2.18       1.85       4.07       2.13       -9999      3.48       1.91       -9999      3.28       0.1157066  0.06504276 -9999      0.1663704  0.1883176  0.3893358  4.589055   2.39       2.18       0          0.1866821  387.57     0.4631851  0.3482655  0.5781047 
1104.8     0.226      489.95     332.389    8.41       2.32       2.61       2.29       2.209      2.115      2.041      2.2        1.82       3.16       1.95       -9999      3.5        1.91       -9999      3.37       0.1341106  0.0991622  -9999      0.169059   0.2024936  0.8535166  6.494737   2.343      2.2        0.1112778  0.2695777  387.32     0.436214   0.3022165  0.5702116 
1105       0.224      471.47     326.604    8.46       2.31       2.712      2.385      2.308      2.193      2.121      2.25       1.91       3.68       2.03       -9999      3.54       1.93       -9999      3.43       0.1391563  0.1153381  -9999      0.1629745  0.2075334  1.05845    6.188877   2.316      2.25       0.148438   0.2988197  387.02     0.4361767  0.3082284  0.5641251 
1105.2     0.226      454.75     314.43     8.69       2.33       3.024      2.557      2.407      2.269      2.199      2.33       1.86       3.93       2.18       -9999      3.53       1.96       -9999      3.57       0.10509    0.06537519 -9999      0.1448048  0.1757711  0.2475594  4.957276   2.394      2.33       0          0.1478772  386.92     0.450874   0.3374607  0.5642874 
1105.4     0.219      438.98     298.977    8.83       2.4        2.945      2.533      2.416      2.321      2.278      2.4        1.95       4.09       2.21       -9999      3.6        1.99       -9999      3.63       0.07949094 0.0354721  -9999      0.1235098  0.151417   0.08308511 4.330956   2.441      2.4        0          0          386.71     0.4588152  0.3565954  0.5610349 
1105.6     0.219      414.76     294.626    8.71       2.43       3.226      2.748      2.631      2.504      2.411      2.52       1.98       3.73       2.13       -9999      3.76       2.01       -9999      3.66       0.07690908 0.03181427 -9999      0.1220039  0.1467627  0.0744219  4.862538   2.452      2.52       0          0          386.28     0.4455953  0.3401301  0.5510606 
1105.8     0.222      395.25     291.641    8.42       2.5        3.578      2.942      2.807      2.65       2.53       2.58       2.05       4.57       2.63       -9999      3.86       2.02       -9999      3.56       0.0804899  0.03537258 -9999      0.1256072  0.1465547  0.08670145 6.432378   2.455      2.58       0          0          385.79     0.4214267  0.3034094  0.539444  
1106       0.223      396.66     300.655    8.29       2.53       3.371      2.871      2.835      2.644      2.521      2.54       2.12       4.34       2.69       -9999      3.85       2.03       -9999      3.34       0.1029221  0.06486831 -9999      0.1409759  0.1671829  0.2256967  7.291903   2.41       2.54       0          0.1519343  385.42     0.4099185  0.288262   0.5315749 
1106.2     0.232      415.11     319.104    8.47       2.56       2.943      2.59       2.537      2.474      2.409      2.41       2          4.11       3.13       -9999      3.64       2.03       -9999      3.06       0.1217468  0.08257622 -9999      0.1609174  0.1870362  0.5037372  6.129454   2.378      2.41       0.07365929 0.2391107  385.04     0.4164803  0.3094451  0.5235155 
1106.4     0.229      452.69     331.81     8.9        2.59       2.818      2.429      2.399      2.246      2.209      2.28       1.91       4.06       2.47       -9999      3.61       1.98       -9999      2.59       0.1337485  0.1005145  -9999      0.1669826  0.2028694  0.8404374  4.048127   2.339      2.28       0.1239894  0.2825052  384.65     0.4409212  0.3665658  0.5152766 
1106.6     0.231      495.04     336.623    9.26       2.56       2.435      2.155      2.128      2.034      2.02       2.21       1.88       3.89       2.28       -9999      3.65       1.95       -9999      2.44       0.1442333  0.1243483  -9999      0.1641183  0.2172511  1.314343   2.860328   2.29       2.21       0.1676278  0.3214062  384.33     0.4657796  0.4224198  0.5091392 
1106.8     0.222      557.72     332.912    9.52       2.57       2.242      1.966      1.95       1.859      1.793      2.22       1.75       3.41       2.17       -9999      3.7        1.93       -9999      2.49       -9999      0.147607   -9999      0.182228   -9999      -9999      -9999      2.277      2.22       -9999      -9999      383.96     0.395936   0.2296179  0.5622542 
1107       0.225      556.48     324.461    9.54       2.62       2.168      1.93       1.888      1.816      1.797      2.37       1.72       2.97       2.21       -9999      3.83       1.94       -9999      2.83       -9999      0.1279765  -9999      0.1734615  -9999      -9999      -9999      2.31       2.37       -9999      -9999      383.73     0.3953495  0.2323017  0.5583974 
1107.2     0.225      493.33     308.025    9.28       2.77       2.371      2.085      2.056      1.987      2.027      2.7        1.75       3.32       2.16       -9999      4.08       2          0.081      3.4        0.1077033  0.1622755  0          0.1608343  0.173959   0.2767475  17.90882   2.399      2.7        0.02282172 0.2112883  383.4      0.3756179  0.1997309  0.551505  
1107.4     0.222      380.95     291.707    8.76       3.18       3.354      2.709      2.702      2.723      2.625      3.43       1.93       3.93       2.7        -9999      4.61       2.1        0.094      4.06       0.09676856 0.1401197  0          0.150186   0.1639818  0.1735987  37.53249   2.436      3.43       0.04126697 0.2432559  382.88     0.3433161  0.1476492  0.5389829 
1107.6     0.222      265.67     274.715    7.84       3.72       7.121      4.728      4.405999999999999 4.162      3.764      4.42       2.38       6.34       3.2        -9999      5.31       2.26       0.147      4.93       0.1093991  0.145509   0.04552767 0.1371607  0.1753591  0.2975053  138.974    2.427      4.42       0.2350823  0.3903539  382.42     0.3074919  0.08651333 0.5284705 
1107.8     0.22       203.5      254.65     7.2        4.59       10.918     7.205      6.332999999999999 5.457      4.913999999999999 5.69       3.73       13.32      5.33       -9999      6.04       2.41       0.117      5.28       0.08299533 0.1155689  0.0224716  0.1109455  0.1444416  0.09647901 345.4856   2.477      5.69       0.135787   0.3258703  381.79     0.2864497  0.059647   0.5132524 
1108       0.22       190.76     231.975    6.86       5.06       11.565     7.922000000000001 6.53       5.65       5.242      6.52       3.18       8.58       5.12       -9999      6.48       2.51       0.087      5.23       0.0574589  0.09880233 0          0.07357436 0.1142152  0.03246655 560.4504   2.505      6.52       0          0.1611289  380.57     0.2655861  0.04895474 0.4822175 
1108.2     0.22       198.25     224.369    7.08       5.51       12.713     9.903      8.066000000000001 6.184      5.044      6.01       3.92       14.34      7          -9999      6.37       2.53       0.045      4.87       0.05139312 0.09341321 0          0.06076616 0.09284629 0.0250659  409.8127   2.514      6.01       0          0          379.26     0.2531166  0.05562992 0.4506032 
1108.4     0.219      246.6      251.443    7.81       5.51       13.763     8.105      6.227000000000001 5.109      4.055      5.33       3.17       16.16      6.65       -9999      5.59       2.45       0.046      4.29       0.07237606 0.1023952  0          0.114733   0.1144738  0.06133921 145.0348   2.499      5.33       0          0.1541239  378.21     0.2560943  0.0850184  0.4271702 
