~Version
 VERS              .         2.0                           : CWLS LOG ASCII STANDARD - VERSION 2.0
 WRAP              .         NO                            : ONE LINE PER DEPTH STEP
 DLM               .         SPACE                         : DELIMITING CHARACTER(SPACE TAB OR COMMA)
~Well Information
#_______________________________________________________________________________
#
#PARAMETER_NAME    .UNIT     VALUE                         : DESCRIPTION
#_______________________________________________________________________________
STRT               .м        0                             : First reference value
STOP               .м        1167.4                        : Last reference value
STEP               .м        0.2                           : Step increment
NULL               .         -9999                         : Missing value
COMP               .                                       : Company
WELL               .         9421                          : Well name
FLD                .         Узень                         : Field
LOC                .                                       : Location
CNTY               .                                       : County
STAT               .                                       : State
CTRY               .                                       : Country
SRVC               .                                       : Service Company
DATE               .                                       : Date
UWI                .                                       : Unique Well ID
Block              .         7                             : 
Category           .         Нефтяная                      : 
Condition          .         В работе                      : 
Date               .         14.05.2016                    : 
EREF               .m        92.9                          : 100.8
GRP                .                                       : Group name
Gor                .         13                            : 
Gorizont           .         13                            : 14
ISS                .                                       : Well surveys
Interpretator      .         Кайсанов Е.К                  : 
Kupol              .         Основной                      : osnovnoi
Mud                .         Глинистый                     : 
Mud_density        .         1,34                          : 
Mud_resistivity    .         0,33                          : 
NGDU               .         НГДУ-2                        : 
ORIGINALWELLNAME   .         9421                          : 
Spud_date          .         2016                          : 1961
TIME               .                                       : LOG TIME
Viscosity          .         40                            : 
X                  .m        41760.27                      : 46154
Y                  .m        84652.7                       : 85761.93
YEAR               .         2019                          : 
Сдали_за_3_кв_2019 .         3                             : 
~Parameter Information Block
#_______________________________________________________________________________
#
#PARAMETER_NAME    .UNIT     VALUE                         : DESCRIPTION
#_______________________________________________________________________________
SET                .         LQC_KAZNIPI_Petrel            : 
TLFamily_CALI      .         Caliper                       : 
TLFamily_CILD      .         Conductivity                  : 
TLFamily_DEPT      .         Measured Depth                : 
TLFamily_DT        .         Compressional Slowness        : 
TLFamily_GR        .         Russian Gamma Ray             : 
TLFamily_GZ3       .         Gradient 225                  : 
TLFamily_IK1       .         Resistivity 05                : 
TLFamily_IK2       .         Resistivity 07                : 
TLFamily_IK3       .         Resistivity 10                : 
TLFamily_IK4       .         Resistivity 14                : 
TLFamily_IK5       .         Resistivity 20                : 
TLFamily_LLS       .         Lateral Log Resistivity       : 
TLFamily_MBK       .         Micro Lateral Log Resistivity : 
TLFamily_MINV      .         Micro Gradient Resistivity    : 
TLFamily_MNOR      .         Micro Resistivity             : 
TLFamily_NGLD      .         Neutron Far                   : 
TLFamily_NNKTB_1   .         Neutron Far                   : 
TLFamily_NNKTM_1   .         Neutron Near                  : 
TLFamily_NPHI      .         Neutron Porosity              : 
TLFamily_OGZ3      .         Gradient Inverted 225         : 
TLFamily_PHIE      .         Effective Porosity            : 
TLFamily_PHIED     .         Effective Porosity            : 
TLFamily_PHIEN     .         Effective Porosity            : 
TLFamily_PHIES     .         Effective Porosity            : 
TLFamily_PHIT      .         Porosity                      : 
TLFamily_PRMB      .         Permeability                  : 
TLFamily_PRMB_DGR  .         Permeability                  : 
TLFamily_RHOB      .         Bulk Density                  : 
TLFamily_RT        .         Formation Resistivity         : 
TLFamily_SOIL_ARCHIE .         Oil Saturation                : 
TLFamily_SOIL_DW   .         Oil Saturation                : 
TLFamily_SP        .         Spontaneous Potential         : 
TLFamily_VSH_FIN   .         Shale Volume                  : 
TLFamily_VSH_GR    .         Shale Volume                  : 
TLFamily_VSH_SP    .         Shale Volume                  : 
~Curve Information
#_______________________________________________________________________________
#
#LOGNAME           .UNIT     LOG_ID                        : DESCRIPTION
#_______________________________________________________________________________
DEPT               .м                                      : Колонка глубины 
CALI               .м                                      : Каверномер 
CILD               .мСм/м                                  : Проводимость 
DT                 .мкс/м                                  : Интервальное время пробега продольной волны 
GR                 .uR/h                                   : Гамма каротаж 
GZ3                .Ohmm                                   : Градиент-зонд  длиной 2.25м 
IK1                .OHMM                                   : И0.10И0.40 
IK2                .OHMM                                   : И0.14И0.56 
IK3                .OHMM                                   : И0.20И0.8 
IK4                .OHMM                                   : И0.28И1.12 
IK5                .OHMM                                   : И0.40И1.60 
LLS                .Ohmm                                   : Боковой каротаж 
MBK                .Ohmm                                   : Микробоковой каротаж 
MINV               .Ohmm                                   : Микро-градиент зонд 
MNOR               .Ohmm                                   : Микро-потенциал зонд 
NGLD               .у.е.                                   : Показания зонда НГК-60 аппаратуры ДРСТ-3-90 
NNKTB_1            .у.е.                                   : Показания большого зонда 2ННКт аппаратуры СРК 
NNKTM_1            .у.е.                                   : Показания малого зонда 2ННКт аппаратуры СРК 
NPHI               .v/v                                    : Total porosity 
OGZ3               .Ohmm                                   : Обращенный градиент-зонд 
PHIE               .v/v                                    : Описание 
PHIED              .v/v                                    :  
PHIEN              .v/v                                    :  
PHIES              .v/v                                    :  
PHIT               .v/v                                    : Описание 
PRMB               .mD                                     :  
PRMB_DGR           .mD                                     :  
RHOB               .г/см3                                  : Плотность по ГГКп 
RT                 .ohmm                                   : Удельное электрическое сопротивление 
SOIL_ARCHIE        .v/v                                    :  
SOIL_DW            .v/v                                    :  
SP                 .мВ                                     : Потенциал самополяризации 
VSH_FIN            .v/v                                    : Описание 
VSH_GR             .v/v                                    : Shale volume 
VSH_SP             .v/v                                    : Shale Volume 
~Ascii
# ...
949        0.22       305.25     338.195    5.33       5.57       3.537999999999999 3.22       3.447      3.395      3.275999999999999 3.19       1.88       3.69       2.48       -9999      4.12       2.12       -9999      3.86       0.2250437  0.2155689  -9999      0.2345184  0.2636513  41.25842   24.88881   2.31       3.19       0.5243925  0.5808417  409.52     0.2462774  0.174614   0.3179408 
949.2      0.219      271.29     320.471    5.62       5.4        6.478      5.674      5.063999999999999 4.38       3.686      3.26       3.29       10.05      4.35       -9999      4.12       2.1        -9999      4.05       0.2114467  0.2143712  -9999      0.2085222  0.2536983  23.1028    17.13046   2.312      3.26       0.5029524  0.5647187  410.4      0.2695224  0.2033879  0.3356569 
949.4      0.219      302.02     328.621    5.85       5.42       4.179      3.508      3.664000000000001 3.447      3.311      3.5        2.17       6.25       2.97       -9999      4.08       2.09       -9999      4.08       0.2164285  0.2215569  -9999      0.2113     0.2617178  28.57184   12.73796   2.3        3.5        0.5289004  0.5914273  410.97     0.2888999  0.2295435  0.3482563 
949.6      0.22       357.65     337.264    5.94       5.3        2.9        2.51       2.559      2.623      2.796      3.16       2.06       5.15       2.45       -9999      4.12       2.08       -9999      4.04       0.2308758  0.2437126  -9999      0.2180391  0.2772562  52.91008   11.34361   2.263      3.16       0.5328068  0.5952981  411.03     0.2958599  0.2406712  0.3510485 
949.8      0.22       318.36     307.708    5.92       5.11       2.85       3.093      3.126      2.981      3.141      3.22       1.98       4.28       2.79       -9999      4.24       2.07       -9999      4.03       0.2079419  0.2299401  -9999      0.1859437  0.2540796  19.89511   11.63964   2.286      3.22       0.4927334  0.5592982  410.92     0.2943115  0.2381527  0.3504703 
950        0.22       236.46     278.502    5.58       5.15       5.906      5.394000000000001 5.141      4.527      4.229      3.7        3.08       9.78       4.48       -9999      4.57       2.12       -9999      4.09       0.1673167  0.182036   -9999      0.1525974  0.2106335  3.517783   18.03625   2.366      3.7        0.4257005  0.4978015  410.99     0.2763172  0.1991534  0.3534809 
950.2      0.219      213.31     279.639    5.15       5.37       6.470999999999999 5.209      5.131      4.705      4.688      4.14       2.78       7.67       3.96       -9999      4.8        2.18       -9999      3.88       0.1583715  0.1568862  -9999      0.1598567  0.1988937  2.40205    31.38353   2.408      4.14       0.4284924  0.4977227  411.14     0.2584907  0.1588404  0.3581409 
950.4      0.219      234.3      281.703    4.92       5.58       6.084000000000001 5.378      4.813      4.442      4.268      3.98       2.56       6.46       3.53       -9999      4.71       2.21       -9999      3.58       0.1653033  0.1652694  -9999      0.1653371  0.204584   3.228312   42.20569   2.394      3.98       0.4391446  0.5050328  411.17     0.2505712  0.1407411  0.3604013 
950.6      0.219      264.55     294.822    5.06       5.36       7.491999999999999 5.772      4.813      4.136      3.78       3.52       3.03       8.34       4.27       -9999      4.35       2.19       -9999      3.3        0.1633956  0.1461077  -9999      0.1806834  0.2040385  2.976049   35.2412    2.426      3.52       0.3998328  0.4702863  411.41     0.2592607  0.1514962  0.3670251 
950.8      0.219      333.77     329.539    5.37       4.99       3.214999999999999 3.15       2.996      2.965      2.996      3.09       1.93       4.47       2.96       -9999      3.84       2.13       -9999      3.1        0.2020773  0.1874251  -9999      0.2167296  0.2451367  15.49247   23.63889   2.357      3.09       0.4697802  0.5351325  411.52     0.2746752  0.1783267  0.3710237 
951        0.221      416.31     356.708    5.73       4.57       2.796      2.638      2.595      2.434      2.402      2.5        1.88       3.52       2.2        -9999      3.51       2.05       -9999      3.04       0.2452671  0.2532934  -9999      0.2372407  0.2912915  97.74603   14.86728   2.247      2.5        0.505267   0.5689559  411.47     0.2935891  0.2155028  0.3716754 
951.2      0.221      426.43     362.616    6.04       4.07       2.521      2.462      2.433      2.38       2.345      2.41       1.95       3.47       2.23       -9999      3.31       1.97       -9999      3.13       0.2532502  0.2694611  -9999      0.2370394  0.3019879  137.3937   9.972588   2.22       2.41       0.5105285  0.5758064  411.22     0.3108969  0.2536691  0.3681247 
951.4      0.221      407.33     341.537    6.16       3.94       2.428      2.323      2.379      2.524      2.455      2.58       1.86       3.44       2.29       -9999      3.31       1.96       -9999      3.39       0.241053   0.2658682  -9999      0.2162377  0.2904559  81.66644   8.544292   2.226      2.58       0.505112   0.5718557  410.75     0.3151408  0.2701965  0.3600851 
951.6      0.221      350.87     323.077    6.01       4.04       3.633      3.398      3.075      3.091      2.85       2.75       2          3.7        2.55       -9999      3.37       1.99       -9999      3.56       0.2187366  0.2365269  -9999      0.2009464  0.2662159  31.5276    10.36551   2.275      2.75       0.4773047  0.5456218  410.47     0.3028694  0.2496977  0.3560411 
951.8      0.219      313.77     305.045    5.78       4.27       4.762      3.815999999999999 3.562      3.398      3.186999999999999 3.09       2.76       8.29       3.64       -9999      3.43       2.05       -9999      3.57       0.1873824  0.1904192  -9999      0.1843456  0.2326963  8.278167   13.93991   2.352      3.09       0.4337431  0.5054154  410.43     0.2890567  0.2212456  0.3568679 
952        0.221      332.77     311.395    5.75       4.34       3.462      3.026      2.828      2.869      3.005      3.1        1.98       3.89       2.55       -9999      3.49       2.07       -9999      3.45       0.1972124  0.2017964  -9999      0.1926283  0.2422087  12.58952   14.48915   2.333      3.1        0.4592268  0.5278146  410.32     0.2870311  0.2177818  0.3562803 
952.2      0.221      339.78     323.845    5.91       4.29       3.673999999999999 3.464      3.205      2.906      2.943      2.82       2.05       4.09       2.6        -9999      3.47       2.06       -9999      3.35       0.2229602  0.2419161  -9999      0.2040043  0.2693304  37.75048   11.79055   2.266      2.82       0.4919671  0.5578886  410.16     0.2957944  0.2369033  0.3546856 
952.4      0.22       337.95     327.216    6.14       4.28       4.213      3.701      3.363      3.062      2.959      2.81       2.53       6.82       3.54       -9999      3.45       2.04       -9999      3.26       0.2224062  0.2419161  -9999      0.2028963  0.27115    36.86898   8.767281   2.266      2.81       0.4900157  0.5583563  410.07     0.3109359  0.267369   0.3545027 
952.6      0.221      362.45     337.475    6.23       4.17       3.33       3.019      2.984      2.775      2.759      2.75       1.9        3.41       2.36       -9999      3.46       2.01       -9999      3.26       0.2265606  0.2413174  -9999      0.2118039  0.2761647  44.01602   7.807571   2.267      2.75       0.4930615  0.5617045  409.89     0.3164234  0.2803304  0.3525165 
952.8      0.221      396.35     346.414    6.25       4.07       3.231      2.967      2.858      2.602      2.523      2.62       2.37       5.31       2.79       -9999      3.53       2          -9999      3.27       0.2320562  0.2443113  -9999      0.219801   0.2820353  55.64182   7.608993   2.262      2.62       0.4921224  0.5608537  409.9      0.3188163  0.2832949  0.3543377 
953        0.222      423.9      349.459    6.29       3.8        2.496      2.364      2.343      2.349      2.359      2.57       1.83       3.46       2.17       -9999      3.63       1.98       -9999      3.37       0.2383612  0.2556886  -9999      0.2210339  0.2891628  72.80924   7.226867   2.243      2.57       0.4993366  0.5678697  410.04     0.324062   0.2893185  0.3588056 
