~Version
 VERS              .         2.0                           : CWLS LOG ASCII STANDARD - VERSION 2.0
 WRAP              .         NO                            : ONE LINE PER DEPTH STEP
 DLM               .         SPACE                         : DELIMITING CHARACTER(SPACE TAB OR COMMA)
~Well Information
#_______________________________________________________________________________
#
#PARAMETER_NAME    .UNIT     VALUE                         : DESCRIPTION
#_______________________________________________________________________________
STRT               .м        0                             : First reference value
STOP               .м        1167.4                        : Last reference value
STEP               .м        0.2                           : Step increment
NULL               .         -9999                         : Missing value
COMP               .                                       : Company
WELL               .         9421                          : Well name
FLD                .         Узень                         : Field
LOC                .                                       : Location
CNTY               .                                       : County
STAT               .                                       : State
CTRY               .                                       : Country
SRVC               .                                       : Service Company
DATE               .                                       : Date
UWI                .                                       : Unique Well ID
Block              .         7                             : 
Category           .         Нефтяная                      : 
Condition          .         В работе                      : 
Date               .         14.05.2016                    : 
EREF               .m        92.9                          : 100.8
GRP                .                                       : Group name
Gor                .         13                            : 
Gorizont           .         13                            : 14
ISS                .                                       : Well surveys
Interpretator      .         Кайсанов Е.К                  : 
Kupol              .         Основной                      : osnovnoi
Mud                .         Глинистый                     : 
Mud_density        .         1,34                          : 
Mud_resistivity    .         0,33                          : 
NGDU               .         НГДУ-2                        : 
ORIGINALWELLNAME   .         9421                          : 
Spud_date          .         2016                          : 1961
TIME               .                                       : LOG TIME
Viscosity          .         40                            : 
X                  .m        41760.27                      : 46154
Y                  .m        84652.7                       : 85761.93
YEAR               .         2019                          : 
Сдали_за_3_кв_2019 .         3                             : 
~Parameter Information Block
#_______________________________________________________________________________
#
#PARAMETER_NAME    .UNIT     VALUE                         : DESCRIPTION
#_______________________________________________________________________________
SET                .         LQC_KAZNIPI_Petrel            : 
TLFamily_CALI      .         Caliper                       : 
TLFamily_CILD      .         Conductivity                  : 
TLFamily_DEPT      .         Measured Depth                : 
TLFamily_DT        .         Compressional Slowness        : 
TLFamily_GR        .         Russian Gamma Ray             : 
TLFamily_GZ3       .         Gradient 225                  : 
TLFamily_IK1       .         Resistivity 05                : 
TLFamily_IK2       .         Resistivity 07                : 
TLFamily_IK3       .         Resistivity 10                : 
TLFamily_IK4       .         Resistivity 14                : 
TLFamily_IK5       .         Resistivity 20                : 
TLFamily_LLS       .         Lateral Log Resistivity       : 
TLFamily_MBK       .         Micro Lateral Log Resistivity : 
TLFamily_MINV      .         Micro Gradient Resistivity    : 
TLFamily_MNOR      .         Micro Resistivity             : 
TLFamily_NGLD      .         Neutron Far                   : 
TLFamily_NNKTB_1   .         Neutron Far                   : 
TLFamily_NNKTM_1   .         Neutron Near                  : 
TLFamily_NPHI      .         Neutron Porosity              : 
TLFamily_OGZ3      .         Gradient Inverted 225         : 
TLFamily_PHIE      .         Effective Porosity            : 
TLFamily_PHIED     .         Effective Porosity            : 
TLFamily_PHIEN     .         Effective Porosity            : 
TLFamily_PHIES     .         Effective Porosity            : 
TLFamily_PHIT      .         Porosity                      : 
TLFamily_PRMB      .         Permeability                  : 
TLFamily_PRMB_DGR  .         Permeability                  : 
TLFamily_RHOB      .         Bulk Density                  : 
TLFamily_RT        .         Formation Resistivity         : 
TLFamily_SOIL_ARCHIE .         Oil Saturation                : 
TLFamily_SOIL_DW   .         Oil Saturation                : 
TLFamily_SP        .         Spontaneous Potential         : 
TLFamily_VSH_FIN   .         Shale Volume                  : 
TLFamily_VSH_GR    .         Shale Volume                  : 
TLFamily_VSH_SP    .         Shale Volume                  : 
~Curve Information
#_______________________________________________________________________________
#
#LOGNAME           .UNIT     LOG_ID                        : DESCRIPTION
#_______________________________________________________________________________
DEPT               .м                                      : Колонка глубины 
CALI               .м                                      : Каверномер 
CILD               .мСм/м                                  : Проводимость 
DT                 .мкс/м                                  : Интервальное время пробега продольной волны 
GR                 .uR/h                                   : Гамма каротаж 
GZ3                .Ohmm                                   : Градиент-зонд  длиной 2.25м 
IK1                .OHMM                                   : И0.10И0.40 
IK2                .OHMM                                   : И0.14И0.56 
IK3                .OHMM                                   : И0.20И0.8 
IK4                .OHMM                                   : И0.28И1.12 
IK5                .OHMM                                   : И0.40И1.60 
LLS                .Ohmm                                   : Боковой каротаж 
MBK                .Ohmm                                   : Микробоковой каротаж 
MINV               .Ohmm                                   : Микро-градиент зонд 
MNOR               .Ohmm                                   : Микро-потенциал зонд 
NGLD               .у.е.                                   : Показания зонда НГК-60 аппаратуры ДРСТ-3-90 
NNKTB_1            .у.е.                                   : Показания большого зонда 2ННКт аппаратуры СРК 
NNKTM_1            .у.е.                                   : Показания малого зонда 2ННКт аппаратуры СРК 
NPHI               .v/v                                    : Total porosity 
OGZ3               .Ohmm                                   : Обращенный градиент-зонд 
PHIE               .v/v                                    : Описание 
PHIED              .v/v                                    :  
PHIEN              .v/v                                    :  
PHIES              .v/v                                    :  
PHIT               .v/v                                    : Описание 
PRMB               .mD                                     :  
PRMB_DGR           .mD                                     :  
RHOB               .г/см3                                  : Плотность по ГГКп 
RT                 .ohmm                                   : Удельное электрическое сопротивление 
SOIL_ARCHIE        .v/v                                    :  
SOIL_DW            .v/v                                    :  
SP                 .мВ                                     : Потенциал самополяризации 
VSH_FIN            .v/v                                    : Описание 
VSH_GR             .v/v                                    : Shale volume 
VSH_SP             .v/v                                    : Shale Volume 
~Ascii
# ...
1037.2     0.225      392.46     338.851    7.67       3.62       2.807      2.548      2.433      2.613      2.548      2.32       1.97       4.23       2.28       -9999      3.06       1.85       -9999      1.93       0.1432348  0.09522881 -9999      0.1912409  0.2038087  1.259548   13.26226   2.368      2.32       0.181449   0.3102822  387.6      0.3863996  0.2257938  0.5470054 
1037.4     0.224      394.94     348.615    7.35       3.53       2.765      2.527      2.356      2.458      2.532      2.32       1.95       4.32       2.21       -9999      3.07       1.86       -9999      1.95       0.1993001  0.1904192  -9999      0.2081811  0.2561317  13.76196   18.0591    2.352      2.32       0.386097   0.4739101  386.86     0.3625279  0.1990505  0.5260054 
1037.6     0.222      391.23     337.843    7.18       3.46       2.722      2.544      2.475      2.434      2.556      2.3        1.94       3.68       2.2        -9999      3.09       1.87       -9999      1.88       0.1924295  0.1832335  -9999      0.2016256  0.2473073  10.26644   21.27772   2.364      2.3        0.364473   0.4527694  386.41     0.3500647  0.1861564  0.5139729 
1037.8     0.222      385.95     338.339    7.25       3.49       3.139      2.908      2.813      2.57       2.591      2.27       2.12       4.62       2.4        -9999      3.05       1.87       -9999      1.88       0.17412    0.1449102  -9999      0.2033297  0.2283939  4.701996   19.8882    2.428      2.27       0.3023634  0.3984324  385.92     0.3462126  0.1913614  0.5010639 
1038       0.222      424.44     352.938    7.5        3.64       3.213      2.695      2.678      2.357      2.356      2.19       2.09       5.17       2.51       -9999      2.91       1.86       -9999      1.86       0.1924827  0.1688623  -9999      0.2161032  0.247363   10.28975   15.62596   2.388      2.19       0.3498446  0.4393328  385.45     0.3500806  0.2111673  0.4889939 
1038.2     0.233      527.98     356.114    7.93       3.62       1.669      1.697      1.801      1.788      1.894      1.94       1.55       1.84       1.63       -9999      2.78       1.81       -9999      1.88       0.2393225  0.2646707  -9999      0.2139744  0.2967126  75.85639   10.31998   2.228      1.94       0.4307078  0.5108141  385.16     0.3660907  0.2501469  0.4820344 
1038.4     0.231      605.69     361.387    8.54       3.54       1.7        1.715      1.691      1.668      1.651      1.75       1.61       1.98       1.62       -9999      2.72       1.76       -9999      1.88       0.1987628  0.1903876  -9999      0.207138   0.2619147  13.45016   5.729177   2.203      1.75       0.2976037  0.4014049  385.33     0.4028451  0.3180972  0.4875931 
1038.6     0.221      569.47     361.884    8.83       3.32       1.735      1.875      1.877      1.827      1.756      1.72       1.56       2.23       1.91       -9999      2.71       1.74       -9999      1.84       0.1719021  0.1444559  -9999      0.1993483  0.2391663  4.277617   4.330956   2.27       1.72       0.196431   0.323686   385.8      0.4290773  0.3565954  0.5015591 
1038.8     0.225      534.18     343.626    8.89       3.12       1.99       1.962      2.025      1.97       1.872      1.78       1.86       3.6        2.23       -9999      2.72       1.75       -9999      1.77       0.1477082  0.1169899  -9999      0.1784264  0.2170349  1.524305   4.08737    2.311      1.78       0.09757618 0.2507484  386.39     0.4422344  0.3651247  0.519344  
1039       0.227      530.5      321.103    8.75       2.9        2.595      2.305      2.13       1.989      1.885      1.78       1.68       2.8        2.01       -9999      2.73       1.77       -9999      1.66       0.1318311  0.1064936  -9999      0.1571686  0.2001108  0.7744436  4.678464   2.331      1.78       0.003622273 0.1765171  386.57     0.4355555  0.3455323  0.5255788 
1039.2     0.221      602.04     303.681    8.96       2.62       1.738      1.662      1.591      1.608      1.661      1.72       1.6        2.22       1.67       -9999      2.8        1.78       -9999      1.62       0.1199495  0.1082751  -9999      0.131624   0.190782   0.4665673  3.820449   2.322      1.72       0          0.1045224  386.63     0.4518394  0.3753336  0.5283453 
1039.4     0.221      691.08     323.152    9.33       2.45       1.601      1.495      1.457      1.414      1.447      1.59       1.47       1.88       1.69       -9999      2.81       1.77       -9999      1.61       0.1259274  0.1080375  -9999      0.1438172  0.2020123  0.6020579  2.673539   2.31       1.59       0          0.117369   386.87     0.4853445  0.4342307  0.5364583 
1039.6     0.22       715.3      372.267    9.68       2.33       1.441      1.447      1.425      1.381      1.398      1.53       1.5        1.8        1.68       -9999      2.77       1.76       -9999      1.61       0.1482516  0.1177112  -9999      0.1787921  0.2302024  1.560048   1.907383   2.28       1.53       0.03424843 0.2207379  387.19     0.5227631  0.4984274  0.5470988 
1039.8     0.232      712.75     392.602    10.01      2.25       1.468      1.447      1.427      1.401      1.403      1.54       1.35       2.01       1.78       -9999      2.74       1.76       -9999      1.63       0.150296   0.1184274  -9999      0.1821646  0.2385191  1.702175   1.387298   2.264      1.54       0.04861248 0.2437172  387.51     0.5627739  0.5676249  0.5579228 
1040       0.229      682.59     388.404    10.05      2.2        1.568      1.536      1.555      1.498      1.465      1.56       1.69       2.04       1.89       -9999      2.78       1.77       -9999      1.64       0.139797   0.1036689  -9999      0.1759251  0.2295651  1.087771   1.334781   2.285      1.56       0          0.2084716  387.82     0.5726295  0.5766404  0.5686187 
1040.2     0.227      661.81     378.707    10.07      2.16       1.612      1.587      1.585      1.532      1.511      1.6        1.5        1.81       1.67       -9999      2.83       1.78       -9999      1.65       0.1184756  0.07053924 -9999      0.1664119  0.2092294  0.4381402  1.309274   2.338      1.6        0          0.1172786  388.04     0.5789173  0.5812015  0.5766331 
1040.4     0.23       648.92     372.293    9.78       2.18       1.775      1.697      1.674      1.605      1.541      1.64       1.74       2.5        1.98       -9999      2.86       1.79       -9999      1.65       0.1256203  0.08141774 -9999      0.1698228  0.2120664  0.5942238  1.731964   2.33       1.64       0          0.1550314  388.25     0.551439   0.5184547  0.5844234 
1040.6     0.232      650.19     385.798    9.61       2.14       1.795      1.664      1.638      1.571      1.538      1.66       1.65       2.41       1.93       -9999      2.86       1.79       -9999      1.64       0.1466297  0.1083966  -9999      0.1848627  0.2309342  1.45578    2.040648   2.29       1.66       0.06155952 0.2499528  388.41     0.5377774  0.4848703  0.5906847 
1040.8     0.227      649.77     394.16     9.58       2.17       1.768      1.675      1.668      1.587      1.539      1.66       1.59       2.46       1.8        -9999      2.91       1.8        -9999      1.63       0.1526789  0.1146608  -9999      0.190697   0.2372117  1.884264   2.100572   2.279      1.66       0.09402689 0.2738121  388.64     0.5392334  0.4791736  0.5992932 
1041       0.228      662.25     391.818    9.64       2.14       1.821      1.737      1.666      1.553      1.51       1.66       1.7        2.59       1.79       -9999      2.97       1.79       -9999      1.64       0.1532012  0.1196712  -9999      0.1867312  0.2388495  1.92671    1.98243    2.268      1.66       0.09671766 0.2777783  388.69     0.546349   0.4906348  0.6020632 
1041.2     0.228      680.73     388.35     9.66       2.13       1.528      1.476      1.46       1.451      1.469      1.66       1.43       2.21       1.6        -9999      3.03       1.78       -9999      1.65       0.1467955  0.1094814  -9999      0.1841096  0.2324509  1.466111   1.944545   2.285      1.66       0.06248277 0.2532144  388.54     0.5463946  0.4945157  0.5982735 
