~Version
 VERS              .         2.0                           : CWLS LOG ASCII STANDARD - VERSION 2.0
 WRAP              .         NO                            : ONE LINE PER DEPTH STEP
 DLM               .         SPACE                         : DELIMITING CHARACTER(SPACE TAB OR COMMA)
~Well Information
#_______________________________________________________________________________
#
#PARAMETER_NAME    .UNIT     VALUE                         : DESCRIPTION
#_______________________________________________________________________________
STRT               .м        0                             : First reference value
STOP               .м        1167.4                        : Last reference value
STEP               .м        0.2                           : Step increment
NULL               .         -9999                         : Missing value
COMP               .                                       : Company
WELL               .         9421                          : Well name
FLD                .         Узень                         : Field
LOC                .                                       : Location
CNTY               .                                       : County
STAT               .                                       : State
CTRY               .                                       : Country
SRVC               .                                       : Service Company
DATE               .                                       : Date
UWI                .                                       : Unique Well ID
Block              .         7                             : 
Category           .         Нефтяная                      : 
Condition          .         В работе                      : 
Date               .         14.05.2016                    : 
EREF               .m        92.9                          : 100.8
GRP                .                                       : Group name
Gor                .         13                            : 
Gorizont           .         13                            : 14
ISS                .                                       : Well surveys
Interpretator      .         Кайсанов Е.К                  : 
Kupol              .         Основной                      : osnovnoi
Mud                .         Глинистый                     : 
Mud_density        .         1,34                          : 
Mud_resistivity    .         0,33                          : 
NGDU               .         НГДУ-2                        : 
ORIGINALWELLNAME   .         9421                          : 
Spud_date          .         2016                          : 1961
TIME               .                                       : LOG TIME
Viscosity          .         40                            : 
X                  .m        41760.27                      : 46154
Y                  .m        84652.7                       : 85761.93
YEAR               .         2019                          : 
Сдали_за_3_кв_2019 .         3                             : 
~Parameter Information Block
#_______________________________________________________________________________
#
#PARAMETER_NAME    .UNIT     VALUE                         : DESCRIPTION
#_______________________________________________________________________________
SET                .         LQC_KAZNIPI_Petrel            : 
TLFamily_CALI      .         Caliper                       : 
TLFamily_CILD      .         Conductivity                  : 
TLFamily_DEPT      .         Measured Depth                : 
TLFamily_DT        .         Compressional Slowness        : 
TLFamily_GR        .         Russian Gamma Ray             : 
TLFamily_GZ3       .         Gradient 225                  : 
TLFamily_IK1       .         Resistivity 05                : 
TLFamily_IK2       .         Resistivity 07                : 
TLFamily_IK3       .         Resistivity 10                : 
TLFamily_IK4       .         Resistivity 14                : 
TLFamily_IK5       .         Resistivity 20                : 
TLFamily_LLS       .         Lateral Log Resistivity       : 
TLFamily_MBK       .         Micro Lateral Log Resistivity : 
TLFamily_MINV      .         Micro Gradient Resistivity    : 
TLFamily_MNOR      .         Micro Resistivity             : 
TLFamily_NGLD      .         Neutron Far                   : 
TLFamily_NNKTB_1   .         Neutron Far                   : 
TLFamily_NNKTM_1   .         Neutron Near                  : 
TLFamily_NPHI      .         Neutron Porosity              : 
TLFamily_OGZ3      .         Gradient Inverted 225         : 
TLFamily_PHIE      .         Effective Porosity            : 
TLFamily_PHIED     .         Effective Porosity            : 
TLFamily_PHIEN     .         Effective Porosity            : 
TLFamily_PHIES     .         Effective Porosity            : 
TLFamily_PHIT      .         Porosity                      : 
TLFamily_PRMB      .         Permeability                  : 
TLFamily_PRMB_DGR  .         Permeability                  : 
TLFamily_RHOB      .         Bulk Density                  : 
TLFamily_RT        .         Formation Resistivity         : 
TLFamily_SOIL_ARCHIE .         Oil Saturation                : 
TLFamily_SOIL_DW   .         Oil Saturation                : 
TLFamily_SP        .         Spontaneous Potential         : 
TLFamily_VSH_FIN   .         Shale Volume                  : 
TLFamily_VSH_GR    .         Shale Volume                  : 
TLFamily_VSH_SP    .         Shale Volume                  : 
~Curve Information
#_______________________________________________________________________________
#
#LOGNAME           .UNIT     LOG_ID                        : DESCRIPTION
#_______________________________________________________________________________
DEPT               .м                                      : Колонка глубины 
CALI               .м                                      : Каверномер 
CILD               .мСм/м                                  : Проводимость 
DT                 .мкс/м                                  : Интервальное время пробега продольной волны 
GR                 .uR/h                                   : Гамма каротаж 
GZ3                .Ohmm                                   : Градиент-зонд  длиной 2.25м 
IK1                .OHMM                                   : И0.10И0.40 
IK2                .OHMM                                   : И0.14И0.56 
IK3                .OHMM                                   : И0.20И0.8 
IK4                .OHMM                                   : И0.28И1.12 
IK5                .OHMM                                   : И0.40И1.60 
LLS                .Ohmm                                   : Боковой каротаж 
MBK                .Ohmm                                   : Микробоковой каротаж 
MINV               .Ohmm                                   : Микро-градиент зонд 
MNOR               .Ohmm                                   : Микро-потенциал зонд 
NGLD               .у.е.                                   : Показания зонда НГК-60 аппаратуры ДРСТ-3-90 
NNKTB_1            .у.е.                                   : Показания большого зонда 2ННКт аппаратуры СРК 
NNKTM_1            .у.е.                                   : Показания малого зонда 2ННКт аппаратуры СРК 
NPHI               .v/v                                    : Total porosity 
OGZ3               .Ohmm                                   : Обращенный градиент-зонд 
PHIE               .v/v                                    : Описание 
PHIED              .v/v                                    :  
PHIEN              .v/v                                    :  
PHIES              .v/v                                    :  
PHIT               .v/v                                    : Описание 
PRMB               .mD                                     :  
PRMB_DGR           .mD                                     :  
RHOB               .г/см3                                  : Плотность по ГГКп 
RT                 .ohmm                                   : Удельное электрическое сопротивление 
SOIL_ARCHIE        .v/v                                    :  
SOIL_DW            .v/v                                    :  
SP                 .мВ                                     : Потенциал самополяризации 
VSH_FIN            .v/v                                    : Описание 
VSH_GR             .v/v                                    : Shale volume 
VSH_SP             .v/v                                    : Shale Volume 
~Ascii
# ...
1159       0.244      825.08     397.36     10.9       1.85       2.168      1.594      1.453      1.286      1.212      1.36       1.2        2.97       2.44       -9999      3.17       1.85       0.063      -9999      0.09492834 0.1076307  0          0.1771543  0.1775769  0.1604949  1.786351   2.272      1.36       0          0          419.84     0.5898827  0.5119502  0.6678152 
1159.2     0.23       798.08     460.523    10.67      1.83       1.625      1.363      1.346      1.285      1.253      1.41       1.28       0.95       1.66       -9999      2.95       1.79       0.097      -9999      0.1016995  0.07478055 0          0.2303179  0.1911224  0.2142295  2.477981   2.343      1.41       0          0          419.77     0.546261   0.44791    0.644612  
1159.4     0.267      836.12     486.346    10.03      1.86       1.537      1.249      1.238      1.206      1.196      1.49       1.28       1.11       1.65       -9999      2.88       1.85       0.163      -9999      0.1166169  0.07258641 0.008898241 0.2683661  0.2167877  0.4047496  6.160198   2.376      1.49       0          0.09919252 419.79     0.466975   0.3088135  0.6251365 
1159.6     0.264      859.1      484.464    10.02      1.81       1.41       1.223      1.172      1.168      1.164      1.43       1.18       1.06       1.51       -9999      2.87       1.87       0.163      -9999      0.1109253  0.05642035 0.008900799 0.2674548  0.2110944  0.3175147  6.24847    2.403      1.43       0          0.04702904 419.85     0.4669673  0.3070246  0.62691   
1159.8     0.265      856.89     482.218    10.57      1.86       1.447      1.308      1.253      1.195      1.167      1.37       1.27       1.24       1.65       -9999      2.87       1.81       0.109      -9999      0.1009701  0.05521249 0          0.2476979  0.1923251  0.2076682  2.856897   2.383      1.37       0          0          419.95     0.5264736  0.4226269  0.6303203 
1160       0.261      838.92     441.197    11.34      1.81       1.42       1.325      1.288      1.199      1.192      1.39       1.32       1.1        1.68       -9999      2.89       1.79       0.116      -9999      0.0918824  0.08744156 0          0.1882056  0.198049   0.1409428  0.9551305  2.285      1.39       0          0          419.96     0.6458716  0.6610818  0.6306615 
1160.2     0.255      816.99     356.498    11.65      1.84       1.524      1.449      1.377      1.282      1.224      1.44       1.55       1.11       1.73       -9999      2.75       1.79       0.13       -9999      0.0728552  0.1124714  0          0.1060942  0.190524   0.06260558 0.6144612  2.219      1.44       0          0          419.97     0.7112774  0.7915509  0.6310039 
1160.4     0.227      809.71     318.764    11.82      1.87       1.814      1.528      1.438      1.329      1.235      1.55       1.52       2.06       2.22       -9999      2.84       1.78       0.066      -9999      0.03763812 0.04656121 0          0.06635316 0.1345583  0.01394143 0.4824374  2.327      1.55       0          0          420.05     0.7168726  0.8        0.6337452 
1160.6     0.225      830.56     305.849    11.55      1.82       1.663      1.357      1.253      1.212      1.204      1.81       1.8        2.78       2.25       -9999      3.16       1.77       0.012      -9999      0.01441687 -0.01600721 0          0.05925781 0.09065067 0.005178374 0.7084196  2.441      1.81       0          0          420.1      0.6911677  0.7468709  0.6354645 
1160.8     0.23       748.5      297.374    10.81      1.88       1.427      1.26       1.268      1.265      1.336      2.46       1.94       3.84       2.87       -9999      3.3        1.81       0.019      -9999      0.03989659 0.0295302  0          0.09015957 0.1046098  0.0153511  2.030406   2.414      2.46       0          0          419.98     0.5586069  0.4858674  0.6313463 
1161       0.231      520.29     290.68     10.51      1.86       3.686      2.328      2.223      2.119      1.922      3.36       1.93       1.67       2.82       -9999      3.45       1.9        0.021      -9999      0.04627115 0.0460288  0          0.09278466 0.107823   0.02014708 3.111515   2.4        3.36       0          0          420.11     0.5219778  0.4081476  0.6358081 
1161.2     0.215      387.59     301.442    10.16      -9999      7.795000000000001 4.483999999999999 3.83       3.15       2.58       4.16       3.9        4.6        5.08       -9999      3.64       1.95       0.021      -9999      0.7211577  0.163473   1          1          0.1516546  63789294000.0000000 5.119875   2.397      4.16       0.8477191  0.4038752  -9999      -4999.333  0.3330427  -9999     
1161.4     0.215      437.82     322.33     9.5        -9999      4.818      3.318000000000001 2.7        2.367      2.284      4.17       2.81       2.79       4.13       -9999      3.77       2          0.093      -9999      0.7221557  0.1664671  1          1          0.1848504  66563101000.0000000 13.09528   2.392      4.17       0.8480737  0.5115153  -9999      -4999.387  0.226965   -9999     
1161.6     0.22       658.76     337.597    9.34       -9999      2.975      1.994      1.513      1.5        1.518      4.15       2.36       2.1        2.67       -9999      3.67       2.08       0.118      -9999      0.7117764  0.1353293  1          1          0.1881546  42754769000.0000000 16.44329   2.444      4.15       0.8457985  0.5189385  -9999      -4999.396  0.2068166  -9999     
1161.8     0.24       750.18     332.709    9.79       -9999      1.204      1.106      1.113      1.207      1.333      4.15       1.2        0.95       1.55       -9999      3.26       2.06       0.122      -9999      0.7131736  0.1395209  1          1          0.1892256  45379944000.0000000 8.667732   2.437      4.15       0.8460616  0.5216614  -9999      -4999.366  0.2686186  -9999     
1162       0.263      636.94     322.801    10.39      -9999      2.253      1.788      1.695      1.615      1.57       4.15       1.67       2.58       2.17       -9999      2.93       1.97       0.061      -9999      0.7333333  0.2        1          1          0.185534   107218800000.0000000 3.69086    2.336      4.15       0.849754   0.5121438  -9999      -4999.31   0.3806598  -9999     
1162.2     0.223      595.23     347.576    10.51      -9999      1.685      1.425      1.505      1.685      1.68       4.14       1.52       1.23       1.93       -9999      2.89       1.86       0.109      -9999      0.7738523  0.321557   1          1          0.2504734  603644300000.0000000 3.111515   2.133      4.14       0.8564669  0.6381925  -9999      -4999.296  0.4081476  -9999     
1162.4     0.248      642.67     367.927    9.92       -9999      1.69       1.368      1.503      1.581      1.556      4.13       1.31       1.13       1.68       -9999      2.71       1.82       0.231      -9999      0.812974   0.4389221  1          1          0.3363303  3201914100000.0000000 7.203943   1.937      4.13       0.8623455  0.7302271  -9999      -4999.355  0.2896941  -9999     
1162.6     0.24       719.94     374.859    -9999      -9999      1.685      1.373      1.559      1.344      1.389      4.12       1.5        3.01       1.81       -9999      2.42       1.73       0.311      -9999      -9999      -9999      -9999      -9999      -9999      -9999      -9999      1.851      4.12       -9999      -9999      -9999      -9999      -9999      -9999     
1162.8     0.278      817.66     376.039    -9999      -9999      1.685      1.379      1.551      1.154      1.223      4.12       1.09       0.97       1.24       -9999      2.23       1.6        0.41       -9999      -9999      -9999      -9999      -9999      -9999      -9999      -9999      1.812      4.12       -9999      -9999      -9999      -9999      -9999      -9999     
1163       0.312      798.08     375.076    -9999      -9999      1.699      1.372      1.557      1.147      1.253      4.12       1.07       1.5        1.45       -9999      2.12       1.55       0.399      -9999      -9999      -9999      -9999      -9999      -9999      -9999      -9999      1.895      4.12       -9999      -9999      -9999      -9999      -9999      -9999     
