~Version
 VERS              .         2.0                           : CWLS LOG ASCII STANDARD - VERSION 2.0
 WRAP              .         NO                            : ONE LINE PER DEPTH STEP
 DLM               .         SPACE                         : DELIMITING CHARACTER(SPACE TAB OR COMMA)
~Well Information
#_______________________________________________________________________________
#
#PARAMETER_NAME    .UNIT     VALUE                         : DESCRIPTION
#_______________________________________________________________________________
STRT               .м        0                             : First reference value
STOP               .м        1167.4                        : Last reference value
STEP               .м        0.2                           : Step increment
NULL               .         -9999                         : Missing value
COMP               .                                       : Company
WELL               .         9421                          : Well name
FLD                .         Узень                         : Field
LOC                .                                       : Location
CNTY               .                                       : County
STAT               .                                       : State
CTRY               .                                       : Country
SRVC               .                                       : Service Company
DATE               .                                       : Date
UWI                .                                       : Unique Well ID
Block              .         7                             : 
Category           .         Нефтяная                      : 
Condition          .         В работе                      : 
Date               .         14.05.2016                    : 
EREF               .m        92.9                          : 100.8
GRP                .                                       : Group name
Gor                .         13                            : 
Gorizont           .         13                            : 14
ISS                .                                       : Well surveys
Interpretator      .         Кайсанов Е.К                  : 
Kupol              .         Основной                      : osnovnoi
Mud                .         Глинистый                     : 
Mud_density        .         1,34                          : 
Mud_resistivity    .         0,33                          : 
NGDU               .         НГДУ-2                        : 
ORIGINALWELLNAME   .         9421                          : 
Spud_date          .         2016                          : 1961
TIME               .                                       : LOG TIME
Viscosity          .         40                            : 
X                  .m        41760.27                      : 46154
Y                  .m        84652.7                       : 85761.93
YEAR               .         2019                          : 
Сдали_за_3_кв_2019 .         3                             : 
~Parameter Information Block
#_______________________________________________________________________________
#
#PARAMETER_NAME    .UNIT     VALUE                         : DESCRIPTION
#_______________________________________________________________________________
SET                .         LQC_KAZNIPI_Petrel            : 
TLFamily_CALI      .         Caliper                       : 
TLFamily_CILD      .         Conductivity                  : 
TLFamily_DEPT      .         Measured Depth                : 
TLFamily_DT        .         Compressional Slowness        : 
TLFamily_GR        .         Russian Gamma Ray             : 
TLFamily_GZ3       .         Gradient 225                  : 
TLFamily_IK1       .         Resistivity 05                : 
TLFamily_IK2       .         Resistivity 07                : 
TLFamily_IK3       .         Resistivity 10                : 
TLFamily_IK4       .         Resistivity 14                : 
TLFamily_IK5       .         Resistivity 20                : 
TLFamily_LLS       .         Lateral Log Resistivity       : 
TLFamily_MBK       .         Micro Lateral Log Resistivity : 
TLFamily_MINV      .         Micro Gradient Resistivity    : 
TLFamily_MNOR      .         Micro Resistivity             : 
TLFamily_NGLD      .         Neutron Far                   : 
TLFamily_NNKTB_1   .         Neutron Far                   : 
TLFamily_NNKTM_1   .         Neutron Near                  : 
TLFamily_NPHI      .         Neutron Porosity              : 
TLFamily_OGZ3      .         Gradient Inverted 225         : 
TLFamily_PHIE      .         Effective Porosity            : 
TLFamily_PHIED     .         Effective Porosity            : 
TLFamily_PHIEN     .         Effective Porosity            : 
TLFamily_PHIES     .         Effective Porosity            : 
TLFamily_PHIT      .         Porosity                      : 
TLFamily_PRMB      .         Permeability                  : 
TLFamily_PRMB_DGR  .         Permeability                  : 
TLFamily_RHOB      .         Bulk Density                  : 
TLFamily_RT        .         Formation Resistivity         : 
TLFamily_SOIL_ARCHIE .         Oil Saturation                : 
TLFamily_SOIL_DW   .         Oil Saturation                : 
TLFamily_SP        .         Spontaneous Potential         : 
TLFamily_VSH_FIN   .         Shale Volume                  : 
TLFamily_VSH_GR    .         Shale Volume                  : 
TLFamily_VSH_SP    .         Shale Volume                  : 
~Curve Information
#_______________________________________________________________________________
#
#LOGNAME           .UNIT     LOG_ID                        : DESCRIPTION
#_______________________________________________________________________________
DEPT               .м                                      : Колонка глубины 
CALI               .м                                      : Каверномер 
CILD               .мСм/м                                  : Проводимость 
DT                 .мкс/м                                  : Интервальное время пробега продольной волны 
GR                 .uR/h                                   : Гамма каротаж 
GZ3                .Ohmm                                   : Градиент-зонд  длиной 2.25м 
IK1                .OHMM                                   : И0.10И0.40 
IK2                .OHMM                                   : И0.14И0.56 
IK3                .OHMM                                   : И0.20И0.8 
IK4                .OHMM                                   : И0.28И1.12 
IK5                .OHMM                                   : И0.40И1.60 
LLS                .Ohmm                                   : Боковой каротаж 
MBK                .Ohmm                                   : Микробоковой каротаж 
MINV               .Ohmm                                   : Микро-градиент зонд 
MNOR               .Ohmm                                   : Микро-потенциал зонд 
NGLD               .у.е.                                   : Показания зонда НГК-60 аппаратуры ДРСТ-3-90 
NNKTB_1            .у.е.                                   : Показания большого зонда 2ННКт аппаратуры СРК 
NNKTM_1            .у.е.                                   : Показания малого зонда 2ННКт аппаратуры СРК 
NPHI               .v/v                                    : Total porosity 
OGZ3               .Ohmm                                   : Обращенный градиент-зонд 
PHIE               .v/v                                    : Описание 
PHIED              .v/v                                    :  
PHIEN              .v/v                                    :  
PHIES              .v/v                                    :  
PHIT               .v/v                                    : Описание 
PRMB               .mD                                     :  
PRMB_DGR           .mD                                     :  
RHOB               .г/см3                                  : Плотность по ГГКп 
RT                 .ohmm                                   : Удельное электрическое сопротивление 
SOIL_ARCHIE        .v/v                                    :  
SOIL_DW            .v/v                                    :  
SP                 .мВ                                     : Потенциал самополяризации 
VSH_FIN            .v/v                                    : Описание 
VSH_GR             .v/v                                    : Shale volume 
VSH_SP             .v/v                                    : Shale Volume 
~Ascii
# ...
1054       0.22       585.13     363.726    10.6       2.07       2.036      1.817      1.814      1.73       1.709      1.76       1.7        3.54       1.89       -9999      2.98       1.87       -9999      2.02       0.1068002  0.05339129 -9999      0.1602091  0.1944344  0.2662913  0.7851684  2.374      1.76       0          0.08340493 381.08     0.5590175  0.7161505  0.4018844 
1054.2     0.222      564.01     360.4      10.49      2.05       2.478      2.077      1.996      1.86       1.773      1.78       1.67       2.77       1.72       -9999      2.98       1.88       -9999      2.02       0.116744   0.07159937 -9999      0.1618886  0.2020871  0.4069489  0.873077   2.349      1.78       0          0.1403579  381.13     0.5444029  0.6857793  0.4030266 
1054.4     0.221      558.97     356.557    10.36      2.11       2.144      1.974      1.907      1.838      1.789      1.8        1.84       3.66       2.18       -9999      2.98       1.9        -9999      1.97       0.1268295  0.08978864 -9999      0.1638704  0.2094712  0.6256741  0.9897418  2.325      1.8        0          0.1905793  381.12     0.5271701  0.6515424  0.4027977 
1054.6     0.22       566.57     357.27     10.44      2.07       2.345      2.029      1.944      1.826      1.765      1.77       1.64       2.98       1.73       -9999      3.06       1.89       -9999      1.94       0.1201368  0.07906915 -9999      0.1612045  0.2044316  0.4703096  0.9162253  2.339      1.77       0          0.1535951  381.13     0.537715   0.6724033  0.4030266 
1054.8     0.227      588.58     357.707    10.49      2.09       2.282      1.987      1.923      1.777      1.699      1.74       1.77       3.41       1.79       -9999      3.15       1.88       -9999      1.97       0.1004486  0.04190209 -9999      0.1589952  0.1860436  0.2031002  0.873077   2.398      1.74       0          0.030062   381.27     0.5460095  0.6857793  0.4062397 
1055       0.219      625.78     359.544    10.4       2.04       1.838      1.682      1.688      1.613      1.598      1.71       1.67       2.99       1.77       -9999      3.13       1.86       -9999      1.95       0.1058462  0.04885311 -9999      0.1628392  0.1903362  0.2556737  0.9522747  2.389      1.71       0          0.0546709  381.69     0.5389605  0.6618907  0.4160302 
1055.2     0.223      627.35     356.143    10.29      1.99       1.985      1.756      1.722      1.622      1.594      1.7        1.55       2.33       1.7        -9999      3.11       1.85       -9999      1.99       0.1126734  0.06313302 -9999      0.1622137  0.1959569  0.3420913  1.058892   2.368      1.7        0          0.0911582  382.22     0.5312644  0.6338208  0.428708  
1055.4     0.221      586.85     345.497    10.02      2.07       1.994      1.817      1.806      1.732      1.704      1.76       1.66       3.2        1.83       -9999      3.15       1.87       -9999      2.04       0.1125725  0.06469181 -9999      0.1604533  0.1917873  0.3406236  1.373978   2.375      1.76       0          0.09480574 382.71     0.5053099  0.5698655  0.4407544 
1055.6     0.222      527.7      341.326    9.59       2.07       2.428      2.129      2.102      1.957      1.895      1.84       1.67       2.74       1.91       -9999      3.26       1.9        -9999      2.09       0.1267526  0.08337289 -9999      0.1701322  0.1991047  0.6236241  2.080404   2.36       1.84       0          0.1745725  382.76     0.4615335  0.4810651  0.4420018 
1055.8     0.219      494.8      343.087    9.06       2.17       2.777      2.368      2.258      2.129      2.021      1.91       1.97       3.97       2.17       -9999      3.35       1.92       -9999      2.1        0.1403385  0.09426211 -9999      0.1864148  0.2054095  1.113183   3.469083   2.359      1.91       0.08713987 0.2369704  382.67     0.4150873  0.390415   0.4397597 
1056       0.221      506.58     346.281    9          2.15       2.525      2.242      2.151      2.017      1.974      1.9        1.8        3.37       2.01       -9999      3.35       1.93       -9999      2.05       0.1396678  0.08787205 -9999      0.1914636  0.2037523  1.081795   3.675824   2.372      1.9        0.08106265 0.2297885  382.53     0.4087938  0.3812949  0.4362926 
1056.2     0.222      554.01     358.01     9.41       2.14       2.242      2.035      1.953      1.819      1.805      1.78       1.68       2.97       1.95       -9999      3.32       1.9        -9999      2.04       0.1466472  0.1010996  -9999      0.1921947  0.2157777  1.456864   2.474952   2.338      1.78       0.09189218 0.245951   382.43     0.4409829  0.4481338  0.4338321 
1056.4     0.228      604.59     369.286    10.15      2.1        1.947      1.816      1.777      1.676      1.654      1.67       1.59       2.83       1.72       -9999      3.32       1.85       -9999      1.98       0.1427388  0.1068049  -9999      0.1786727  0.223509   1.233182   1.212023   2.301      1.67       0.04202256 0.2291654  382.3      0.5152316  0.5998102  0.430653  
1056.6     0.226      638.56     379.565    10.57      2.04       1.884      1.7        1.69       1.606      1.566      1.6        1.6        2.72       1.9        -9999      3.24       1.83       -9999      1.98       0.1296056  0.08929767 -9999      0.1699135  0.21895    0.7043168  0.8082263  2.31       1.6        0          0.1711944  382.36     0.5699269  0.7077364  0.4321174 
1056.8     0.225      660.5      378.113    10.67      2.01       1.732      1.605      1.617      1.566      1.514      1.57       1.58       2.59       1.96       -9999      3.05       1.81       -9999      2.02       0.1215026  0.07920716 -9999      0.1637981  0.2133261  0.498519   0.7338939  2.321      1.57       0          0.1280125  382.49     0.5857404  0.7361741  0.4353067 
1057       0.226      674.76     362.134    10.66      1.89       1.804      1.605      1.584      1.538      1.482      1.56       1.56       2.15       1.95       -9999      2.95       1.82       -9999      2.03       0.1041061  0.05769746 -9999      0.1505148  0.1958962  0.2373866  0.7410087  2.357      1.56       0          0.02111779 382.59     0.5855274  0.7332796  0.4377751 
1057.2     0.226      679.34     345.51     10.6       1.88       1.748      1.589      1.548      1.516      1.472      1.57       1.56       2.67       1.55       -9999      2.97       1.84       -9999      2.08       0.09166924 0.04702544 -9999      0.136313   0.1829604  0.1396673  0.7851684  2.376      1.57       0          0          383.02     0.5823448  0.7161505  0.4485391 
1057.4     0.228      687.28     342.378    10.52      1.9        1.683      1.539      1.506      1.467      1.455      1.6        1.51       2.36       1.73       -9999      3.06       1.86       -9999      2.13       0.1032387  0.07119318 -9999      0.1352842  0.1935298  0.2287645  0.8481691  2.338      1.6        0          0.0230556  383.39     0.5759658  0.6939324  0.4579991 
1057.6     0.229      659.19     347.114    10.12      1.87       1.766      1.581      1.576      1.544      1.517      1.64       1.55       2.51       1.61       -9999      3.15       1.88       -9999      2.2        0.1229922  0.09162838 -9999      0.154356   0.2060268  0.5312164  1.247615   2.321      1.64       0          0.1329472  383.72     0.529677   0.5927632  0.4665909 
1057.8     0.229      592.41     344.045    9.59       1.95       2.242      1.936      1.889      1.777      1.688      1.72       1.76       3.17       1.96       -9999      3.23       1.89       -9999      2.21       0.1239179  0.08027955 -9999      0.1675563  0.1988825  0.5526099  2.080404   2.359      1.72       0          0.1378611  384.05     0.4781978  0.4810651  0.4753305 
1058       0.225      555.55     339.016    9.36       1.93       2.404      2.107      2.019      1.88       1.8        1.82       1.75       3.28       1.98       -9999      3.3        1.9        -9999      2.22       0.1181253  0.06840247 -9999      0.1678481  0.1904776  0.4316427  2.597267   2.385      1.82       0          0.1232434  384.36     0.4615348  0.439393   0.4836766 
