~Version
 VERS              .         2.0                           : CWLS LOG ASCII STANDARD - VERSION 2.0
 WRAP              .         NO                            : ONE LINE PER DEPTH STEP
 DLM               .         SPACE                         : DELIMITING CHARACTER(SPACE TAB OR COMMA)
~Well Information
#_______________________________________________________________________________
#
#PARAMETER_NAME    .UNIT     VALUE                         : DESCRIPTION
#_______________________________________________________________________________
STRT               .м        0                             : First reference value
STOP               .м        1167.4                        : Last reference value
STEP               .м        0.2                           : Step increment
NULL               .         -9999                         : Missing value
COMP               .                                       : Company
WELL               .         9421                          : Well name
FLD                .         Узень                         : Field
LOC                .                                       : Location
CNTY               .                                       : County
STAT               .                                       : State
CTRY               .                                       : Country
SRVC               .                                       : Service Company
DATE               .                                       : Date
UWI                .                                       : Unique Well ID
Block              .         7                             : 
Category           .         Нефтяная                      : 
Condition          .         В работе                      : 
Date               .         14.05.2016                    : 
EREF               .m        92.9                          : 100.8
GRP                .                                       : Group name
Gor                .         13                            : 
Gorizont           .         13                            : 14
ISS                .                                       : Well surveys
Interpretator      .         Кайсанов Е.К                  : 
Kupol              .         Основной                      : osnovnoi
Mud                .         Глинистый                     : 
Mud_density        .         1,34                          : 
Mud_resistivity    .         0,33                          : 
NGDU               .         НГДУ-2                        : 
ORIGINALWELLNAME   .         9421                          : 
Spud_date          .         2016                          : 1961
TIME               .                                       : LOG TIME
Viscosity          .         40                            : 
X                  .m        41760.27                      : 46154
Y                  .m        84652.7                       : 85761.93
YEAR               .         2019                          : 
Сдали_за_3_кв_2019 .         3                             : 
~Parameter Information Block
#_______________________________________________________________________________
#
#PARAMETER_NAME    .UNIT     VALUE                         : DESCRIPTION
#_______________________________________________________________________________
SET                .         LQC_KAZNIPI_Petrel            : 
TLFamily_CALI      .         Caliper                       : 
TLFamily_CILD      .         Conductivity                  : 
TLFamily_DEPT      .         Measured Depth                : 
TLFamily_DT        .         Compressional Slowness        : 
TLFamily_GR        .         Russian Gamma Ray             : 
TLFamily_GZ3       .         Gradient 225                  : 
TLFamily_IK1       .         Resistivity 05                : 
TLFamily_IK2       .         Resistivity 07                : 
TLFamily_IK3       .         Resistivity 10                : 
TLFamily_IK4       .         Resistivity 14                : 
TLFamily_IK5       .         Resistivity 20                : 
TLFamily_LLS       .         Lateral Log Resistivity       : 
TLFamily_MBK       .         Micro Lateral Log Resistivity : 
TLFamily_MINV      .         Micro Gradient Resistivity    : 
TLFamily_MNOR      .         Micro Resistivity             : 
TLFamily_NGLD      .         Neutron Far                   : 
TLFamily_NNKTB_1   .         Neutron Far                   : 
TLFamily_NNKTM_1   .         Neutron Near                  : 
TLFamily_NPHI      .         Neutron Porosity              : 
TLFamily_OGZ3      .         Gradient Inverted 225         : 
TLFamily_PHIE      .         Effective Porosity            : 
TLFamily_PHIED     .         Effective Porosity            : 
TLFamily_PHIEN     .         Effective Porosity            : 
TLFamily_PHIES     .         Effective Porosity            : 
TLFamily_PHIT      .         Porosity                      : 
TLFamily_PRMB      .         Permeability                  : 
TLFamily_PRMB_DGR  .         Permeability                  : 
TLFamily_RHOB      .         Bulk Density                  : 
TLFamily_RT        .         Formation Resistivity         : 
TLFamily_SOIL_ARCHIE .         Oil Saturation                : 
TLFamily_SOIL_DW   .         Oil Saturation                : 
TLFamily_SP        .         Spontaneous Potential         : 
TLFamily_VSH_FIN   .         Shale Volume                  : 
TLFamily_VSH_GR    .         Shale Volume                  : 
TLFamily_VSH_SP    .         Shale Volume                  : 
~Curve Information
#_______________________________________________________________________________
#
#LOGNAME           .UNIT     LOG_ID                        : DESCRIPTION
#_______________________________________________________________________________
DEPT               .м                                      : Колонка глубины 
CALI               .м                                      : Каверномер 
CILD               .мСм/м                                  : Проводимость 
DT                 .мкс/м                                  : Интервальное время пробега продольной волны 
GR                 .uR/h                                   : Гамма каротаж 
GZ3                .Ohmm                                   : Градиент-зонд  длиной 2.25м 
IK1                .OHMM                                   : И0.10И0.40 
IK2                .OHMM                                   : И0.14И0.56 
IK3                .OHMM                                   : И0.20И0.8 
IK4                .OHMM                                   : И0.28И1.12 
IK5                .OHMM                                   : И0.40И1.60 
LLS                .Ohmm                                   : Боковой каротаж 
MBK                .Ohmm                                   : Микробоковой каротаж 
MINV               .Ohmm                                   : Микро-градиент зонд 
MNOR               .Ohmm                                   : Микро-потенциал зонд 
NGLD               .у.е.                                   : Показания зонда НГК-60 аппаратуры ДРСТ-3-90 
NNKTB_1            .у.е.                                   : Показания большого зонда 2ННКт аппаратуры СРК 
NNKTM_1            .у.е.                                   : Показания малого зонда 2ННКт аппаратуры СРК 
NPHI               .v/v                                    : Total porosity 
OGZ3               .Ohmm                                   : Обращенный градиент-зонд 
PHIE               .v/v                                    : Описание 
PHIED              .v/v                                    :  
PHIEN              .v/v                                    :  
PHIES              .v/v                                    :  
PHIT               .v/v                                    : Описание 
PRMB               .mD                                     :  
PRMB_DGR           .mD                                     :  
RHOB               .г/см3                                  : Плотность по ГГКп 
RT                 .ohmm                                   : Удельное электрическое сопротивление 
SOIL_ARCHIE        .v/v                                    :  
SOIL_DW            .v/v                                    :  
SP                 .мВ                                     : Потенциал самополяризации 
VSH_FIN            .v/v                                    : Описание 
VSH_GR             .v/v                                    : Shale volume 
VSH_SP             .v/v                                    : Shale Volume 
~Ascii
# ...
1142.2     0.209      594.53     341.998    7.99       2.3        4.316      2.467      1.934      1.74       1.682      2.74       3.17       2.77       3.68       -9999      3.3        2.01       0.247      2.82       0.2367508  0.2407186  0.1993297  0.2702041  0.2677379  67.97633   112.2637   2.268      2.74       0.5112842  0.5612893  369.07     0.1444553  0.09439155 0.1945191 
1142.4     0.212      606.42     344.986    7.91       2.21       4.118      2.387      1.872      1.693      1.649      2.74       3.22       3.94       4.23       -9999      3.23       2.01       0.253      2.87       0.2395061  0.2389222  0.2059271  0.2736689  0.2701049  76.45251   125.7987   2.271      2.74       0.5161845  0.565648   369.25     0.1426451  0.09010448 0.1951856 
1142.6     0.216      613.12     346.956    7.9        2.21       4.292      2.424      1.861      1.686      1.631      2.75       3.22       4.12       4.55       -9999      3.26       2.01       0.261      2.93       0.2444483  0.2449102  0.2133916  0.275043   0.2753952  94.39156   127.6014   2.261      2.75       0.5255269  0.574954   369.76     0.1442678  0.08958248 0.1989531 
1142.8     0.213      606.06     346.251    7.89       2.17       4.175      2.36       1.809      1.659      1.65       2.79       3.17       4.03       4.52       -9999      3.37       2.02       0.267      2.98       0.2484889  0.2526947  0.2188833  0.2738887  0.2797662  112.1437   129.4301   2.248      2.79       0.5354125  0.5847198  370.24     0.1458083  0.08906349 0.2025531 
1143       0.212      563.38     344.225    7.98       2.25       4.163      2.323      1.813      1.712      1.775      2.89       3.21       4.23       4.76       -9999      3.52       2.03       0.243      3.02       0.237812   0.2497006  0.1932977  0.2704376  0.2701199  71.12338   113.8724   2.253      2.89       0.5252088  0.5757992  370.83     0.1506131  0.09384473 0.2073815 
1143.2     0.213      480.76     342.333    8.16       2.31       4.099      2.39       2.039      1.976      2.08       3.08       3.24       4.24       4.74       -9999      3.71       2.06       0.21       3.06       0.2219388  0.2425149  0.1574276  0.265874   0.2561125  36.1413    88.14249   2.265      3.08       0.51061    0.563682   371.61     0.1593103  0.104191   0.2144296 
1143.4     0.215      377.35     343.68     8.03       2.42       4.837      3.14       2.734      2.611      2.65       3.35       3.15       4.38       4.75       -9999      4.01       2.11       0.187      3.02       0.212619   0.2365269  0.1342834  0.2670467  0.2468864  24.28724   106.0524   2.275      3.35       0.5116214  0.5648505  372.48     0.1597473  0.09661099 0.2228836 
1143.6     0.216      283.12     324.507    7.85       2.59       6.568      5.295      4.594000000000001 4.053999999999999 3.532      3.81       3.76       4.5        4.77       -9999      4.61       2.2        0.157      2.93       0.1924605  0.2257485  0.104268   0.2473651  0.2267379  10.28002   137.0105   2.293      3.81       0.4985682  0.5529618  373.41     0.159794   0.08701744 0.2325705 
1143.8     0.216      215.37     270.357    7.64       2.69       9.698      9.212      9.004000000000001 6.108999999999999 4.643      4.36       4.39       4.81       4.78       -9999      5.49       2.34       0.167      2.74       0.1697224  0.2167664  0.1149742  0.1774267  0.2035407  3.897886   184.7252   2.308      4.36       0.4748453  0.5309542  373.98     0.1576539  0.07702221 0.2382856 
1144       0.216      162.91     212.557    7.56       2.83       11.583     12.751     16.04200000000001 9.403      6.138      5.04       4.21       5.41       5.24       -9999      6.33       2.49       0.083      2.55       0.1009275  0.208982   0.03121219 0.06258841 0.1345911  0.2072911  206.9966   2.321      5.04       0.2284755  0.3101724  374.25     0.1569328  0.07352401 0.2403415 
1144.2     0.221      121.62     191.724    7.51       2.93       16.649     17.626     28.25700000000001 20.299     8.222      5.21       4.31       4.34       4.62       -9999      6.8        2.6        0.028      2.39       0.07309851 0.2143712  0          0.00492429 0.09856005 0.06325863 222.2599   2.312      5.21       0          0.06922735 374.11     0.1543225  0.07141879 0.2372261 
1144.4     0.217      82.78      196.551    7.43       3.11       17.802     21.931     48.274     57.74300000000001 12.08      4.97       4.63       4.54       4.81       -9999      6.64       2.62       0.029      2.23       0.08358605 0.2293414  0          0.0214168  0.108768   0.0989406  249.0568   2.287      4.97       0.0848125  0.14915    373.52     0.148458   0.06817508 0.2287409 
1144.6     0.213      43.99      237.184    7.34       3.23       18.591     22.522     61.98100000000001 233.2610000000001 22.729     4.62       4.66       4.68       4.78       -9999      6.08       2.57       0.043      2.08       0.1212764  0.2407186  0          0.1231106  0.1504642  0.4937319  283.0837   2.268      4.62       0.3151278  0.3747051  372.83     0.1421349  0.06470168 0.2195682 
1144.8     0.208      20.78      269.018    7.34       3.39       15.14      18.775     50.99900000000002 320.7340000000001 48.10099999999999 4.16       4.69       4.54       4.74       -9999      5.5        2.49       0.133      1.98       0.1669989  0.2311378  0.0879299  0.181929   0.1962958  3.470428   283.0837   2.284      4.16       0.4555274  0.506309   371.9      0.1365761  0.06470168 0.2084504 
1145       0.214      10.98      305.718    7.37       3.44       12.351     13.783     31.75      120.248    90.99700000000001 3.77       4.19       4.66       4.65       -9999      5.04       2.41       0.172      1.9        0.1980002  0.2299401  0.1290591  0.2350013  0.225913   13.01972   271.254    2.286      3.77       0.5083803  0.5550628  370.56     0.1301239  0.06583935 0.1944084 
1145.2     0.214      16.2       362.154    7.59       3.45       11.355     11.404     20.605     47.076     61.71800000000002 3.31       3.95       3.65       4.22       -9999      4.67       2.32       0.171      1.77       0.2252581  0.2538922  0.1283198  0.2935623  0.2530015  41.63746   198.3463   2.246      3.31       0.5329507  0.5788331  369.45     0.129334   0.07481683 0.1838511 
1145.4     0.212      41.84      402.861    7.92       3.48       8.138      7.697000000000001 10.281     18.477     23.897     2.98       3.51       4.36       4.45       -9999      4.25       2.25       0.17       1.66       0.2381106  0.263473   0.1263239  0.3245349  0.2665014  72.03518   124.0213   2.23       2.98       0.5325038  0.5792418  368.3      0.1323517  0.09062954 0.1740739 
1145.6     0.215      133.79     395.138    8.24       3.36       5.258      4.728      5.464      7.912000000000001 7.474      2.64       3.31       4.28       4.45       -9999      3.91       2.17       0.187      1.52       0.2421277  0.2670659  0.14179    0.3175274  0.2715156  85.49709   78.659     2.224      2.64       0.5123155  0.5608647  367.07     0.137      0.1091483  0.1648517 
1145.8     0.216      256.27     353.558    8.4        3.29       3.79       2.931      3.202      3.887      3.902      2.46       3.13       3.9        4.36       -9999      3.73       2.13       0.199      1.44       0.2359464  0.2724552  0.1528237  0.2825605  0.2659625  65.68386   62.64326   2.215      2.46       0.4844005  0.5345508  366.41     0.1399283  0.1197817  0.1600749 
1146       0.215      384.02     338.425    8.34       3.1        3.702      2.188      2.436      2.86       2.604      2.36       3.11       4.23       4.34       -9999      3.64       2.11       0.213      1.33       0.2382776  0.2772455  0.1681938  0.2693936  0.267403   72.54998   68.2263    2.207      2.36       0.4787437  0.5282464  365.79     0.1357765  0.1156779  0.155875  
1146.2     0.216      451.05     346.295    8.26       3          3.93       2.045      2.173      2.642      2.217      2.31       3.07       4.04       4.15       -9999      3.59       2.09       0.221      1.23       0.2428116  0.2724552  0.1775835  0.2783963  0.2710336  88.02756   76.45199   2.215      2.31       0.4820527  0.5306342  365.31     0.1315652  0.1104241  0.1527063 
