~Version
 VERS              .         2.0                           : CWLS LOG ASCII STANDARD - VERSION 2.0
 WRAP              .         NO                            : ONE LINE PER DEPTH STEP
 DLM               .         SPACE                         : DELIMITING CHARACTER(SPACE TAB OR COMMA)
~Well Information
#_______________________________________________________________________________
#
#PARAMETER_NAME    .UNIT     VALUE                         : DESCRIPTION
#_______________________________________________________________________________
STRT               .м        0                             : First reference value
STOP               .м        1167.4                        : Last reference value
STEP               .м        0.2                           : Step increment
NULL               .         -9999                         : Missing value
COMP               .                                       : Company
WELL               .         9421                          : Well name
FLD                .         Узень                         : Field
LOC                .                                       : Location
CNTY               .                                       : County
STAT               .                                       : State
CTRY               .                                       : Country
SRVC               .                                       : Service Company
DATE               .                                       : Date
UWI                .                                       : Unique Well ID
Block              .         7                             : 
Category           .         Нефтяная                      : 
Condition          .         В работе                      : 
Date               .         14.05.2016                    : 
EREF               .m        92.9                          : 100.8
GRP                .                                       : Group name
Gor                .         13                            : 
Gorizont           .         13                            : 14
ISS                .                                       : Well surveys
Interpretator      .         Кайсанов Е.К                  : 
Kupol              .         Основной                      : osnovnoi
Mud                .         Глинистый                     : 
Mud_density        .         1,34                          : 
Mud_resistivity    .         0,33                          : 
NGDU               .         НГДУ-2                        : 
ORIGINALWELLNAME   .         9421                          : 
Spud_date          .         2016                          : 1961
TIME               .                                       : LOG TIME
Viscosity          .         40                            : 
X                  .m        41760.27                      : 46154
Y                  .m        84652.7                       : 85761.93
YEAR               .         2019                          : 
Сдали_за_3_кв_2019 .         3                             : 
~Parameter Information Block
#_______________________________________________________________________________
#
#PARAMETER_NAME    .UNIT     VALUE                         : DESCRIPTION
#_______________________________________________________________________________
SET                .         LQC_KAZNIPI_Petrel            : 
TLFamily_CALI      .         Caliper                       : 
TLFamily_CILD      .         Conductivity                  : 
TLFamily_DEPT      .         Measured Depth                : 
TLFamily_DT        .         Compressional Slowness        : 
TLFamily_GR        .         Russian Gamma Ray             : 
TLFamily_GZ3       .         Gradient 225                  : 
TLFamily_IK1       .         Resistivity 05                : 
TLFamily_IK2       .         Resistivity 07                : 
TLFamily_IK3       .         Resistivity 10                : 
TLFamily_IK4       .         Resistivity 14                : 
TLFamily_IK5       .         Resistivity 20                : 
TLFamily_LLS       .         Lateral Log Resistivity       : 
TLFamily_MBK       .         Micro Lateral Log Resistivity : 
TLFamily_MINV      .         Micro Gradient Resistivity    : 
TLFamily_MNOR      .         Micro Resistivity             : 
TLFamily_NGLD      .         Neutron Far                   : 
TLFamily_NNKTB_1   .         Neutron Far                   : 
TLFamily_NNKTM_1   .         Neutron Near                  : 
TLFamily_NPHI      .         Neutron Porosity              : 
TLFamily_OGZ3      .         Gradient Inverted 225         : 
TLFamily_PHIE      .         Effective Porosity            : 
TLFamily_PHIED     .         Effective Porosity            : 
TLFamily_PHIEN     .         Effective Porosity            : 
TLFamily_PHIES     .         Effective Porosity            : 
TLFamily_PHIT      .         Porosity                      : 
TLFamily_PRMB      .         Permeability                  : 
TLFamily_PRMB_DGR  .         Permeability                  : 
TLFamily_RHOB      .         Bulk Density                  : 
TLFamily_RT        .         Formation Resistivity         : 
TLFamily_SOIL_ARCHIE .         Oil Saturation                : 
TLFamily_SOIL_DW   .         Oil Saturation                : 
TLFamily_SP        .         Spontaneous Potential         : 
TLFamily_VSH_FIN   .         Shale Volume                  : 
TLFamily_VSH_GR    .         Shale Volume                  : 
TLFamily_VSH_SP    .         Shale Volume                  : 
~Curve Information
#_______________________________________________________________________________
#
#LOGNAME           .UNIT     LOG_ID                        : DESCRIPTION
#_______________________________________________________________________________
DEPT               .м                                      : Колонка глубины 
CALI               .м                                      : Каверномер 
CILD               .мСм/м                                  : Проводимость 
DT                 .мкс/м                                  : Интервальное время пробега продольной волны 
GR                 .uR/h                                   : Гамма каротаж 
GZ3                .Ohmm                                   : Градиент-зонд  длиной 2.25м 
IK1                .OHMM                                   : И0.10И0.40 
IK2                .OHMM                                   : И0.14И0.56 
IK3                .OHMM                                   : И0.20И0.8 
IK4                .OHMM                                   : И0.28И1.12 
IK5                .OHMM                                   : И0.40И1.60 
LLS                .Ohmm                                   : Боковой каротаж 
MBK                .Ohmm                                   : Микробоковой каротаж 
MINV               .Ohmm                                   : Микро-градиент зонд 
MNOR               .Ohmm                                   : Микро-потенциал зонд 
NGLD               .у.е.                                   : Показания зонда НГК-60 аппаратуры ДРСТ-3-90 
NNKTB_1            .у.е.                                   : Показания большого зонда 2ННКт аппаратуры СРК 
NNKTM_1            .у.е.                                   : Показания малого зонда 2ННКт аппаратуры СРК 
NPHI               .v/v                                    : Total porosity 
OGZ3               .Ohmm                                   : Обращенный градиент-зонд 
PHIE               .v/v                                    : Описание 
PHIED              .v/v                                    :  
PHIEN              .v/v                                    :  
PHIES              .v/v                                    :  
PHIT               .v/v                                    : Описание 
PRMB               .mD                                     :  
PRMB_DGR           .mD                                     :  
RHOB               .г/см3                                  : Плотность по ГГКп 
RT                 .ohmm                                   : Удельное электрическое сопротивление 
SOIL_ARCHIE        .v/v                                    :  
SOIL_DW            .v/v                                    :  
SP                 .мВ                                     : Потенциал самополяризации 
VSH_FIN            .v/v                                    : Описание 
VSH_GR             .v/v                                    : Shale volume 
VSH_SP             .v/v                                    : Shale Volume 
~Ascii
# ...
965.8      0.235      461.46     323.078    6.69       2.93       3.218      2.086      2.06       2.129      2.167      2.31       1.67       2.79       1.9        -9999      3.64       1.98       -9999      3.28       0.2406645  0.2766467  -9999      0.2046824  0.2862763  80.32473   4.316954   2.208      2.31       0.4780304  0.5434183  396.35     0.290957   0.3570673  0.2248467 
966        0.227      427.71     311.782    6.87       2.91       3.565      3.264      2.918      2.573      2.338      2.35       2.4        6.06       3.07       -9999      3.71       2.01       -9999      3.3        0.2226506  0.2592815  -9999      0.1860197  0.2711792  37.25517   3.423575   2.237      2.35       0.4459175  0.5173161  396.42     0.3095637  0.3925258  0.2266015 
966.2      0.227      430.1      316.395    6.92       2.87       2.028      2.083      2.065      2.237      2.325      2.45       2.12       5.7        2.73       -9999      3.81       2.01       -9999      3.31       0.2131487  0.2371258  -9999      0.1891716  0.2627762  24.84213   3.210023   2.274      2.45       0.4356112  0.5096465  396.64     0.3165733  0.402986   0.2301606 
966.4      0.24       462.53     332.544    6.72       2.84       2.975      2.695      2.435      2.321      2.162      2.36       1.68       2.44       1.89       -9999      3.83       2.01       -9999      3.28       0.2273824  0.2419161  -9999      0.2128486  0.2739508  45.58598   4.153313   2.266      2.36       0.4570565  0.5253978  396.66     0.2970591  0.3627463  0.231372  
966.6      0.228      424.08     318.237    6.39       2.73       3.024      3.171      2.883      2.77       2.358      2.33       2.24       5.18       3.12       -9999      3.81       2          -9999      3.29       0.2177427  0.2287425  -9999      0.2067429  0.259631   30.21905   6.35341    2.288      2.33       0.4327855  0.4982166  396.42     0.2672048  0.3049437  0.2294659 
966.8      0.222      403.55     314.387    5.97       2.79       3.817000000000001 3.043      2.835      2.709      2.478      2.51       2.39       4.86       2.91       -9999      3.66       2.02       -9999      3.24       0.2048582  0.1976048  -9999      0.2121116  0.241861   17.44332   10.91361   2.34       2.51       0.4223651  0.4831989  396.18     0.2360406  0.244499   0.2275821 
967        0.23       432.52     334.673    5.79       2.76       2.242      2.259      2.25       2.253      2.312      2.52       2.1        5.5        2.91       -9999      3.57       2.04       -9999      3.17       0.2228533  0.2077845  -9999      0.2379222  0.2579791  37.57878   13.7615    2.323      2.52       0.4642082  0.5204796  395.94     0.2240669  0.2224124  0.2257214 
967.2      0.235      423.54     331.089    5.65       2.73       3.092      2.86       2.606      2.444      2.361      2.41       1.81       2.41       1.82       -9999      3.59       2.04       -9999      3.17       0.2274928  0.2179641  -9999      0.2370215  0.2612188  45.80117   16.48109   2.306      2.41       0.4625992  0.5174133  395.68     0.2151378  0.2066228  0.2236529 
967.4      0.224      382.55     308.233    5.59       2.78       2.44       2.502      2.591      2.655      2.614      2.44       2.1        3.89       3.03       -9999      3.81       2.04       -9999      3.14       0.2108453  0.208982   -9999      0.2127086  0.2439171  22.5177    17.8054    2.321      2.44       0.4291503  0.4847328  395.43     0.2109647  0.2002037  0.2217256 
967.6      0.221      339.78     311.332    5.47       2.87       4.771000000000001 3.911      3.725      3.291      2.943      2.6        1.92       1.57       2.26       -9999      4.1        2.09       -9999      3.18       0.2174815  0.2167664  -9999      0.2181965  0.2496565  29.88425   20.78183   2.308      2.6        0.4606679  0.5139183  395.42     0.2052443  0.1879576  0.2225309 
967.8      0.222      329.05     314.723    5.44       3.08       4.296      3.798999999999999 3.491      3.209      3.039      2.74       2.6        7.09       3.77       -9999      4.26       2.14       -9999      3.16       0.1904963  0.1586827  -9999      0.2223099  0.2225942  9.453907   21.60064   2.405      2.74       0.4094201  0.4649045  395.51     0.2047522  0.185015   0.2244894 
968        0.223      384.02     324.893    5.66       3.12       3.359999999999999 2.866      2.828      2.646      2.604      2.8        2.46       5.87       3.2        -9999      4.21       2.14       -9999      3.03       0.1801423  0.130539   -9999      0.2297457  0.2142115  6.07898    16.27016   2.452      2.8        0.3862341  0.4458516  395.64     0.217327   0.2077124  0.2269416 
968.2      0.224      417.36     333.751    5.93       3.2        2.338      2.368      2.379      2.316      2.396      2.56       1.78       3.2        2.1        -9999      4.05       2.1        -9999      2.87       0.2109523  0.188024   -9999      0.2338806  0.2476267  22.6207    11.49067   2.356      2.56       0.4421137  0.5014059  395.69     0.233946   0.2394086  0.2284833 
968.4      0.224      379.79     336.844    6.09       3.15       3.278      3.209      3.139      2.735      2.633      2.43       1.82       3.04       1.94       -9999      3.95       2.06       -9999      2.85       0.2281001  0.2221557  -9999      0.2340444  0.2662663  47.0029    9.350531   2.299      2.43       0.4659208  0.5251948  395.44     0.2434619  0.260429   0.2264948 
968.6      0.222      340.36     323.655    5.86       3.2        3.68       3.403999999999999 3.376      3.133      2.938      2.58       2.34       4.9        3.21       -9999      3.99       2.07       -9999      2.85       0.1972493  0.169461   -9999      0.2250376  0.2329991  12.60937   12.57493   2.387      2.58       0.4106622  0.4707532  395.26     0.2280476  0.2307541  0.2253412 
968.8      0.223      350.87     329.799    5.47       3.28       4.213      3.351      3.094      2.902      2.85       2.76       2.21       4.92       3.02       -9999      4.01       2.11       -9999      2.83       0.1938064  0.1491018  -9999      0.238511   0.2261119  10.88736   20.78183   2.421      2.76       0.4201971  0.4754865  395.08     0.2060767  0.1879576  0.2241957 
969        0.221      379.5      331.001    5.45       3.33       2.698      2.634      2.567      2.621      2.635      2.69       2.25       6.23       2.86       -9999      4.07       2.12       -9999      2.81       0.2007922  0.1610778  -9999      0.2405065  0.2327298  14.66615   21.32418   2.401      2.69       0.4309876  0.4852532  394.76     0.2037296  0.1859907  0.2214684 
969.2      0.221      369        330.328    5.52       3.37       3.857      3.329      3.102      2.888      2.71       2.55       1.85       3.03       2.31       -9999      4.04       2.11       -9999      2.81       0.1971802  0.1556886  -9999      0.2386717  0.2296831  12.57225   19.48553   2.41       2.55       0.4072377  0.4631633  394.7      0.2073356  0.1929664  0.2217049 
969.4      0.221      360.88     329.438    5.61       3.32       3.315999999999999 3.277      3.116      2.849      2.771      2.54       2.6        6.52       3.36       -9999      3.99       2.1        -9999      2.83       0.1902631  0.1443114  -9999      0.2362148  0.2235267  9.360357   17.35255   2.429      2.54       0.3873836  0.4452823  394.65     0.2121879  0.2023209  0.222055  
969.6      0.222      390.16     337.721    5.57       3.34       3.087      2.817      2.702      2.56       2.563      2.53       1.88       3.48       2.14       -9999      3.87       2.08       -9999      2.78       0.2023537  0.1592814  -9999      0.245426   0.2352701  15.67616   18.27009   2.404      2.53       0.4183137  0.4742619  394.55     0.2099735  0.1981086  0.2218383 
969.8      0.221      425.89     341.172    5.74       3.27       3.001      2.659      2.587      2.446      2.348      2.35       2.1        3.93       2.37       -9999      3.66       2.05       -9999      2.74       0.2134853  0.1814371  -9999      0.2455335  0.2480612  25.20133   14.67701   2.367      2.35       0.425256   0.4827611  394.7      0.220559   0.2166393  0.2244788 
