~Version
 VERS              .         2.0                           : CWLS LOG ASCII STANDARD - VERSION 2.0
 WRAP              .         NO                            : ONE LINE PER DEPTH STEP
 DLM               .         SPACE                         : DELIMITING CHARACTER(SPACE TAB OR COMMA)
~Well Information
#_______________________________________________________________________________
#
#PARAMETER_NAME    .UNIT     VALUE                         : DESCRIPTION
#_______________________________________________________________________________
STRT               .м        0                             : First reference value
STOP               .м        1167.4                        : Last reference value
STEP               .м        0.2                           : Step increment
NULL               .         -9999                         : Missing value
COMP               .                                       : Company
WELL               .         9421                          : Well name
FLD                .         Узень                         : Field
LOC                .                                       : Location
CNTY               .                                       : County
STAT               .                                       : State
CTRY               .                                       : Country
SRVC               .                                       : Service Company
DATE               .                                       : Date
UWI                .                                       : Unique Well ID
Block              .         7                             : 
Category           .         Нефтяная                      : 
Condition          .         В работе                      : 
Date               .         14.05.2016                    : 
EREF               .m        92.9                          : 100.8
GRP                .                                       : Group name
Gor                .         13                            : 
Gorizont           .         13                            : 14
ISS                .                                       : Well surveys
Interpretator      .         Кайсанов Е.К                  : 
Kupol              .         Основной                      : osnovnoi
Mud                .         Глинистый                     : 
Mud_density        .         1,34                          : 
Mud_resistivity    .         0,33                          : 
NGDU               .         НГДУ-2                        : 
ORIGINALWELLNAME   .         9421                          : 
Spud_date          .         2016                          : 1961
TIME               .                                       : LOG TIME
Viscosity          .         40                            : 
X                  .m        41760.27                      : 46154
Y                  .m        84652.7                       : 85761.93
YEAR               .         2019                          : 
Сдали_за_3_кв_2019 .         3                             : 
~Parameter Information Block
#_______________________________________________________________________________
#
#PARAMETER_NAME    .UNIT     VALUE                         : DESCRIPTION
#_______________________________________________________________________________
SET                .         LQC_KAZNIPI_Petrel            : 
TLFamily_CALI      .         Caliper                       : 
TLFamily_CILD      .         Conductivity                  : 
TLFamily_DEPT      .         Measured Depth                : 
TLFamily_DT        .         Compressional Slowness        : 
TLFamily_GR        .         Russian Gamma Ray             : 
TLFamily_GZ3       .         Gradient 225                  : 
TLFamily_IK1       .         Resistivity 05                : 
TLFamily_IK2       .         Resistivity 07                : 
TLFamily_IK3       .         Resistivity 10                : 
TLFamily_IK4       .         Resistivity 14                : 
TLFamily_IK5       .         Resistivity 20                : 
TLFamily_LLS       .         Lateral Log Resistivity       : 
TLFamily_MBK       .         Micro Lateral Log Resistivity : 
TLFamily_MINV      .         Micro Gradient Resistivity    : 
TLFamily_MNOR      .         Micro Resistivity             : 
TLFamily_NGLD      .         Neutron Far                   : 
TLFamily_NNKTB_1   .         Neutron Far                   : 
TLFamily_NNKTM_1   .         Neutron Near                  : 
TLFamily_NPHI      .         Neutron Porosity              : 
TLFamily_OGZ3      .         Gradient Inverted 225         : 
TLFamily_PHIE      .         Effective Porosity            : 
TLFamily_PHIED     .         Effective Porosity            : 
TLFamily_PHIEN     .         Effective Porosity            : 
TLFamily_PHIES     .         Effective Porosity            : 
TLFamily_PHIT      .         Porosity                      : 
TLFamily_PRMB      .         Permeability                  : 
TLFamily_PRMB_DGR  .         Permeability                  : 
TLFamily_RHOB      .         Bulk Density                  : 
TLFamily_RT        .         Formation Resistivity         : 
TLFamily_SOIL_ARCHIE .         Oil Saturation                : 
TLFamily_SOIL_DW   .         Oil Saturation                : 
TLFamily_SP        .         Spontaneous Potential         : 
TLFamily_VSH_FIN   .         Shale Volume                  : 
TLFamily_VSH_GR    .         Shale Volume                  : 
TLFamily_VSH_SP    .         Shale Volume                  : 
~Curve Information
#_______________________________________________________________________________
#
#LOGNAME           .UNIT     LOG_ID                        : DESCRIPTION
#_______________________________________________________________________________
DEPT               .м                                      : Колонка глубины 
CALI               .м                                      : Каверномер 
CILD               .мСм/м                                  : Проводимость 
DT                 .мкс/м                                  : Интервальное время пробега продольной волны 
GR                 .uR/h                                   : Гамма каротаж 
GZ3                .Ohmm                                   : Градиент-зонд  длиной 2.25м 
IK1                .OHMM                                   : И0.10И0.40 
IK2                .OHMM                                   : И0.14И0.56 
IK3                .OHMM                                   : И0.20И0.8 
IK4                .OHMM                                   : И0.28И1.12 
IK5                .OHMM                                   : И0.40И1.60 
LLS                .Ohmm                                   : Боковой каротаж 
MBK                .Ohmm                                   : Микробоковой каротаж 
MINV               .Ohmm                                   : Микро-градиент зонд 
MNOR               .Ohmm                                   : Микро-потенциал зонд 
NGLD               .у.е.                                   : Показания зонда НГК-60 аппаратуры ДРСТ-3-90 
NNKTB_1            .у.е.                                   : Показания большого зонда 2ННКт аппаратуры СРК 
NNKTM_1            .у.е.                                   : Показания малого зонда 2ННКт аппаратуры СРК 
NPHI               .v/v                                    : Total porosity 
OGZ3               .Ohmm                                   : Обращенный градиент-зонд 
PHIE               .v/v                                    : Описание 
PHIED              .v/v                                    :  
PHIEN              .v/v                                    :  
PHIES              .v/v                                    :  
PHIT               .v/v                                    : Описание 
PRMB               .mD                                     :  
PRMB_DGR           .mD                                     :  
RHOB               .г/см3                                  : Плотность по ГГКп 
RT                 .ohmm                                   : Удельное электрическое сопротивление 
SOIL_ARCHIE        .v/v                                    :  
SOIL_DW            .v/v                                    :  
SP                 .мВ                                     : Потенциал самополяризации 
VSH_FIN            .v/v                                    : Описание 
VSH_GR             .v/v                                    : Shale volume 
VSH_SP             .v/v                                    : Shale Volume 
~Ascii
# ...
1125.4     0.212      85.27      363.52     8.43       15.73      10.757     11.181     12.45      12.387     11.727     7.47       3.06       4.55       4.65       -9999      3.18       1.86       0.269      11.61      0.2767975  0.3059881  0.2280301  0.2963743  0.3034291  375.0756   60.02542   2.159      7.47       0.733592   0.768658   346.61     0.1241511  0.1218879  0.1264144 
1125.6     0.21       82.52      356.77     8.05       15.98      10.918     11.509     13.092     12.793     12.118     7.53       3.24       4.33       4.43       -9999      3.21       1.86       0.282      11.31      0.2789175  0.297006   0.2452844  0.2944621  0.3027837  410.57     103.0768   2.174      7.53       0.7363482  0.7700563  345.89     0.1112594  0.09774023 0.1247786 
1125.8     0.211      80.96      355.012    7.85       16.15      11.619     11.456     13.049     13.003     12.351     7.55       3.27       4.19       4.5        -9999      3.28       1.87       0.282      10.98      0.2762036  0.2868263  0.2471436  0.2946407  0.2988612  365.6944   137.0105   2.191      7.55       0.7344241  0.7676731  345.7      0.1056254  0.08701744 0.1242333 
1126       0.212      83.04      351.065    7.82       16.19      11.619     12.154     13.266     12.751     12.042     7.45       3.31       4.21       4.57       -9999      3.36       1.87       0.272      10.4       0.2666337  0.2712575  0.237391   0.2912527  0.2891306  243.1428   142.9857   2.217      7.45       0.7244223  0.7580231  345.81     0.104876   0.08551382 0.1242381 
1126.2     0.211      86.73      347.033    8.06       16.09      11.184     11.3       12.08      11.945     11.53      7.25       3.48       4.36       4.85       -9999      3.17       1.86       0.26       9.98       0.2555743  0.2580838  0.2232277  0.2854114  0.2794774  151.7101   101.6205   2.239      7.25       0.71039    0.7453177  346.09     0.1114311  0.09830979 0.1245523 
1126.4     0.212      100.1      347.493    8.15       15.62      8.907999999999998 9.125      9.698      9.641999999999999 9.99       6.9        3.4        4.28       4.8        -9999      2.95       1.86       0.25       9.43       0.2535476  0.263473   0.2122505  0.2849193  0.2780859  139.1473   89.40569   2.23       6.9        0.7015243  0.7372972  346.54     0.1143925  0.1035873  0.1251977 
1126.6     0.211      112.71     348.153    8.24       14.91      7.726999999999999 7.902      8.582999999999998 8.536      8.871999999999998 6.49       3.5        4.45       4.81       -9999      2.76       1.85       0.251      9.17       0.2570387  0.2742516  0.2122611  0.2846034  0.2822201  161.4872   78.659     2.212      6.49       0.6964565  0.7329702  346.87     0.1173907  0.1091483  0.1256331 
1126.8     0.211      128.28     345.33     8.37       14.1       6.523      7.010000000000001 7.795000000000001 7.902      7.795000000000001 6.23       3.56       4.45       4.98       -9999      2.83       1.84       0.247      9.08       0.2558393  0.2802396  0.2067741  0.2805044  0.2819874  153.4347   65.3752    2.202      6.23       0.6893134  0.7267791  347.2      0.1218968  0.1177119  0.1260817 
1127       0.211      135.61     343.533    8.46       13.17      6.219999999999999 6.529      7.25       7.328      7.374000000000001 6.2        3.57       4.56       5          -9999      2.95       1.84       0.245      9.24       0.258048   0.2928144  0.2036377  0.2776919  0.2849347  168.5905   57.51701   2.181      6.2        0.6909314  0.7287424  347.58     0.1253402  0.1240311  0.1266493 
1127.2     0.211      141.78     343.05     8.58       12.67      5.663999999999999 6.016      6.823999999999999 7.035      7.053      6.17       3.58       4.43       4.94       -9999      3.07       1.85       0.258      9.8        0.2592495  0.2868263  0.2151308  0.2757914  0.2871158  177.4549   48.48874   2.191      6.17       0.6914779  0.7298043  347.77     0.1299066  0.1329875  0.1268256 
1127.4     0.212      145.51     339.233    8.55       12.24      5.362      6.003000000000001 6.644000000000001 6.782      6.871999999999999 6.16       3.61       4.43       4.92       -9999      3.07       1.87       0.256      10.19      0.252337   0.2712575  0.21343    0.2723234  0.2800087  132.1451   50.60338   2.217      6.16       0.6838893  0.7224885  348.1      0.1289999  0.1306895  0.1273102 
1127.6     0.212      149.29     333.577    8.47       11.76      6.442      6.581000000000001 6.945000000000001 6.854      6.698      6.14       3.59       4.29       4.91       -9999      3.09       1.89       0.252      10.68      0.2472585  0.2640718  0.2102855  0.2674182  0.2743742  106.4106   56.70436   2.229      6.14       0.6777505  0.7163282  348.54     0.1264076  0.1247539  0.1280614 
1127.8     0.211      154.53     333.737    8.24       11.35      5.693999999999999 5.931      6.470999999999999 6.477000000000001 6.470999999999999 6.17       3.71       4.72       5.2        -9999      3.09       1.89       0.253      11.19      0.2498273  0.2658682  0.2137189  0.2698946  0.2753611  118.7312   78.659     2.226      6.17       0.6813679  0.718847   349.01     0.1190336  0.1091483  0.1289189 
1128       0.211      164.01     337.461    8.09       10.82      5.737      5.772      6.123999999999999 6.016      6.097      6.11       3.69       4.75       5.19       -9999      3.04       1.88       0.263      11.58      0.2568465  0.2706587  0.224993   0.2748878  0.2815522  160.1691   97.37391   2.218      6.11       0.6875359  0.7243308  349.67     0.1151727  0.1000384  0.130307  
1128.2     0.21       173.19     341.216    8.07       10.24      5.063999999999999 5.434      5.9        5.76       5.774000000000001 6.01       3.66       4.38       4.98       -9999      3.02       1.87       0.287      12.12      0.2712787  0.2868263  0.2486845  0.2783254  0.296185   296.4138   100.1849   2.191      6.01       0.6997486  0.7362325  350.86     0.1161076  0.09888261 0.1333325 
1128.4     0.211      179.59     340.891    8.1        9.77       5.013      5.434      5.867999999999999 5.614      5.568      5.96       3.69       4.34       4.94       -9999      3.05       1.85       0.292      12.69      0.2753994  0.2964072  0.2527106  0.2770804  0.3009387  353.3649   95.99814   2.175      5.96       0.7025012  0.7392176  352.25     0.1190588  0.1006214  0.1374962 
1128.6     0.211      186.49     337.251    8.14       9.29       5.008      5.252      5.663999999999999 5.394000000000001 5.362      5.89       3.69       4.25       4.83       -9999      3.07       1.84       0.283      13.05      0.2649874  0.2808383  0.2421491  0.2719748  0.2915417  226.6566   90.68685   2.201      5.89       0.6906353  0.7284238  354.17     0.1237905  0.1029873  0.1445936 
1128.8     0.211      193.49     332.002    8.25       8.94       4.861      5.063      5.318      5.209      5.168      5.74       3.74       4.31       4.9        -9999      3.07       1.84       0.257      13.65      0.242499   0.2502993  0.2132963  0.2639014  0.2709077  86.86164   77.54764   2.252      5.74       0.6617225  0.7019998  356.42     0.1324354  0.1097843  0.1550865 
1129       0.211      196.46     330.152    8.29       8.57       4.268      4.347      4.724999999999999 4.845      5.09       5.58       3.48       4.2        4.55       -9999      3.04       1.86       0.246      14.37      0.2317519  0.2353294  0.2000706  0.2598559  0.2616074  54.92454   73.25716   2.277      5.58       0.6434005  0.6856178  358.34     0.1391801  0.1123657  0.1659945 
1129.2     0.212      187.05     332.178    8.46       8.48       3.823      4.117      4.751999999999999 5.135      5.346      5.61       3.33       4.09       4.56       -9999      3.04       1.86       0.203      15.54      0.2154735  0.2323353  0.1545299  0.2595555  0.2469805  27.43159   57.51701   2.282      5.61       0.6210031  0.6657151  359        0.146879   0.1240311  0.1697269 
1129.4     0.212      146.71     342.576    8.61       8.65       4.256      5.350000000000001 6.404999999999999 6.589      6.816      6.08       3.42       4.21       4.63       -9999      3.05       1.87       0.212      17.21      0.2299887  0.2586827  0.1623735  0.2689099  0.2622474  50.94563   46.46246   2.238      6.08       0.6551896  0.6982606  358.47     0.1503833  0.1353258  0.1654408 
