~Version
 VERS              .         2.0                           : CWLS LOG ASCII STANDARD - VERSION 2.0
 WRAP              .         NO                            : ONE LINE PER DEPTH STEP
 DLM               .         SPACE                         : DELIMITING CHARACTER(SPACE TAB OR COMMA)
~Well Information
#_______________________________________________________________________________
#
#PARAMETER_NAME    .UNIT     VALUE                         : DESCRIPTION
#_______________________________________________________________________________
STRT               .м        0                             : First reference value
STOP               .м        1167.4                        : Last reference value
STEP               .м        0.2                           : Step increment
NULL               .         -9999                         : Missing value
COMP               .                                       : Company
WELL               .         9421                          : Well name
FLD                .         Узень                         : Field
LOC                .                                       : Location
CNTY               .                                       : County
STAT               .                                       : State
CTRY               .                                       : Country
SRVC               .                                       : Service Company
DATE               .                                       : Date
UWI                .                                       : Unique Well ID
Block              .         7                             : 
Category           .         Нефтяная                      : 
Condition          .         В работе                      : 
Date               .         14.05.2016                    : 
EREF               .m        92.9                          : 100.8
GRP                .                                       : Group name
Gor                .         13                            : 
Gorizont           .         13                            : 14
ISS                .                                       : Well surveys
Interpretator      .         Кайсанов Е.К                  : 
Kupol              .         Основной                      : osnovnoi
Mud                .         Глинистый                     : 
Mud_density        .         1,34                          : 
Mud_resistivity    .         0,33                          : 
NGDU               .         НГДУ-2                        : 
ORIGINALWELLNAME   .         9421                          : 
Spud_date          .         2016                          : 1961
TIME               .                                       : LOG TIME
Viscosity          .         40                            : 
X                  .m        41760.27                      : 46154
Y                  .m        84652.7                       : 85761.93
YEAR               .         2019                          : 
Сдали_за_3_кв_2019 .         3                             : 
~Parameter Information Block
#_______________________________________________________________________________
#
#PARAMETER_NAME    .UNIT     VALUE                         : DESCRIPTION
#_______________________________________________________________________________
SET                .         LQC_KAZNIPI_Petrel            : 
TLFamily_CALI      .         Caliper                       : 
TLFamily_CILD      .         Conductivity                  : 
TLFamily_DEPT      .         Measured Depth                : 
TLFamily_DT        .         Compressional Slowness        : 
TLFamily_GR        .         Russian Gamma Ray             : 
TLFamily_GZ3       .         Gradient 225                  : 
TLFamily_IK1       .         Resistivity 05                : 
TLFamily_IK2       .         Resistivity 07                : 
TLFamily_IK3       .         Resistivity 10                : 
TLFamily_IK4       .         Resistivity 14                : 
TLFamily_IK5       .         Resistivity 20                : 
TLFamily_LLS       .         Lateral Log Resistivity       : 
TLFamily_MBK       .         Micro Lateral Log Resistivity : 
TLFamily_MINV      .         Micro Gradient Resistivity    : 
TLFamily_MNOR      .         Micro Resistivity             : 
TLFamily_NGLD      .         Neutron Far                   : 
TLFamily_NNKTB_1   .         Neutron Far                   : 
TLFamily_NNKTM_1   .         Neutron Near                  : 
TLFamily_NPHI      .         Neutron Porosity              : 
TLFamily_OGZ3      .         Gradient Inverted 225         : 
TLFamily_PHIE      .         Effective Porosity            : 
TLFamily_PHIED     .         Effective Porosity            : 
TLFamily_PHIEN     .         Effective Porosity            : 
TLFamily_PHIES     .         Effective Porosity            : 
TLFamily_PHIT      .         Porosity                      : 
TLFamily_PRMB      .         Permeability                  : 
TLFamily_PRMB_DGR  .         Permeability                  : 
TLFamily_RHOB      .         Bulk Density                  : 
TLFamily_RT        .         Formation Resistivity         : 
TLFamily_SOIL_ARCHIE .         Oil Saturation                : 
TLFamily_SOIL_DW   .         Oil Saturation                : 
TLFamily_SP        .         Spontaneous Potential         : 
TLFamily_VSH_FIN   .         Shale Volume                  : 
TLFamily_VSH_GR    .         Shale Volume                  : 
TLFamily_VSH_SP    .         Shale Volume                  : 
~Curve Information
#_______________________________________________________________________________
#
#LOGNAME           .UNIT     LOG_ID                        : DESCRIPTION
#_______________________________________________________________________________
DEPT               .м                                      : Колонка глубины 
CALI               .м                                      : Каверномер 
CILD               .мСм/м                                  : Проводимость 
DT                 .мкс/м                                  : Интервальное время пробега продольной волны 
GR                 .uR/h                                   : Гамма каротаж 
GZ3                .Ohmm                                   : Градиент-зонд  длиной 2.25м 
IK1                .OHMM                                   : И0.10И0.40 
IK2                .OHMM                                   : И0.14И0.56 
IK3                .OHMM                                   : И0.20И0.8 
IK4                .OHMM                                   : И0.28И1.12 
IK5                .OHMM                                   : И0.40И1.60 
LLS                .Ohmm                                   : Боковой каротаж 
MBK                .Ohmm                                   : Микробоковой каротаж 
MINV               .Ohmm                                   : Микро-градиент зонд 
MNOR               .Ohmm                                   : Микро-потенциал зонд 
NGLD               .у.е.                                   : Показания зонда НГК-60 аппаратуры ДРСТ-3-90 
NNKTB_1            .у.е.                                   : Показания большого зонда 2ННКт аппаратуры СРК 
NNKTM_1            .у.е.                                   : Показания малого зонда 2ННКт аппаратуры СРК 
NPHI               .v/v                                    : Total porosity 
OGZ3               .Ohmm                                   : Обращенный градиент-зонд 
PHIE               .v/v                                    : Описание 
PHIED              .v/v                                    :  
PHIEN              .v/v                                    :  
PHIES              .v/v                                    :  
PHIT               .v/v                                    : Описание 
PRMB               .mD                                     :  
PRMB_DGR           .mD                                     :  
RHOB               .г/см3                                  : Плотность по ГГКп 
RT                 .ohmm                                   : Удельное электрическое сопротивление 
SOIL_ARCHIE        .v/v                                    :  
SOIL_DW            .v/v                                    :  
SP                 .мВ                                     : Потенциал самополяризации 
VSH_FIN            .v/v                                    : Описание 
VSH_GR             .v/v                                    : Shale volume 
VSH_SP             .v/v                                    : Shale Volume 
~Ascii
# ...
1016.2     0.224      495.04     350.449    7.18       2.42       2.473      2.218      2.144      2.112      2.02       2.03       1.94       2.74       2.7        -9999      3.54       1.94       -9999      2.66       0.1294999  0.07782491 -9999      0.1811749  0.2006933  0.7011486  2.296445   2.372      2.03       0.04854361 0.2246193  388.32     0.4541417  0.4620435  0.4462398 
1016.4     0.225      509.42     346.487    7.05       2.39       2.249      2.001      1.977      1.956      1.963      2.01       1.77       3.11       2.34       -9999      3.47       1.93       -9999      2.69       0.1285536  0.07753425 -9999      0.1795729  0.1986816  0.6734147  2.715075   2.375      2.01       0.0379873  0.2137556  388.9      0.4473454  0.4315056  0.4631852 
1016.6     0.226      515.72     346.341    7.02       2.39       2.61       2.26       2.162      2.063      1.939      1.99       1.75       2.61       2.14       -9999      3.43       1.93       -9999      2.72       0.1278776  0.0784355  -9999      0.1773197  0.1990626  0.6542765  2.822052   2.371      1.99       0.0290137  0.2090254  389.58     0.4540883  0.42475    0.4834265 
1016.8     0.225      505.3      348.342    7.11       2.37       2.507      2.2        2.151      2.043      1.979      2.02       1.89       3.22       2.44       -9999      3.44       1.94       -9999      2.79       0.1222856  0.07091381 -9999      0.1736573  0.1962505  0.5154461  2.513138   2.377      2.02       0          0.1938038  390.04     0.4718212  0.4453408  0.4983016 
1017       0.223      521.92     350.301    7.29       2.37       2.391      2.079      2.072      1.96       1.916      2.01       1.8        3.48       2.42       -9999      3.49       1.94       -9999      2.88       0.1342349  0.1011006  -9999      0.1673691  0.2122622  0.858052   1.993052   2.317      2.01       0.07354711 0.257214   390.23     0.4977351  0.4895654  0.5059049 
1017.2     0.198      536.76     345.281    7.54       2.39       2.346      2.045      1.962      1.895      1.863      2          1.63       2.79       2.08       -9999      3.55       1.94       -9999      2.98       0.1175807  0.08471381 -9999      0.1504476  0.2016947  0.4217338  1.444311   2.33       2          0          0.1903636  390.46     0.5365622  0.5583664  0.5147579 
1017.4     0.208      531.63     331.675    7.6        2.39       1.996      1.887      1.909      1.88       1.881      2.02       1.68       2.21       1.89       -9999      3.67       1.94       -9999      3.04       0.1061064  0.07943597 -9999      0.1327769  0.19226    0.2585275  1.336888   2.334      2.02       0          0.1363539  390.66     0.5495725  0.5762691  0.5228757 
1017.6     0.228      483.55     321.371    7.53       2.42       2.78       2.451      2.386      2.169      2.068      2.12       1.6        1.7        1.92       -9999      3.84       1.98       -9999      3.09       0.09109047 0.0596507  -9999      0.1225302  0.1768379  0.1362619  1.463036   2.368      2.12       0          0.05846085 391.11     0.5469819  0.5554373  0.5385264 
1017.8     0.223      450.45     322.02     7.26       2.4        2.885      2.575      2.469      2.326      2.22       2.23       2.1        3.55       2.9        -9999      3.93       2.03       -9999      3.17       0.06853923 0.005592308 -9999      0.1314862  0.1501674  0.05207999 2.071579   2.468      2.23       0          0          391.72     0.5207052  0.4819009  0.5595095 
1018       0.225      462.1      334.198    6.95       2.41       2.938      2.444      2.343      2.236      2.164      2.26       1.92       2.44       2.42       -9999      3.85       2.08       -9999      3.23       0.09322646 0.03330714 -9999      0.1531458  0.1704976  0.1492582  3.088342   2.432      2.26       0          0.07591789 392.18     0.4929112  0.4093954  0.5764271 
1018.2     0.224      482.39     340.223    6.72       2.48       2.612      2.297      2.25       2.115      2.073      2.21       1.95       3.22       2.5        -9999      3.74       2.09       -9999      3.33       0.1233553  0.08311456 -9999      0.163596   0.1984323  0.5395064  4.153313   2.354      2.21       0.04618941 0.236992   392.68     0.4789151  0.3627463  0.595084  
1018.4     0.227      485.2      337.787    6.68       2.51       2.468      2.227      2.164      2.071      2.061      2.2        1.81       2.13       2.28       -9999      3.69       2.08       -9999      3.48       0.1348489  0.108373   -9999      0.1613249  0.209849   0.8808208  4.372924   2.312      2.2        0.1155173  0.2864811  392.8      0.4784245  0.355194   0.601655  
1018.6     0.225      446.62     329.311    6.64       2.58       2.805      2.566      2.455      2.316      2.239      2.28       1.86       2.54       2.05       -9999      3.8        2.09       -9999      3.67       0.1254955  0.09686852 -9999      0.1541225  0.1997383  0.591071   4.604146   2.333      2.28       0.07402216 0.2569016  392.65     0.4735936  0.3477989  0.5993882 
1018.8     0.224      413.56     319.47     6.44       2.62       3.721      3.019      2.835      2.583      2.418      2.47       2.05       4.15       2.56       -9999      3.92       2.12       -9999      3.8        0.1176701  0.0842932  -9999      0.1510471  0.1881001  0.4233452  5.957105   2.363      2.47       0.05671804 0.2405494  392.14     0.4492714  0.31307    0.5854729 
1019       0.225      409.83     308.868    6.13       2.66       3.075      2.663      2.572      2.517      2.44       2.53       2.07       4.72       2.77       -9999      3.95       2.15       -9999      3.83       0.1285334  0.1064486  -9999      0.1506183  0.1930319  0.6728351  8.880939   2.34       2.53       0.136327   0.2870561  391.15     0.4114351  0.2659664  0.5569038 
1019.2     0.226      403.87     296.732    5.97       2.67       3.286      2.827      2.7        2.54       2.476      2.53       1.97       4.11       2.71       -9999      3.93       2.15       -9999      3.72       0.1264378  0.1088802  -9999      0.1439953  0.1866736  0.615308   10.91361   2.346      2.53       0.1238727  0.2678908  389.97     0.3842434  0.244499   0.5239877 
1019.4     0.225      379.79     292.761    6.02       2.64       3.58       3.161      3.008      2.81       2.633      2.6        2          3.96       2.58       -9999      3.95       2.15       -9999      3.54       0.1637909  0.1844312  -9999      0.1431507  0.2218344  3.02666    10.23285   2.362      2.6        0.3096033  0.4135152  388.67     0.3702582  0.2510146  0.4895018 
1019.6     0.225      362.18     297.898    6.17       2.71       3.827      3.331999999999999 3.197      2.913      2.761      2.7        2.31       5.83       3.22       -9999      3.97       2.16       -9999      3.18       0.1588179  0.1658683  -9999      0.1517674  0.2159221  2.448221   8.434937   2.393      2.7        0.3032616  0.4077815  387.41     0.3642673  0.2716215  0.4569132 
1019.8     0.226      369.54     296.873    6.2        2.75       3.844      3.182999999999999 3.043      2.8        2.706      2.67       2.08       5.1        2.95       -9999      4.03       2.17       -9999      3          0.1418559  0.1317365  -9999      0.1519752  0.1981933  1.187607   8.115196   2.45       2.67       0.2271968  0.3438224  386.82     0.3593756  0.2759415  0.4428096 
1020       0.23       382.55     294.472    6.19       2.85       3.327      2.924      2.803      2.679      2.614      2.59       2.02       3.01       2.9        -9999      4.08       2.16       -9999      2.77       0.1443323  0.1377245  -9999      0.1509401  0.1996163  1.319905   8.220402   2.44       2.59       0.2278134  0.3412862  386.3      0.3526557  0.274494   0.4308174 
1020.2     0.225      381.97     292.778    6.09       2.93       3.664000000000001 3.158      2.968      2.762      2.618      2.58       1.97       3.74       2.83       -9999      4.15       2.15       -9999      2.61       0.1480142  0.1431138  -9999      0.1529146  0.201187   1.54433    9.350531   2.431      2.58       0.2431974  0.3498565  385.73     0.3391888  0.260429   0.4179485 
