~Version
 VERS              .         2.0                           : CWLS LOG ASCII STANDARD - VERSION 2.0
 WRAP              .         NO                            : ONE LINE PER DEPTH STEP
 DLM               .         SPACE                         : DELIMITING CHARACTER(SPACE TAB OR COMMA)
~Well Information
#_______________________________________________________________________________
#
#PARAMETER_NAME    .UNIT     VALUE                         : DESCRIPTION
#_______________________________________________________________________________
STRT               .м        0                             : First reference value
STOP               .м        1167.4                        : Last reference value
STEP               .м        0.2                           : Step increment
NULL               .         -9999                         : Missing value
COMP               .                                       : Company
WELL               .         9421                          : Well name
FLD                .         Узень                         : Field
LOC                .                                       : Location
CNTY               .                                       : County
STAT               .                                       : State
CTRY               .                                       : Country
SRVC               .                                       : Service Company
DATE               .                                       : Date
UWI                .                                       : Unique Well ID
Block              .         7                             : 
Category           .         Нефтяная                      : 
Condition          .         В работе                      : 
Date               .         14.05.2016                    : 
EREF               .m        92.9                          : 100.8
GRP                .                                       : Group name
Gor                .         13                            : 
Gorizont           .         13                            : 14
ISS                .                                       : Well surveys
Interpretator      .         Кайсанов Е.К                  : 
Kupol              .         Основной                      : osnovnoi
Mud                .         Глинистый                     : 
Mud_density        .         1,34                          : 
Mud_resistivity    .         0,33                          : 
NGDU               .         НГДУ-2                        : 
ORIGINALWELLNAME   .         9421                          : 
Spud_date          .         2016                          : 1961
TIME               .                                       : LOG TIME
Viscosity          .         40                            : 
X                  .m        41760.27                      : 46154
Y                  .m        84652.7                       : 85761.93
YEAR               .         2019                          : 
Сдали_за_3_кв_2019 .         3                             : 
~Parameter Information Block
#_______________________________________________________________________________
#
#PARAMETER_NAME    .UNIT     VALUE                         : DESCRIPTION
#_______________________________________________________________________________
SET                .         LQC_KAZNIPI_Petrel            : 
TLFamily_CALI      .         Caliper                       : 
TLFamily_CILD      .         Conductivity                  : 
TLFamily_DEPT      .         Measured Depth                : 
TLFamily_DT        .         Compressional Slowness        : 
TLFamily_GR        .         Russian Gamma Ray             : 
TLFamily_GZ3       .         Gradient 225                  : 
TLFamily_IK1       .         Resistivity 05                : 
TLFamily_IK2       .         Resistivity 07                : 
TLFamily_IK3       .         Resistivity 10                : 
TLFamily_IK4       .         Resistivity 14                : 
TLFamily_IK5       .         Resistivity 20                : 
TLFamily_LLS       .         Lateral Log Resistivity       : 
TLFamily_MBK       .         Micro Lateral Log Resistivity : 
TLFamily_MINV      .         Micro Gradient Resistivity    : 
TLFamily_MNOR      .         Micro Resistivity             : 
TLFamily_NGLD      .         Neutron Far                   : 
TLFamily_NNKTB_1   .         Neutron Far                   : 
TLFamily_NNKTM_1   .         Neutron Near                  : 
TLFamily_NPHI      .         Neutron Porosity              : 
TLFamily_OGZ3      .         Gradient Inverted 225         : 
TLFamily_PHIE      .         Effective Porosity            : 
TLFamily_PHIED     .         Effective Porosity            : 
TLFamily_PHIEN     .         Effective Porosity            : 
TLFamily_PHIES     .         Effective Porosity            : 
TLFamily_PHIT      .         Porosity                      : 
TLFamily_PRMB      .         Permeability                  : 
TLFamily_PRMB_DGR  .         Permeability                  : 
TLFamily_RHOB      .         Bulk Density                  : 
TLFamily_RT        .         Formation Resistivity         : 
TLFamily_SOIL_ARCHIE .         Oil Saturation                : 
TLFamily_SOIL_DW   .         Oil Saturation                : 
TLFamily_SP        .         Spontaneous Potential         : 
TLFamily_VSH_FIN   .         Shale Volume                  : 
TLFamily_VSH_GR    .         Shale Volume                  : 
TLFamily_VSH_SP    .         Shale Volume                  : 
~Curve Information
#_______________________________________________________________________________
#
#LOGNAME           .UNIT     LOG_ID                        : DESCRIPTION
#_______________________________________________________________________________
DEPT               .м                                      : Колонка глубины 
CALI               .м                                      : Каверномер 
CILD               .мСм/м                                  : Проводимость 
DT                 .мкс/м                                  : Интервальное время пробега продольной волны 
GR                 .uR/h                                   : Гамма каротаж 
GZ3                .Ohmm                                   : Градиент-зонд  длиной 2.25м 
IK1                .OHMM                                   : И0.10И0.40 
IK2                .OHMM                                   : И0.14И0.56 
IK3                .OHMM                                   : И0.20И0.8 
IK4                .OHMM                                   : И0.28И1.12 
IK5                .OHMM                                   : И0.40И1.60 
LLS                .Ohmm                                   : Боковой каротаж 
MBK                .Ohmm                                   : Микробоковой каротаж 
MINV               .Ohmm                                   : Микро-градиент зонд 
MNOR               .Ohmm                                   : Микро-потенциал зонд 
NGLD               .у.е.                                   : Показания зонда НГК-60 аппаратуры ДРСТ-3-90 
NNKTB_1            .у.е.                                   : Показания большого зонда 2ННКт аппаратуры СРК 
NNKTM_1            .у.е.                                   : Показания малого зонда 2ННКт аппаратуры СРК 
NPHI               .v/v                                    : Total porosity 
OGZ3               .Ohmm                                   : Обращенный градиент-зонд 
PHIE               .v/v                                    : Описание 
PHIED              .v/v                                    :  
PHIEN              .v/v                                    :  
PHIES              .v/v                                    :  
PHIT               .v/v                                    : Описание 
PRMB               .mD                                     :  
PRMB_DGR           .mD                                     :  
RHOB               .г/см3                                  : Плотность по ГГКп 
RT                 .ohmm                                   : Удельное электрическое сопротивление 
SOIL_ARCHIE        .v/v                                    :  
SOIL_DW            .v/v                                    :  
SP                 .мВ                                     : Потенциал самополяризации 
VSH_FIN            .v/v                                    : Описание 
VSH_GR             .v/v                                    : Shale volume 
VSH_SP             .v/v                                    : Shale Volume 
~Ascii
# ...
1087.6     0.221      516.26     335.754    9.06       2.4        2.421      2.204      2.119      1.994      1.937      2.04       1.58       2.34       1.94       -9999      3.4        1.91       -9999      2.93       0.1486062  0.1178078  -9999      0.1794045  0.2135411  1.583817   3.469083   2.32       2.04       0.1579599  0.2951466  382.6      0.4142189  0.390415   0.4380229 
1087.8     0.223      520.29     330.981    9.27       2.31       2.34       2.138      2.116      2.016      1.922      2.02       1.72       2.95       1.93       -9999      3.4        1.91       -9999      2.86       0.1378405  0.1053132  -9999      0.1703677  0.204837   1.000686   2.832864   2.336      2.02       0.09679553 0.2513303  382.3      0.4273701  0.4240873  0.430653  
1088       0.222      518.13     330.19     9.36       2.2        2.841      2.39       2.327      2.099      1.93       2.02       1.81       2.48       2.74       -9999      3.34       1.92       -9999      2.78       0.1142327  0.05944046 -9999      0.1690249  0.1814866  0.3656152  2.597267   2.412      2.02       0          0.1317586  381.8      0.4290121  0.439393   0.4186313 
1088.2     0.222      532.48     326.799    9.25       2.15       2.424      2.1        2.046      1.936      1.878      2.03       1.78       2.32       2.2        -9999      3.34       1.94       -9999      2.84       0.09968514 0.02958447 -9999      0.1697858  0.1647611  0.1965933  2.888057   2.467      2.03       0          0.03069525 381.41     0.4151187  0.420759   0.4094785 
1088.4     0.222      534.75     322.058    9.25       2.09       2.187      1.952      1.947      1.897      1.87       2.03       1.63       2.67       2.04       -9999      3.41       1.95       -9999      2.88       0.1175549  0.06932262 -9999      0.1657872  0.1820536  0.4212701  2.888057   2.402      2.03       0          0.1454747  381.09     0.4114359  0.420759   0.4021128 
1088.6     0.222      485.9      313.953    9.02       2.2        2.934      2.715      2.543      2.257      2.058      2.08       1.78       3.57       2.46       -9999      3.52       1.97       -9999      2.91       0.1171605  0.07174044 -9999      0.1625807  0.1786774  0.4142434  3.605576   2.405      2.08       0          0.1452047  381.02     0.3924148  0.3843111  0.4005187 
1088.8     0.22       486.38     314.063    8.85       2.23       2.769      2.441      2.314      2.228      2.056      2.17       1.86       3.77       2.97       -9999      3.59       1.97       -9999      2.85       0.1580517  0.1491018  -9999      0.1670015  0.2174218  2.369509   4.248187   2.421      2.17       0.2247639  0.340757   380.91     0.3787214  0.3594162  0.3980267 
1089       0.227      563.69     331.986    8.76       2.26       2.148      1.872      1.809      1.735      1.774      2.07       1.41       1.81       1.64       -9999      3.5        1.96       -9999      2.82       0.1898765  0.1904192  -9999      0.1893339  0.2479132  9.207288   4.633544   2.352      2.07       0.3244488  0.4207602  380.71     0.370215   0.3468962  0.3935338 
1089.2     0.223      594.53     333.426    8.88       2.27       1.915      1.82       1.765      1.717      1.682      1.97       1.43       2.38       2.02       -9999      3.35       1.93       -9999      2.93       0.201457   0.21497    -9999      0.1879439  0.2609327  15.08793   4.126996   2.311      1.97       0.3433163  0.4377553  380.78     0.3793949  0.3636891  0.3951007 
1089.4     0.223      533.61     321.157    9.14       2.29       2.391      2.078      2.045      1.991      1.874      2.09       1.64       2.01       2.65       -9999      3.24       1.92       -9999      3.13       0.1437256  0.1198275  -9999      0.1676238  0.2068077  1.286192   3.211405   2.321      2.09       0.1429049  0.2805559  381.08     0.4023998  0.4029151  0.4018844 
1089.6     0.222      453.51     322.485    9.05       2.42       2.809      2.47       2.475      2.36       2.205      2.37       2.13       4.1        2.47       -9999      3.36       1.96       -9999      3.37       0.1381455  0.1058276  -9999      0.1704634  0.2005412  1.013791   3.502714   2.346      2.37       0.163657   0.3007477  381.31     0.3980213  0.3888799  0.4071626 
1089.8     0.221      394.94     317.16     8.84       2.57       3.470000000000001 3.019      2.798      2.697      2.532      2.62       2.17       5.44       2.9        -9999      3.63       2.01       -9999      3.55       0.1335102  0.0988414  -9999      0.1681791  0.1940701  0.8319395  4.289371   2.362      2.62       0.1780298  0.3123945  381.63     0.3863105  0.358003   0.4146179 
1090       0.221      352.48     292.332    8.51       2.76       4.3        3.561      3.194      3.016      2.837      2.81       2.55       7.15       3.18       -9999      3.92       2.05       -9999      3.58       0.1607051  0.1772455  -9999      0.1441647  0.2179548  2.653421   5.897418   2.374      2.81       0.3231953  0.4254856  381.69     0.3651951  0.3143599  0.4160302 
1090.2     0.221      340.02     286.167    8.26       2.91       3.757      3.304      3.189      2.998      2.941      2.92       2.21       5.82       2.77       -9999      4.07       2.07       -9999      3.53       0.1602609  0.1802395  -9999      0.1402822  0.2152365  2.603625   7.506038   2.369      2.92       0.3336773  0.4316086  381.71     0.3506885  0.2848753  0.4165018 
1090.4     0.221      328.83     278.244    8.13       3          4.217      3.75       3.667      3.188      3.041      2.93       2.47       6.01       3.31       -9999      4.09       2.08       -9999      3.43       0.1550255  0.1784431  -9999      0.1316078  0.2086466  2.082598   8.50903    2.372      2.93       0.3152202  0.4141421  381.58     0.3420486  0.2706532  0.413444  
1090.6     0.22       319.08     278.25     8.02       3.12       5.912999999999999 4.681999999999999 4.156000000000001 3.526      3.134      2.97       3.19       8.21       3.94       -9999      4.01       2.09       -9999      3.25       0.1376046  0.1413174  -9999      0.1338919  0.1900882  0.9906706  9.461703   2.434      2.97       0.245122   0.3543486  381.45     0.3347918  0.2591752  0.4104085 
1090.8     0.22       361.14     294.577    8.26       3.1        3.189      3.12       3.001      2.877      2.769      2.88       2.29       5.83       2.59       -9999      3.81       2.07       -9999      3.11       0.1427836  0.1323354  -9999      0.1532317  0.196991   1.235537   7.506038   2.449      2.88       0.2583937  0.3676471  381.29     0.3457883  0.2848753  0.4067013 
1091       0.224      415.11     311.528    8.59       3.03       3.213      2.764      2.66       2.52       2.409      2.47       2.02       4.43       2.56       -9999      3.49       2.03       -9999      2.92       0.1645194  0.1604791  -9999      0.1685597  0.2216284  3.122165   5.459367   2.402      2.47       0.2955118  0.3990618  381.18     0.364298   0.324425   0.4041711 
1091.2     0.223      430.47     314.349    8.95       2.86       2.732      2.65       2.541      2.451      2.323      2.29       2.09       4.57       2.35       -9999      3.25       1.98       -9999      2.83       0.1285329  0.09324826 -9999      0.1638176  0.1896608  0.6728209  3.857487   2.37       2.29       0.09497022 0.2427759  381.26     0.3899338  0.3738578  0.4060099 
1091.4     0.225      429.18     310.999    9.01       2.71       2.786      2.533      2.507      2.414      2.33       2.28       2.09       3.62       2.44       -9999      3.18       1.95       -9999      2.84       0.1266345  0.09575532 -9999      0.1575136  0.1889542  0.6204911  3.64053    2.363      2.28       0.08127983 0.2348006  381.53     0.397537   0.3828     0.412274  
1091.6     0.224      413.56     308.952    8.86       2.77       3.015      2.663      2.604      2.488      2.418      2.32       2.01       4.62       2.52       -9999      3.24       1.97       -9999      2.93       0.115119   0.07249201 -9999      0.1577459  0.176104   0.3796997  4.207403   2.405      2.32       0.009850621 0.1777713  381.74     0.3890226  0.3608348  0.4172105 
