~Version
 VERS              .         2.0                           : CWLS LOG ASCII STANDARD - VERSION 2.0
 WRAP              .         NO                            : ONE LINE PER DEPTH STEP
 DLM               .         SPACE                         : DELIMITING CHARACTER(SPACE TAB OR COMMA)
~Well Information
#_______________________________________________________________________________
#
#PARAMETER_NAME    .UNIT     VALUE                         : DESCRIPTION
#_______________________________________________________________________________
STRT               .м        0                             : First reference value
STOP               .м        1167.4                        : Last reference value
STEP               .м        0.2                           : Step increment
NULL               .         -9999                         : Missing value
COMP               .                                       : Company
WELL               .         9421                          : Well name
FLD                .         Узень                         : Field
LOC                .                                       : Location
CNTY               .                                       : County
STAT               .                                       : State
CTRY               .                                       : Country
SRVC               .                                       : Service Company
DATE               .                                       : Date
UWI                .                                       : Unique Well ID
Block              .         7                             : 
Category           .         Нефтяная                      : 
Condition          .         В работе                      : 
Date               .         14.05.2016                    : 
EREF               .m        92.9                          : 100.8
GRP                .                                       : Group name
Gor                .         13                            : 
Gorizont           .         13                            : 14
ISS                .                                       : Well surveys
Interpretator      .         Кайсанов Е.К                  : 
Kupol              .         Основной                      : osnovnoi
Mud                .         Глинистый                     : 
Mud_density        .         1,34                          : 
Mud_resistivity    .         0,33                          : 
NGDU               .         НГДУ-2                        : 
ORIGINALWELLNAME   .         9421                          : 
Spud_date          .         2016                          : 1961
TIME               .                                       : LOG TIME
Viscosity          .         40                            : 
X                  .m        41760.27                      : 46154
Y                  .m        84652.7                       : 85761.93
YEAR               .         2019                          : 
Сдали_за_3_кв_2019 .         3                             : 
~Parameter Information Block
#_______________________________________________________________________________
#
#PARAMETER_NAME    .UNIT     VALUE                         : DESCRIPTION
#_______________________________________________________________________________
SET                .         LQC_KAZNIPI_Petrel            : 
TLFamily_CALI      .         Caliper                       : 
TLFamily_CILD      .         Conductivity                  : 
TLFamily_DEPT      .         Measured Depth                : 
TLFamily_DT        .         Compressional Slowness        : 
TLFamily_GR        .         Russian Gamma Ray             : 
TLFamily_GZ3       .         Gradient 225                  : 
TLFamily_IK1       .         Resistivity 05                : 
TLFamily_IK2       .         Resistivity 07                : 
TLFamily_IK3       .         Resistivity 10                : 
TLFamily_IK4       .         Resistivity 14                : 
TLFamily_IK5       .         Resistivity 20                : 
TLFamily_LLS       .         Lateral Log Resistivity       : 
TLFamily_MBK       .         Micro Lateral Log Resistivity : 
TLFamily_MINV      .         Micro Gradient Resistivity    : 
TLFamily_MNOR      .         Micro Resistivity             : 
TLFamily_NGLD      .         Neutron Far                   : 
TLFamily_NNKTB_1   .         Neutron Far                   : 
TLFamily_NNKTM_1   .         Neutron Near                  : 
TLFamily_NPHI      .         Neutron Porosity              : 
TLFamily_OGZ3      .         Gradient Inverted 225         : 
TLFamily_PHIE      .         Effective Porosity            : 
TLFamily_PHIED     .         Effective Porosity            : 
TLFamily_PHIEN     .         Effective Porosity            : 
TLFamily_PHIES     .         Effective Porosity            : 
TLFamily_PHIT      .         Porosity                      : 
TLFamily_PRMB      .         Permeability                  : 
TLFamily_PRMB_DGR  .         Permeability                  : 
TLFamily_RHOB      .         Bulk Density                  : 
TLFamily_RT        .         Formation Resistivity         : 
TLFamily_SOIL_ARCHIE .         Oil Saturation                : 
TLFamily_SOIL_DW   .         Oil Saturation                : 
TLFamily_SP        .         Spontaneous Potential         : 
TLFamily_VSH_FIN   .         Shale Volume                  : 
TLFamily_VSH_GR    .         Shale Volume                  : 
TLFamily_VSH_SP    .         Shale Volume                  : 
~Curve Information
#_______________________________________________________________________________
#
#LOGNAME           .UNIT     LOG_ID                        : DESCRIPTION
#_______________________________________________________________________________
DEPT               .м                                      : Колонка глубины 
CALI               .м                                      : Каверномер 
CILD               .мСм/м                                  : Проводимость 
DT                 .мкс/м                                  : Интервальное время пробега продольной волны 
GR                 .uR/h                                   : Гамма каротаж 
GZ3                .Ohmm                                   : Градиент-зонд  длиной 2.25м 
IK1                .OHMM                                   : И0.10И0.40 
IK2                .OHMM                                   : И0.14И0.56 
IK3                .OHMM                                   : И0.20И0.8 
IK4                .OHMM                                   : И0.28И1.12 
IK5                .OHMM                                   : И0.40И1.60 
LLS                .Ohmm                                   : Боковой каротаж 
MBK                .Ohmm                                   : Микробоковой каротаж 
MINV               .Ohmm                                   : Микро-градиент зонд 
MNOR               .Ohmm                                   : Микро-потенциал зонд 
NGLD               .у.е.                                   : Показания зонда НГК-60 аппаратуры ДРСТ-3-90 
NNKTB_1            .у.е.                                   : Показания большого зонда 2ННКт аппаратуры СРК 
NNKTM_1            .у.е.                                   : Показания малого зонда 2ННКт аппаратуры СРК 
NPHI               .v/v                                    : Total porosity 
OGZ3               .Ohmm                                   : Обращенный градиент-зонд 
PHIE               .v/v                                    : Описание 
PHIED              .v/v                                    :  
PHIEN              .v/v                                    :  
PHIES              .v/v                                    :  
PHIT               .v/v                                    : Описание 
PRMB               .mD                                     :  
PRMB_DGR           .mD                                     :  
RHOB               .г/см3                                  : Плотность по ГГКп 
RT                 .ohmm                                   : Удельное электрическое сопротивление 
SOIL_ARCHIE        .v/v                                    :  
SOIL_DW            .v/v                                    :  
SP                 .мВ                                     : Потенциал самополяризации 
VSH_FIN            .v/v                                    : Описание 
VSH_GR             .v/v                                    : Shale volume 
VSH_SP             .v/v                                    : Shale Volume 
~Ascii
# ...
982.6      0.222      400.32     316.977    5.92       2.71       3.131      2.886      2.742      2.573      2.498      2.55       2.06       4.41       2.55       -9999      4.42       2.12       -9999      3.62       0.1980555  0.1850299  -9999      0.2110811  0.2370602  13.05049   11.63964   2.361      2.55       0.4095202  0.4738312  392.26     0.2488104  0.2381527  0.2594682 
982.8      0.221      390.16     301.914    5.77       2.79       3.164      2.813      2.722      2.632      2.563      2.64       1.96       2.82       2.65       -9999      4.56       2.15       -9999      3.62       0.17981    0.163473   -9999      0.1961469  0.2172786  5.99342    14.12064   2.397      2.64       0.3680353  0.4335205  392.07     0.2390119  0.2200849  0.2579389 
983        0.222      350.87     279.368    5.6        2.84       3.652000000000001 3.412      3.166      3.033      2.85       2.77       2.22       4.84       2.77       -9999      4.67       2.18       -9999      3.62       0.1677737  0.1664671  -9999      0.1690803  0.2034857  3.587016   17.57753   2.392      2.77       0.3436983  0.4085624  391.73     0.2278065  0.2012595  0.2543535 
983.2      0.222      311.23     277.104    5.38       2.99       4.528999999999999 4.021      3.686      3.412      3.213      2.96       2.35       5.45       3.25       -9999      4.73       2.19       -9999      3.51       0.1530034  0.136527   -9999      0.1694798  0.1868428  1.910521   23.33633   2.442      2.96       0.310648   0.3750955  391.51     0.2158613  0.1792672  0.2524553 
983.4      0.221      305.06     289.022    5.12       3.07       5.049      4.174      3.909      3.501999999999999 3.278      3.04       2.6        7.06       3.34       -9999      4.76       2.21       -9999      3.38       0.1558039  0.1215569  -9999      0.190051   0.1878696  2.152904   32.62007   2.467      3.04       0.3298912  0.3900162  391.45     0.2045467  0.1563536  0.2527398 
983.6      0.221      324.78     299.638    5.12       3.17       4.206      3.657      3.376      3.196      3.079      2.91       2.24       5.19       3.1        -9999      4.66       2.2        -9999      3.27       0.1777502  0.1520959  -9999      0.2034045  0.2101509  5.489369   32.62007   2.416      2.91       0.3901737  0.4472778  391.68     0.2066839  0.1563536  0.2570142 
983.8      0.221      347.94     307.88     5.29       3.23       3.797      3.412      3.205      3.014      2.874      2.72       2.15       4.64       2.78       -9999      4.45       2.17       -9999      3.1        0.1902645  0.169461   -9999      0.2110679  0.2239439  9.360905   26.20484   2.387      2.72       0.4067575  0.4645273  391.72     0.2148402  0.1709786  0.2587019 
984        0.221      356.76     313.807    5.39       3.24       3.636000000000001 3.296      3.131      2.922      2.803      2.61       2.11       4.4        2.61       -9999      4.27       2.15       -9999      3.05       0.1890794  0.1616766  -9999      0.2164823  0.2235607  8.899547   23.03765   2.4        2.61       0.3918529  0.4513673  391.71     0.2199553  0.1802126  0.259698  
984.2      0.221      364.43     313.341    5.38       3.31       3.131      2.942      2.902      2.798      2.744      2.57       2.04       4.54       2.79       -9999      4.17       2.15       -9999      3.04       0.1938716  0.1718563  -9999      0.2158869  0.2283794  10.91769   23.33633   2.383      2.57       0.4006383  0.4596304  391.72     0.2201249  0.1792672  0.2609827 
984.4      0.222      360.36     304.145    5.36       3.28       3.251999999999999 2.977      2.925      2.884      2.775      2.56       2.05       4.13       2.44       -9999      4.15       2.16       -9999      3.02       0.195351   0.1856288  -9999      0.2050733  0.2297462  11.62875   23.94534   2.36       2.56       0.4035033  0.4621707  391.67     0.2194063  0.1773912  0.2614214 
984.6      0.221      341.88     289.829    5.5        3.39       3.803      3.412      3.247      3.15       2.925      2.6        2.24       5.04       2.96       -9999      4.14       2.18       -9999      3.08       0.1824032  0.1802395  -9999      0.1845669  0.217762   6.694352   19.99405   2.369      2.6        0.3713802  0.4333571  391.5      0.2255532  0.1909471  0.2601594 
984.8      0.221      340.36     284.954    5.93       3.45       3.912      3.362      3.254      3.062      2.938      2.66       2.25       5.6        3.16       -9999      4.06       2.18       -9999      3.11       0.1706676  0.1706587  -9999      0.1706765  0.2095952  4.058223   11.49067   2.385      2.66       0.3409887  0.4109526  391.21     0.2483188  0.2394086  0.2572289 
985        0.221      365.76     298.797    6.3        3.49       3.382      2.954      2.828      2.746      2.734      2.59       2.06       4.4        2.59       -9999      3.87       2.15       -9999      3.13       0.1849929  0.1886227  -9999      0.1813632  0.2278771  7.476117   7.134369   2.355      2.59       0.3779276  0.4502353  391.06     0.2735571  0.2908443  0.2562699 
985.2      0.221      381.82     321.318    6.47       3.57       2.989      2.735      2.65       2.562      2.619      2.48       1.95       3.67       2.31       -9999      3.73       2.1        -9999      3.13       0.1986289  0.1934132  -9999      0.2038445  0.2436898  13.37356   5.731291   2.347      2.48       0.4032612  0.4755242  391.02     0.2874431  0.3180493  0.256837  
985.4      0.222      376.22     325.099    6.37       3.54       3.043      2.849      2.824      2.655      2.658      2.45       2.03       4.08       2.45       -9999      3.65       2.09       -9999      3.08       0.1967488  0.1826347  -9999      0.2108629  0.240371   12.34308   6.51922    2.365      2.45       0.3948516  0.4659855  390.79     0.278265   0.3017525  0.2547775 
985.6      0.221      363.63     327.013    6.18       3.56       3.396      3.062      3.027      2.84       2.75       2.5        2.18       4.41       2.82       -9999      3.68       2.09       -9999      3.01       0.2030205  0.188024   -9999      0.2180169  0.2440954  16.12833   8.326981   2.356      2.5        0.416722   0.48293    390.43     0.2620165  0.2730539  0.250979  
985.8      0.221      370.37     325.353    6.1        3.48       3.27       3.066      2.966      2.802      2.7        2.41       2.1        4.15       2.87       -9999      3.7        2.1        -9999      2.9        0.1890953  0.1592814  -9999      0.2189091  0.2288316  8.905556   9.230856   2.404      2.41       0.3687164  0.436692   389.91     0.2534781  0.2618024  0.2451537 
986        0.222      407.33     322.423    6.14       3.43       2.698      2.538      2.635      2.497      2.455      2.27       1.79       2.41       2.19       -9999      3.53       2.07       -9999      2.85       0.1805479  0.145509   -9999      0.2155869  0.2203478  6.185056   8.767281   2.427      2.27       0.3240462  0.3950704  389.46     0.2538829  0.267369   0.2403967 
986.2      0.239      456.2      330.361    6.3        3.31       2.298      2.231      2.184      2.207      2.192      2.16       1.61       1.52       1.79       -9999      3.32       2.01       -9999      2.84       0.2143932  0.2071857  -9999      0.2216007  0.2554489  26.19632   7.134369   2.324      2.16       0.4042681  0.4704777  388.78     0.2618939  0.2908443  0.2329435 
986.4      0.233      475.51     336.442    6.41       3.2        2.487      2.294      2.232      2.138      2.103      2.17       1.68       1.31       2.13       -9999      3.3        1.96       -9999      2.88       0.2416802  0.257485   -9999      0.2258755  0.2837281  83.88076   6.19182    2.24       2.17       0.4644578  0.5273356  388.31     0.2682225  0.3081686  0.2282764 
986.6      0.239      458.5      324.604    6.56       3.19       2.356      2.246      2.256      2.218      2.181      2.29       1.56       1.65       2.26       -9999      3.51       1.98       -9999      2.88       0.230786   0.251497   -9999      0.2100751  0.2745338  52.70787   5.103916   2.25       2.29       0.4564107  0.5218084  387.92     0.2790663  0.3334675  0.2246651 
