~Version
 VERS              .         2.0                           : CWLS LOG ASCII STANDARD - VERSION 2.0
 WRAP              .         NO                            : ONE LINE PER DEPTH STEP
 DLM               .         SPACE                         : DELIMITING CHARACTER(SPACE TAB OR COMMA)
~Well Information
#_______________________________________________________________________________
#
#PARAMETER_NAME    .UNIT     VALUE                         : DESCRIPTION
#_______________________________________________________________________________
STRT               .м        0                             : First reference value
STOP               .м        1167.4                        : Last reference value
STEP               .м        0.2                           : Step increment
NULL               .         -9999                         : Missing value
COMP               .                                       : Company
WELL               .         9421                          : Well name
FLD                .         Узень                         : Field
LOC                .                                       : Location
CNTY               .                                       : County
STAT               .                                       : State
CTRY               .                                       : Country
SRVC               .                                       : Service Company
DATE               .                                       : Date
UWI                .                                       : Unique Well ID
Block              .         7                             : 
Category           .         Нефтяная                      : 
Condition          .         В работе                      : 
Date               .         14.05.2016                    : 
EREF               .m        92.9                          : 100.8
GRP                .                                       : Group name
Gor                .         13                            : 
Gorizont           .         13                            : 14
ISS                .                                       : Well surveys
Interpretator      .         Кайсанов Е.К                  : 
Kupol              .         Основной                      : osnovnoi
Mud                .         Глинистый                     : 
Mud_density        .         1,34                          : 
Mud_resistivity    .         0,33                          : 
NGDU               .         НГДУ-2                        : 
ORIGINALWELLNAME   .         9421                          : 
Spud_date          .         2016                          : 1961
TIME               .                                       : LOG TIME
Viscosity          .         40                            : 
X                  .m        41760.27                      : 46154
Y                  .m        84652.7                       : 85761.93
YEAR               .         2019                          : 
Сдали_за_3_кв_2019 .         3                             : 
~Parameter Information Block
#_______________________________________________________________________________
#
#PARAMETER_NAME    .UNIT     VALUE                         : DESCRIPTION
#_______________________________________________________________________________
SET                .         LQC_KAZNIPI_Petrel            : 
TLFamily_CALI      .         Caliper                       : 
TLFamily_CILD      .         Conductivity                  : 
TLFamily_DEPT      .         Measured Depth                : 
TLFamily_DT        .         Compressional Slowness        : 
TLFamily_GR        .         Russian Gamma Ray             : 
TLFamily_GZ3       .         Gradient 225                  : 
TLFamily_IK1       .         Resistivity 05                : 
TLFamily_IK2       .         Resistivity 07                : 
TLFamily_IK3       .         Resistivity 10                : 
TLFamily_IK4       .         Resistivity 14                : 
TLFamily_IK5       .         Resistivity 20                : 
TLFamily_LLS       .         Lateral Log Resistivity       : 
TLFamily_MBK       .         Micro Lateral Log Resistivity : 
TLFamily_MINV      .         Micro Gradient Resistivity    : 
TLFamily_MNOR      .         Micro Resistivity             : 
TLFamily_NGLD      .         Neutron Far                   : 
TLFamily_NNKTB_1   .         Neutron Far                   : 
TLFamily_NNKTM_1   .         Neutron Near                  : 
TLFamily_NPHI      .         Neutron Porosity              : 
TLFamily_OGZ3      .         Gradient Inverted 225         : 
TLFamily_PHIE      .         Effective Porosity            : 
TLFamily_PHIED     .         Effective Porosity            : 
TLFamily_PHIEN     .         Effective Porosity            : 
TLFamily_PHIES     .         Effective Porosity            : 
TLFamily_PHIT      .         Porosity                      : 
TLFamily_PRMB      .         Permeability                  : 
TLFamily_PRMB_DGR  .         Permeability                  : 
TLFamily_RHOB      .         Bulk Density                  : 
TLFamily_RT        .         Formation Resistivity         : 
TLFamily_SOIL_ARCHIE .         Oil Saturation                : 
TLFamily_SOIL_DW   .         Oil Saturation                : 
TLFamily_SP        .         Spontaneous Potential         : 
TLFamily_VSH_FIN   .         Shale Volume                  : 
TLFamily_VSH_GR    .         Shale Volume                  : 
TLFamily_VSH_SP    .         Shale Volume                  : 
~Curve Information
#_______________________________________________________________________________
#
#LOGNAME           .UNIT     LOG_ID                        : DESCRIPTION
#_______________________________________________________________________________
DEPT               .м                                      : Колонка глубины 
CALI               .м                                      : Каверномер 
CILD               .мСм/м                                  : Проводимость 
DT                 .мкс/м                                  : Интервальное время пробега продольной волны 
GR                 .uR/h                                   : Гамма каротаж 
GZ3                .Ohmm                                   : Градиент-зонд  длиной 2.25м 
IK1                .OHMM                                   : И0.10И0.40 
IK2                .OHMM                                   : И0.14И0.56 
IK3                .OHMM                                   : И0.20И0.8 
IK4                .OHMM                                   : И0.28И1.12 
IK5                .OHMM                                   : И0.40И1.60 
LLS                .Ohmm                                   : Боковой каротаж 
MBK                .Ohmm                                   : Микробоковой каротаж 
MINV               .Ohmm                                   : Микро-градиент зонд 
MNOR               .Ohmm                                   : Микро-потенциал зонд 
NGLD               .у.е.                                   : Показания зонда НГК-60 аппаратуры ДРСТ-3-90 
NNKTB_1            .у.е.                                   : Показания большого зонда 2ННКт аппаратуры СРК 
NNKTM_1            .у.е.                                   : Показания малого зонда 2ННКт аппаратуры СРК 
NPHI               .v/v                                    : Total porosity 
OGZ3               .Ohmm                                   : Обращенный градиент-зонд 
PHIE               .v/v                                    : Описание 
PHIED              .v/v                                    :  
PHIEN              .v/v                                    :  
PHIES              .v/v                                    :  
PHIT               .v/v                                    : Описание 
PRMB               .mD                                     :  
PRMB_DGR           .mD                                     :  
RHOB               .г/см3                                  : Плотность по ГГКп 
RT                 .ohmm                                   : Удельное электрическое сопротивление 
SOIL_ARCHIE        .v/v                                    :  
SOIL_DW            .v/v                                    :  
SP                 .мВ                                     : Потенциал самополяризации 
VSH_FIN            .v/v                                    : Описание 
VSH_GR             .v/v                                    : Shale volume 
VSH_SP             .v/v                                    : Shale Volume 
~Ascii
# ...
911.2      0.215      630.11     310.918    3.45       2.44       3.624000000000001 2.21       1.823      1.672      1.587      1.89       2.17       3.56       3.45       -9999      4.33       2.25       -9999      1.48       0.2949004  0.3299401  -9999      0.2598607  0.3059987  811.763    2492.482   2.119      1.89       0.5195276  0.5546054  372.14     0.07079609 0.02661681 0.1149754 
911.4      0.215      628.14     318.601    3.21       2.33       3.450000000000001 2.181      1.791      1.674      1.592      1.87       2.21       3.53       3.46       -9999      4.15       2.25       -9999      1.48       0.3058257  0.3425149  -9999      0.2691363  0.3167226  1293.573   3326.532   2.098      1.87       0.5321822  0.5677522  372.61     0.06951143 0.02365743 0.1153654 
911.6      0.214      621.89     318.996    2.96       2.22       3.433      2.2        1.804      1.681      1.608      1.86       2.18       3.59       3.43       -9999      4.04       2.24       -9999      1.51       0.3035163  0.3371257  -9999      0.2699069  0.3142502  1172.239   4493.396   2.107      1.86       0.5278972  0.5632306  373.34     0.06847173 0.02092407 0.1160194 
911.8      0.216      617.66     310.869    2.86       2.13       3.532      2.215      1.819      1.672      1.619      1.86       2.16       3.52       3.41       -9999      4.01       2.24       -9999      1.54       0.296142   0.3317366  -9999      0.2605474  0.306868   855.9059   5067.667   2.116      1.86       0.5176746  0.5525637  374.23     0.06842067 0.02       0.1168413 
912        0.215      616.52     309.856    2.99       2.07       3.503      2.203      1.802      1.661      1.622      1.86       2.24       3.51       3.41       -9999      4.03       2.24       -9999      1.56       0.2857899  0.3125749  -9999      0.259005   0.2966855  550.4033   4334.159   2.148      1.86       0.5024933  0.5368396  375.2      0.06950295 0.02123463 0.1177713 
912.2      0.216      615.76     314.827    3.18       2.01       3.712000000000001 2.305      1.87       1.685      1.624      1.86       2.15       3.44       3.33       -9999      4.1        2.26       -9999      1.57       0.2819024  0.2994012  -9999      0.2644037  0.2930135  466.3103   3448.75    2.17       1.86       0.4965231  0.5307834  375.9      0.07087729 0.02331143 0.1184432 
912.4      0.216      626.95     317.751    3.33       2.04       3.702      2.239      1.826      1.657      1.595      1.86       2.08       3.58       3.34       -9999      4.22       2.26       -9999      1.55       0.2929678  0.3185629  -9999      0.2673727  0.3042663  747.5356   2879.466   2.138      1.86       0.5131263  0.5482962  376.52     0.07207303 0.02509353 0.1190525 
912.6      0.215      647.24     320.873    3.43       1.97       3.456      2.166      1.74       1.607      1.545      1.82       2.03       3.34       3.18       -9999      4.39       2.25       -9999      1.52       0.3068319  0.3431138  -9999      0.2705499  0.3182932  1350.295   2553.164   2.097      1.82       0.5275481  0.5637035  377.28     0.07311191 0.02635666 0.1198672 
912.8      0.216      647.24     320.724    3.48       2.01       3.774      2.257      1.778      1.618      1.545      1.8        2.09       3.33       3.14       -9999      4.49       2.23       -9999      1.5        0.3072656  0.3443114  -9999      0.2702198  0.3188092  1375.505   2404.153   2.095      1.8        0.5256758  0.5619571  377.68     0.0736366  0.02701187 0.1202613 
913        0.214      654.87     316.584    3.45       1.92       3.485      2.122      1.727      1.582      1.527      1.79       2.14       3.54       3.27       -9999      4.46       2.23       -9999      1.5        0.2995368  0.333533   -9999      0.2655406  0.3110878  989.2491   2492.482   2.113      1.79       0.5137645  0.5496459  378.14     0.07368353 0.02661681 0.1207503 
913.2      0.215      662.25     314.849    3.39       1.88       3.315999999999999 2.108      1.69       1.554      1.51       1.77       2.07       3.37       3.16       -9999      4.39       2.22       -9999      1.5        0.2949744  0.3263473  -9999      0.2636016  0.3064992  814.3301   2678.995   2.125      1.77       0.5046158  0.5402314  378.55     0.07351672 0.02584395 0.1211895 
913.4      0.215      663.12     314.068    3.27       1.84       3.341      2.09       1.689      1.555      1.508      1.75       2.02       3.29       3.1        -9999      4.3        2.23       -9999      1.52       0.2970003  0.3311377  -9999      0.262863   0.3084427  887.8181   3094.938   2.117      1.75       0.5049272  0.540629   378.94     0.07299062 0.0243649  0.1216163 
913.6      0.215      652.74     311.07     3.24       1.75       3.470000000000001 2.148      1.756      1.602      1.532      1.76       2.04       3.46       3.22       -9999      4.28       2.24       -9999      1.56       0.2871709  0.31497    -9999      0.2593719  0.2986036  583.7955   3208.646   2.144      1.76       0.4915619  0.5265896  379.19     0.07292852 0.02400856 0.1218485 
913.8      0.215      649.35     311.773    3.32       1.8        3.5        2.162      1.742      1.592      1.54       1.76       2.24       3.52       3.41       -9999      4.26       2.25       -9999      1.56       0.2722446  0.2844312  -9999      0.260058   0.2837488  308.8788   2914.307   2.195      1.76       0.4673673  0.5012994  379.25     0.07338513 0.02497059 0.1217997 
914        0.214      668        317.324    3.43       1.76       3.371      2.104      1.692      1.554      1.497      1.75       2.05       3.32       3.15       -9999      4.21       2.25       -9999      1.53       0.2870327  0.3077845  -9999      0.266281   0.2986348  580.364    2553.164   2.156      1.75       0.4899868  0.5251683  379.25     0.07400968 0.02635666 0.1216627 
914.2      0.213      689.65     320.534    3.46       1.73       3.305      2.086      1.677      1.521      1.45       1.71       2.02       3.22       3.05       -9999      4.12       2.24       -9999      1.49       0.310673   0.351497   -9999      0.269849   0.3222963  1590.654   2462.685   2.083      1.71       0.518765   0.5554689  379.26     0.07414482 0.02674785 0.1215418 
914.4      0.213      706.21     319.42     3.39       1.72       3.223      2.01       1.601      1.459      1.416      1.7        2.02       3.14       3.01       -9999      4.07       2.24       -9999      1.46       0.3131249  0.3574851  -9999      0.2687648  0.324668   1766       2678.995   2.073      1.7        0.5207313  0.5575215  379.27     0.07363302 0.02584395 0.1214221 
914.6      0.212      704.22     317.694    3.23       1.66       3.184000000000001 1.985      1.604      1.472      1.42       1.69       1.99       3.18       3.01       -9999      4.07       2.25       -9999      1.45       0.309022   0.3508981  -9999      0.2671459  0.3204016  1482.504   3247.47    2.084      1.69       0.51385    0.5503125  379.27     0.07259012 0.02389094 0.1212893 
914.8      0.214      686.81     313.813    3.17       1.71       3.456      2.073      1.657      1.522      1.456      1.7        2.06       3.3        3.09       -9999      4.16       2.25       -9999      1.46       0.3038638  0.3449101  -9999      0.2628174  0.3151809  1189.74    3490.479   2.094      1.7        0.508034   0.5441304  379.29     0.07219174 0.02319723 0.1211863 
915        0.213      681.19     310.797    3.2        1.68       3.376      2.07       1.652      1.52       1.468      1.72       2.03       3.3        3.07       -9999      4.28       2.25       -9999      1.48       0.2963753  0.333533   -9999      0.2592176  0.3077235  864.4657   3366.783   2.113      1.72       0.4999771  0.5356031  379.42     0.07239018 0.02354153 0.1212388 
915.2      0.213      682.59     308.95     3.16       1.68       3.382      2.083      1.65       1.508      1.465      1.73       2.28       3.26       3.05       -9999      4.3        2.24       -9999      1.5        0.2940866  0.3311377  -9999      0.2570355  0.3054256  784.0702   3532.713   2.117      1.73       0.4979571  0.5334116  379.75     0.07233165 0.02308358 0.1215797 
