~Version
 VERS              .         2.0                           : CWLS LOG ASCII STANDARD - VERSION 2.0
 WRAP              .         NO                            : ONE LINE PER DEPTH STEP
 DLM               .         SPACE                         : DELIMITING CHARACTER(SPACE TAB OR COMMA)
~Well Information
#_______________________________________________________________________________
#
#PARAMETER_NAME    .UNIT     VALUE                         : DESCRIPTION
#_______________________________________________________________________________
STRT               .м        0                             : First reference value
STOP               .м        1167.4                        : Last reference value
STEP               .м        0.2                           : Step increment
NULL               .         -9999                         : Missing value
COMP               .                                       : Company
WELL               .         9421                          : Well name
FLD                .         Узень                         : Field
LOC                .                                       : Location
CNTY               .                                       : County
STAT               .                                       : State
CTRY               .                                       : Country
SRVC               .                                       : Service Company
DATE               .                                       : Date
UWI                .                                       : Unique Well ID
Block              .         7                             : 
Category           .         Нефтяная                      : 
Condition          .         В работе                      : 
Date               .         14.05.2016                    : 
EREF               .m        92.9                          : 100.8
GRP                .                                       : Group name
Gor                .         13                            : 
Gorizont           .         13                            : 14
ISS                .                                       : Well surveys
Interpretator      .         Кайсанов Е.К                  : 
Kupol              .         Основной                      : osnovnoi
Mud                .         Глинистый                     : 
Mud_density        .         1,34                          : 
Mud_resistivity    .         0,33                          : 
NGDU               .         НГДУ-2                        : 
ORIGINALWELLNAME   .         9421                          : 
Spud_date          .         2016                          : 1961
TIME               .                                       : LOG TIME
Viscosity          .         40                            : 
X                  .m        41760.27                      : 46154
Y                  .m        84652.7                       : 85761.93
YEAR               .         2019                          : 
Сдали_за_3_кв_2019 .         3                             : 
~Parameter Information Block
#_______________________________________________________________________________
#
#PARAMETER_NAME    .UNIT     VALUE                         : DESCRIPTION
#_______________________________________________________________________________
SET                .         LQC_KAZNIPI_Petrel            : 
TLFamily_CALI      .         Caliper                       : 
TLFamily_CILD      .         Conductivity                  : 
TLFamily_DEPT      .         Measured Depth                : 
TLFamily_DT        .         Compressional Slowness        : 
TLFamily_GR        .         Russian Gamma Ray             : 
TLFamily_GZ3       .         Gradient 225                  : 
TLFamily_IK1       .         Resistivity 05                : 
TLFamily_IK2       .         Resistivity 07                : 
TLFamily_IK3       .         Resistivity 10                : 
TLFamily_IK4       .         Resistivity 14                : 
TLFamily_IK5       .         Resistivity 20                : 
TLFamily_LLS       .         Lateral Log Resistivity       : 
TLFamily_MBK       .         Micro Lateral Log Resistivity : 
TLFamily_MINV      .         Micro Gradient Resistivity    : 
TLFamily_MNOR      .         Micro Resistivity             : 
TLFamily_NGLD      .         Neutron Far                   : 
TLFamily_NNKTB_1   .         Neutron Far                   : 
TLFamily_NNKTM_1   .         Neutron Near                  : 
TLFamily_NPHI      .         Neutron Porosity              : 
TLFamily_OGZ3      .         Gradient Inverted 225         : 
TLFamily_PHIE      .         Effective Porosity            : 
TLFamily_PHIED     .         Effective Porosity            : 
TLFamily_PHIEN     .         Effective Porosity            : 
TLFamily_PHIES     .         Effective Porosity            : 
TLFamily_PHIT      .         Porosity                      : 
TLFamily_PRMB      .         Permeability                  : 
TLFamily_PRMB_DGR  .         Permeability                  : 
TLFamily_RHOB      .         Bulk Density                  : 
TLFamily_RT        .         Formation Resistivity         : 
TLFamily_SOIL_ARCHIE .         Oil Saturation                : 
TLFamily_SOIL_DW   .         Oil Saturation                : 
TLFamily_SP        .         Spontaneous Potential         : 
TLFamily_VSH_FIN   .         Shale Volume                  : 
TLFamily_VSH_GR    .         Shale Volume                  : 
TLFamily_VSH_SP    .         Shale Volume                  : 
~Curve Information
#_______________________________________________________________________________
#
#LOGNAME           .UNIT     LOG_ID                        : DESCRIPTION
#_______________________________________________________________________________
DEPT               .м                                      : Колонка глубины 
CALI               .м                                      : Каверномер 
CILD               .мСм/м                                  : Проводимость 
DT                 .мкс/м                                  : Интервальное время пробега продольной волны 
GR                 .uR/h                                   : Гамма каротаж 
GZ3                .Ohmm                                   : Градиент-зонд  длиной 2.25м 
IK1                .OHMM                                   : И0.10И0.40 
IK2                .OHMM                                   : И0.14И0.56 
IK3                .OHMM                                   : И0.20И0.8 
IK4                .OHMM                                   : И0.28И1.12 
IK5                .OHMM                                   : И0.40И1.60 
LLS                .Ohmm                                   : Боковой каротаж 
MBK                .Ohmm                                   : Микробоковой каротаж 
MINV               .Ohmm                                   : Микро-градиент зонд 
MNOR               .Ohmm                                   : Микро-потенциал зонд 
NGLD               .у.е.                                   : Показания зонда НГК-60 аппаратуры ДРСТ-3-90 
NNKTB_1            .у.е.                                   : Показания большого зонда 2ННКт аппаратуры СРК 
NNKTM_1            .у.е.                                   : Показания малого зонда 2ННКт аппаратуры СРК 
NPHI               .v/v                                    : Total porosity 
OGZ3               .Ohmm                                   : Обращенный градиент-зонд 
PHIE               .v/v                                    : Описание 
PHIED              .v/v                                    :  
PHIEN              .v/v                                    :  
PHIES              .v/v                                    :  
PHIT               .v/v                                    : Описание 
PRMB               .mD                                     :  
PRMB_DGR           .mD                                     :  
RHOB               .г/см3                                  : Плотность по ГГКп 
RT                 .ohmm                                   : Удельное электрическое сопротивление 
SOIL_ARCHIE        .v/v                                    :  
SOIL_DW            .v/v                                    :  
SP                 .мВ                                     : Потенциал самополяризации 
VSH_FIN            .v/v                                    : Описание 
VSH_GR             .v/v                                    : Shale volume 
VSH_SP             .v/v                                    : Shale Volume 
~Ascii
# ...
928        0.214      567.85     306.797    3.51       1.69       3.891      2.6        2.062      1.862      1.761      2.37       2.39       3.66       3.46       -9999      4.88       2.32       -9999      6.36       0.2744078  0.2958083  -9999      0.2530073  0.2864617  338.7321   2318.954   2.176      2.37       0.5399674  0.5740192  388.43     0.07689138 0.02741279 0.12637   
928.2      0.215      527.98     305.312    3.47       1.83       3.863999999999999 2.693      2.148      1.982      1.894      2.7        2.18       3.72       3.57       -9999      5.1        2.33       -9999      6.89       0.2716729  0.2922156  -9999      0.2511303  0.2837585  301.4393   2433.243   2.182      2.7        0.5634743  0.5970043  388.96     0.07709355 0.02687953 0.1273076 
928.4      0.214      457.24     303.299    3.55       1.98       5.044      3.353      2.618      2.385      2.187      3.11       2.49       3.88       4.03       -9999      5.3        2.36       -9999      7.08       0.2600893  0.2718562  -9999      0.2483224  0.2723354  183.926    2210.034   2.216      3.11       0.5756928  0.6083365  389.48     0.07811736 0.02795661 0.1282781 
928.6      0.214      371.19     284.406    3.54       2.06       6.745      4.409      3.305      2.911      2.694      3.67       2.71       4.18       4.19       -9999      5.51       2.41       -9999      6.79       0.2267894  0.2305389  -9999      0.22304    0.2391485  44.44765   2236.775   2.285      3.67       0.5576571  0.5881689  390.22     0.07883824 0.02781965 0.1298568 
928.8      0.214      326.05     258.434    3.45       2.27       8.329000000000001 5.140000000000001 3.912      3.331999999999999 3.067      4.25       3.24       4.83       4.82       -9999      5.63       2.44       -9999      6.52       0.1912587  0.2        -9999      0.1825174  0.2036669  9.766382   2492.482   2.336      4.25       0.5210301  0.5487267  391        0.07915155 0.02661681 0.1316863 
929        0.214      304.32     252.067    3.44       2.42       7.815000000000001 5.235      4.069999999999999 3.473      3.286      4.75       3.03       4.5        4.64       -9999      5.59       2.46       -9999      6.75       0.1887765  0.2065868  -9999      0.1709663  0.2013696  8.785314   2522.641   2.325      4.75       0.5401865  0.5679484  391.94     0.08033109 0.02648642 0.1341758 
929.2      0.214      278.08     254.475    3.48       2.76       7.585      5.389      4.442999999999999 3.766      3.596      5.23       3.02       5.17       4.95       -9999      5.62       2.49       -9999      7.53       0.1861881  0.1976048  -9999      0.1747713  0.1990259  7.867067   2404.153   2.34       5.23       0.5551792  0.5830263  392.83     0.08189253 0.02701187 0.1367732 
929.4      0.216      239.52     242.518    3.61       3.19       8.696999999999999 6.089000000000001 5.324      4.692      4.175      6.01       3.02       4.88       5.04       -9999      5.87       2.52       -9999      8.7        0.1764571  0.2011975  -9999      0.1517167  0.18974    5.194839   2056.17    2.334      6.01       0.5633247  0.5909503  393.99     0.08473124 0.02879265 0.1406698 
929.6      0.215      194.7      226.643    3.54       3.95       11.655     7.872000000000001 6.887999999999999 6.081999999999999 5.136      7.57       3.43       4.21       4.74       -9999      6.43       2.59       -9999      10.05      0.149952   0.182036   -9999      0.117868   0.1636387  1.677385   2236.775   2.366      7.57       0.548463   0.5746995  395.53     0.08730727 0.02781965 0.1467949 
929.8      0.215      156.83     217.548    3.3        4.88       18.012     10.676     8.789999999999999 7.823      6.375999999999999 9.47       4.14       6.47       6.43       -9999      7.15       2.68       -9999      11.31      0.1107286  0.1257485  -9999      0.0957088  0.1249438  0.3148627  2985.258   2.46       9.47       0.4706374  0.4948016  397.55     0.0906781  0.02472653 0.1566297 
930        0.215      134.62     210.243    3.15       5.93       21.556     12.918     10.281     9.162000000000001 7.427999999999999 10.91      4.19       6.17       6.21       -9999      7.73       2.78       -9999      12.18      0.0896374  0.1035928  -9999      0.07568198 0.1047303  0.1280738  3575.458   2.497      10.91      0.4045663  0.430076   399.71     0.09627724 0.0229705  0.169584  
930.2      0.215      121.46     206.369    3.05       7.13       28.33      16.552     12.713     10.234     8.233000000000001 11.75      4.2        6.07       6.51       -9999      7.94       2.83       -9999      12.6       0.08291633 0.1029941  -9999      0.0628386  0.09932363 0.09615453 4032.412   2.498      11.75      0.3845427  0.4147699  402.12     0.1046619  0.02186965 0.1874542 
930.4      0.215      120.22     210.948    3.17       8.24       40.603     20.514     14.022     10.16      8.318      11.42      4.41       6.41       7          -9999      7.57       2.82       -9999      12.52      0.08939713 0.1077844  -9999      0.07100984 0.1077353  0.1267681  3490.479   2.49       11.42      0.415832   0.4513223  404.67     0.1169791  0.02319723 0.2107611 
930.6      0.217      143.98     240.011    3.46       9.17       16.999     12.772     9.904999999999999 7.436      6.945000000000001 9.64       4.55       8.55       8.84       -9999      6.64       2.72       -9999      11.42      0.1168036  0.1029941  -9999      0.1306132  0.1381746  0.4079856  2462.685   2.498      9.64       0.4989001  0.5380188  407.75     0.1363252  0.02674785 0.2459026 
930.8      0.221      200.88     277.579    3.88       9.04       6.412000000000001 5.729      5.368      4.855      4.978000000000001 6.08       2.39       5.97       4.02       -9999      5.47       2.54       -9999      9.22       0.1597245  0.1293413  -9999      0.1901077  0.1836032  2.54474    1486.036   2.454      6.08       0.5263226  0.5675285  409.69     0.1523219  0.03287523 0.2717686 
931        0.221      246.36     303.722    4.42       7.85       4.59       4.409      4.398      4.124      4.059      3.68       2.24       4.97       3.62       -9999      4.55       2.36       -9999      7.03       0.1876704  0.1544911  -9999      0.2208498  0.2139154  8.3805     776.1937   2.412      3.68       0.4790209  0.5245976  411.08     0.1674163  0.0428591  0.2919735 
931.2      0.222      256.27     324.553    5.05       6.26       3.895      4.098      4.237      4.071999999999999 3.902      3.39       2.27       5.14       3.72       -9999      4.14       2.23       -9999      5.2        0.2024938  0.1646707  -9999      0.240317   0.2310929  15.77011   363.832    2.395      3.39       0.4932504  0.5412602  412.04     0.1824334  0.05840001 0.3064668 
931.4      0.222      257.66     325.581    5.69       5.28       4.368999999999999 3.894      4.059      4.036      3.881      3.48       2.39       5.65       3.62       -9999      4.07       2.19       -9999      4.56       0.2111521  0.1868263  -9999      0.235478   0.2427272  22.81434   168.5033   2.358      3.48       0.5173678  0.5675982  413.06     0.2014171  0.07996789 0.3228664 
931.6      0.221      264.76     310.839    6.19       4.96       3.806999999999999 3.353      3.412999999999999 3.711      3.777      3.54       2.05       4.41       3.24       -9999      4.15       2.19       -9999      4.59       0.200658   0.188024   -9999      0.213292   0.2349939  14.58245   92.35119   2.356      3.54       0.499488   0.5536497  413.85     0.2190284  0.1022253  0.3358315 
931.8      0.223      262.46     288.778    6.39       5.06       3.774      3.493      3.456      3.678999999999999 3.81       3.59       2.08       4.14       3.24       -9999      4.31       2.21       -9999      4.81       0.1642583  0.1838324  -9999      0.1446843  0.2188402  3.087601   6.35341    2.363      3.59       0.4080743  0.4975089  414.59     0.3481768  0.3049437  0.3914099 
932        0.222      250.87     286.327    6.28       5.31       4.597999999999999 4.283000000000001 4.011      3.943      3.986      3.72       2.35       5.94       4          -9999      4.39       2.23       -9999      5.14       0.1576782  0.1724551  -9999      0.1429012  0.211456   2.332062   7.320556   2.382      3.72       0.3967709  0.487732   414.99     0.3430478  0.2878008  0.3982949 
