~Version
 VERS              .         2.0                           : CWLS LOG ASCII STANDARD - VERSION 2.0
 WRAP              .         NO                            : ONE LINE PER DEPTH STEP
 DLM               .         SPACE                         : DELIMITING CHARACTER(SPACE TAB OR COMMA)
~Well Information
#_______________________________________________________________________________
#
#PARAMETER_NAME    .UNIT     VALUE                         : DESCRIPTION
#_______________________________________________________________________________
STRT               .м        0                             : First reference value
STOP               .м        1167.4                        : Last reference value
STEP               .м        0.2                           : Step increment
NULL               .         -9999                         : Missing value
COMP               .                                       : Company
WELL               .         9421                          : Well name
FLD                .         Узень                         : Field
LOC                .                                       : Location
CNTY               .                                       : County
STAT               .                                       : State
CTRY               .                                       : Country
SRVC               .                                       : Service Company
DATE               .                                       : Date
UWI                .                                       : Unique Well ID
Block              .         7                             : 
Category           .         Нефтяная                      : 
Condition          .         В работе                      : 
Date               .         14.05.2016                    : 
EREF               .m        92.9                          : 100.8
GRP                .                                       : Group name
Gor                .         13                            : 
Gorizont           .         13                            : 14
ISS                .                                       : Well surveys
Interpretator      .         Кайсанов Е.К                  : 
Kupol              .         Основной                      : osnovnoi
Mud                .         Глинистый                     : 
Mud_density        .         1,34                          : 
Mud_resistivity    .         0,33                          : 
NGDU               .         НГДУ-2                        : 
ORIGINALWELLNAME   .         9421                          : 
Spud_date          .         2016                          : 1961
TIME               .                                       : LOG TIME
Viscosity          .         40                            : 
X                  .m        41760.27                      : 46154
Y                  .m        84652.7                       : 85761.93
YEAR               .         2019                          : 
Сдали_за_3_кв_2019 .         3                             : 
~Parameter Information Block
#_______________________________________________________________________________
#
#PARAMETER_NAME    .UNIT     VALUE                         : DESCRIPTION
#_______________________________________________________________________________
SET                .         LQC_KAZNIPI_Petrel            : 
TLFamily_CALI      .         Caliper                       : 
TLFamily_CILD      .         Conductivity                  : 
TLFamily_DEPT      .         Measured Depth                : 
TLFamily_DT        .         Compressional Slowness        : 
TLFamily_GR        .         Russian Gamma Ray             : 
TLFamily_GZ3       .         Gradient 225                  : 
TLFamily_IK1       .         Resistivity 05                : 
TLFamily_IK2       .         Resistivity 07                : 
TLFamily_IK3       .         Resistivity 10                : 
TLFamily_IK4       .         Resistivity 14                : 
TLFamily_IK5       .         Resistivity 20                : 
TLFamily_LLS       .         Lateral Log Resistivity       : 
TLFamily_MBK       .         Micro Lateral Log Resistivity : 
TLFamily_MINV      .         Micro Gradient Resistivity    : 
TLFamily_MNOR      .         Micro Resistivity             : 
TLFamily_NGLD      .         Neutron Far                   : 
TLFamily_NNKTB_1   .         Neutron Far                   : 
TLFamily_NNKTM_1   .         Neutron Near                  : 
TLFamily_NPHI      .         Neutron Porosity              : 
TLFamily_OGZ3      .         Gradient Inverted 225         : 
TLFamily_PHIE      .         Effective Porosity            : 
TLFamily_PHIED     .         Effective Porosity            : 
TLFamily_PHIEN     .         Effective Porosity            : 
TLFamily_PHIES     .         Effective Porosity            : 
TLFamily_PHIT      .         Porosity                      : 
TLFamily_PRMB      .         Permeability                  : 
TLFamily_PRMB_DGR  .         Permeability                  : 
TLFamily_RHOB      .         Bulk Density                  : 
TLFamily_RT        .         Formation Resistivity         : 
TLFamily_SOIL_ARCHIE .         Oil Saturation                : 
TLFamily_SOIL_DW   .         Oil Saturation                : 
TLFamily_SP        .         Spontaneous Potential         : 
TLFamily_VSH_FIN   .         Shale Volume                  : 
TLFamily_VSH_GR    .         Shale Volume                  : 
TLFamily_VSH_SP    .         Shale Volume                  : 
~Curve Information
#_______________________________________________________________________________
#
#LOGNAME           .UNIT     LOG_ID                        : DESCRIPTION
#_______________________________________________________________________________
DEPT               .м                                      : Колонка глубины 
CALI               .м                                      : Каверномер 
CILD               .мСм/м                                  : Проводимость 
DT                 .мкс/м                                  : Интервальное время пробега продольной волны 
GR                 .uR/h                                   : Гамма каротаж 
GZ3                .Ohmm                                   : Градиент-зонд  длиной 2.25м 
IK1                .OHMM                                   : И0.10И0.40 
IK2                .OHMM                                   : И0.14И0.56 
IK3                .OHMM                                   : И0.20И0.8 
IK4                .OHMM                                   : И0.28И1.12 
IK5                .OHMM                                   : И0.40И1.60 
LLS                .Ohmm                                   : Боковой каротаж 
MBK                .Ohmm                                   : Микробоковой каротаж 
MINV               .Ohmm                                   : Микро-градиент зонд 
MNOR               .Ohmm                                   : Микро-потенциал зонд 
NGLD               .у.е.                                   : Показания зонда НГК-60 аппаратуры ДРСТ-3-90 
NNKTB_1            .у.е.                                   : Показания большого зонда 2ННКт аппаратуры СРК 
NNKTM_1            .у.е.                                   : Показания малого зонда 2ННКт аппаратуры СРК 
NPHI               .v/v                                    : Total porosity 
OGZ3               .Ohmm                                   : Обращенный градиент-зонд 
PHIE               .v/v                                    : Описание 
PHIED              .v/v                                    :  
PHIEN              .v/v                                    :  
PHIES              .v/v                                    :  
PHIT               .v/v                                    : Описание 
PRMB               .mD                                     :  
PRMB_DGR           .mD                                     :  
RHOB               .г/см3                                  : Плотность по ГГКп 
RT                 .ohmm                                   : Удельное электрическое сопротивление 
SOIL_ARCHIE        .v/v                                    :  
SOIL_DW            .v/v                                    :  
SP                 .мВ                                     : Потенциал самополяризации 
VSH_FIN            .v/v                                    : Описание 
VSH_GR             .v/v                                    : Shale volume 
VSH_SP             .v/v                                    : Shale Volume 
~Ascii
# ...
1070.8     0.22       365.76     289.6      8.85       2.43       4.477000000000001 3.598      3.231      2.998      2.734      2.54       2.37       6.37       3.52       -9999      3.89       2.09       -9999      2.85       0.0562107  0.000271519 -9999      0.1121499  0.127622   0.0307834  4.248187   2.501      2.54       0          0          386.72     0.4555314  0.3594162  0.5516467 
1071       0.221      419.46     311.089    8.66       2.47       3.154      2.819      2.57       2.372      2.384      2.45       2.2        5.93       2.78       -9999      3.87       2.1        -9999      2.71       0.06735992 -0.00916229 -9999      0.1438821  0.1365486  0.0495253  5.102852   2.522      2.45       0          0          386.64     0.4413539  0.3334959  0.5492119 
1071.2     0.229      500        335.078    8.85       2.39       2.516      2.309      2.151      1.986      2          2.05       1.8        3.36       2.13       -9999      3.68       2.05       -9999      2.57       0.1085464  0.04948104 -9999      0.1676117  0.179034   0.28688    4.248187   2.421      2.05       0          0.1130717  386.33     0.4496396  0.3594162  0.539863  
1071.4     0.232      549.45     340.123    9.23       2.34       2.196      2.025      1.998      1.878      1.82       1.94       1.72       3.36       1.92       -9999      3.49       1.98       -9999      2.54       0.1352107  0.1066568  -9999      0.1637645  0.210154   0.8945149  2.944326   2.315      1.94       0.06393141 0.2416505  386.29     0.4780622  0.4174568  0.5386677 
1071.6     0.223      525.76     335.92     9.43       2.29       2.296      2.086      2.076      1.974      1.902      1.96       1.71       3.18       1.96       -9999      3.39       1.94       -9999      2.58       0.118288   0.08280686 -9999      0.153769   0.1961248  0.4346482  2.427654   2.348      1.96       0          0.1702447  386.38     0.4965203  0.4516786  0.5413619 
1071.8     0.221      483.32     326.916    9.38       2.33       2.61       2.334      2.322      2.216      2.069      2.06       1.92       4.29       2.48       -9999      3.44       1.95       -9999      2.6        0.09517235 0.045093   -9999      0.1452517  0.172578   0.1621739  2.547631   2.412      2.06       0          0.04696239 386.49     0.4937696  0.4428687  0.5446704 
1072       0.224      456.2      317.245    9.17       2.36       3.186999999999999 2.537      2.372      2.345      2.192      2.19       2.06       7.39       2.68       -9999      3.64       1.99       -9999      2.64       0.0939756  0.04851895 -9999      0.1394323  0.1689572  0.1541041  3.119791   2.412      2.19       0          0.05904172 386.63     0.4783065  0.4077052  0.5489079 
1072.2     0.225      447.22     317.756    8.71       2.46       2.578      2.274      2.189      2.218      2.236      2.29       1.87       4.24       2.24       -9999      3.85       2.02       -9999      2.65       0.1142475  0.07875001 -9999      0.149745   0.1843627  0.3658465  4.862538   2.373      2.29       0          0.1922095  386.81     0.4472637  0.3401301  0.5543974 
1072.4     0.227      415.97     317.576    8.25       2.51       3.111      2.719      2.631      2.424      2.404      2.34       1.95       3.95       2.23       -9999      4.1        2.06       -9999      2.68       0.1173186  0.07611475 -9999      0.1585225  0.182943   0.4170452  7.578806   2.388      2.34       0.02995453 0.2057443  386.78     0.4186172  0.2837552  0.5534792 
1072.6     0.22       364.43     300.774    7.64       2.7        4.715      3.601      3.27       2.891      2.744      2.47       2.29       6.57       3.21       -9999      4.32       2.1        -9999      2.62       0.09871753 0.04834216 -9999      0.1490929  0.1589951  0.1886454  13.65172   2.447      2.47       0          0.09880118 386.53     0.3845096  0.2231409  0.5458784 
1072.8     0.219      366.3      297.757    7.3        2.77       3.442      3.012      2.907      2.713      2.73       2.52       2          4.51       2.56       -9999      4.44       2.15       -9999      2.53       0.1533852  0.1556886  -9999      0.1510818  0.2107413  1.941886   18.95158   2.41       2.52       0.2581848  0.3691795  386.22     0.3658741  0.1951681  0.5365801 
1073       0.221      390.47     307.144    7.28       2.79       4.019000000000001 3.093      2.889      2.671      2.561      2.41       2.08       5.58       2.78       -9999      4.35       2.18       -9999      2.33       0.1586432  0.1526946  -9999      0.1645918  0.2151155  2.430048   19.32082   2.415      2.41       0.2643984  0.3715012  385.89     0.3602358  0.1936364  0.5268353 
1073.2     0.219      416.31     311.802    7.74       2.8        3.027      2.669      2.658      2.533      2.402      2.28       2.01       4.7        2.54       -9999      4.14       2.17       -9999      2.23       0.1452079  0.1251497  -9999      0.1652661  0.2041251  1.370129   12.39619   2.461      2.28       0.1845165  0.3088022  385.64     0.3758319  0.232107   0.5195568 
1073.4     0.227      440.52     325.097    8.34       2.71       2.828      2.486      2.45       2.345      2.27       2.15       1.84       3.8        2.31       -9999      3.85       2.11       -9999      2.18       0.1087177  0.04659497 -9999      0.1708405  0.17235    0.2889842  6.948501   2.442      2.15       0          0.1145796  385.58     0.4059094  0.2939964  0.5178225 
1073.6     0.229      469.48     337.065    9.04       2.66       2.852      2.451      2.404      2.279      2.13       2          1.91       3.81       2.31       -9999      3.58       2.05       -9999      2.12       0.111536   0.05428121 -9999      0.1687907  0.1824404  0.3258927  3.536672   2.412      2          0          0.1217544  385.56     0.4522985  0.3873509  0.5172461 
1073.8     0.223      513.87     330.792    9.69       2.58       2.406      2.09       2.015      2.01       1.946      1.89       1.73       2.94       2.18       -9999      3.34       1.99       -9999      2.11       0.1025624  0.06004095 -9999      0.1450839  0.1821021  0.2222609  1.889071   2.382      1.89       0          0.06484967 385.46     0.5073828  0.5003947  0.514371  
1074       0.225      555.55     326.106    10.2       2.52       2.052      1.831      1.804      1.814      1.8        1.79       1.61       2.96       1.83       -9999      3.19       1.96       -9999      2.14       0.1026311  0.08215468 -9999      0.1231075  0.1906742  0.2229127  1.154944   2.325      1.79       0          0.06580062 385.36     0.5616261  0.6117421  0.5115101 
1074.2     0.231      561.79     333.343    10.48      2.53       2.181      1.916      1.867      1.82       1.78       1.75       1.75       3.17       1.75       -9999      3.13       1.95       -9999      2.19       0.1104697  0.101983   -9999      0.1189565  0.2043965  0.3114049  0.8815412  2.278      1.75       0          0.1200284  385.49     0.5991575  0.6830829  0.5152319 
1074.4     0.228      563.69     327.758    10.86      2.47       2.032      1.813      1.814      1.787      1.774      1.76       1.65       3.14       2.07       -9999      3.19       1.94       -9999      2.33       0.0935144  0.09211776 -9999      0.09491102 0.1965399  0.1511025  0.6109764  2.273      1.76       0          0.04149942 385.69     0.6571982  0.7933913  0.521005  
1074.6     0.228      584.45     333.417    11.02      2.47       2.049      1.811      1.795      1.723      1.711      1.75       1.71       3.4        1.92       -9999      3.26       1.94       -9999      2.44       0.07835431 0.05851477 -9999      0.09819385 0.1827004  0.07915349 0.5235823  2.326      1.75       0          0          386.04     0.6656226  0.8        0.5312452 
1074.8     0.221      606.06     339.236    10.94      2.44       1.909      1.734      1.696      1.641      1.65       1.76       1.63       3.08       1.82       -9999      3.33       1.93       -9999      2.6        0.06065533 0.01966746 -9999      0.1016432  0.1662195  0.03720847 0.5655944  2.388      1.76       0          0          386.56     0.6733928  0.8        0.5467855 
