~Version
 VERS              .         2.0                           : CWLS LOG ASCII STANDARD - VERSION 2.0
 WRAP              .         NO                            : ONE LINE PER DEPTH STEP
 DLM               .         SPACE                         : DELIMITING CHARACTER(SPACE TAB OR COMMA)
~Well Information
#_______________________________________________________________________________
#
#PARAMETER_NAME    .UNIT     VALUE                         : DESCRIPTION
#_______________________________________________________________________________
STRT               .м        0                             : First reference value
STOP               .м        1167.4                        : Last reference value
STEP               .м        0.2                           : Step increment
NULL               .         -9999                         : Missing value
COMP               .                                       : Company
WELL               .         9421                          : Well name
FLD                .         Узень                         : Field
LOC                .                                       : Location
CNTY               .                                       : County
STAT               .                                       : State
CTRY               .                                       : Country
SRVC               .                                       : Service Company
DATE               .                                       : Date
UWI                .                                       : Unique Well ID
Block              .         7                             : 
Category           .         Нефтяная                      : 
Condition          .         В работе                      : 
Date               .         14.05.2016                    : 
EREF               .m        92.9                          : 100.8
GRP                .                                       : Group name
Gor                .         13                            : 
Gorizont           .         13                            : 14
ISS                .                                       : Well surveys
Interpretator      .         Кайсанов Е.К                  : 
Kupol              .         Основной                      : osnovnoi
Mud                .         Глинистый                     : 
Mud_density        .         1,34                          : 
Mud_resistivity    .         0,33                          : 
NGDU               .         НГДУ-2                        : 
ORIGINALWELLNAME   .         9421                          : 
Spud_date          .         2016                          : 1961
TIME               .                                       : LOG TIME
Viscosity          .         40                            : 
X                  .m        41760.27                      : 46154
Y                  .m        84652.7                       : 85761.93
YEAR               .         2019                          : 
Сдали_за_3_кв_2019 .         3                             : 
~Parameter Information Block
#_______________________________________________________________________________
#
#PARAMETER_NAME    .UNIT     VALUE                         : DESCRIPTION
#_______________________________________________________________________________
SET                .         LQC_KAZNIPI_Petrel            : 
TLFamily_CALI      .         Caliper                       : 
TLFamily_CILD      .         Conductivity                  : 
TLFamily_DEPT      .         Measured Depth                : 
TLFamily_DT        .         Compressional Slowness        : 
TLFamily_GR        .         Russian Gamma Ray             : 
TLFamily_GZ3       .         Gradient 225                  : 
TLFamily_IK1       .         Resistivity 05                : 
TLFamily_IK2       .         Resistivity 07                : 
TLFamily_IK3       .         Resistivity 10                : 
TLFamily_IK4       .         Resistivity 14                : 
TLFamily_IK5       .         Resistivity 20                : 
TLFamily_LLS       .         Lateral Log Resistivity       : 
TLFamily_MBK       .         Micro Lateral Log Resistivity : 
TLFamily_MINV      .         Micro Gradient Resistivity    : 
TLFamily_MNOR      .         Micro Resistivity             : 
TLFamily_NGLD      .         Neutron Far                   : 
TLFamily_NNKTB_1   .         Neutron Far                   : 
TLFamily_NNKTM_1   .         Neutron Near                  : 
TLFamily_NPHI      .         Neutron Porosity              : 
TLFamily_OGZ3      .         Gradient Inverted 225         : 
TLFamily_PHIE      .         Effective Porosity            : 
TLFamily_PHIED     .         Effective Porosity            : 
TLFamily_PHIEN     .         Effective Porosity            : 
TLFamily_PHIES     .         Effective Porosity            : 
TLFamily_PHIT      .         Porosity                      : 
TLFamily_PRMB      .         Permeability                  : 
TLFamily_PRMB_DGR  .         Permeability                  : 
TLFamily_RHOB      .         Bulk Density                  : 
TLFamily_RT        .         Formation Resistivity         : 
TLFamily_SOIL_ARCHIE .         Oil Saturation                : 
TLFamily_SOIL_DW   .         Oil Saturation                : 
TLFamily_SP        .         Spontaneous Potential         : 
TLFamily_VSH_FIN   .         Shale Volume                  : 
TLFamily_VSH_GR    .         Shale Volume                  : 
TLFamily_VSH_SP    .         Shale Volume                  : 
~Curve Information
#_______________________________________________________________________________
#
#LOGNAME           .UNIT     LOG_ID                        : DESCRIPTION
#_______________________________________________________________________________
DEPT               .м                                      : Колонка глубины 
CALI               .м                                      : Каверномер 
CILD               .мСм/м                                  : Проводимость 
DT                 .мкс/м                                  : Интервальное время пробега продольной волны 
GR                 .uR/h                                   : Гамма каротаж 
GZ3                .Ohmm                                   : Градиент-зонд  длиной 2.25м 
IK1                .OHMM                                   : И0.10И0.40 
IK2                .OHMM                                   : И0.14И0.56 
IK3                .OHMM                                   : И0.20И0.8 
IK4                .OHMM                                   : И0.28И1.12 
IK5                .OHMM                                   : И0.40И1.60 
LLS                .Ohmm                                   : Боковой каротаж 
MBK                .Ohmm                                   : Микробоковой каротаж 
MINV               .Ohmm                                   : Микро-градиент зонд 
MNOR               .Ohmm                                   : Микро-потенциал зонд 
NGLD               .у.е.                                   : Показания зонда НГК-60 аппаратуры ДРСТ-3-90 
NNKTB_1            .у.е.                                   : Показания большого зонда 2ННКт аппаратуры СРК 
NNKTM_1            .у.е.                                   : Показания малого зонда 2ННКт аппаратуры СРК 
NPHI               .v/v                                    : Total porosity 
OGZ3               .Ohmm                                   : Обращенный градиент-зонд 
PHIE               .v/v                                    : Описание 
PHIED              .v/v                                    :  
PHIEN              .v/v                                    :  
PHIES              .v/v                                    :  
PHIT               .v/v                                    : Описание 
PRMB               .mD                                     :  
PRMB_DGR           .mD                                     :  
RHOB               .г/см3                                  : Плотность по ГГКп 
RT                 .ohmm                                   : Удельное электрическое сопротивление 
SOIL_ARCHIE        .v/v                                    :  
SOIL_DW            .v/v                                    :  
SP                 .мВ                                     : Потенциал самополяризации 
VSH_FIN            .v/v                                    : Описание 
VSH_GR             .v/v                                    : Shale volume 
VSH_SP             .v/v                                    : Shale Volume 
~Ascii
# ...
894.6      0.224      0.37       -9999      9.99       6.73       2666.030000000001 2665.620099999999 2666.030000000001 2665.620099999999 2666.030000000001 2.78       -9999      -9999      -9999      -9999      3.45       1.88       -9999      4.1        -9999      -9999      -9999      -9999      -9999      -9999      -9999      -9999      2.78       -9999      -9999      405.46     -9999      0.8        0.8       
894.8      0.222      0.37       -9999      8.95       6.81       2666.030000000001 2665.620099999999 2666.030000000001 2665.620099999999 2666.030000000001 3.16       -9999      -9999      -9999      -9999      3.84       1.96       -9999      4.61       -9999      -9999      -9999      -9999      -9999      -9999      -9999      -9999      3.16       -9999      -9999      405.89     -9999      0.4294159  0.8       
895        0.224      0.37       -9999      8.35       6.87       2666.030000000001 2665.620099999999 2666.030000000001 2665.620099999999 2666.030000000001 3.79       -9999      -9999      -9999      -9999      4.21       2.08       -9999      4.83       -9999      -9999      -9999      -9999      -9999      -9999      -9999      -9999      3.79       -9999      -9999      406.17     -9999      0.2875405  0.8       
895.2      0.221      0.37       -9999      8.53       6.59       2666.030000000001 2665.620099999999 2666.030000000001 2665.620099999999 2666.030000000001 4.3        -9999      -9999      -9999      -9999      4.29       2.14       -9999      4.43       -9999      -9999      -9999      -9999      -9999      -9999      -9999      -9999      4.3        -9999      -9999      406.4      -9999      0.3243043  0.8       
895.4      0.238      0.37       -9999      9.17       5.68       2666.030000000001 2665.620099999999 2666.030000000001 2665.620099999999 2666.030000000001 3.57       -9999      -9999      -9999      -9999      4.06       2.08       -9999      3.97       -9999      -9999      -9999      -9999      -9999      -9999      -9999      -9999      3.57       -9999      -9999      406.76     -9999      0.4974437  0.8       
895.6      0.26       0.37       -9999      10.07      4.67       2666.030000000001 2665.620099999999 2666.030000000001 2665.620099999999 2666.030000000001 2.66       -9999      -9999      -9999      -9999      3.64       1.97       -9999      3.64       -9999      -9999      -9999      -9999      -9999      -9999      -9999      -9999      2.66       -9999      -9999      407.04     -9999      0.8        0.8       
895.8      0.238      0.37       -9999      10.68      4.05       2.478      3.002      2666.030000000001 2665.620099999999 2666.030000000001 2.58       -9999      -9999      -9999      -9999      3.24       1.88       -9999      3.7        -9999      -9999      -9999      -9999      -9999      -9999      -9999      -9999      2.58       -9999      -9999      407.27     -9999      0.8        0.8       
896        0.233      0.37       -9999      10.81      3.66       2.436      2.344      2.639      2665.620099999999 2666.030000000001 2.52       -9999      -9999      -9999      -9999      3.05       1.86       -9999      3.89       -9999      -9999      -9999      -9999      -9999      -9999      -9999      -9999      2.52       -9999      -9999      407.57     -9999      0.8        0.8       
896.2      0.236      0.37       344.747    10.56      3.39       2.304      2.28       2.301      2665.620099999999 2666.030000000001 2.54       -9999      -9999      -9999      -9999      2.93       1.86       -9999      4.17       -9999      -9999      -9999      0.1033744  -9999      -9999      -9999      -9999      2.54       -9999      -9999      407.85     0.6850652  0.8        0.5701305 
896.4      0.224      0.37       347.207    10.23      3.31       2.407      2.375      2.44       2.646      2666.030000000001 2.68       -9999      -9999      -9999      -9999      3.01       1.88       -9999      4.37       -9999      -9999      -9999      0.1138553  -9999      -9999      -9999      -9999      2.68       -9999      -9999      408        0.6591352  0.7434161  0.5748543 
896.6      0.233      0.37       361.465    9.62       3.3        4.132999999999999 3.444      3.343      3.246      2666.030000000001 2.97       -9999      -9999      -9999      -9999      3.15       1.91       -9999      4.45       -9999      -9999      -9999      0.1556744  -9999      -9999      -9999      -9999      2.97       -9999      -9999      408.27     0.567206   0.5509698  0.5834422 
896.8      0.234      300.12     364.92     9.3        3.47       3.039      3.171      3.257      3.238      3.331999999999999 3.21       -9999      -9999      -9999      -9999      3.23       1.93       -9999      4.35       -9999      -9999      -9999      0.1696139  -9999      -9999      -9999      -9999      3.21       -9999      -9999      408.59     0.5323033  0.4708434  0.5937631 
897        0.255      314.26     371.182    9.36       3.57       4.268      3.756      3.503      3.196      3.181999999999999 3.13       -9999      -9999      -9999      -9999      3.24       1.93       -9999      4.13       -9999      -9999      -9999      0.1718259  -9999      -9999      -9999      -9999      3.13       -9999      -9999      408.76     0.5421166  0.4849238  0.5993095 
897.2      0.233      335.9      377.586    9.74       3.72       3.236      3.209      3.179      2.979      2.977      2.99       -9999      -9999      -9999      -9999      3.25       1.92       -9999      3.87       -9999      -9999      -9999      0.1607352  -9999      -9999      -9999      -9999      2.99       -9999      -9999      408.9      0.5941626  0.584416   0.6039093 
897.4      0.233      364.69     380.086    10.19      3.79       3.01       3.012      3.02       2.808      2.742      2.9        -9999      -9999      -9999      -9999      3.31       1.9        -9999      3.73       -9999      -9999      -9999      0.1412006  -9999      -9999      -9999      -9999      2.9        -9999      -9999      408.68     0.6628242  0.7289547  0.5966936 
897.6      0.227      367.91     387.325    10.16      3.74       3.06       2.984      3.02       2.815      2.718      2.9        -9999      -9999      -9999      -9999      3.42       1.89       -9999      3.71       -9999      -9999      -9999      0.1491602  -9999      -9999      -9999      -9999      2.9        -9999      -9999      408.55     0.6553789  0.7182936  0.5924643 
897.8      0.228      357.39     375.932    10.04      3.76       2.989      2.888      2.948      2.875      2.798      3          -9999      -9999      -9999      -9999      3.5        1.89       -9999      3.85       -9999      -9999      -9999      0.1470593  -9999      -9999      -9999      -9999      3          -9999      -9999      408.47     0.6335303  0.6771857  0.5898749 
898        0.227      322.16     355.61     9.72       3.84       3.111      3.069      3.189      3.182999999999999 3.104      3.25       -9999      -9999      -9999      -9999      3.67       1.94       -9999      3.95       -9999      -9999      -9999      0.1449553  -9999      -9999      -9999      -9999      3.25       -9999      -9999      408.5      0.5847744  0.578704   0.5908449 
898.2      0.227      270.34     345.032    9.34       4.07       4.316      4.295      4.213      3.908      3.699      3.58       2.19       3.3        2.97       -9999      3.86       2.01       -9999      4.1        -9999      -9999      -9999      0.1502322  -9999      -9999      -9999      -9999      3.58       -9999      -9999      408.56     0.5364866  0.4801843  0.592789  
898.4      0.224      234.52     339.812    8.65       4.37       6.896000000000001 5.451      4.983      4.664      4.263999999999999 3.97       2.84       6.87       4.06       -9999      3.92       2.08       -9999      4.1        -9999      -9999      -9999      0.1673329  -9999      -9999      -9999      -9999      3.97       -9999      -9999      408.45     0.4656992  0.3421691  0.5892293 
