~Version
 VERS              .         2.0                           : CWLS LOG ASCII STANDARD - VERSION 2.0
 WRAP              .         NO                            : ONE LINE PER DEPTH STEP
 DLM               .         SPACE                         : DELIMITING CHARACTER(SPACE TAB OR COMMA)
~Well Information
#_______________________________________________________________________________
#
#PARAMETER_NAME    .UNIT     VALUE                         : DESCRIPTION
#_______________________________________________________________________________
STRT               .м        0                             : First reference value
STOP               .м        1190.8                        : Last reference value
STEP               .м        0.2                           : Step increment
NULL               .         -9999                         : Missing value
COMP               .                                       : Company
WELL               .         4535                          : Well name
FLD                .         УЗЕНЬ                         : Field
LOC                .                                       : Location
CNTY               .                                       : County
STAT               .                                       : State
CTRY               .                                       : Country
SRVC               .         AO "UPGF"                     : Service Company
DATE               .         17/7/2013                     : Date
UWI                .                                       : Unique Well ID
Block              .         7                             : 
Category           .         Нагнетательная                : 
Condition          .         В работе                      : 
Date               .         31.07.2013                    : 
EREF               .m        91.9                          : 100.8
GRP                .                                       : Group name
Gorizont           .         15                            : 14
ISS                .                                       : Well surveys
Interpretator      .         Ким С.В.                      : 
Kupol              .         основной                      : osnovnoi
Mud                .         0                             : 
Mud_density        .         0                             : 
Mud_resistivity    .         0                             : 
NGDU               .         НГДУ-2                        : 
ORIGINALWELLNAME   .         4535                          : 
Spud_date          .         2013                          : 1961
TIME               .         14_25                         : LOG TIME
Viscosity          .         0                             : 
X                  .m        42402.3                       : 46154
Y                  .m        84653.8                       : 85761.93
YEAR               .         2018                          : 
~Parameter Information Block
#_______________________________________________________________________________
#
#PARAMETER_NAME    .UNIT     VALUE                         : DESCRIPTION
#_______________________________________________________________________________
SET                .         LQC_KAZNIPI_Petrel            : 
TLFamily_CALI      .         Caliper                       : 
TLFamily_COLL      .         Net Reservoir Flag            : 
TLFamily_CSAT      .         Fluid Code                    : 
TLFamily_DEPT      .         Measured Depth                : 
TLFamily_DT        .         Compressional Slowness        : 
TLFamily_GR        .         Russian Gamma Ray             : 
TLFamily_GZ3       .         Gradient 225                  : 
TLFamily_IK1       .         Resistivity 05                : 
TLFamily_IK2       .         Resistivity 07                : 
TLFamily_IK3       .         Resistivity 10                : 
TLFamily_IK4       .         Resistivity 14                : 
TLFamily_IK5       .         Resistivity 20                : 
TLFamily_LLS       .         Lateral Log Resistivity       : 
TLFamily_MBK       .         Micro Lateral Log Resistivity : 
TLFamily_MINV      .         Micro Gradient Resistivity    : 
TLFamily_MNOR      .         Micro Resistivity             : 
TLFamily_NNKTB_1   .         Neutron Far                   : 
TLFamily_NNKTM_1   .         Neutron Near                  : 
TLFamily_NPHI      .         Neutron Porosity              : 
TLFamily_OGZ       .         Gradient Inverted 225         : 
TLFamily_PHIE      .         Effective Porosity            : 
TLFamily_PHIED     .         Effective Porosity            : 
TLFamily_PHIEN     .         Effective Porosity            : 
TLFamily_PHIES     .         Effective Porosity            : 
TLFamily_PHIT      .         Porosity                      : 
TLFamily_PRMB      .         Permeability                  : 
TLFamily_PRMB_DGR  .         Permeability                  : 
TLFamily_RHOB      .         Bulk Density                  : 
TLFamily_RT        .         Formation Resistivity         : 
TLFamily_SOIL_ARCHIE .         Oil Saturation                : 
TLFamily_SOIL_DW   .         Oil Saturation                : 
TLFamily_SP        .         Spontaneous Potential         : 
TLFamily_VSH_FIN   .         Shale Volume                  : 
TLFamily_VSH_GR    .         Shale Volume                  : 
TLFamily_VSH_SP    .         Shale Volume                  : 
~Curve Information
#_______________________________________________________________________________
#
#LOGNAME           .UNIT     LOG_ID                        : DESCRIPTION
#_______________________________________________________________________________
DEPT               .м                                      : Колонка глубины 
CALI               .м                                      : Каверномер 
COLL               .unitless                               : Описание 
CSAT               .unitless                               : Описание 
DT                 .мкс/м                                  : Интервальное время пробега продольной волны 
GR                 .uR/h                                   : Гамма каротаж 
GZ3                .Ohmm                                   : Градиент-зонд  длиной 2.25м 
IK1                .Ohmm                                   : И0.10И0.40 
IK2                .Ohmm                                   : И0.14И0.56 
IK3                .Ohmm                                   : И0.20И0.8 
IK4                .Ohmm                                   : И0.28И1.12 
IK5                .Ohmm                                   : И0.40И1.60 
LLS                .Ohmm                                   : Боковой каротаж 
MBK                .Ohmm                                   : Микробоковой каротаж 
MINV               .Ohmm                                   : Микро-градиент зонд 
MNOR               .Ohmm                                   : Микро-потенциал зонд 
NNKTB_1            .у.е.                                   : Показания большого зонда 2ННКт аппаратуры СРК 
NNKTM_1            .у.е.                                   : Показания малого зонда 2ННКт аппаратуры СРК 
NPHI               .v/v                                    : Neutron porosity index 
OGZ                .Ohmm                                   : N0.5M2.0A 
PHIE               .v/v                                    : Описание 
PHIED              .v/v                                    :  
PHIEN              .v/v                                    :  
PHIES              .v/v                                    :  
PHIT               .v/v                                    : Описание 
PRMB               .mD                                     :  
PRMB_DGR           .mD                                     :  
RHOB               .г/см3                                  : Плотность по ГГК-П 
RT                 .ohmm                                   : УЭС пласта 
SOIL_ARCHIE        .v/v                                    :  
SOIL_DW            .v/v                                    :  
SP                 .мВ                                     : Потенциал самополяризации 
VSH_FIN            .v/v                                    : Описание 
VSH_GR             .v/v                                    : Shale volume 
VSH_SP             .v/v                                    : Shale Volume 
~Ascii
# ...
1007.8     0.227      -9999      -9999      321.991    5.65       1.94       1.5532     1.5759     1.5374     1.5813     1.6224     1.65       2.01       0.83       1.01       2.32       1.47       -9999      4.24       0.08962931 0.04973619 -9999      0.1295224  0.1722234  0.1280296  5.834891   2.392      1.622      0          0          327.47     0.5268665  0.3157311  0.7380019 
1008       0.229      -9999      -9999      285.705    5.42       1.92       2.9682     1.9462     1.9211     2.0274     2.0214     2.06       2.08       0.93       1.17       2.56       1.49       -9999      4.510001   0.06320646 0.03355687 -9999      0.09285606 0.1415719  0.04148538 8.393033   2.429      2.021      0          0          327.14     0.4998922  0.2721744  0.7276101 
1008.2     0.229      -9999      -9999      246.442    4.46       2.06       3.517500000000001 3.2091     2.9092     2.7829     2.5446     2.63       4.27       2.58       2.56       2.77       1.58       -9999      4.58       0.02588435 0.002047532 -9999      0.04972116 0.09392048 0.008444985 38.27555   2.506      2.545      0          0          326.92     0.4340016  0.146472   0.7215312 
1008.4     0.23       -9999      -9999      213.757    3.43       2.4        3.853899999999999 3.5225     3.1138     3.0521     3.0195     2.84       3.39       1.48       1.86       3.03       1.68       -9999      4.3        0.02019941 0.04039881 -9999      0          0.07760584 0.006626742 194.9737   2.457      3.02       0          0          326.59     0.393335   0.07534259 0.7113275 
1008.6     0.227      -9999      -9999      232.636    2.9        2.56       4.846599999999999 3.9924     3.4647     3.2483     3.0577     2.96       5.05       2.32       2.62       3.21       1.71       -9999      3.79       0.08161    0.1233533  -9999      0.0398667  0.140799   0.09094384 450.6096   2.464      3.058      0          0.05990129 326.27     0.3775657  0.05351542 0.7016159 
1008.8     0.227      -9999      -9999      285.927    2.74       2.35       4.594000000000001 4.2084     3.6174     3.3124     3.0819     2.89       6.2        2.47       2.55       3.25       1.71       -9999      3.21       0.1344729  0.1353293  -9999      0.1336166  0.1926136  0.8668084  580.2755   2.444      3.082      0.2430962  0.3650795  325.99     0.3708785  0.04826476 0.6934922 
1009       0.228      -9999      -9999      304.153    3.02       2.5        3.926200000000001 3.6507     3.427299999999999 3.1404     3.0698     2.64       3.37       1.98       2.03       3.19       1.69       -9999      2.83       0.1231035  0.08862271 -9999      0.1575843  0.1812481  0.5337453  372.7564   2.522      3.07       0.1810652  0.316271   325.67     0.3709036  0.05782498 0.6839822 
1009.2     0.228      -9999      -9999      290.668    3.4        2.81       4.2445     3.8225     3.541300000000001 3.2299     3.0314     2.63       3.77       1.66       1.89       3.05       1.66       -9999      2.52       0.114255   0.09101803 -9999      0.1374919  0.1737209  0.365963   204.4419   2.518      3.031      0.1208363  0.2725807  325.63     0.3793326  0.07389779 0.6847674 
1009.4     0.228      -9999      -9999      265.964    3.33       2.73       4.015      3.6164     3.4131     3.2615     3.077      2.6        4.38       1.58       1.88       3.03       1.66       -9999      2.3        0.07606925 0.05029942 -9999      0.1018391  0.135083   0.07180342 228.3612   2.586      3.077      0          0.01192813 325.5      0.3764479  0.07063339 0.6822625 
1009.6     0.228      -9999      -9999      257.86     3.18       2.79       3.8812     3.4264     3.2971     3.2989     3.1188     2.64       3.81       1.82       2.06       3.1        1.68       -9999      2.06       0.08336134 0.07664667 -9999      0.09007601 0.1414975  0.09799691 289.4619   2.542      3.119      0          0.07971331 325.31     0.37085    0.06411569 0.6775843 
1009.8     0.229      -9999      -9999      250.687    3.19       3.27       3.6736     3.766099999999999 3.4131     3.4436     3.2544     2.75       3.65       1.5        1.84       3.15       1.7        -9999      1.88       0.07987118 0.08323359 -9999      0.07650877 0.1384438  0.08444346 284.9225   2.531      3.254      0          0.07143188 325.39     0.373634   0.06453085 0.6827372 
1010       0.232      -9999      -9999      249.362    3.03       3.54       4.803900000000001 4.271      3.853899999999999 3.6601     3.5383     2.91       6.2        2.06       2.4        3.11       1.72       -9999      1.67       0.07414681 0.07305384 -9999      0.07523979 0.1321415  0.06615108 366.9109   2.548      3.538      0          0.05670364 325.3      0.3699475  0.05819941 0.6816956 
1010.2     0.232      -9999      -9999      251.182    2.86       3.86       4.1824     3.7367     3.4647     3.370099999999999 3.4997     2.72       4.64       2.29       2.15       3.09       1.72       -9999      1.71       0.08633025 0.09281431 -9999      0.07984619 0.1436838  0.1112253  480.0196   2.515      3.5        0          0.1511522  325.18     0.3658578  0.05215149 0.6795641 
1010.4     0.231      -9999      -9999      256.085    3.16       4.26       4.209400000000001 3.74       3.427299999999999 3.337      3.4359     2.62       3.72       1.91       2.24       3.12       1.69       -9999      1.78       0.07862693 0.07245508 -9999      0.08479879 0.1378642  0.08007917 298.7587   2.549      3.436      0          0.08841483 325.47     0.3778737  0.06329338 0.692454  
1010.6     0.231      -9999      -9999      263.896    3.65       4.93       3.3516     3.5225     3.257      3.2854     3.3933     2.55       3.07       1.7        1.84       3.02       1.68       -9999      1.63       0.04740698 0.00294786 -9999      0.09186609 0.1097219  0.02114707 137.7066   2.518      3.393      0          0          325.83     0.3975059  0.08683757 0.7081743 
1010.8     0.23       -9999      -9999      304.505    3.91       5.19       4.0919     3.326000000000001 3.3052     3.1757     3.1387     2.28       4.82       2.59       2.29       2.76       1.66       -9999      1.4        0.1118058  0.07374165 -9999      0.1498699  0.174025   0.3296644  91.30085   2.4        3.139      0.1186856  0.2796358  325.31     0.3968955  0.1027039  0.6910872 
1011       0.235      -9999      -9999      325.277    4.23       4.67       2.1785     2.0931     2.4209     2.37       2.6119     1.8        1.82       1.01       1.28       2.44       1.58       -9999      1.28       0.1267465  0.07828561 -9999      0.1752073  0.1882927  0.623462   55.05634   2.394      2.612      0.13872    0.2838573  324.36     0.3926026  0.1262654  0.6589398 
1011.2     0.242      -9999      -9999      343.793    4.92       4.21       2.3412     1.9824     2.1597     2.1363     2.0786     1.5        2.2        0.74       1.09       2.15       1.49       -9999      1.29       0.1831431  0.1774941  -9999      0.1887921  0.2473679  6.908961   18.49904   2.222      2.079      0.3042853  0.4124987  323.24     0.409689   0.1971037  0.6222742 
1011.4     0.24       -9999      -9999      382.782    5.68       3.94       1.219      1.3122     1.5025     1.4371     1.613      1.22       1.3        0.61       0.86       1.97       1.41       -9999      1.29       0.1706964  0.1335044  -9999      0.2078884  0.2423199  4.063209   5.564668   2.278      1.613      0.1667502  0.30495    322.26     0.4568853  0.3219041  0.5918666 
1011.6     0.239      -9999      -9999      410.018    6.39       3.24       0.9064     1.03       1.0552     1.1357     1.2258     1.06       1.09       0.69       0.77       1.9        1.35       -9999      1.26       0.1792435  0.1579754  -9999      0.2005116  0.2644816  5.850353   1.811557   2.205      1.226      0.09175229 0.2578795  321.78     0.5437329  0.5090295  0.5784364 
1011.8     0.23       -9999      -9999      416.167    7.1        2.77       0.7667000000000001 0.9333     1.0227     1.0786     1.1201     1.04       1.22       0.67       0.79       1.9        1.31       -9999      1.37       0.1312302  0.1038767  -9999      0.1585836  0.2394935  0.7548471  0.5897455  2.241      1.12       0          0.06627336 321.85     0.6906106  0.8        0.5812213 
