~Version
 VERS              .         2.0                           : CWLS LOG ASCII STANDARD - VERSION 2.0
 WRAP              .         NO                            : ONE LINE PER DEPTH STEP
 DLM               .         SPACE                         : DELIMITING CHARACTER(SPACE TAB OR COMMA)
~Well Information
#_______________________________________________________________________________
#
#PARAMETER_NAME    .UNIT     VALUE                         : DESCRIPTION
#_______________________________________________________________________________
STRT               .м        0                             : First reference value
STOP               .м        1190.8                        : Last reference value
STEP               .м        0.2                           : Step increment
NULL               .         -9999                         : Missing value
COMP               .                                       : Company
WELL               .         4535                          : Well name
FLD                .         УЗЕНЬ                         : Field
LOC                .                                       : Location
CNTY               .                                       : County
STAT               .                                       : State
CTRY               .                                       : Country
SRVC               .         AO "UPGF"                     : Service Company
DATE               .         17/7/2013                     : Date
UWI                .                                       : Unique Well ID
Block              .         7                             : 
Category           .         Нагнетательная                : 
Condition          .         В работе                      : 
Date               .         31.07.2013                    : 
EREF               .m        91.9                          : 100.8
GRP                .                                       : Group name
Gorizont           .         15                            : 14
ISS                .                                       : Well surveys
Interpretator      .         Ким С.В.                      : 
Kupol              .         основной                      : osnovnoi
Mud                .         0                             : 
Mud_density        .         0                             : 
Mud_resistivity    .         0                             : 
NGDU               .         НГДУ-2                        : 
ORIGINALWELLNAME   .         4535                          : 
Spud_date          .         2013                          : 1961
TIME               .         14_25                         : LOG TIME
Viscosity          .         0                             : 
X                  .m        42402.3                       : 46154
Y                  .m        84653.8                       : 85761.93
YEAR               .         2018                          : 
~Parameter Information Block
#_______________________________________________________________________________
#
#PARAMETER_NAME    .UNIT     VALUE                         : DESCRIPTION
#_______________________________________________________________________________
SET                .         LQC_KAZNIPI_Petrel            : 
TLFamily_CALI      .         Caliper                       : 
TLFamily_COLL      .         Net Reservoir Flag            : 
TLFamily_CSAT      .         Fluid Code                    : 
TLFamily_DEPT      .         Measured Depth                : 
TLFamily_DT        .         Compressional Slowness        : 
TLFamily_GR        .         Russian Gamma Ray             : 
TLFamily_GZ3       .         Gradient 225                  : 
TLFamily_IK1       .         Resistivity 05                : 
TLFamily_IK2       .         Resistivity 07                : 
TLFamily_IK3       .         Resistivity 10                : 
TLFamily_IK4       .         Resistivity 14                : 
TLFamily_IK5       .         Resistivity 20                : 
TLFamily_LLS       .         Lateral Log Resistivity       : 
TLFamily_MBK       .         Micro Lateral Log Resistivity : 
TLFamily_MINV      .         Micro Gradient Resistivity    : 
TLFamily_MNOR      .         Micro Resistivity             : 
TLFamily_NNKTB_1   .         Neutron Far                   : 
TLFamily_NNKTM_1   .         Neutron Near                  : 
TLFamily_NPHI      .         Neutron Porosity              : 
TLFamily_OGZ       .         Gradient Inverted 225         : 
TLFamily_PHIE      .         Effective Porosity            : 
TLFamily_PHIED     .         Effective Porosity            : 
TLFamily_PHIEN     .         Effective Porosity            : 
TLFamily_PHIES     .         Effective Porosity            : 
TLFamily_PHIT      .         Porosity                      : 
TLFamily_PRMB      .         Permeability                  : 
TLFamily_PRMB_DGR  .         Permeability                  : 
TLFamily_RHOB      .         Bulk Density                  : 
TLFamily_RT        .         Formation Resistivity         : 
TLFamily_SOIL_ARCHIE .         Oil Saturation                : 
TLFamily_SOIL_DW   .         Oil Saturation                : 
TLFamily_SP        .         Spontaneous Potential         : 
TLFamily_VSH_FIN   .         Shale Volume                  : 
TLFamily_VSH_GR    .         Shale Volume                  : 
TLFamily_VSH_SP    .         Shale Volume                  : 
~Curve Information
#_______________________________________________________________________________
#
#LOGNAME           .UNIT     LOG_ID                        : DESCRIPTION
#_______________________________________________________________________________
DEPT               .м                                      : Колонка глубины 
CALI               .м                                      : Каверномер 
COLL               .unitless                               : Описание 
CSAT               .unitless                               : Описание 
DT                 .мкс/м                                  : Интервальное время пробега продольной волны 
GR                 .uR/h                                   : Гамма каротаж 
GZ3                .Ohmm                                   : Градиент-зонд  длиной 2.25м 
IK1                .Ohmm                                   : И0.10И0.40 
IK2                .Ohmm                                   : И0.14И0.56 
IK3                .Ohmm                                   : И0.20И0.8 
IK4                .Ohmm                                   : И0.28И1.12 
IK5                .Ohmm                                   : И0.40И1.60 
LLS                .Ohmm                                   : Боковой каротаж 
MBK                .Ohmm                                   : Микробоковой каротаж 
MINV               .Ohmm                                   : Микро-градиент зонд 
MNOR               .Ohmm                                   : Микро-потенциал зонд 
NNKTB_1            .у.е.                                   : Показания большого зонда 2ННКт аппаратуры СРК 
NNKTM_1            .у.е.                                   : Показания малого зонда 2ННКт аппаратуры СРК 
NPHI               .v/v                                    : Neutron porosity index 
OGZ                .Ohmm                                   : N0.5M2.0A 
PHIE               .v/v                                    : Описание 
PHIED              .v/v                                    :  
PHIEN              .v/v                                    :  
PHIES              .v/v                                    :  
PHIT               .v/v                                    : Описание 
PRMB               .mD                                     :  
PRMB_DGR           .mD                                     :  
RHOB               .г/см3                                  : Плотность по ГГК-П 
RT                 .ohmm                                   : УЭС пласта 
SOIL_ARCHIE        .v/v                                    :  
SOIL_DW            .v/v                                    :  
SP                 .мВ                                     : Потенциал самополяризации 
VSH_FIN            .v/v                                    : Описание 
VSH_GR             .v/v                                    : Shale volume 
VSH_SP             .v/v                                    : Shale Volume 
~Ascii
# ...
1070.8     0.227      -9999      -9999      342.832    8.21       2.41       1.9678     1.9121     1.829      1.8008     1.8392     1.53       2.77       1.83       1.3        1.85       1.42       -9999      2.24       0.09065217 0.04128945 -9999      0.1400149  0.1787992  0.1337384  1.294955   2.393      1.839      0          0          316.53     0.5622885  0.5838171  0.5407599 
1071       0.228      -9999      -9999      341.616    8.64       2.34       1.8736     1.8489     1.7914     1.7471     1.7958     1.53       2.21       1.92       1.27       1.94       1.41       -9999      2.3        0.08427258 0.05158534 -9999      0.1169598  0.1833532  0.1018804  0.7636459  2.35       1.796      0          0          316.49     0.632034   0.7243245  0.5397435 
1071.2     0.228      -9999      -9999      330.34     8.66       2.63       1.8179     1.7662     1.7155     1.7008     1.7155     1.52       2.2        1.82       1.28       2          1.4        -9999      2.41       0.05057788 -0.0000047 -9999      0.1011604  0.1518427  0.02420935 0.7451169  2.431      1.716      0          0          317.16     0.6459671  0.7316261  0.5603082 
1071.4     0.23       -9999      -9999      336.25     8.24       2.6        1.7624     1.6968     1.6252     1.6333     1.65       1.51       2.09       1.64       1.27       2.08       1.4        -9999      2.62       0.08052712 0.03666183 -9999      0.1243924  0.1732194  0.08683917 1.24811    2.39       1.65       0          0          318.09     0.5912828  0.5926672  0.5898984 
1071.6     0.227      -9999      -9999      336.968    8.04       2.26       1.7186     1.6838     1.613      1.64       1.6587     1.53       2.16       1.67       1.13       2.11       1.42       -9999      2.88       0.06311844 -0.002264316 -9999      0.1285012  0.1541188  0.04132992 1.595633   2.459      1.659      0          0          319.14     0.58049    0.536105   0.6248749 
1071.8     0.228      -9999      -9999      329.099    7.8        2.45       1.9479     1.8547     1.7529     1.763      1.733      1.6        2.53       1.77       1.38       2.05       1.44       -9999      3.28       0.05333803 -0.01647575 -9999      0.1231518  0.1429542  0.02723377 2.142639   2.486      1.733      0          0          320.37     0.5716606  0.4753096  0.6680117 
1072       0.228      -9999      -9999      323.241    7.46       2.63       2.0008     1.8813     1.7925     1.7587     1.7893     1.64       2.09       1.45       1.12       1.96       1.45       -9999      3.35       0.0608006  0.002487638 -9999      0.1191136  0.1492861  0.03743972 3.253161   2.457      1.789      0          0          321.98     0.5644476  0.4007954  0.7280999 
1072.2     0.227      -9999      -9999      317.74     7.68       2.26       1.9187     1.8342     1.7392     1.7325     1.786      1.63       2.39       1.68       1.23       2.04       1.45       -9999      3.63       0.05449866 0.01208621 -9999      0.09691111 0.1510217  0.02861577 2.482889   2.422      1.786      0          0          323.38     0.6157192  0.4475482  0.7838901 
1072.4     0.227      -9999      -9999      308.324    7.77       2.15       2.0188     1.9327     1.8795     1.8398     1.8313     1.73       2.22       1.78       1.35       2.2        1.45       -9999      3.83       0.03390201 -0.01234687 -9999      0.08015089 0.1333074  0.01188791 2.223061   2.456      1.831      0          0          324.16     0.6341059  0.4682118  0.8       
1072.6     0.228      -9999      -9999      292.812    7.18       2.42       2.196      2.111      2.0201     2.0261     1.9666     1.88       3.05       2.6        1.76       2.22       1.46       -9999      3.97       0.03832015 -0.002654477 -9999      0.07929478 0.1283256  0.01435292 4.588364   2.462      1.967      0          0          324.61     0.5741435  0.3482869  0.8       
1072.8     0.228      -9999      -9999      299.102    6.82       2.35       2.8154     2.5513     2.3723     2.2448     2.0964     2.02       3.02       2.66       1.7        2.17       1.49       -9999      3.79       0.05222014 0.007910408 -9999      0.09652986 0.1377161  0.0259658  7.139738   2.455      2.096      0          0          324.44     0.5453776  0.290755   0.8       
1073       0.228      -9999      -9999      324.391    7.01       2.02       2.5282     2.3101     2.1228     2.1124     2.0882     1.95       2.59       2.09       1.3        2.19       1.49       -9999      3.8        0.05276125 -0.01626787 -9999      0.1217904  0.1405357  0.026572   5.653742   2.49       2.088      0          0          323.81     0.5599117  0.3198234  0.8       
1073.2     0.228      -9999      -9999      331.144    6.62       2.1        1.9982     1.9698     1.9283     1.9327     1.9918     1.87       2.35       1.54       1.24       2.3        1.48       -9999      4.05       0.08189027 0.02101624 -9999      0.1427643  0.1627736  0.09203744 9.127722   2.444      1.992      0          0          322.98     0.5159537  0.2630063  0.7689012 
1073.4     0.23       -9999      -9999      299.964    5.96       2.21       2.2638     2.5005     2.2903     2.3022     2.1482     2.31       4.34       4.39       3.65       2.5        1.5        -9999      3.95       0.07411144 0.02312783 -9999      0.1250951  0.1458744  0.06605135 20.53086   2.462      2.148      0          0          321.9      0.4577747  0.1888924  0.726657  
1073.6     0.231      -9999      -9999      286.054    5.63       2.08       3.236      3.1007     2.8346     2.6595     2.4869     2.39       2.82       2.5        1.39       2.68       1.52       -9999      3.84       0.07026131 0.02481139 -9999      0.1157112  0.1374434  0.05604902 30.7914    2.47       2.487      0          0          321.11     0.4285539  0.1600806  0.6970271 
1073.8     0.23       -9999      -9999      283.936    5.45       2.07       2.67       2.4687     2.4606     2.6497     2.5048     2.39       3.54       2.83       1.79       2.69       1.52       -9999      3.91       0.06602757 0.01306728 -9999      0.1189879  0.1300798  0.04678955 38.40978   2.497      2.505      0          0          320.39     0.4085883  0.1462628  0.6709138 
1074       0.232      -9999      -9999      275.749    5.14       2.44       3.444500000000001 3.1379     3.0219     2.8642     2.7879     2.76       6.72       4.18       2.75       2.77       1.53       -9999      3.98       0.05283003 -0.007644984 -9999      0.113305   0.1137425  0.02665007 56.20774   2.539      2.788      0          0          319.85     0.3885597  0.1252028  0.6519166 
1074.2     0.233      -9999      -9999      293.873    4.81       2.6        4.3893     3.939200000000001 3.586599999999999 3.272100000000001 3.0553     2.84       3.81       2.78       1.85       2.82       1.55       -9999      3.85       0.1081898  0.07185631 -9999      0.1445233  0.1662862  0.2825505  84.2982    2.55       3.055      0.08146841 0.2397163  319.36     0.3705963  0.1061056  0.6350871 
1074.4     0.232      -9999      -9999      305.285    4.9        2.62       3.589700000000001 3.326000000000001 3.2255     3.0117     3.0577     2.65       3.28       2.64       1.69       2.76       1.54       -9999      3.88       0.1367472  0.1137724  -9999      0.1597219  0.1945203  0.9550973  75.47657   2.48       3.058      0.2513302  0.3706361  319.09     0.3685341  0.1110046  0.6260636 
1074.6     0.233      -9999      -9999      279.747    5.26       3.08       4.0078     3.866499999999999 3.456      3.1479     3.0409     2.79       4.35       3.92       2.62       2.75       1.54       -9999      4.09       0.1108354  0.09820357 -9999      0.1234671  0.1696313  0.316299   48.50515   2.506      3.041      0.09865258 0.2542814  318.82     0.3750587  0.1329691  0.6171483 
1074.8     0.233      -9999      -9999      287.565    5.63       3.51       4.159500000000001 4.0945     3.6579     3.3424     3.0795     2.67       5.27       3.59       1.94       2.6        1.55       -9999      3.88       0.109843   0.0872447  -9999      0.1324413  0.1697108  0.3031916  30.7914    2.383      3.08       0.09698074 0.2565137  318.41     0.3818958  0.1600806  0.6037109 
