~Version
 VERS              .         2.0                           : CWLS LOG ASCII STANDARD - VERSION 2.0
 WRAP              .         NO                            : ONE LINE PER DEPTH STEP
 DLM               .         SPACE                         : DELIMITING CHARACTER(SPACE TAB OR COMMA)
~Well Information
#_______________________________________________________________________________
#
#PARAMETER_NAME    .UNIT     VALUE                         : DESCRIPTION
#_______________________________________________________________________________
STRT               .м        0                             : First reference value
STOP               .м        1190.8                        : Last reference value
STEP               .м        0.2                           : Step increment
NULL               .         -9999                         : Missing value
COMP               .                                       : Company
WELL               .         4535                          : Well name
FLD                .         УЗЕНЬ                         : Field
LOC                .                                       : Location
CNTY               .                                       : County
STAT               .                                       : State
CTRY               .                                       : Country
SRVC               .         AO "UPGF"                     : Service Company
DATE               .         17/7/2013                     : Date
UWI                .                                       : Unique Well ID
Block              .         7                             : 
Category           .         Нагнетательная                : 
Condition          .         В работе                      : 
Date               .         31.07.2013                    : 
EREF               .m        91.9                          : 100.8
GRP                .                                       : Group name
Gorizont           .         15                            : 14
ISS                .                                       : Well surveys
Interpretator      .         Ким С.В.                      : 
Kupol              .         основной                      : osnovnoi
Mud                .         0                             : 
Mud_density        .         0                             : 
Mud_resistivity    .         0                             : 
NGDU               .         НГДУ-2                        : 
ORIGINALWELLNAME   .         4535                          : 
Spud_date          .         2013                          : 1961
TIME               .         14_25                         : LOG TIME
Viscosity          .         0                             : 
X                  .m        42402.3                       : 46154
Y                  .m        84653.8                       : 85761.93
YEAR               .         2018                          : 
~Parameter Information Block
#_______________________________________________________________________________
#
#PARAMETER_NAME    .UNIT     VALUE                         : DESCRIPTION
#_______________________________________________________________________________
SET                .         LQC_KAZNIPI_Petrel            : 
TLFamily_CALI      .         Caliper                       : 
TLFamily_COLL      .         Net Reservoir Flag            : 
TLFamily_CSAT      .         Fluid Code                    : 
TLFamily_DEPT      .         Measured Depth                : 
TLFamily_DT        .         Compressional Slowness        : 
TLFamily_GR        .         Russian Gamma Ray             : 
TLFamily_GZ3       .         Gradient 225                  : 
TLFamily_IK1       .         Resistivity 05                : 
TLFamily_IK2       .         Resistivity 07                : 
TLFamily_IK3       .         Resistivity 10                : 
TLFamily_IK4       .         Resistivity 14                : 
TLFamily_IK5       .         Resistivity 20                : 
TLFamily_LLS       .         Lateral Log Resistivity       : 
TLFamily_MBK       .         Micro Lateral Log Resistivity : 
TLFamily_MINV      .         Micro Gradient Resistivity    : 
TLFamily_MNOR      .         Micro Resistivity             : 
TLFamily_NNKTB_1   .         Neutron Far                   : 
TLFamily_NNKTM_1   .         Neutron Near                  : 
TLFamily_NPHI      .         Neutron Porosity              : 
TLFamily_OGZ       .         Gradient Inverted 225         : 
TLFamily_PHIE      .         Effective Porosity            : 
TLFamily_PHIED     .         Effective Porosity            : 
TLFamily_PHIEN     .         Effective Porosity            : 
TLFamily_PHIES     .         Effective Porosity            : 
TLFamily_PHIT      .         Porosity                      : 
TLFamily_PRMB      .         Permeability                  : 
TLFamily_PRMB_DGR  .         Permeability                  : 
TLFamily_RHOB      .         Bulk Density                  : 
TLFamily_RT        .         Formation Resistivity         : 
TLFamily_SOIL_ARCHIE .         Oil Saturation                : 
TLFamily_SOIL_DW   .         Oil Saturation                : 
TLFamily_SP        .         Spontaneous Potential         : 
TLFamily_VSH_FIN   .         Shale Volume                  : 
TLFamily_VSH_GR    .         Shale Volume                  : 
TLFamily_VSH_SP    .         Shale Volume                  : 
~Curve Information
#_______________________________________________________________________________
#
#LOGNAME           .UNIT     LOG_ID                        : DESCRIPTION
#_______________________________________________________________________________
DEPT               .м                                      : Колонка глубины 
CALI               .м                                      : Каверномер 
COLL               .unitless                               : Описание 
CSAT               .unitless                               : Описание 
DT                 .мкс/м                                  : Интервальное время пробега продольной волны 
GR                 .uR/h                                   : Гамма каротаж 
GZ3                .Ohmm                                   : Градиент-зонд  длиной 2.25м 
IK1                .Ohmm                                   : И0.10И0.40 
IK2                .Ohmm                                   : И0.14И0.56 
IK3                .Ohmm                                   : И0.20И0.8 
IK4                .Ohmm                                   : И0.28И1.12 
IK5                .Ohmm                                   : И0.40И1.60 
LLS                .Ohmm                                   : Боковой каротаж 
MBK                .Ohmm                                   : Микробоковой каротаж 
MINV               .Ohmm                                   : Микро-градиент зонд 
MNOR               .Ohmm                                   : Микро-потенциал зонд 
NNKTB_1            .у.е.                                   : Показания большого зонда 2ННКт аппаратуры СРК 
NNKTM_1            .у.е.                                   : Показания малого зонда 2ННКт аппаратуры СРК 
NPHI               .v/v                                    : Neutron porosity index 
OGZ                .Ohmm                                   : N0.5M2.0A 
PHIE               .v/v                                    : Описание 
PHIED              .v/v                                    :  
PHIEN              .v/v                                    :  
PHIES              .v/v                                    :  
PHIT               .v/v                                    : Описание 
PRMB               .mD                                     :  
PRMB_DGR           .mD                                     :  
RHOB               .г/см3                                  : Плотность по ГГК-П 
RT                 .ohmm                                   : УЭС пласта 
SOIL_ARCHIE        .v/v                                    :  
SOIL_DW            .v/v                                    :  
SP                 .мВ                                     : Потенциал самополяризации 
VSH_FIN            .v/v                                    : Описание 
VSH_GR             .v/v                                    : Shale volume 
VSH_SP             .v/v                                    : Shale Volume 
~Ascii
# ...
1028.8     0.237      -9999      -9999      338.77     5.73       3.71       2.5155     2.1476     2.1975     2.2403     2.284      1.93       2.65       1.43       1.49       2.23       1.52       -9999      3.59       0.1060488  0.0346445  -9999      0.1774531  0.1734761  0.257893   5.141809   2.453      2.284      0          0.1356784  318.62     0.4301179  0.3324618  0.5277739 
1029       0.231      -9999      -9999      340.735    5.61       3.45       2.826      2.4599     2.3267     2.274      2.1931     1.91       2.76       1.55       1.54       2.12       1.49       -9999      3.8        0.1245444  0.06424177 -9999      0.1848471  0.1892485  0.5675747  6.215718   2.41       2.193      0.05069247 0.2151824  318.26     0.4127464  0.3076842  0.5178086 
1029.2     0.233      -9999      -9999      332.283    5.79       3.2        2.3396     2.1433     2.1047     2.089      2.1033     1.84       2.39       1.21       1.35       2.11       1.48       -9999      4.03       0.1144349  0.06045859 -9999      0.1684112  0.1830869  0.3687822  4.67658    2.407      2.103      0          0.1541142  318.67     0.43793    0.3455891  0.5302709 
1029.4     0.227      -9999      -9999      307.818    6.02       3.17       1.9357     1.8662     1.8586     1.8884     1.9703     1.84       1.97       1.09       1.24       2.21       1.46       -9999      4.55       0.08548594 0.04044739 -9999      0.1305245  0.1593996  0.1072914  3.251189   2.428      1.97       0          0          319.05     0.4714943  0.4008946  0.542094  
1029.6     0.225      -9999      -9999      294.273    6          3.05       2.8175     2.1779     2.0451     2.0472     2.0854     2.05       3.32       1.4        1.78       2.35       1.49       -9999      4.74       0.06213669 0.01065141 -9999      0.113622   0.1359484  0.03963513 3.35561    2.478      2.085      0          0          319.16     0.4708438  0.3957529  0.5459347 
1029.8     0.222      -9999      -9999      281.694    5.21       2.97       3.0795     2.6188     2.5612     2.5293     2.4693     2.47       3.12       1.76       1.83       2.52       1.54       -9999      5.15       0.05956905 0.0006259542 -9999      0.1185121  0.1222558  0.03552396 11.69703   2.521      2.469      0          0          319.67     0.3998777  0.2376749  0.5620805 
1030       0.224      -9999      -9999      255.809    4.4        3.25       3.8675     3.0069     2.8803     2.9129     2.8196     2.82       4.48       3.11       2.67       2.74       1.61       -9999      5.58       0.06789763 0.04491016 -9999      0.09088509 0.1238508  0.05067419 42.08322   2.595      2.82       0          0          320        0.3569243  0.1409082  0.5729404 
1030.2     0.226      -9999      -9999      245.854    4.05       3.49       5.6636     4.1929     3.6831     3.3925     3.197099999999999 3.27       4.55       3.71       3.03       3.02       1.67       -9999      5.75       0.08505587 0.09221555 -9999      0.07789619 0.1384494  0.1053414  73.17626   2.516      3.197      0          0.08643632 319.85     0.3405965  0.1124164  0.5687765 
1030.4     0.228      -9999      -9999      246.753    3.75       3.51       4.678999999999999 4.5752     3.933199999999999 3.5404     3.3133     3.19       5.19       3.03       3.66       3.14       1.7        -9999      5.52       0.0716171  0.06047904 -9999      0.08275516 0.1234288  0.0593855  117.5733   2.569      3.313      0          0          319.82     0.330506   0.09262711 0.5683848 
1030.6     0.229      -9999      -9999      279.199    3.74       3.33       6.9125     4.5972     3.5958     3.4321     3.0868     3          3.89       2.64       2.34       2.99       1.69       -9999      5.46       0.1165527  0.09700605 -9999      0.1360993  0.1686312  0.403642   119.4464   2.508      3.087      0.1433419  0.2723714  319.93     0.3322085  0.0920312  0.5723857 
1030.8     0.228      -9999      -9999      283.726    4.12       3.36       3.2308     2.9952     2.9339     2.8642     2.8981     2.64       3.15       2.26       1.92       2.84       1.65       -9999      5.61       0.1128592  0.08742519 -9999      0.1382933  0.1671097  0.3448138  65.5116    2.524      2.898      0.09246431 0.234962   319.98     0.3460628  0.1176118  0.5745138 
1031       0.227      -9999      -9999      260.575    4.13       3.44       4.2133     3.999499999999999 3.5204     3.4009     3.3378     3.07       7.01       4.12       4.12       2.91       1.65       -9999      5.22       0.08849482 0.06946114 -9999      0.1075285  0.1402161  0.1219823  64.48421   2.554      3.338      0          0.1267354  318.89     0.329929   0.1183734  0.5414847 
1031.2     0.226      -9999      -9999      241.823    3.68       3.36       5.849      4.6417     4.4984     4.1395     3.6081     3.61       4.81       2.87       2.62       3.2        1.7        -9999      4.510001   0.08685137 0.08682629 -9999      0.08687645 0.1318765  0.1137251  131.3291   2.525      3.608      0          0.12221    316.93     0.2872147  0.08853536 0.4858941 
1031.4     0.223      -9999      -9999      248.823    3.27       3.4        5.424000000000001 4.4171     4.2445     4.0576     3.796800000000001 3.36       5.78       3.8        3.63       3.34       1.72       -9999      3.97       0.09833567 0.08323359 -9999      0.1134377  0.1367345  0.185598   251.0787   2.531      3.797      0.09862624 0.2040056  314.41     0.2449457  0.06795036 0.4219411 
1031.6     0.222      -9999      -9999      247.121    3.14       3.71       6.5905     5.262299999999999 4.550199999999999 4.2434     4.1481     3.38       5.26       3.4        3.2        3.2        1.73       -9999      3.52       0.101731   0.08682629 -9999      0.1166358  0.1369476  0.2145178  308.3541   2.525      4.148      0.1604507  0.2497566  312.86     0.224646   0.0624816  0.3868104 
1031.8     0.222      -9999      -9999      270.704    3.25       3.79       6.4124     5.0627     4.284      3.981700000000001 3.7475     3.1        4.57       3.29       2.72       2.98       1.72       -9999      3.39       0.1206964  0.08143717 -9999      0.1599556  0.1544177  0.4816684  259.1428   2.534      3.748      0.2413318  0.3147455  311.73     0.2151077  0.06707886 0.3631365 
1032       0.222      -9999      -9999      299.026    3.71       3.73       4.6429     3.8225     3.5234     3.2989     3.3821     2.71       3.66       2.73       2.08       2.92       1.66       -9999      3.48       0.1428684  0.08682629 -9999      0.1989106  0.1771254  1.240018   125.2469   2.525      3.382      0.3126105  0.37936    310.9      0.2185249  0.09026635 0.3467835 
1032.2     0.222      -9999      -9999      291.264    4.06       4.23       3.2151     2.9883     3.0625     2.9264     3.1613     2.76       3.07       2.02       1.91       3.01       1.61       -9999      3.63       0.1374873  0.09281431 -9999      0.1821602  0.1750217  0.9857249  72.02874   2.515      3.161      0.2663356  0.3430491  311.82     0.2394321  0.1131443  0.3657198 
1032.4     0.222      -9999      -9999      264.877    3.9        4.92       3.265      3.999499999999999 3.3905     3.6507     3.8135     3.71       5.76       2.7        3.32       3.21       1.65       -9999      3.84       0.1109472  0.07964075 -9999      0.1422536  0.1488711  0.317811   92.75546   2.537      3.814      0.1902479  0.2812297  312.56     0.2419162  0.1020432  0.3817892 
1032.6     0.223      -9999      -9999      237.852    3.23       5.57       8.2326     6.3245     6.057100000000001 5.9308     5.2744     5.44       15.55      3.88       4.66       3.7        1.77       -9999      3.75       0.07299463 0.04550892 -9999      0.1004803  0.1072688  0.062979   267.4659   2.594      5.274      0          0.1192608  312.04     0.2186344  0.06621853 0.3710502 
1032.8     0.227      -9999      -9999      212.303    2.66       6.14       12.5098    8.822699999999998 7.953800000000001 7.3455     6.405099999999999 6.73       11.91      3.78       4.53       4.04       1.86       -9999      3.45       0.05997436 0.06886224 -9999      0.05108649 0.09000486 0.03614338 658.4928   2.555      6.405      0          0.03929155 310.34     0.1915642  0.0458359  0.3372925 
