~Version
 VERS              .         2.0                           : CWLS LOG ASCII STANDARD - VERSION 2.0
 WRAP              .         NO                            : ONE LINE PER DEPTH STEP
 DLM               .         SPACE                         : DELIMITING CHARACTER(SPACE TAB OR COMMA)
~Well Information
#_______________________________________________________________________________
#
#PARAMETER_NAME    .UNIT     VALUE                         : DESCRIPTION
#_______________________________________________________________________________
STRT               .м        0                             : First reference value
STOP               .м        1190.8                        : Last reference value
STEP               .м        0.2                           : Step increment
NULL               .         -9999                         : Missing value
COMP               .                                       : Company
WELL               .         4535                          : Well name
FLD                .         УЗЕНЬ                         : Field
LOC                .                                       : Location
CNTY               .                                       : County
STAT               .                                       : State
CTRY               .                                       : Country
SRVC               .         AO "UPGF"                     : Service Company
DATE               .         17/7/2013                     : Date
UWI                .                                       : Unique Well ID
Block              .         7                             : 
Category           .         Нагнетательная                : 
Condition          .         В работе                      : 
Date               .         31.07.2013                    : 
EREF               .m        91.9                          : 100.8
GRP                .                                       : Group name
Gorizont           .         15                            : 14
ISS                .                                       : Well surveys
Interpretator      .         Ким С.В.                      : 
Kupol              .         основной                      : osnovnoi
Mud                .         0                             : 
Mud_density        .         0                             : 
Mud_resistivity    .         0                             : 
NGDU               .         НГДУ-2                        : 
ORIGINALWELLNAME   .         4535                          : 
Spud_date          .         2013                          : 1961
TIME               .         14_25                         : LOG TIME
Viscosity          .         0                             : 
X                  .m        42402.3                       : 46154
Y                  .m        84653.8                       : 85761.93
YEAR               .         2018                          : 
~Parameter Information Block
#_______________________________________________________________________________
#
#PARAMETER_NAME    .UNIT     VALUE                         : DESCRIPTION
#_______________________________________________________________________________
SET                .         LQC_KAZNIPI_Petrel            : 
TLFamily_CALI      .         Caliper                       : 
TLFamily_COLL      .         Net Reservoir Flag            : 
TLFamily_CSAT      .         Fluid Code                    : 
TLFamily_DEPT      .         Measured Depth                : 
TLFamily_DT        .         Compressional Slowness        : 
TLFamily_GR        .         Russian Gamma Ray             : 
TLFamily_GZ3       .         Gradient 225                  : 
TLFamily_IK1       .         Resistivity 05                : 
TLFamily_IK2       .         Resistivity 07                : 
TLFamily_IK3       .         Resistivity 10                : 
TLFamily_IK4       .         Resistivity 14                : 
TLFamily_IK5       .         Resistivity 20                : 
TLFamily_LLS       .         Lateral Log Resistivity       : 
TLFamily_MBK       .         Micro Lateral Log Resistivity : 
TLFamily_MINV      .         Micro Gradient Resistivity    : 
TLFamily_MNOR      .         Micro Resistivity             : 
TLFamily_NNKTB_1   .         Neutron Far                   : 
TLFamily_NNKTM_1   .         Neutron Near                  : 
TLFamily_NPHI      .         Neutron Porosity              : 
TLFamily_OGZ       .         Gradient Inverted 225         : 
TLFamily_PHIE      .         Effective Porosity            : 
TLFamily_PHIED     .         Effective Porosity            : 
TLFamily_PHIEN     .         Effective Porosity            : 
TLFamily_PHIES     .         Effective Porosity            : 
TLFamily_PHIT      .         Porosity                      : 
TLFamily_PRMB      .         Permeability                  : 
TLFamily_PRMB_DGR  .         Permeability                  : 
TLFamily_RHOB      .         Bulk Density                  : 
TLFamily_RT        .         Formation Resistivity         : 
TLFamily_SOIL_ARCHIE .         Oil Saturation                : 
TLFamily_SOIL_DW   .         Oil Saturation                : 
TLFamily_SP        .         Spontaneous Potential         : 
TLFamily_VSH_FIN   .         Shale Volume                  : 
TLFamily_VSH_GR    .         Shale Volume                  : 
TLFamily_VSH_SP    .         Shale Volume                  : 
~Curve Information
#_______________________________________________________________________________
#
#LOGNAME           .UNIT     LOG_ID                        : DESCRIPTION
#_______________________________________________________________________________
DEPT               .м                                      : Колонка глубины 
CALI               .м                                      : Каверномер 
COLL               .unitless                               : Описание 
CSAT               .unitless                               : Описание 
DT                 .мкс/м                                  : Интервальное время пробега продольной волны 
GR                 .uR/h                                   : Гамма каротаж 
GZ3                .Ohmm                                   : Градиент-зонд  длиной 2.25м 
IK1                .Ohmm                                   : И0.10И0.40 
IK2                .Ohmm                                   : И0.14И0.56 
IK3                .Ohmm                                   : И0.20И0.8 
IK4                .Ohmm                                   : И0.28И1.12 
IK5                .Ohmm                                   : И0.40И1.60 
LLS                .Ohmm                                   : Боковой каротаж 
MBK                .Ohmm                                   : Микробоковой каротаж 
MINV               .Ohmm                                   : Микро-градиент зонд 
MNOR               .Ohmm                                   : Микро-потенциал зонд 
NNKTB_1            .у.е.                                   : Показания большого зонда 2ННКт аппаратуры СРК 
NNKTM_1            .у.е.                                   : Показания малого зонда 2ННКт аппаратуры СРК 
NPHI               .v/v                                    : Neutron porosity index 
OGZ                .Ohmm                                   : N0.5M2.0A 
PHIE               .v/v                                    : Описание 
PHIED              .v/v                                    :  
PHIEN              .v/v                                    :  
PHIES              .v/v                                    :  
PHIT               .v/v                                    : Описание 
PRMB               .mD                                     :  
PRMB_DGR           .mD                                     :  
RHOB               .г/см3                                  : Плотность по ГГК-П 
RT                 .ohmm                                   : УЭС пласта 
SOIL_ARCHIE        .v/v                                    :  
SOIL_DW            .v/v                                    :  
SP                 .мВ                                     : Потенциал самополяризации 
VSH_FIN            .v/v                                    : Описание 
VSH_GR             .v/v                                    : Shale volume 
VSH_SP             .v/v                                    : Shale Volume 
~Ascii
# ...
965.8      0.249      -9999      -9999      291.941    5.57       3.03       2.2455     2.3487     2.3906     2.3277     2.4519     2.15       1.82       1.57       1.58       2.57       1.62       -9999      2.98       0.1139461  0.1102778  -9999      0.1176143  0.1842089  0.3611735  6.621396   2.32       2.452      0.02658807 0.2181303  338.31     0.4482057  0.2998424  0.596569  
966        0.228      -9999      -9999      266.296    5.16       3.26       4.4224     3.7465     3.281000000000001 3.0762     2.8111     2.51       3.86       2.21       2.22       2.67       1.61       -9999      3.11       0.07787745 0.06445643 -9999      0.09129848 0.1424296  0.07755991 12.65899   2.41       2.811      0          0.008127314 338.07     0.4117775  0.2301272  0.5934278 
966.2000000000001 0.225      -9999      -9999      260.698    4.69       3.48       3.8778     3.458      3.3269     3.1479     3.0338     2.56       3.42       2.11       1.99       2.85       1.67       -9999      3.1        0.09212557 0.0948114  -9999      0.08943974 0.1529947  0.1424122  26.60941   2.368      3.034      0          0.1445235  338.33     0.3882836  0.1699123  0.6066549 
966.4      0.223      -9999      -9999      260.226    5          3.45       3.421600000000001 3.3897     2.767      2.6791     2.7567     2.35       3.16       1.7        1.93       2.86       1.68       -9999      2.92       0.07153711 0.06160076 -9999      0.08147345 0.1359915  0.05918325 16.30169   2.415      2.757      0          0          338.43     0.4111534  0.2075483  0.6147586 
966.6      0.222      -9999      -9999      287.2      5.18       3.34       3.1312     3.7563     2.6349     2.7232     2.6818     2.34       2.91       1.76       1.94       2.72       1.65       -9999      2.88       0.1079074  0.09707868 -9999      0.1187361  0.174375   0.2791674  12.26506   2.351      2.682      0.02136487 0.2103767  338.29     0.423996   0.2331171  0.614875  
966.8      0.222      -9999      -9999      339.557    5.05       3.39       4.2172     3.4988     3.1064     2.9651     2.7382     2.41       4.58       2.76       2.58       2.65       1.66       -9999      2.94       0.1223153  0.05936947 -9999      0.1852612  0.18623    0.5161011  15.06292   2.42       2.738      0.1310323  0.285661   337.73     0.4077106  0.2143554  0.6010657 
967        0.23       -9999      -9999      345.715    5.12       3.43       3.2517     2.6361     2.5066     2.3983     2.3956     2.08       3.21       1.76       1.84       2.52       1.64       -9999      3.05       0.1626226  0.1341217  -9999      0.1911235  0.2266066  2.87954    13.48519   2.295      2.396      0.27813    0.3948337  337.31     0.4081533  0.224262   0.5920446 
967.2000000000001 0.224      -9999      -9999      346.909    5.28       3.22       3.0338     2.3054     2.3461     2.2803     2.2592     1.97       1.84       1.37       1.37       2.3        1.58       -9999      2.87       0.1442216  0.09946532 -9999      0.1889778  0.2098479  1.313686   10.47185   2.349      2.259      0.1760913  0.3148867  337.06     0.4186296  0.2486593  0.5885999 
967.4      0.24       -9999      -9999      348.986    5.36       3.13       2.3267     2.1476     2.0611     2.0619     2.1482     1.85       2.1        0.92       1.21       2.3        1.51       -9999      2.74       0.1709269  0.1530473  -9999      0.1888066  0.2376202  4.103361   9.227976   2.257      2.148      0.2724073  0.3910677  336.93     0.4254354  0.2618358  0.5890351 
967.6      0.242      -9999      -9999      351.402    5.55       3.19       2.374      2.1208     2.1005     2.1334     2.1256     1.89       2.64       1.4        1.49       2.26       1.5        -9999      2.89       0.1621138  0.1413072  -9999      0.1829205  0.232877   2.817733   6.834061   2.267      2.126      0.2343857  0.3669613  337.33     0.4513975  0.2959968  0.6067983 
967.8      0.241      -9999      -9999      331.731    5.57       3.23       2.3364     2.2771     2.3559     2.3816     2.3461     2          2.19       1.43       1.63       2.21       1.51       -9999      3.05       0.1477137  0.1352702  -9999      0.1601571  0.2202062  1.524662   6.621396   2.273      2.346      0.2072649  0.3529417  337.73     0.4624291  0.2998424  0.6250158 
968        0.243      -9999      -9999      326.119    5.35       3.17       3.0722     2.873      2.5967     2.5754     2.4554     2.04       2.66       1.2        1.5        2.28       1.52       -9999      2.93       0.1591914  0.1588108  -9999      0.159572   0.2290093  2.487534   9.374999   2.24       2.455      0.2729445  0.400599   337.75     0.4453675  0.2601512  0.6305837 
968.2000000000001 0.233      -9999      -9999      344.288    5.29       3.09       2.8716     2.6871     2.3477     2.4443     2.3756     1.95       2.64       0.92       1.25       2.31       1.53       -9999      3.01       0.1726419  0.1643895  -9999      0.1808944  0.2410548  4.414744   10.30763   2.234      2.376      0.3120566  0.428239   337.37     0.4364044  0.2502693  0.6225395 
968.4      0.232      -9999      -9999      371.042    5.06       3.08       2.295      2.0862     2.0451     1.9938     2.0136     1.78       1.77       1          1.13       2.16       1.52       -9999      3.15       0.1904545  0.1699216  -9999      0.2109875  0.2558003  9.437094   14.82672   2.232      2.014      0.3175075  0.4241188  337.09     0.41684    0.2157434  0.6179367 
968.6      0.234      -9999      -9999      332.801    5.34       2.83       1.7741     1.8107     1.8134     1.7899     1.9151     1.81       1.84       0.91       1.02       2.18       1.51       -9999      3.23       0.1460803  0.1211783  -9999      0.1709824  0.2137146  1.422067   9.524359   2.308      1.915      0.1195519  0.2677196  336.54     0.4314384  0.2584776  0.6043993 
968.8      0.231      -9999      -9999      297.484    5.71       2.7        2.3956     2.1419     2.3029     2.0754     2.1158     2.09       4.23       1.39       1.71       2.4        1.53       -9999      3.3        0.1120349  0.1039176  -9999      0.1201523  0.1846795  0.3329025  5.306952   2.325      2.116      0          0.153899   336.22     0.4633989  0.3281978  0.5986    
969        0.226      -9999      -9999      280.065    5.25       2.94       3.2623     2.9354     2.9844     2.8928     2.67       2.54       -20.51     1.53       2.1        2.63       1.59       -9999      3.46       0.07428484 0.03975426 -9999      0.1088154  0.1406388  0.06654163 10.98038   2.447      2.67       0          0          336.2      0.4232712  0.2438908  0.6026517 
969.2000000000001 0.223      -9999      -9999      277.478    4.67       3.15       4.0919     3.320600000000001 3.1588     3.1155     3.0843     2.69       -2.7       2.48       2.71       2.8        1.64       -9999      3.32       0.09501225 0.07533732 -9999      0.1146872  0.1565262  0.1610703  27.46404   2.399      3.084      0          0.1732935  336.49     0.3923966  0.167733   0.6170602 
969.4      0.223      -9999      -9999      309.314    4.64       3.04       4.761699999999999 3.7367     3.0124     3.1681     2.9659     2.63       -2.77      2.21       2.33       2.82       1.64       -9999      3.16       0.1038643  0.0517648  -9999      0.1559639  0.165957   0.2349513  28.79775   2.437      2.966      0.03494368 0.2146238  336.66     0.3960885  0.1645165  0.6276605 
969.6      0.229      -9999      -9999      332.19     5.04       3.01       3.1919     2.873      2.6739     2.6169     2.6195     2.23       2.29       0.85       1.28       2.61       1.6        -9999      2.94       0.1266955  0.07872157 -9999      0.1746695  0.1921702  0.6221088  15.30291   2.384      2.62       0.1396539  0.293414   336.36     0.4176619  0.2129764  0.6223475 
969.8      0.234      -9999      -9999      344.424    5.69       2.99       2.7361     2.5149     2.3939     2.2771     2.2439     1.96       -10.87     0.88       1.24       2.31       1.53       -9999      2.96       0.132469   0.09492832 -9999      0.1700096  0.2063898  0.795801   5.4774     2.337      2.244      0.1100019  0.2813249  336.12     0.4715401  0.3239885  0.6190916 
