~Version
 VERS              .         2.0                           : CWLS LOG ASCII STANDARD - VERSION 2.0
 WRAP              .         NO                            : ONE LINE PER DEPTH STEP
 DLM               .         SPACE                         : DELIMITING CHARACTER(SPACE TAB OR COMMA)
~Well Information
#_______________________________________________________________________________
#
#PARAMETER_NAME    .UNIT     VALUE                         : DESCRIPTION
#_______________________________________________________________________________
STRT               .м        0                             : First reference value
STOP               .м        1190.8                        : Last reference value
STEP               .м        0.2                           : Step increment
NULL               .         -9999                         : Missing value
COMP               .                                       : Company
WELL               .         4535                          : Well name
FLD                .         УЗЕНЬ                         : Field
LOC                .                                       : Location
CNTY               .                                       : County
STAT               .                                       : State
CTRY               .                                       : Country
SRVC               .         AO "UPGF"                     : Service Company
DATE               .         17/7/2013                     : Date
UWI                .                                       : Unique Well ID
Block              .         7                             : 
Category           .         Нагнетательная                : 
Condition          .         В работе                      : 
Date               .         31.07.2013                    : 
EREF               .m        91.9                          : 100.8
GRP                .                                       : Group name
Gorizont           .         15                            : 14
ISS                .                                       : Well surveys
Interpretator      .         Ким С.В.                      : 
Kupol              .         основной                      : osnovnoi
Mud                .         0                             : 
Mud_density        .         0                             : 
Mud_resistivity    .         0                             : 
NGDU               .         НГДУ-2                        : 
ORIGINALWELLNAME   .         4535                          : 
Spud_date          .         2013                          : 1961
TIME               .         14_25                         : LOG TIME
Viscosity          .         0                             : 
X                  .m        42402.3                       : 46154
Y                  .m        84653.8                       : 85761.93
YEAR               .         2018                          : 
~Parameter Information Block
#_______________________________________________________________________________
#
#PARAMETER_NAME    .UNIT     VALUE                         : DESCRIPTION
#_______________________________________________________________________________
SET                .         LQC_KAZNIPI_Petrel            : 
TLFamily_CALI      .         Caliper                       : 
TLFamily_COLL      .         Net Reservoir Flag            : 
TLFamily_CSAT      .         Fluid Code                    : 
TLFamily_DEPT      .         Measured Depth                : 
TLFamily_DT        .         Compressional Slowness        : 
TLFamily_GR        .         Russian Gamma Ray             : 
TLFamily_GZ3       .         Gradient 225                  : 
TLFamily_IK1       .         Resistivity 05                : 
TLFamily_IK2       .         Resistivity 07                : 
TLFamily_IK3       .         Resistivity 10                : 
TLFamily_IK4       .         Resistivity 14                : 
TLFamily_IK5       .         Resistivity 20                : 
TLFamily_LLS       .         Lateral Log Resistivity       : 
TLFamily_MBK       .         Micro Lateral Log Resistivity : 
TLFamily_MINV      .         Micro Gradient Resistivity    : 
TLFamily_MNOR      .         Micro Resistivity             : 
TLFamily_NNKTB_1   .         Neutron Far                   : 
TLFamily_NNKTM_1   .         Neutron Near                  : 
TLFamily_NPHI      .         Neutron Porosity              : 
TLFamily_OGZ       .         Gradient Inverted 225         : 
TLFamily_PHIE      .         Effective Porosity            : 
TLFamily_PHIED     .         Effective Porosity            : 
TLFamily_PHIEN     .         Effective Porosity            : 
TLFamily_PHIES     .         Effective Porosity            : 
TLFamily_PHIT      .         Porosity                      : 
TLFamily_PRMB      .         Permeability                  : 
TLFamily_PRMB_DGR  .         Permeability                  : 
TLFamily_RHOB      .         Bulk Density                  : 
TLFamily_RT        .         Formation Resistivity         : 
TLFamily_SOIL_ARCHIE .         Oil Saturation                : 
TLFamily_SOIL_DW   .         Oil Saturation                : 
TLFamily_SP        .         Spontaneous Potential         : 
TLFamily_VSH_FIN   .         Shale Volume                  : 
TLFamily_VSH_GR    .         Shale Volume                  : 
TLFamily_VSH_SP    .         Shale Volume                  : 
~Curve Information
#_______________________________________________________________________________
#
#LOGNAME           .UNIT     LOG_ID                        : DESCRIPTION
#_______________________________________________________________________________
DEPT               .м                                      : Колонка глубины 
CALI               .м                                      : Каверномер 
COLL               .unitless                               : Описание 
CSAT               .unitless                               : Описание 
DT                 .мкс/м                                  : Интервальное время пробега продольной волны 
GR                 .uR/h                                   : Гамма каротаж 
GZ3                .Ohmm                                   : Градиент-зонд  длиной 2.25м 
IK1                .Ohmm                                   : И0.10И0.40 
IK2                .Ohmm                                   : И0.14И0.56 
IK3                .Ohmm                                   : И0.20И0.8 
IK4                .Ohmm                                   : И0.28И1.12 
IK5                .Ohmm                                   : И0.40И1.60 
LLS                .Ohmm                                   : Боковой каротаж 
MBK                .Ohmm                                   : Микробоковой каротаж 
MINV               .Ohmm                                   : Микро-градиент зонд 
MNOR               .Ohmm                                   : Микро-потенциал зонд 
NNKTB_1            .у.е.                                   : Показания большого зонда 2ННКт аппаратуры СРК 
NNKTM_1            .у.е.                                   : Показания малого зонда 2ННКт аппаратуры СРК 
NPHI               .v/v                                    : Neutron porosity index 
OGZ                .Ohmm                                   : N0.5M2.0A 
PHIE               .v/v                                    : Описание 
PHIED              .v/v                                    :  
PHIEN              .v/v                                    :  
PHIES              .v/v                                    :  
PHIT               .v/v                                    : Описание 
PRMB               .mD                                     :  
PRMB_DGR           .mD                                     :  
RHOB               .г/см3                                  : Плотность по ГГК-П 
RT                 .ohmm                                   : УЭС пласта 
SOIL_ARCHIE        .v/v                                    :  
SOIL_DW            .v/v                                    :  
SP                 .мВ                                     : Потенциал самополяризации 
VSH_FIN            .v/v                                    : Описание 
VSH_GR             .v/v                                    : Shale volume 
VSH_SP             .v/v                                    : Shale Volume 
~Ascii
# ...
1049.8     0.233      -9999      -9999      322.891    7.54       1.86       2.1172     1.9887     1.9151     1.8432     1.8046     1.57       1.86       0.9        1.26       2.09       1.39       -9999      2.12       0.1115767  0.106447   -9999      0.1167064  0.2010739  0.3264595  2.94872    2.281      1.805      0          0.1282814  322.62     0.5709016  0.4172027  0.7246005 
1050       0.239      -9999      -9999      334.016    7.6        2          1.8381     1.7503     1.7268     1.7704     1.7403     1.51       2.17       0.7        0.89       2.1        1.39       -9999      2.03       0.1055792  0.08712085 -9999      0.1240375  0.1973111  0.2527786  2.739236   2.308      1.74       0          0.08223444 323.01     0.585157   0.4299475  0.7403666 
1050.2     0.247      -9999      -9999      339.441    8          1.99       1.8529     1.792      1.6882     1.6938     1.6993     1.5        2.35       0.86       1.1        2.07       1.39       -9999      2.05       0.1048478  0.09477456 -9999      0.114921   0.2038749  0.2450154  1.67598    2.278      1.699      0          0.08716389 322.93     0.6316929  0.5254576  0.7379282 
1050.4     0.254      -9999      -9999      351.338    8.04       1.93       1.8201     1.7964     1.7268     1.6948     1.7206     1.53       2.11       0.9        0.98       2          1.39       -9999      2.07       0.1129258  0.09989655 -9999      0.1259551  0.2121421  0.3457948  1.595633   2.269      1.721      0          0.1399528  322.7      0.6328992  0.536105   0.7296934 
1050.6     0.247      -9999      -9999      338.142    7.55       1.98       1.7774     1.7899     1.7838     1.744      1.734      1.56       2.13       0.75       1.1        1.93       1.39       -9999      2.02       0.1365303  0.1415467  -9999      0.1315139  0.2266137  0.9463039  2.912724   2.221      1.734      0.02161066 0.2361888  322.69     0.5746405  0.4193003  0.7299807 
1050.8     0.252      -9999      -9999      331.304    7.73       2.16       2.1019     1.9977     1.909      1.8398     1.7969     1.58       2.03       0.84       1.03       1.91       1.41       -9999      1.93       0.1323369  0.1465792  -9999      0.1180946  0.2256385  0.7913311  2.335002   2.205      1.797      0.01135947 0.238328   322.71     0.5951697  0.4589128  0.7314266 
1051       0.259      -9999      -9999      335.616    7.88       2.07       1.9079     1.8627     1.772      1.7704     1.772      1.53       1.84       0.79       0.79       1.93       1.41       -9999      2.05       0.1294384  0.1416402  -9999      0.1172366  0.2253872  0.6993133  1.942124   2.207      1.772      0          0.2256794  322.65     0.6120562  0.4947673  0.7293451 
1051.2     0.258      -9999      -9999      333.583    7.69       1.93       1.8877     1.8489     1.7806     1.7866     1.7351     1.53       2.5        0.87       1.16       1.89       1.38       -9999      2          0.1480809  0.1730256  -9999      0.1231361  0.2400412  1.548727   2.45258    2.164      1.735      0.08866961 0.2859274  322.49     0.5866141  0.4497985  0.7234297 
1051.4     0.251      -9999      -9999      321.477    7.94       2.03       2.0477     2.0041     1.8725     1.8107     1.7413     1.52       2.2        0.83       1.01       1.9        1.39       -9999      1.87       0.1378784  0.1730818  -9999      0.1026749  0.2336122  1.002305   1.804151   2.155      1.741      0.03177952 0.2544579  322.17     0.6106847  0.5098816  0.7114878 
1051.6     0.252      -9999      -9999      332.583    8.26       1.99       1.5674     1.7377     1.7023     1.6573     1.6587     1.43       1.7        0.66       0.81       1.95       1.4        -9999      1.89       0.1499888  0.1971369  -9999      0.1028407  0.2515813  1.68002    1.217824   2.101      1.659      0.07963087 0.2936522  321.79     0.6480574  0.5986419  0.6974729 
1051.8     0.25       -9999      -9999      334.653    7.93       1.89       1.5737     1.5932     1.5506     1.5327     1.5701     1.44       1.96       0.54       0.87       1.97       1.4        -9999      2.05       0.1388338  0.1578967  -9999      0.1197709  0.233025   1.04399    1.826447   2.184      1.57       0          0.2158796  321.7      0.6008448  0.5073308  0.6943588 
1052       0.252      -9999      -9999      331.386    7.52       1.96       1.7196     1.7232     1.6655     1.7408     1.629      1.55       2.04       0.62       0.94       1.94       1.39       -9999      2.12       0.1164488  0.1035633  -9999      0.1293344  0.2041733  0.4018583  3.02205    2.29       1.629      0          0.1060578  322.01     0.5595929  0.413039   0.7061468 
1052.2     0.257      -9999      -9999      324.98     7.4        2.2        1.8324     1.8931     1.8268     1.8592     1.8621     1.66       2.65       0.77       1.17       1.95       1.42       -9999      2.14       0.1112475  0.09961753 -9999      0.1228774  0.1987979  0.3219076  3.501948   2.297      1.862      0          0.1347775  322.58     0.5584832  0.3889147  0.7280517 
1052.4     0.248      -9999      -9999      308.919    7.34       2.15       2.5668     2.3022     2.2243     2.125      2.028      1.73       2.61       0.77       1.07       2.08       1.44       -9999      2.18       0.07604221 0.04786731 -9999      0.1042171  0.1637719  0.07172064 3.76976    2.383      2.028      0          0          322.93     0.5596262  0.3773862  0.7418662 
1052.6     0.244      -9999      -9999      310.586    7.5        1.96       2.3756     2.1363     2.002      2.0105     1.9691     1.6        2.15       0.98       1.22       2.09       1.44       -9999      2.04       0.09838238 0.09677141 -9999      0.09999336 0.1892177  0.1859681  3.097201   2.294      1.969      0          0.09024378 323.13     0.5794374  0.4089168  0.749958  
1052.8     0.247      -9999      -9999      328.724    8.08       2.03       1.8529     1.8685     1.7613     1.7503     1.8068     1.46       2.14       0.94       1.08       2          1.4        -9999      1.94       0.09263016 0.08569783 -9999      0.0995625  0.1938428  0.1455102  1.519138   2.288      1.807      0          0.04245753 322.98     0.6456338  0.5469682  0.7442995 
1053       0.246      -9999      -9999      341.612    8.61       2.07       1.6803     1.6928     1.649      1.6191     1.5827     1.4        1.88       1.11       1.03       1.95       1.37       -9999      1.93       0.1011206  0.1132565  -9999      0.08898477 0.2141868  0.2090054  0.7923089  2.214      1.583      0          0.06985795 322.58     0.7212477  0.713508   0.7289875 
1053.2     0.245      -9999      -9999      355.247    8.95       1.9        1.6568     1.6079     1.5891     1.5554     1.5629     1.37       1.86       0.68       0.94       1.93       1.37       -9999      2.06       0.1130066  0.1356714  -9999      0.09034177 0.2318209  0.3469874  0.5218408  2.163      1.563      0          0.1456063  322.23     0.7579154  0.8        0.7158308 
1053.4     0.247      -9999      -9999      365.648    9.1        1.83       1.5955     1.5634     1.5594     1.5414     1.5185     1.35       1.73       0.67       0.92       2          1.36       -9999      2.09       0.1019459  0.1037724  -9999      0.1001194  0.2204516  0.2164926  0.4340377  2.217      1.519      0          0.07019734 322.12     0.7559463  0.8        0.7118926 
1053.6     0.25       -9999      -9999      357.101    8.75       1.91       1.5612     1.5224     1.4801     1.4987     1.4792     1.34       1.71       0.58       0.99       2.03       1.35       -9999      2.04       0.1023596  0.1044087  -9999      0.1003105  0.2170256  0.2203462  0.6671419  2.225      1.479      0          0.04994159 321.73     0.7314529  0.7654057  0.6975001 
1053.8     0.253      -9999      -9999      393.417    8.85       1.79       1.5488     1.5096     1.451      1.4634     1.4638     1.36       1.75       0.66       0.96       2.02       1.37       -9999      2.21       0.09051861 0.05499113 -9999      0.1260461  0.2071028  0.1329788  0.5900353  2.303      1.464      0          0          321.45     0.7436888  0.8        0.6873775 
