~Version
 VERS              .         2.0                           : CWLS LOG ASCII STANDARD - VERSION 2.0
 WRAP              .         NO                            : ONE LINE PER DEPTH STEP
 DLM               .         SPACE                         : DELIMITING CHARACTER(SPACE TAB OR COMMA)
~Well Information
#_______________________________________________________________________________
#
#PARAMETER_NAME    .UNIT     VALUE                         : DESCRIPTION
#_______________________________________________________________________________
STRT               .м        0                             : First reference value
STOP               .м        1190.8                        : Last reference value
STEP               .м        0.2                           : Step increment
NULL               .         -9999                         : Missing value
COMP               .                                       : Company
WELL               .         4535                          : Well name
FLD                .         УЗЕНЬ                         : Field
LOC                .                                       : Location
CNTY               .                                       : County
STAT               .                                       : State
CTRY               .                                       : Country
SRVC               .         AO "UPGF"                     : Service Company
DATE               .         17/7/2013                     : Date
UWI                .                                       : Unique Well ID
Block              .         7                             : 
Category           .         Нагнетательная                : 
Condition          .         В работе                      : 
Date               .         31.07.2013                    : 
EREF               .m        91.9                          : 100.8
GRP                .                                       : Group name
Gorizont           .         15                            : 14
ISS                .                                       : Well surveys
Interpretator      .         Ким С.В.                      : 
Kupol              .         основной                      : osnovnoi
Mud                .         0                             : 
Mud_density        .         0                             : 
Mud_resistivity    .         0                             : 
NGDU               .         НГДУ-2                        : 
ORIGINALWELLNAME   .         4535                          : 
Spud_date          .         2013                          : 1961
TIME               .         14_25                         : LOG TIME
Viscosity          .         0                             : 
X                  .m        42402.3                       : 46154
Y                  .m        84653.8                       : 85761.93
YEAR               .         2018                          : 
~Parameter Information Block
#_______________________________________________________________________________
#
#PARAMETER_NAME    .UNIT     VALUE                         : DESCRIPTION
#_______________________________________________________________________________
SET                .         LQC_KAZNIPI_Petrel            : 
TLFamily_CALI      .         Caliper                       : 
TLFamily_COLL      .         Net Reservoir Flag            : 
TLFamily_CSAT      .         Fluid Code                    : 
TLFamily_DEPT      .         Measured Depth                : 
TLFamily_DT        .         Compressional Slowness        : 
TLFamily_GR        .         Russian Gamma Ray             : 
TLFamily_GZ3       .         Gradient 225                  : 
TLFamily_IK1       .         Resistivity 05                : 
TLFamily_IK2       .         Resistivity 07                : 
TLFamily_IK3       .         Resistivity 10                : 
TLFamily_IK4       .         Resistivity 14                : 
TLFamily_IK5       .         Resistivity 20                : 
TLFamily_LLS       .         Lateral Log Resistivity       : 
TLFamily_MBK       .         Micro Lateral Log Resistivity : 
TLFamily_MINV      .         Micro Gradient Resistivity    : 
TLFamily_MNOR      .         Micro Resistivity             : 
TLFamily_NNKTB_1   .         Neutron Far                   : 
TLFamily_NNKTM_1   .         Neutron Near                  : 
TLFamily_NPHI      .         Neutron Porosity              : 
TLFamily_OGZ       .         Gradient Inverted 225         : 
TLFamily_PHIE      .         Effective Porosity            : 
TLFamily_PHIED     .         Effective Porosity            : 
TLFamily_PHIEN     .         Effective Porosity            : 
TLFamily_PHIES     .         Effective Porosity            : 
TLFamily_PHIT      .         Porosity                      : 
TLFamily_PRMB      .         Permeability                  : 
TLFamily_PRMB_DGR  .         Permeability                  : 
TLFamily_RHOB      .         Bulk Density                  : 
TLFamily_RT        .         Formation Resistivity         : 
TLFamily_SOIL_ARCHIE .         Oil Saturation                : 
TLFamily_SOIL_DW   .         Oil Saturation                : 
TLFamily_SP        .         Spontaneous Potential         : 
TLFamily_VSH_FIN   .         Shale Volume                  : 
TLFamily_VSH_GR    .         Shale Volume                  : 
TLFamily_VSH_SP    .         Shale Volume                  : 
~Curve Information
#_______________________________________________________________________________
#
#LOGNAME           .UNIT     LOG_ID                        : DESCRIPTION
#_______________________________________________________________________________
DEPT               .м                                      : Колонка глубины 
CALI               .м                                      : Каверномер 
COLL               .unitless                               : Описание 
CSAT               .unitless                               : Описание 
DT                 .мкс/м                                  : Интервальное время пробега продольной волны 
GR                 .uR/h                                   : Гамма каротаж 
GZ3                .Ohmm                                   : Градиент-зонд  длиной 2.25м 
IK1                .Ohmm                                   : И0.10И0.40 
IK2                .Ohmm                                   : И0.14И0.56 
IK3                .Ohmm                                   : И0.20И0.8 
IK4                .Ohmm                                   : И0.28И1.12 
IK5                .Ohmm                                   : И0.40И1.60 
LLS                .Ohmm                                   : Боковой каротаж 
MBK                .Ohmm                                   : Микробоковой каротаж 
MINV               .Ohmm                                   : Микро-градиент зонд 
MNOR               .Ohmm                                   : Микро-потенциал зонд 
NNKTB_1            .у.е.                                   : Показания большого зонда 2ННКт аппаратуры СРК 
NNKTM_1            .у.е.                                   : Показания малого зонда 2ННКт аппаратуры СРК 
NPHI               .v/v                                    : Neutron porosity index 
OGZ                .Ohmm                                   : N0.5M2.0A 
PHIE               .v/v                                    : Описание 
PHIED              .v/v                                    :  
PHIEN              .v/v                                    :  
PHIES              .v/v                                    :  
PHIT               .v/v                                    : Описание 
PRMB               .mD                                     :  
PRMB_DGR           .mD                                     :  
RHOB               .г/см3                                  : Плотность по ГГК-П 
RT                 .ohmm                                   : УЭС пласта 
SOIL_ARCHIE        .v/v                                    :  
SOIL_DW            .v/v                                    :  
SP                 .мВ                                     : Потенциал самополяризации 
VSH_FIN            .v/v                                    : Описание 
VSH_GR             .v/v                                    : Shale volume 
VSH_SP             .v/v                                    : Shale Volume 
~Ascii
# ...
1117       0.209      1          2          320.282    7.52       3.61       8.493      6.068999999999999 4.7385     4.3676     4.4308     4.66       7.82       1.46       1.87       2.42       1.52       0.25       7.510001   0.1866347  0.1359281  0.1890599  0.2349162  0.2262476  8.018371   28.54849   2.443      4.431      0.5201941  0.5795103  291.51     0.184667   0.1651015  0.1846673 
1117.2     0.212      6          6          329.552    7.69       4.48       10.1627    8.326800000000002 5.4127     4.8216     4.9142     5.37       10.24      2.36       3.85       2.61       1.57       0.226      7.510001   0.174388   0.1029941  0.170263   0.249907   0.2106187  4.756057   21.61344   2.498      4.914      0.5151001  0.5717531  289.43     0.1689     0.1849702  0.1689003 
1117.4     0.218      6          6          324.151    7.93       5.22       15.5527    11.6699    8.650800000000002 6.447299999999999 5.597800000000001 6.6        7.23       1.68       2.61       2.87       1.65       0.197      7.280001   0.1573685  0.07964075 0.144893   0.2475718  0.1912396  2.301466   14.59149   2.537      5.598      0.5011886  0.5569551  287.69     0.1579     0.2171568  0.1578999 
1117.6     0.218      6          6          299.149    7.92       5.96       20.82560000000001 12.8973    9.188999999999998 6.806300000000001 5.906399999999999 6.37       5.75       1.69       2.28       2.85       1.65       0.199      7          0.1660847  0.1293413  0.1489156  0.2199972  0.1986411  3.337717   14.83231   2.454      5.906      0.5358798  0.5875254  286.57     0.151771   0.2157101  0.1517707 
1117.8     0.211      6          6          334.24     8.13       6.51       10.507     8.729200000000001 7.095199999999999 6.1229     5.5099     4.58       7.02       2.19       2.05       2.57       1.59       0.231      6.39       0.1996361  0.1568862  0.1814079  0.2606141  0.2318724  13.96056   10.5175    2.408      5.51       0.5915136  0.6386883  286.28     0.150279   0.248218   0.1502791 
1118       0.21       8          2          347.206    8.53       6.72       11.1499    9.5214     7.903700000000001 6.1501     5.0793     4.22       8.43       1.32       2.01       2.31       1.54       0.264      6.010001   0.2304204  0.2011975  0.2155669  0.2744968  0.2619034  51.89232   5.464349   2.334      5.079      0.6254305  0.6698785  285.55     0.146767   0.3243043  0.1467667 
1118.2     0.21       8          2          344.432    8.93       6.29       10.3252    9.161899999999999 7.844299999999999 6.4547     5.141399999999999 4.74       8.01       1.42       2.11       2.16       1.51       0.286      5.82       0.2427854  0.2143712  0.2399129  0.2740721  0.2727434  87.92909   2.838989   2.312      5.141      0.644133   0.6864901  283.85     0.139658   0.4237135  0.1396584 
1118.4     0.211      8          2          319.534    8.9        6.19       10.631     7.7934     7.0447     6.029      4.9983     4.87       7.42       1.33       2.03       2.11       1.5        0.294      5.53       0.2389212  0.2167664  0.249909   0.2500883  0.2675817  74.56913   2.981894   2.308      4.998      0.6343164  0.6763275  282.07     0.133609   0.4153011  0.1336088 
1118.6     0.212      8          2          273.7      8.58       6.44       11.0166    7.136000000000001 6.1585     5.5201     4.6474     4.83       7.45       1.37       2.04       2.14       1.51       0.289      4.93       0.2125839  0.1994013  0.2466052  0.1917453  0.2401418  24.25093   5.034906   2.337      4.647      0.5810872  0.6245918  280.16     0.128469   0.3353263  0.1284689 
1118.8     0.212      8          2          267.142    8.37       6.44       10.8695    6.719600000000001 5.269      4.8027     4.352400000000001 4.54       7.4        1.36       2.07       2.27       1.52       0.27       4.57       0.1978994  0.1826347  0.2286174  0.1824461  0.2247993  12.96388   7.100484   2.365      4.352      0.5402048  0.5846164  278.74     0.125402   0.2914103  0.1254023 
1119       0.212      1          2          279.053    8.18       6.11       9.904999999999999 5.7723     4.4224     4.0393     3.786900000000001 4.2        7.22       1.32       2.05       2.33       1.52       0.262      4.48       0.2527203  0.3347305  0.2216882  0.2017422  0.2789242  134.3232   9.690928   2.111      3.787      0.6033444  0.6455099  276.87     0.122157   0.2566541  0.1221568 
1119.2     0.212      1          2          322.471    8.04       6.22       8.1069     4.783900000000001 3.5928     3.4151     3.562399999999999 3.8        7.65       1.33       2.04       2.27       1.5        0.27       4.2        0.2664853  0.3107784  0.2307393  0.2579382  0.292006   241.6086   12.18699   2.151      3.562      0.6102054  0.6519373  274.49     0.118972   0.2337256  0.1189725 
1119.4     0.212      1          2          315.567    7.94       6.5        7.2066     4.3028     3.3406     3.1988     3.450200000000001 3.57       4.6        1.29       1.99       2.3        1.5        0.266      4.09       0.2635446  0.3125749  0.2273253  0.2507335  0.2886842  213.1291   14.35456   2.148      3.45       0.6004749  0.6423161  272.89     0.117196   0.2186133  0.1171957 
1119.6     0.211      1          2          304.085    8.2        6.4        6.1041     3.9113     3.299799999999999 3.227300000000001 3.605      3.34       4.97       1.16       1.79       2.37       1.52       0.256      4.37       0.2393049  0.263473   0.217362   0.2370798  0.2644208  75.79943   9.378792   2.23       3.605      0.5743206  0.6165549  272.79     0.117085   0.2601082  0.1170849 
1119.8     0.211      1          2          304.104    8.22       6.03       6.2765     4.2122     3.5027     3.4122     3.7248     3.21       6.14       1.2        1.74       2.34       1.52       0.26       4.4        0.2416649  0.2676646  0.2207798  0.2365503  0.2671592  83.82592   9.076699   2.223      3.725      0.5843791  0.6265699  274.4      0.118849   0.263609   0.1188486 
1120       0.212      1          2          302.979    8.18       6.03       3.9756     3.6257     3.236      3.3151     3.7055     3.01       3.37       0.86       1.4        2.18       1.5        0.283      4.34       0.2443668  0.257485   0.2420783  0.2335369  0.270967   94.06393   9.690928   2.24       3.706      0.5873954  0.6303947  278.02     0.124005   0.2566541  0.1240045 
1120.2     0.217      1          2          310.105    8.53       5.92       4.8514     3.946200000000001 3.577500000000001 3.4264     3.7119     2.81       3.97       0.87       1.42       2.02       1.47       0.308      4.58       0.2285447  0.1814371  0.2644657  0.2397313  0.2568433  47.90274   5.464349   2.367      3.712      0.5629573  0.6081427  281.54     0.131922   0.3243043  0.1319221 
1120.4     0.215      1          2          313.216    8.72       5.65       5.345700000000001 4.7792     4.3893     4.0067     4.201699999999999 3.15       6.01       1.24       1.8        1.96       1.47       0.318      4.9        0.2439099  0.2203593  0.2711374  0.2402332  0.274372   92.24899   4.003688   2.302      4.202      0.6103782  0.6550875  284.51     0.142008   0.3682218  0.1420079 
1120.6     0.207      1          2          294.157    8.44       5.82       6.1312     5.508500000000001 5.167599999999999 4.4047     4.103      3.53       5.98       1.14       1.67       1.99       1.5        0.313      4.92       0.236034   0.2251498  0.2662638  0.2166885  0.2664139  65.92957   6.331732   2.294      4.103      0.5945684  0.6400033  284.42     0.141625   0.3053696  0.1416246 
1120.8     0.206      1          2          298.637    8.24       5.84       7.311699999999999 6.0092     5.167599999999999 4.255199999999999 3.9123     3.64       7.4        1.3        1.94       2.1        1.52       0.296      4.93       0.2441738  0.2550898  0.2521585  0.2252729  0.272672   93.2929    8.784348   2.244      3.912      0.5974607  0.6414241  281.88     0.132853   0.2671567  0.1328527 
1121       0.205      1          2          294.065    8.36       5.36       9.164099999999998 5.9633     4.4771     3.6226     3.289      3.71       7.73       1.17       1.58       2.16       1.52       0.286      4.82       0.2367164  0.2461077  0.2434742  0.2205671  0.2643594  67.87649   7.217675   2.259      3.289      0.5513656  0.5966286  280.39     0.128866   0.2894689  0.1288659 
