~Version
 VERS              .         2.0                           : CWLS LOG ASCII STANDARD - VERSION 2.0
 WRAP              .         NO                            : ONE LINE PER DEPTH STEP
 DLM               .         SPACE                         : DELIMITING CHARACTER(SPACE TAB OR COMMA)
~Well Information
#_______________________________________________________________________________
#
#PARAMETER_NAME    .UNIT     VALUE                         : DESCRIPTION
#_______________________________________________________________________________
STRT               .м        0                             : First reference value
STOP               .м        1190.8                        : Last reference value
STEP               .м        0.2                           : Step increment
NULL               .         -9999                         : Missing value
COMP               .                                       : Company
WELL               .         4535                          : Well name
FLD                .         УЗЕНЬ                         : Field
LOC                .                                       : Location
CNTY               .                                       : County
STAT               .                                       : State
CTRY               .                                       : Country
SRVC               .         AO "UPGF"                     : Service Company
DATE               .         17/7/2013                     : Date
UWI                .                                       : Unique Well ID
Block              .         7                             : 
Category           .         Нагнетательная                : 
Condition          .         В работе                      : 
Date               .         31.07.2013                    : 
EREF               .m        91.9                          : 100.8
GRP                .                                       : Group name
Gorizont           .         15                            : 14
ISS                .                                       : Well surveys
Interpretator      .         Ким С.В.                      : 
Kupol              .         основной                      : osnovnoi
Mud                .         0                             : 
Mud_density        .         0                             : 
Mud_resistivity    .         0                             : 
NGDU               .         НГДУ-2                        : 
ORIGINALWELLNAME   .         4535                          : 
Spud_date          .         2013                          : 1961
TIME               .         14_25                         : LOG TIME
Viscosity          .         0                             : 
X                  .m        42402.3                       : 46154
Y                  .m        84653.8                       : 85761.93
YEAR               .         2018                          : 
~Parameter Information Block
#_______________________________________________________________________________
#
#PARAMETER_NAME    .UNIT     VALUE                         : DESCRIPTION
#_______________________________________________________________________________
SET                .         LQC_KAZNIPI_Petrel            : 
TLFamily_CALI      .         Caliper                       : 
TLFamily_COLL      .         Net Reservoir Flag            : 
TLFamily_CSAT      .         Fluid Code                    : 
TLFamily_DEPT      .         Measured Depth                : 
TLFamily_DT        .         Compressional Slowness        : 
TLFamily_GR        .         Russian Gamma Ray             : 
TLFamily_GZ3       .         Gradient 225                  : 
TLFamily_IK1       .         Resistivity 05                : 
TLFamily_IK2       .         Resistivity 07                : 
TLFamily_IK3       .         Resistivity 10                : 
TLFamily_IK4       .         Resistivity 14                : 
TLFamily_IK5       .         Resistivity 20                : 
TLFamily_LLS       .         Lateral Log Resistivity       : 
TLFamily_MBK       .         Micro Lateral Log Resistivity : 
TLFamily_MINV      .         Micro Gradient Resistivity    : 
TLFamily_MNOR      .         Micro Resistivity             : 
TLFamily_NNKTB_1   .         Neutron Far                   : 
TLFamily_NNKTM_1   .         Neutron Near                  : 
TLFamily_NPHI      .         Neutron Porosity              : 
TLFamily_OGZ       .         Gradient Inverted 225         : 
TLFamily_PHIE      .         Effective Porosity            : 
TLFamily_PHIED     .         Effective Porosity            : 
TLFamily_PHIEN     .         Effective Porosity            : 
TLFamily_PHIES     .         Effective Porosity            : 
TLFamily_PHIT      .         Porosity                      : 
TLFamily_PRMB      .         Permeability                  : 
TLFamily_PRMB_DGR  .         Permeability                  : 
TLFamily_RHOB      .         Bulk Density                  : 
TLFamily_RT        .         Formation Resistivity         : 
TLFamily_SOIL_ARCHIE .         Oil Saturation                : 
TLFamily_SOIL_DW   .         Oil Saturation                : 
TLFamily_SP        .         Spontaneous Potential         : 
TLFamily_VSH_FIN   .         Shale Volume                  : 
TLFamily_VSH_GR    .         Shale Volume                  : 
TLFamily_VSH_SP    .         Shale Volume                  : 
~Curve Information
#_______________________________________________________________________________
#
#LOGNAME           .UNIT     LOG_ID                        : DESCRIPTION
#_______________________________________________________________________________
DEPT               .м                                      : Колонка глубины 
CALI               .м                                      : Каверномер 
COLL               .unitless                               : Описание 
CSAT               .unitless                               : Описание 
DT                 .мкс/м                                  : Интервальное время пробега продольной волны 
GR                 .uR/h                                   : Гамма каротаж 
GZ3                .Ohmm                                   : Градиент-зонд  длиной 2.25м 
IK1                .Ohmm                                   : И0.10И0.40 
IK2                .Ohmm                                   : И0.14И0.56 
IK3                .Ohmm                                   : И0.20И0.8 
IK4                .Ohmm                                   : И0.28И1.12 
IK5                .Ohmm                                   : И0.40И1.60 
LLS                .Ohmm                                   : Боковой каротаж 
MBK                .Ohmm                                   : Микробоковой каротаж 
MINV               .Ohmm                                   : Микро-градиент зонд 
MNOR               .Ohmm                                   : Микро-потенциал зонд 
NNKTB_1            .у.е.                                   : Показания большого зонда 2ННКт аппаратуры СРК 
NNKTM_1            .у.е.                                   : Показания малого зонда 2ННКт аппаратуры СРК 
NPHI               .v/v                                    : Neutron porosity index 
OGZ                .Ohmm                                   : N0.5M2.0A 
PHIE               .v/v                                    : Описание 
PHIED              .v/v                                    :  
PHIEN              .v/v                                    :  
PHIES              .v/v                                    :  
PHIT               .v/v                                    : Описание 
PRMB               .mD                                     :  
PRMB_DGR           .mD                                     :  
RHOB               .г/см3                                  : Плотность по ГГК-П 
RT                 .ohmm                                   : УЭС пласта 
SOIL_ARCHIE        .v/v                                    :  
SOIL_DW            .v/v                                    :  
SP                 .мВ                                     : Потенциал самополяризации 
VSH_FIN            .v/v                                    : Описание 
VSH_GR             .v/v                                    : Shale volume 
VSH_SP             .v/v                                    : Shale Volume 
~Ascii
# ...
898.6      0.232      -9999      -9999      332.194    8.38       4.28       3.6673     3.3178     3.3654     3.3124     3.2048     2.78       1.53       0.78       1.12       2.09       1.44       -9999      4.31       0.2188822  0.2239521  -9999      0.2138124  0.2647875  31.72401   2.885847   2.296      3.205      0.5138245  0.5779186  334.91     0.2928291  0.4208906  0.1647676 
898.8      0.257      -9999      -9999      351.336    8.88       4.11       2.1568     2.2725     2.3559     2.446      2.7219     2.22       1.6        0.52       0.86       1.93       1.4        -9999      4.3        0.2373054  0.257485   -9999      0.2171257  0.2909354  69.60322   1.672225   2.24       2.722      0.5107682  0.5808023  333.85     0.3421053  0.5259391  0.1582715 
899        0.276      -9999      -9999      351.867    9.09       3.97       2.0991     2.2464     2.2531     2.3471     2.4623     2.14       1.17       0.86       0.85       1.84       1.34       -9999      4.71       0.2233099  0.2365269  -9999      0.2100929  0.280702   38.31768   1.329731   2.275      2.462      0.4592863  0.5383205  333.21     0.3661036  0.5775337  0.1546736 
899.2000000000001 0.293      -9999      -9999      360.957    8.67       3.88       1.8506     2.2648     2.2824     2.3602     2.4641     2.16       2.13       0.8        0.95       1.84       1.33       -9999      5.26       0.2248592  0.2155689  -9999      0.2341495  0.2743168  40.93513   2.102935   2.31       2.464      0.4627373  0.5336844  332.71     0.3154895  0.4789538  0.1520251 
899.4      0.256      -9999      -9999      333.81     8.3        3.77       2.0267     2.4101     2.6938     2.4969     2.591      2.27       2.52       0.64       1.02       1.86       1.36       -9999      5.91       0.2281775  0.2365269  -9999      0.2198282  0.2719085  47.15848   3.149123   2.275      2.591      0.4819126  0.5457627  332.66     0.2789591  0.4061502  0.151768  
899.6      0.227      -9999      -9999      304.409    8.42       3.85       3.0409     2.8296     2.996      2.7621     2.6291     2.42       2.91       0.64       1.14       1.93       1.42       -9999      6.21       0.188077   0.1934132  -9999      0.1827408  0.2338015  8.527093   2.76258    2.347      2.629      0.3911069  0.4661042  333.25     0.2916759  0.4284602  0.1548916 
899.8      0.222      -9999      -9999      329.01     8.29       4.05       2.5048     2.38       2.6446     2.6093     2.5612     2.37       2.01       0.57       0.95       1.95       1.44       -9999      6.320001   0.2206703  0.2275449  -9999      0.2137958  0.2649176  34.23798   3.18368    2.29       2.561      0.463672   0.5295788  334.17     0.2822525  0.4043443  0.1601606 
900        0.222      -9999      -9999      344.69     8.45       3.69       2.4346     2.3933     2.369      2.533      2.4125     2.31       2.37       0.66       1.05       2          1.43       -9999      6.55       0.1792674  0.1347306  -9999      0.2238042  0.2264191  5.85632    2.6736     2.445      2.413      0.3390645  0.4206909  335.3      0.3007801  0.4342266  0.1673335 
900.2000000000001 0.221      -9999      -9999      337.374    9.08       3.32       2.3429     2.4969     2.4074     2.533      2.5155     2.4        2.48       0.55       1.05       2.08       1.43       -9999      7.27       0.1712393  0.1497006  -9999      0.1927781  0.2303055  4.1584     1.344322   2.42       2.516      0.325518   0.4274019  336.86     0.3767822  0.5749657  0.1785987 
900.4      0.224      -9999      -9999      312.727    9.05       3.23       2.7774     2.8664     2.6818     2.6207     2.5817     2.63       3.73       0.84       1.37       2.19       1.45       -9999      7.78       0.1447716  0.1233533  -9999      0.16619    0.2037695  1.344869   1.389063   2.464      2.582      0.2287358  0.3490079  337.7      0.3763466  0.5673304  0.1853629 
900.6      0.228      -9999      -9999      281.336    8.71       3.42       3.1919     3.0787     2.9025     2.7934     2.8111     2.87       3.08       0.84       1.34       2.37       1.47       -9999      8.85       0.1241488  0.1107785  -9999      0.1375192  0.1770736  0.5580789  2.013109   2.485      2.811      0.1527467  0.2780938  337.97     0.3376066  0.4875677  0.1876456 
900.8      0.238      6          6          268.734    8.32       3.59       3.0481     3.0117     2.9025     2.8906     2.9636     3.17       2.71       1.38       1.89       2.58       1.49       -9999      10.37      0.1260757  0.1203592  -9999      0.1317922  0.1723297  0.6058794  3.081136   2.469      2.964      0.1845704  0.2902116  337.08     0.2950538  0.4097861  0.1803215 
901        0.223      6          6          281.918    7.55       3.93       5.550599999999999 4.3881     3.9123     3.678999999999999 3.4131     3.86       5.76       4.45       2.8        2.73       1.54       -9999      12.21      0.1216567  0.07065865 -9999      0.1726547  0.1574335  0.5018046  7.139332   2.552      3.413      0.2127074  0.2922813  335.05     0.2282196  0.2907618  0.1656775 
901.2000000000001 0.222      6          6          293.414    6.87       4.83       5.424000000000001 4.4633     4.0882     4.0393     3.9756     4.66       5.82       1.33       1.83       2.83       1.61       -9999      13.78      0.1269963  0.05149694 -9999      0.2024956  0.1558021  0.6301403  14.99507   2.584      3.976      0.2940539  0.3521315  332.85     0.1837519  0.214751   0.1527527 
901.4      0.231      6          6          275.663    6.22       5.63       4.837100000000001 4.0031     4.5199     4.5665     4.4814     5.81       2.89       2.18       2.89       3.15       1.67       -9999      15.04      0.1210511  0.05508978 -9999      0.1870124  0.1450451  0.4890099  30.48039   2.578      4.481      0.304113   0.3509783  331.32     0.1530579  0.1607456  0.1453702 
901.6      0.219      6          6          251.206    5.29       6.43       14.8741    12.0583    8.3073     6.5889     6.1997     9.83       25.05      6.23       6.98       3.75       1.79       -9999      14.93      0.09164234 0.02754487 -9999      0.1557398  0.1110709  0.1395072  84.10088   2.624      6.2        0.2385543  0.2759688  330.44     0.1239343  0.1062072  0.1416613 
901.8      0.221      6          6          257.924    4.35       7.19       17.7672    14.2863    11.4415    9.750199999999998 8.415800000000001 11.77      33.76      1.89       3.9        4.22       1.91       -9999      13.82      0.1222527  0.07065865 -9999      0.1738466  0.1385586  0.5147232  234.5958   2.552      8.416      0.4867242  0.5158433  329.52     0.1040153  0.06986077 0.1381699 
902        0.22       6          6          257.453    4.21       7.69       34.551     16.7398    12.9848    10.1896    8.673699999999998 10.43      21.14      5.9        5.94       4.27       1.96       -9999      11.79      0.1284558  0.08263469 -9999      0.1742769  0.1441409  0.6706122  273.3217   2.532      8.674      0.5152972  0.5435225  328.42     0.1000548  0.06563551 0.1344741 
902.2000000000001 0.221      6          6          256.194    4.4        7.87       24.2888    17.1248    13.0488    10.5354    8.548899999999998 9.25       15.79      2.54       3.35       4.29       1.96       -9999      10.2       0.1355873  0.09940123 -9999      0.1717734  0.1514323  0.9090006  222.1377   2.504      8.549      0.5344175  0.5632131  327.12     0.101075   0.07143483 0.1307151 
902.4      0.216      6          6          268.629    4.62       7.52       42.77960000000001 25.2182    14.2158    10.6285    8.2966     8.59       16.49      2.45       3.14       4.26       1.95       -9999      8.5        0.154956   0.117964   -9999      0.191948   0.1710489  2.076441   174.7237   2.473      8.297      0.579672   0.6094422  325.35     0.1026565  0.07879291 0.12652   
902.6      0.211      1          3          281.523    4.51       7.27       21.7446    16.3986    12.1565    9.8887     8.0656     7.25       8.71       1.89       2.62       3.96       1.9        -9999      7.22       0.1859784  0.1592814  -9999      0.2126753  0.2014602  7.797015   197.0094   2.404      8.066      0.6366573  0.6663943  323.14     0.09875824 0.07502373 0.1224927 
