~Version
 VERS              .         2.0                           : CWLS LOG ASCII STANDARD - VERSION 2.0
 WRAP              .         NO                            : ONE LINE PER DEPTH STEP
 DLM               .         SPACE                         : DELIMITING CHARACTER(SPACE TAB OR COMMA)
~Well Information
#_______________________________________________________________________________
#
#PARAMETER_NAME    .UNIT     VALUE                         : DESCRIPTION
#_______________________________________________________________________________
STRT               .м        0                             : First reference value
STOP               .м        1190.8                        : Last reference value
STEP               .м        0.2                           : Step increment
NULL               .         -9999                         : Missing value
COMP               .                                       : Company
WELL               .         4535                          : Well name
FLD                .         УЗЕНЬ                         : Field
LOC                .                                       : Location
CNTY               .                                       : County
STAT               .                                       : State
CTRY               .                                       : Country
SRVC               .         AO "UPGF"                     : Service Company
DATE               .         17/7/2013                     : Date
UWI                .                                       : Unique Well ID
Block              .         7                             : 
Category           .         Нагнетательная                : 
Condition          .         В работе                      : 
Date               .         31.07.2013                    : 
EREF               .m        91.9                          : 100.8
GRP                .                                       : Group name
Gorizont           .         15                            : 14
ISS                .                                       : Well surveys
Interpretator      .         Ким С.В.                      : 
Kupol              .         основной                      : osnovnoi
Mud                .         0                             : 
Mud_density        .         0                             : 
Mud_resistivity    .         0                             : 
NGDU               .         НГДУ-2                        : 
ORIGINALWELLNAME   .         4535                          : 
Spud_date          .         2013                          : 1961
TIME               .         14_25                         : LOG TIME
Viscosity          .         0                             : 
X                  .m        42402.3                       : 46154
Y                  .m        84653.8                       : 85761.93
YEAR               .         2018                          : 
~Parameter Information Block
#_______________________________________________________________________________
#
#PARAMETER_NAME    .UNIT     VALUE                         : DESCRIPTION
#_______________________________________________________________________________
SET                .         LQC_KAZNIPI_Petrel            : 
TLFamily_CALI      .         Caliper                       : 
TLFamily_COLL      .         Net Reservoir Flag            : 
TLFamily_CSAT      .         Fluid Code                    : 
TLFamily_DEPT      .         Measured Depth                : 
TLFamily_DT        .         Compressional Slowness        : 
TLFamily_GR        .         Russian Gamma Ray             : 
TLFamily_GZ3       .         Gradient 225                  : 
TLFamily_IK1       .         Resistivity 05                : 
TLFamily_IK2       .         Resistivity 07                : 
TLFamily_IK3       .         Resistivity 10                : 
TLFamily_IK4       .         Resistivity 14                : 
TLFamily_IK5       .         Resistivity 20                : 
TLFamily_LLS       .         Lateral Log Resistivity       : 
TLFamily_MBK       .         Micro Lateral Log Resistivity : 
TLFamily_MINV      .         Micro Gradient Resistivity    : 
TLFamily_MNOR      .         Micro Resistivity             : 
TLFamily_NNKTB_1   .         Neutron Far                   : 
TLFamily_NNKTM_1   .         Neutron Near                  : 
TLFamily_NPHI      .         Neutron Porosity              : 
TLFamily_OGZ       .         Gradient Inverted 225         : 
TLFamily_PHIE      .         Effective Porosity            : 
TLFamily_PHIED     .         Effective Porosity            : 
TLFamily_PHIEN     .         Effective Porosity            : 
TLFamily_PHIES     .         Effective Porosity            : 
TLFamily_PHIT      .         Porosity                      : 
TLFamily_PRMB      .         Permeability                  : 
TLFamily_PRMB_DGR  .         Permeability                  : 
TLFamily_RHOB      .         Bulk Density                  : 
TLFamily_RT        .         Formation Resistivity         : 
TLFamily_SOIL_ARCHIE .         Oil Saturation                : 
TLFamily_SOIL_DW   .         Oil Saturation                : 
TLFamily_SP        .         Spontaneous Potential         : 
TLFamily_VSH_FIN   .         Shale Volume                  : 
TLFamily_VSH_GR    .         Shale Volume                  : 
TLFamily_VSH_SP    .         Shale Volume                  : 
~Curve Information
#_______________________________________________________________________________
#
#LOGNAME           .UNIT     LOG_ID                        : DESCRIPTION
#_______________________________________________________________________________
DEPT               .м                                      : Колонка глубины 
CALI               .м                                      : Каверномер 
COLL               .unitless                               : Описание 
CSAT               .unitless                               : Описание 
DT                 .мкс/м                                  : Интервальное время пробега продольной волны 
GR                 .uR/h                                   : Гамма каротаж 
GZ3                .Ohmm                                   : Градиент-зонд  длиной 2.25м 
IK1                .Ohmm                                   : И0.10И0.40 
IK2                .Ohmm                                   : И0.14И0.56 
IK3                .Ohmm                                   : И0.20И0.8 
IK4                .Ohmm                                   : И0.28И1.12 
IK5                .Ohmm                                   : И0.40И1.60 
LLS                .Ohmm                                   : Боковой каротаж 
MBK                .Ohmm                                   : Микробоковой каротаж 
MINV               .Ohmm                                   : Микро-градиент зонд 
MNOR               .Ohmm                                   : Микро-потенциал зонд 
NNKTB_1            .у.е.                                   : Показания большого зонда 2ННКт аппаратуры СРК 
NNKTM_1            .у.е.                                   : Показания малого зонда 2ННКт аппаратуры СРК 
NPHI               .v/v                                    : Neutron porosity index 
OGZ                .Ohmm                                   : N0.5M2.0A 
PHIE               .v/v                                    : Описание 
PHIED              .v/v                                    :  
PHIEN              .v/v                                    :  
PHIES              .v/v                                    :  
PHIT               .v/v                                    : Описание 
PRMB               .mD                                     :  
PRMB_DGR           .mD                                     :  
RHOB               .г/см3                                  : Плотность по ГГК-П 
RT                 .ohmm                                   : УЭС пласта 
SOIL_ARCHIE        .v/v                                    :  
SOIL_DW            .v/v                                    :  
SP                 .мВ                                     : Потенциал самополяризации 
VSH_FIN            .v/v                                    : Описание 
VSH_GR             .v/v                                    : Shale volume 
VSH_SP             .v/v                                    : Shale Volume 
~Ascii
# ...
1091.8     0.246      -9999      -9999      263.623    6.52       3.02       2.6838     2.615      2.5336     2.5257     2.6214     2.71       3.37       1.77       2.13       2.76       1.53       -9999      4.83       0.05530643 0.02581513 -9999      0.08479773 0.120931   0.0296188  10.32054   2.472      2.621      0          0          317.25     0.4186185  0.2501414  0.5870956 
1092       0.24       -9999      -9999      232.392    6.35       3.32       4.7757     4.3881     4.1557     3.4696     3.3654     3.75       8.41       8.76       5.26       3          1.6        -9999      5.08       0.01       -0.0235846 -9999      0.02775233 0.06707186 0.004289259 12.71689   2.556      3.365      0          0          317.59     0.4145575  0.2296988  0.5994163 
1092.2     0.23       -9999      -9999      219.047    5.6        3.89       8.055400000000001 6.4108     5.533099999999999 4.8311     4.171      5.08       7.98       4.96       4.89       3.18       1.69       -9999      4.81       0.04688704 0.08502987 -9999      0.008744218 0.1063838  0.0206833  31.94711   2.528      4.171      0          0          317.61     0.3795288  0.1576902  0.6013674 
1092.4     0.231      -9999      -9999      252.276    4.93       3.96       7.3741     5.4739     4.6073     4.3881     4.1142     4.24       5.28       3.7        2.64       3.04       1.71       -9999      4.11       0.08053151 0.07724558 -9999      0.08381744 0.136887   0.08685543 72.74619   2.541      4.114      0          0.1712393  317.72     0.3594909  0.1126873  0.6062944 
1092.6     0.238      -9999      -9999      267.515    5.32       3.62       4.288      3.805800000000001 3.5383     3.7013     3.6736     3.2        4.07       1.73       1.37       2.65       1.66       -9999      3.72       0.05430997 0.005885147 -9999      0.1027348  0.1141228  0.02838641 45.05923   2.519      3.674      0          0          318.27     0.3815453  0.1370311  0.6260595 
1092.8     0.239      -9999      -9999      265.28     6.03       3.89       5.736699999999999 5.119300000000001 4.4644     4.150900000000001 3.796800000000001 3.41       12.41      4.25       3.81       2.57       1.61       -9999      3.57       0.03161294 -0.02369898 -9999      0.08692487 0.09752928 0.01078218 18.83948   2.554      3.797      0          0          318.79     0.4204794  0.1956415  0.6453174 
1093       0.234      -9999      -9999      258.339    5.71       4.23       9.3927     6.984700000000001 6.097300000000001 4.987      4.284      3.84       5.56       4.36       2.94       2.65       1.63       -9999      3.4        0.04838483 0.01814458 -9999      0.07862508 0.1126578  0.02204766 27.90984   2.488      4.284      0          0          318.98     0.4099963  0.1666338  0.6533588 
1093.2     0.239      -9999      -9999      259.282    5.11       3.85       4.292      3.7892     3.767100000000001 3.5584     3.4968     2.77       3.72       1.3        1.93       2.49       1.62       -9999      3.04       0.0597271  0.03353675 -9999      0.08591744 0.1211592  0.03576422 58.31736   2.469      3.497      0          0          319.14     0.3918744  0.1233332  0.6604156 
1093.4     0.249      -9999      -9999      288.507    5.42       3.66       3.4676     3.0117     2.8389     2.8189     2.7858     2.25       3.24       1.14       1.59       2.26       1.53       -9999      2.81       0.09103973 0.05499586 -9999      0.1270836  0.1542358  0.1359674  39.8514    2.429      2.786      0          0.1073664  319.15     0.4031271  0.1440787  0.6621755 
1093.6     0.248      -9999      -9999      318.366    6.2        3.84       2.7178     2.7252     2.5779     2.6439     2.6465     2.18       2.89       0.71       1.23       2.13       1.47       -9999      2.49       0.1004102  0.04735714 -9999      0.1534633  0.1690111  0.2027676  15.28942   2.429      2.647      0          0.1664461  319.11     0.4376045  0.2130531  0.6621559 
1093.8     0.245      -9999      -9999      322.723    6.94       3.82       2.7199     2.6693     2.8175     2.7151     2.728      2.29       3.38       0.98       1.23       2.08       1.46       -9999      2.36       0.06653491 -0.01007163 -9999      0.1431414  0.1427224  0.04781299 6.161323   2.507      2.728      0          0          319.1      0.485999   0.3087905  0.6632077 
1094       0.244      -9999      -9999      296.575    6.88       3.66       3.2151     3.1555     3.1237     2.9582     2.9272     2.49       4.15       0.89       1.66       2.06       1.48       -9999      2.32       0.06457926 0.01633679 -9999      0.1128217  0.1402998  0.04398683 6.632511   2.464      2.927      0          0          319.15     0.4830205  0.2996371  0.6664038 
1094.2     0.256      -9999      -9999      294.295    6.97       4.04       2.8606     2.8061     2.6602     2.7956     3.0101     2.38       3.77       0.74       1.42       2.09       1.5        -9999      2.26       0.04540388 -0.01725185 -9999      0.1080596  0.1220113  0.01941548 5.938438   2.518      3.01       0          0          319.04     0.4886776  0.3134714  0.6638837 
1094.4     0.258      -9999      -9999      289.173    7.46       4.49       3.4188     3.0377     2.8672     2.7808     2.7505     2.26       3.69       0.93       1.33       2.09       1.48       -9999      2.28       0.0516252  0.01250451 -9999      0.09074589 0.1334468  0.02531524 3.253161   2.456      2.751      0          0          318.41     0.5219389  0.4007954  0.6430824 
1094.6     0.247      -9999      -9999      258.654    7.48       4.33       2.9385     2.8189     2.6291     2.5131     2.4958     2.09       2.53       0.52       0.97       2.01       1.47       -9999      2.17       0.03993545 0.03513378 -9999      0.04473712 0.121422   0.01537657 3.174224   2.419      2.496      0          0          318.13     0.5198019  0.4048357  0.634768  
1094.8     0.249      -9999      -9999      241.882    7.59       4.12       2.2608     2.1735     2.2198     2.1519     2.2198     1.82       2.18       0.46       0.92       1.87       1.45       -9999      2.06       0.02021916 0.02975044 -9999      0.01068788 0.1033963  0.006632327 2.773087   2.424      2.22       0          0          318.05     0.5305858  0.4277967  0.6333749 
1095       0.268      -9999      -9999      270.329    8.01       4.18       1.8506     1.8501     1.8494     1.8512     1.9381     1.67       1.36       0.51       0.88       1.84       1.41       -9999      2.06       0.04785034 0.04851521 -9999      0.04718546 0.1376636  0.02155075 1.655521   2.377      1.938      0          0          317.55     0.5729176  0.5280995  0.6177357 
1095.2     0.257      -9999      -9999      312.293    8.01       3.86       1.7084     1.7715     1.7958     1.7931     1.8046     1.63       1.4        0.94       1.16       1.92       1.37       -9999      2.19       0.06723429 0.02874165 -9999      0.1057269  0.1562095  0.04926066 1.655521   2.412      1.805      0          0          317.19     0.5675716  0.5280995  0.6070438 
1095.4     0.252      -9999      -9999      327.66     7.83       3.38       1.7581     1.8478     1.8818     1.8848     1.8324     1.67       1.5        0.88       1.25       2.06       1.38       -9999      2.21       0.07070632 0.01292477 -9999      0.1284879  0.1568912  0.05712296 2.06513    2.445      1.832      0          0          317.45     0.5497721  0.4825149  0.6170294 
1095.6     0.255      -9999      -9999      336.331    7.98       3.23       1.9247     1.9303     1.9031     1.8978     1.9223     1.7        1.83       0.81       1.19       2.14       1.4        -9999      2.2        0.06732105 0.003587366 -9999      0.1310547  0.1567231  0.04944327 1.717659   2.453      1.922      0          0          317.51     0.5702947  0.5202134  0.620376  
1095.8     0.251      -9999      -9999      356.245    8.29       3.09       1.8145     1.8274     1.7838     1.7997     1.819      1.67       1.62       0.8        0.97       2.14       1.39       -9999      2.29       0.05897142 -0.01962062 -9999      0.1375635  0.154626   0.03462994 1.173769   2.477      1.819      0          0          317.24     0.6101795  0.6077167  0.6126423 
