~Version
 VERS              .         2.0                           : CWLS LOG ASCII STANDARD - VERSION 2.0
 WRAP              .         NO                            : ONE LINE PER DEPTH STEP
 DLM               .         SPACE                         : DELIMITING CHARACTER(SPACE TAB OR COMMA)
~Well Information
#_______________________________________________________________________________
#
#PARAMETER_NAME    .UNIT     VALUE                         : DESCRIPTION
#_______________________________________________________________________________
STRT               .м        0                             : First reference value
STOP               .м        1190.8                        : Last reference value
STEP               .м        0.2                           : Step increment
NULL               .         -9999                         : Missing value
COMP               .                                       : Company
WELL               .         4535                          : Well name
FLD                .         УЗЕНЬ                         : Field
LOC                .                                       : Location
CNTY               .                                       : County
STAT               .                                       : State
CTRY               .                                       : Country
SRVC               .         AO "UPGF"                     : Service Company
DATE               .         17/7/2013                     : Date
UWI                .                                       : Unique Well ID
Block              .         7                             : 
Category           .         Нагнетательная                : 
Condition          .         В работе                      : 
Date               .         31.07.2013                    : 
EREF               .m        91.9                          : 100.8
GRP                .                                       : Group name
Gorizont           .         15                            : 14
ISS                .                                       : Well surveys
Interpretator      .         Ким С.В.                      : 
Kupol              .         основной                      : osnovnoi
Mud                .         0                             : 
Mud_density        .         0                             : 
Mud_resistivity    .         0                             : 
NGDU               .         НГДУ-2                        : 
ORIGINALWELLNAME   .         4535                          : 
Spud_date          .         2013                          : 1961
TIME               .         14_25                         : LOG TIME
Viscosity          .         0                             : 
X                  .m        42402.3                       : 46154
Y                  .m        84653.8                       : 85761.93
YEAR               .         2018                          : 
~Parameter Information Block
#_______________________________________________________________________________
#
#PARAMETER_NAME    .UNIT     VALUE                         : DESCRIPTION
#_______________________________________________________________________________
SET                .         LQC_KAZNIPI_Petrel            : 
TLFamily_CALI      .         Caliper                       : 
TLFamily_COLL      .         Net Reservoir Flag            : 
TLFamily_CSAT      .         Fluid Code                    : 
TLFamily_DEPT      .         Measured Depth                : 
TLFamily_DT        .         Compressional Slowness        : 
TLFamily_GR        .         Russian Gamma Ray             : 
TLFamily_GZ3       .         Gradient 225                  : 
TLFamily_IK1       .         Resistivity 05                : 
TLFamily_IK2       .         Resistivity 07                : 
TLFamily_IK3       .         Resistivity 10                : 
TLFamily_IK4       .         Resistivity 14                : 
TLFamily_IK5       .         Resistivity 20                : 
TLFamily_LLS       .         Lateral Log Resistivity       : 
TLFamily_MBK       .         Micro Lateral Log Resistivity : 
TLFamily_MINV      .         Micro Gradient Resistivity    : 
TLFamily_MNOR      .         Micro Resistivity             : 
TLFamily_NNKTB_1   .         Neutron Far                   : 
TLFamily_NNKTM_1   .         Neutron Near                  : 
TLFamily_NPHI      .         Neutron Porosity              : 
TLFamily_OGZ       .         Gradient Inverted 225         : 
TLFamily_PHIE      .         Effective Porosity            : 
TLFamily_PHIED     .         Effective Porosity            : 
TLFamily_PHIEN     .         Effective Porosity            : 
TLFamily_PHIES     .         Effective Porosity            : 
TLFamily_PHIT      .         Porosity                      : 
TLFamily_PRMB      .         Permeability                  : 
TLFamily_PRMB_DGR  .         Permeability                  : 
TLFamily_RHOB      .         Bulk Density                  : 
TLFamily_RT        .         Formation Resistivity         : 
TLFamily_SOIL_ARCHIE .         Oil Saturation                : 
TLFamily_SOIL_DW   .         Oil Saturation                : 
TLFamily_SP        .         Spontaneous Potential         : 
TLFamily_VSH_FIN   .         Shale Volume                  : 
TLFamily_VSH_GR    .         Shale Volume                  : 
TLFamily_VSH_SP    .         Shale Volume                  : 
~Curve Information
#_______________________________________________________________________________
#
#LOGNAME           .UNIT     LOG_ID                        : DESCRIPTION
#_______________________________________________________________________________
DEPT               .м                                      : Колонка глубины 
CALI               .м                                      : Каверномер 
COLL               .unitless                               : Описание 
CSAT               .unitless                               : Описание 
DT                 .мкс/м                                  : Интервальное время пробега продольной волны 
GR                 .uR/h                                   : Гамма каротаж 
GZ3                .Ohmm                                   : Градиент-зонд  длиной 2.25м 
IK1                .Ohmm                                   : И0.10И0.40 
IK2                .Ohmm                                   : И0.14И0.56 
IK3                .Ohmm                                   : И0.20И0.8 
IK4                .Ohmm                                   : И0.28И1.12 
IK5                .Ohmm                                   : И0.40И1.60 
LLS                .Ohmm                                   : Боковой каротаж 
MBK                .Ohmm                                   : Микробоковой каротаж 
MINV               .Ohmm                                   : Микро-градиент зонд 
MNOR               .Ohmm                                   : Микро-потенциал зонд 
NNKTB_1            .у.е.                                   : Показания большого зонда 2ННКт аппаратуры СРК 
NNKTM_1            .у.е.                                   : Показания малого зонда 2ННКт аппаратуры СРК 
NPHI               .v/v                                    : Neutron porosity index 
OGZ                .Ohmm                                   : N0.5M2.0A 
PHIE               .v/v                                    : Описание 
PHIED              .v/v                                    :  
PHIEN              .v/v                                    :  
PHIES              .v/v                                    :  
PHIT               .v/v                                    : Описание 
PRMB               .mD                                     :  
PRMB_DGR           .mD                                     :  
RHOB               .г/см3                                  : Плотность по ГГК-П 
RT                 .ohmm                                   : УЭС пласта 
SOIL_ARCHIE        .v/v                                    :  
SOIL_DW            .v/v                                    :  
SP                 .мВ                                     : Потенциал самополяризации 
VSH_FIN            .v/v                                    : Описание 
VSH_GR             .v/v                                    : Shale volume 
VSH_SP             .v/v                                    : Shale Volume 
~Ascii
# ...
1138       0.209      1          2          271.843    8.14       3.87       5.4015     3.0738     2.4159     2.149      2.0504     2.39       5.59       1.16       1.81       2.36       1.54       0.258      3.48       0.1992082  0.1934132  0.2154597  0.1887518  0.2268607  13.70812   10.34672   2.347      2.05       0.3491368  0.3996246  280.86     0.12891    0.2498828  0.1289101 
1138.2     0.209      1          2          275.088    8.68       3.6        3.8403     2.5185     2.0759     1.9989     1.9816     2.12       3.94       1.12       1.69       2.25       1.52       0.273      3.56       0.2005152  0.1796408  0.2292951  0.1926096  0.2289246  14.49391   4.274621   2.37       1.982      0.3425072  0.3942668  282.2      0.132439   0.358507   0.1324393 
1138.4     0.21       8          2          283.302    8.85       3.16       3.517500000000001 2.4391     2.0491     2.0274     2.0332     2.02       3.58       1.07       1.56       2.11       1.52       0.294      3.86       0.2118402  0.1856288  0.2476951  0.2021968  0.2419398  23.49379   3.236223   2.36       2.033      0.3806569  0.4340016  284.56     0.140318   0.4016506  0.1403183 
1138.6     0.211      8          2          287.202    8.96       3.17       3.3516     2.5605     2.2034     2.1222     2.1975     2.14       3.79       1.09       1.56       2.05       1.51       0.303      4.27       0.2152302  0.1844312  0.2550972  0.2061621  0.2463684  27.14832   2.702937   2.362      2.198      0.4111253  0.4649286  285.74     0.14516    0.432296   0.1451604 
1138.8     0.209      8          2          280.673    9          3.52       3.571400000000001 2.8231     2.4398     2.4669     2.5705     2.48       3.78       1.1        1.63       2.09       1.5        0.297      4.86       0.2144602  0.1958084  0.2499067  0.1976654  0.2450722  26.27124   2.53162    2.343      2.571      0.4511752  0.5030048  285.17     0.142707   0.4440104  0.142707  
1139       0.207      8          2          346.57     8.51       3.86       4.8514     4.0031     3.5234     3.0617     3.1412     3.18       5.65       1.28       1.89       2.17       1.49       0.285      5.46       0.2748914  0.3077845  0.2398646  0.2770253  0.3042308  345.7916   5.646204   2.156      3.141      0.5975403  0.6427161  283.6      0.136774   0.3199977  0.1367744 
1139.2     0.208      1          2          339.477    7.66       4          7.679500000000001 5.246100000000001 4.2056     3.727      3.741000000000001 4.17       6.58       1.52       2.09       2.15       1.5        0.288      5.61       0.2836335  0.333533   0.2451079  0.2722597  0.3115147  502.041    22.70138   2.113      3.741      0.6392102  0.6813206  281.32     0.129976   0.1812979  0.129976  
1139.4     0.208      1          2          329.122    7.01       4.65       8.836499999999997 5.7723     4.5113     4.0466     4.307999999999999 4.46       6.67       1.35       1.91       2.05       1.49       0.303      5.72       0.2769777  0.3065868  0.2614315  0.2629148  0.3039985  377.9701   65.79001   2.158      4.308      0.6552724  0.6957779  279.57     0.125965   0.1174083  0.125965  
1139.6     0.209      1          2          334.92     6.53       4.95       8.3613     6.296100000000001 4.9437     4.484500000000001 4.3402     4.81       8.3        1.39       1.97       2.08       1.47       0.299      5.91       0.2789212  0.3095808  0.2578516  0.2693313  0.3056689  410.6353   144.3474   2.153      4.34       0.6585533  0.6987535  278.92     0.124692   0.08518349 0.1246921 
1139.8     0.209      1          2          343.904    6.25       5.01       9.188999999999998 7.822799999999999 6.1176     5.377700000000001 4.9437     5.15       8.71       1.42       2.04       2.1        1.45       0.296      5.71       0.2770732  0.2982036  0.2548054  0.2782105  0.3038509  379.5125   228.2818   2.172      4.944      0.6769406  0.7159822  279        0.124832   0.07064342 0.1248316 
1140       0.209      1          2          305.461    6.58       5.3        10.3551    9.2752     7.5756     6.2679     5.2474     5.2        8.39       1.37       2.07       2.17       1.46       0.285      5.31       0.2390985  0.2371258  0.243815   0.2363547  0.26587    75.13498   133.0034   2.274      5.247      0.6427959  0.68304    278.99     0.124803   0.08807857 0.1248029 
1140.2     0.21       1          2          313.034    7.44       5.36       11.8182    9.124599999999999 7.3206     6.0891     5.162399999999999 4.68       8.51       1.3        1.97       2.29       1.47       0.267      4.97       0.2367076  0.2389222  0.2257998  0.2454007  0.2634889  67.851     32.54303   2.271      5.162      0.6368831  0.6774077  279.02     0.124849   0.1565046  0.1248492 
1140.4     0.21       1          2          313.841    7.88       4.82       8.4049     6.289000000000001 5.8364     5.0935     4.6028     3.88       6.33       1.24       1.91       2.28       1.49       0.269      4.67       0.2405961  0.2491018  0.2270544  0.2456321  0.267862   80.09061   15.83602   2.254      4.603      0.6222176  0.6639339  280.14     0.127108   0.210019   0.1271084 
1140.6     0.21       1          2          310.563    7.69       4.57       7.232599999999999 5.4454     4.8851     4.476000000000001 4.1068     3.58       7.59       1.22       1.89       2.18       1.51       0.283      4.07       0.2361998  0.2275449  0.2401393  0.2409152  0.2640606  66.39744   21.61344   2.29       4.107      0.5950015  0.6384556  281.32     0.129881   0.1849702  0.129881  
1140.8     0.211      1          2          314.345    7.83       4.42       7.401099999999999 5.3058     4.5852     4.314899999999999 3.8915     3.51       8.14       1.35       1.93       2.1        1.5        0.296      3.69       0.2355072  0.2107784  0.2517325  0.2440106  0.2642823  64.46471   17.18672   2.318      3.892      0.5835888  0.6283152  282.84     0.134144   0.2031158  0.134144  
1141       0.21       8          2          318.893    8.73       4          6.097300000000001 4.0576     3.4851     3.531400000000001 3.461800000000001 2.84       5.01       1.15       1.78       2.14       1.49       0.289      3.5        0.2344016  0.2155689  0.2415031  0.2461327  0.265276   61.49557   3.938687   2.31       3.462      0.5582644  0.6059618  285.52     0.14393    0.3706912  0.1439302 
1141.2     0.211      8          2          316.522    9.26       3.82       5.290799999999999 3.8597     3.2544     3.1479     3.1015     2.63       4.64       1.2        1.77       2.21       1.5        0.279      3.2        0.2182825  0.1874251  0.2276438  0.2397787  0.2516656  30.92288   1.654074   2.357      3.102      0.5051337  0.5577201  287.92     0.155625   0.5282881  0.1556255 
1141.4     0.212      8          2          313.374    9.27       4.2        5.0487     3.7465     3.0553     2.7232     2.8047     2.51       4.84       1.28       1.86       2.25       1.5        0.273      3.26       0.201597   0.1622755  0.2138102  0.2287054  0.2400722  15.17834   1.627217   2.399      2.805      0.4439971  0.5056812  291.5      0.179363   0.5318313  0.1793633 
1141.6     0.215      8          2          312.837    9.27       4.22       3.257      2.274      2.3559     2.3733     2.5854     2.14       3.31       1.2        1.55       2.19       1.51       0.282      3.49       0.1892438  0.145509   0.20811    0.2141123  0.2372744  8.962139   1.627217   2.427      2.585      0.389562   0.467545   296.15     0.223909   0.5318313  0.2239094 
1141.8     0.22       -9999      -9999      305.862    9.23       3.77       2.732      2.3471     2.2049     2.2147     2.4693     2.07       3.37       1.06       1.43       2.17       1.51       0.285      3.65       0.1759624  0.1562875  0.1878889  0.1837109  0.2390875  5.086388   1.737335   2.409      2.469      0.3354589  0.440841   301.23     0.294276   0.5177996  0.2942765 
1142       0.219      -9999      -9999      290.869    9.03       4.05       3.5323     3.0545     2.8737     2.7998     2.8737     2.39       3.45       1.17       1.65       2.32       1.52       0.263      4.11       0.1397926  0.1239521  0.147995   0.1474308  0.2145493  1.087568   2.410296   2.463      2.874      0.2438536  0.392827   304.24     0.3485     0.453004   0.3485004 
