~Version
 VERS              .         2.0                           : CWLS LOG ASCII STANDARD - VERSION 2.0
 WRAP              .         NO                            : ONE LINE PER DEPTH STEP
 DLM               .         SPACE                         : DELIMITING CHARACTER(SPACE TAB OR COMMA)
~Well Information
#_______________________________________________________________________________
#
#PARAMETER_NAME    .UNIT     VALUE                         : DESCRIPTION
#_______________________________________________________________________________
STRT               .м        0                             : First reference value
STOP               .м        1190.8                        : Last reference value
STEP               .м        0.2                           : Step increment
NULL               .         -9999                         : Missing value
COMP               .                                       : Company
WELL               .         4535                          : Well name
FLD                .         УЗЕНЬ                         : Field
LOC                .                                       : Location
CNTY               .                                       : County
STAT               .                                       : State
CTRY               .                                       : Country
SRVC               .         AO "UPGF"                     : Service Company
DATE               .         17/7/2013                     : Date
UWI                .                                       : Unique Well ID
Block              .         7                             : 
Category           .         Нагнетательная                : 
Condition          .         В работе                      : 
Date               .         31.07.2013                    : 
EREF               .m        91.9                          : 100.8
GRP                .                                       : Group name
Gorizont           .         15                            : 14
ISS                .                                       : Well surveys
Interpretator      .         Ким С.В.                      : 
Kupol              .         основной                      : osnovnoi
Mud                .         0                             : 
Mud_density        .         0                             : 
Mud_resistivity    .         0                             : 
NGDU               .         НГДУ-2                        : 
ORIGINALWELLNAME   .         4535                          : 
Spud_date          .         2013                          : 1961
TIME               .         14_25                         : LOG TIME
Viscosity          .         0                             : 
X                  .m        42402.3                       : 46154
Y                  .m        84653.8                       : 85761.93
YEAR               .         2018                          : 
~Parameter Information Block
#_______________________________________________________________________________
#
#PARAMETER_NAME    .UNIT     VALUE                         : DESCRIPTION
#_______________________________________________________________________________
SET                .         LQC_KAZNIPI_Petrel            : 
TLFamily_CALI      .         Caliper                       : 
TLFamily_COLL      .         Net Reservoir Flag            : 
TLFamily_CSAT      .         Fluid Code                    : 
TLFamily_DEPT      .         Measured Depth                : 
TLFamily_DT        .         Compressional Slowness        : 
TLFamily_GR        .         Russian Gamma Ray             : 
TLFamily_GZ3       .         Gradient 225                  : 
TLFamily_IK1       .         Resistivity 05                : 
TLFamily_IK2       .         Resistivity 07                : 
TLFamily_IK3       .         Resistivity 10                : 
TLFamily_IK4       .         Resistivity 14                : 
TLFamily_IK5       .         Resistivity 20                : 
TLFamily_LLS       .         Lateral Log Resistivity       : 
TLFamily_MBK       .         Micro Lateral Log Resistivity : 
TLFamily_MINV      .         Micro Gradient Resistivity    : 
TLFamily_MNOR      .         Micro Resistivity             : 
TLFamily_NNKTB_1   .         Neutron Far                   : 
TLFamily_NNKTM_1   .         Neutron Near                  : 
TLFamily_NPHI      .         Neutron Porosity              : 
TLFamily_OGZ       .         Gradient Inverted 225         : 
TLFamily_PHIE      .         Effective Porosity            : 
TLFamily_PHIED     .         Effective Porosity            : 
TLFamily_PHIEN     .         Effective Porosity            : 
TLFamily_PHIES     .         Effective Porosity            : 
TLFamily_PHIT      .         Porosity                      : 
TLFamily_PRMB      .         Permeability                  : 
TLFamily_PRMB_DGR  .         Permeability                  : 
TLFamily_RHOB      .         Bulk Density                  : 
TLFamily_RT        .         Formation Resistivity         : 
TLFamily_SOIL_ARCHIE .         Oil Saturation                : 
TLFamily_SOIL_DW   .         Oil Saturation                : 
TLFamily_SP        .         Spontaneous Potential         : 
TLFamily_VSH_FIN   .         Shale Volume                  : 
TLFamily_VSH_GR    .         Shale Volume                  : 
TLFamily_VSH_SP    .         Shale Volume                  : 
~Curve Information
#_______________________________________________________________________________
#
#LOGNAME           .UNIT     LOG_ID                        : DESCRIPTION
#_______________________________________________________________________________
DEPT               .м                                      : Колонка глубины 
CALI               .м                                      : Каверномер 
COLL               .unitless                               : Описание 
CSAT               .unitless                               : Описание 
DT                 .мкс/м                                  : Интервальное время пробега продольной волны 
GR                 .uR/h                                   : Гамма каротаж 
GZ3                .Ohmm                                   : Градиент-зонд  длиной 2.25м 
IK1                .Ohmm                                   : И0.10И0.40 
IK2                .Ohmm                                   : И0.14И0.56 
IK3                .Ohmm                                   : И0.20И0.8 
IK4                .Ohmm                                   : И0.28И1.12 
IK5                .Ohmm                                   : И0.40И1.60 
LLS                .Ohmm                                   : Боковой каротаж 
MBK                .Ohmm                                   : Микробоковой каротаж 
MINV               .Ohmm                                   : Микро-градиент зонд 
MNOR               .Ohmm                                   : Микро-потенциал зонд 
NNKTB_1            .у.е.                                   : Показания большого зонда 2ННКт аппаратуры СРК 
NNKTM_1            .у.е.                                   : Показания малого зонда 2ННКт аппаратуры СРК 
NPHI               .v/v                                    : Neutron porosity index 
OGZ                .Ohmm                                   : N0.5M2.0A 
PHIE               .v/v                                    : Описание 
PHIED              .v/v                                    :  
PHIEN              .v/v                                    :  
PHIES              .v/v                                    :  
PHIT               .v/v                                    : Описание 
PRMB               .mD                                     :  
PRMB_DGR           .mD                                     :  
RHOB               .г/см3                                  : Плотность по ГГК-П 
RT                 .ohmm                                   : УЭС пласта 
SOIL_ARCHIE        .v/v                                    :  
SOIL_DW            .v/v                                    :  
SP                 .мВ                                     : Потенциал самополяризации 
VSH_FIN            .v/v                                    : Описание 
VSH_GR             .v/v                                    : Shale volume 
VSH_SP             .v/v                                    : Shale Volume 
~Ascii
# ...
856.6      0.227      -9999      -9999      382.326    7.9        3.2        2666.030000000001 2665.620099999999 2666.030000000001 2665.620099999999 2666.030000000001 2.19       -9999      -9999      -9999      1.74       1.32       -9999      4.04       -9999      -9999      -9999      -9999      -9999      -9999      -9999      -9999      2666.03    -9999      -9999      344.54     -9999      0.2128455  0.8       
856.8      0.225      -9999      -9999      379.629    8.13       3.12       2666.030000000001 2665.620099999999 2666.030000000001 2665.620099999999 2666.030000000001 2.21       -9999      -9999      -9999      1.73       1.32       -9999      4.24       -9999      -9999      -9999      -9999      -9999      -9999      -9999      -9999      2666.03    -9999      -9999      344.53     -9999      0.248218   0.8       
857        0.224      -9999      -9999      371.919    8.23       3.12       1.9138     2665.620100000002 2666.030000000001 2665.620099999999 2666.030000000001 2.22       -9999      -9999      -9999      1.8        1.33       -9999      4.61       -9999      -9999      -9999      -9999      -9999      -9999      -9999      -9999      2666.03    -9999      -9999      344.58     -9999      0.2653768  0.8       
857.2000000000001 0.224      -9999      -9999      365.909    8.25       3.1        1.9369     2.2147     2666.030000000001 2665.620099999999 2666.030000000001 2.2        -9999      -9999      -9999      1.74       1.34       -9999      4.84       -9999      -9999      -9999      -9999      -9999      -9999      -9999      -9999      2666.03    -9999      -9999      344.7      -9999      0.2689485  0.8       
857.4      0.23       -9999      -9999      369.336    8.39       3.16       1.9175     2.1292     2.2348     2665.620099999999 2666.030000000001 2.17       -9999      -9999      -9999      1.75       1.33       -9999      5.02       -9999      -9999      -9999      -9999      -9999      -9999      -9999      -9999      2666.03    -9999      -9999      344.88     -9999      0.2953323  0.8       
857.6      0.232      -9999      -9999      376.336    8.38       3.07       1.9442     2.1519     2.2546     2.3277     2666.030000000001 2.17       -9999      -9999      -9999      1.83       1.32       -9999      5.22       -9999      -9999      -9999      -9999      -9999      -9999      -9999      -9999      2666.03    -9999      -9999      344.98     -9999      0.2933648  0.8       
857.8      0.222      -9999      -9999      381.556    8.1        2.96       1.9816     2.2222     2.314      2.3439     2666.030000000001 2.16       -9999      -9999      -9999      1.79       1.32       -9999      5.53       -9999      -9999      -9999      -9999      -9999      -9999      -9999      2.294      2666.03    -9999      -9999      345.04     -9999      0.2432901  0.8       
858        0.223      -9999      -9999      383.247    8.09       2.98       1.9151     2.1692     2.2531     2.2725     2.314      2.14       -9999      -9999      -9999      1.67       1.32       -9999      6          -9999      -9999      -9999      -9999      -9999      -9999      -9999      2.277      2.314      -9999      -9999      344.96     -9999      0.2416692  0.8       
858.2000000000001 0.225      -9999      -9999      383.06     8.22       2.93       1.7925     2.0157     2.1368     2.1881     2.2546     2.18       -9999      -9999      -9999      1.72       1.34       -9999      6.27       -9999      -9999      -9999      -9999      -9999      -9999      -9999      2.275      2.255      -9999      -9999      344.73     -9999      0.263609   0.8       
858.4      0.223      -9999      -9999      371.112    8.45       2.71       1.8201     2.0794     2.1887     2.3101     2.3923     2.39       -9999      -9999      -9999      2.01       1.36       -9999      6.650001   -9999      -9999      -9999      -9999      -9999      -9999      -9999      2.296      2.392      -9999      -9999      344.46     -9999      0.3074176  0.8       
858.6      0.229      -9999      -9999      324.358    8.35       2.55       2.1828     2.9697     2.9659     2.8425     2.9362     2.84       -9999      -9999      -9999      2.25       1.39       -9999      7.07       -9999      -9999      -9999      -9999      -9999      -9999      -9999      2.332      2.936      -9999      -9999      344.15     -9999      0.2875405  0.8       
858.8      0.224      -9999      -9999      294.902    8.14       2.79       3.4131     3.6822     3.5745     3.4179     3.2944     3.64       -9999      -9999      -9999      2.36       1.43       -9999      7.64       -9999      -9999      -9999      -9999      -9999      -9999      -9999      2.397      3.294      -9999      -9999      343.65     -9999      0.2498828  0.8       
859        0.226      -9999      -9999      287.361    8.25       3.32       4.4058     4.263100000000001 4.1557     4.1547     4.190099999999999 4.36       -9999      -9999      -9999      2.46       1.48       -9999      8.11       -9999      -9999      -9999      -9999      -9999      -9999      -9999      2.388      4.19       -9999      -9999      343        -9999      0.2689485  0.8       
859.2000000000001 0.227      -9999      -9999      317.874    7.96       3.66       6.4783     6.338699999999999 5.063999999999999 4.8216     4.6028     4.97       -9999      -9999      -9999      2.67       1.53       -9999      8.379999   -9999      -9999      -9999      -9999      -9999      -9999      -9999      2.408      4.603      -9999      -9999      342.3      -9999      0.2215555  0.8       
859.4      0.223      -9999      -9999      320.809    7.17       3.83       8.919700000000001 7.222199999999999 6.037099999999999 5.4682     4.9437     4.83       -9999      -9999      -9999      2.77       1.55       -9999      8.1        -9999      -9999      -9999      -9999      -9999      -9999      -9999      2.319      4.944      -9999      -9999      341.78     -9999      0.1306612  0.8       
859.6      0.219      -9999      -9999      304.048    6.44       4.01       8.328799999999999 6.4108     5.645499999999999 5.0729     4.7155     3.91       -9999      -9999      -9999      2.59       1.56       -9999      7.389999   -9999      -9999      -9999      -9999      -9999      -9999      -9999      2.326      4.716      -9999      -9999      340.91     -9999      0.08020999 0.8       
859.8      0.217      -9999      -9999      297.453    6.43       4.21       6.419700000000001 5.3945     4.7247     4.4633     4.3281     3.48       -9999      -9999      -9999      2.47       1.56       -9999      6.75       -9999      -9999      -9999      -9999      -9999      -9999      -9999      2.353      4.328      -9999      -9999      340.18     -9999      0.07967561 0.8       
860        0.216      -9999      -9999      292.705    6.48       4.08       5.329100000000001 4.8216     4.443299999999999 4.2869     4.0771     3.46       -9999      -9999      -9999      2.48       1.55       -9999      6.3        -9999      -9999      -9999      -9999      -9999      -9999      -9999      2.361      4.077      -9999      -9999      339.67     -9999      0.08238354 0.8       
860.2000000000001 0.216      -9999      -9999      292.783    6.29       4.01       5.345700000000001 4.7051     4.6028     4.476000000000001 4.2211     3.6        -9999      -9999      -9999      2.55       1.55       -9999      5.95       -9999      -9999      -9999      -9999      -9999      -9999      -9999      2.421      4.221      -9999      -9999      339.63     -9999      0.07255773 0.8       
860.4      0.216      -9999      -9999      276.803    6.47       4.26       7.3921     5.417      4.919099999999999 4.7051     4.2367     3.7        -9999      -9999      -9999      2.6        1.56       -9999      5.68       -9999      -9999      -9999      -9999      -9999      -9999      -9999      2.393      4.237      -9999      -9999      339.83     -9999      0.08183467 0.8       
860.6      0.214      -9999      -9999      302.47     7.08       4.42       5.481000000000001 4.275      3.9437     4.0723     4.2133     3.35       -9999      -9999      -9999      2.56       1.56       -9999      5.23       -9999      -9999      -9999      -9999      -9999      -9999      -9999      2.383      4.213      -9999      -9999      340.59     -9999      0.1230324  0.8       
