~Version
 VERS              .         2.0                           : CWLS LOG ASCII STANDARD - VERSION 2.0
 WRAP              .         NO                            : ONE LINE PER DEPTH STEP
 DLM               .         SPACE                         : DELIMITING CHARACTER(SPACE TAB OR COMMA)
~Well Information
#_______________________________________________________________________________
#
#PARAMETER_NAME    .UNIT     VALUE                         : DESCRIPTION
#_______________________________________________________________________________
STRT               .м        0                             : First reference value
STOP               .м        1190.8                        : Last reference value
STEP               .м        0.2                           : Step increment
NULL               .         -9999                         : Missing value
COMP               .                                       : Company
WELL               .         4535                          : Well name
FLD                .         УЗЕНЬ                         : Field
LOC                .                                       : Location
CNTY               .                                       : County
STAT               .                                       : State
CTRY               .                                       : Country
SRVC               .         AO "UPGF"                     : Service Company
DATE               .         17/7/2013                     : Date
UWI                .                                       : Unique Well ID
Block              .         7                             : 
Category           .         Нагнетательная                : 
Condition          .         В работе                      : 
Date               .         31.07.2013                    : 
EREF               .m        91.9                          : 100.8
GRP                .                                       : Group name
Gorizont           .         15                            : 14
ISS                .                                       : Well surveys
Interpretator      .         Ким С.В.                      : 
Kupol              .         основной                      : osnovnoi
Mud                .         0                             : 
Mud_density        .         0                             : 
Mud_resistivity    .         0                             : 
NGDU               .         НГДУ-2                        : 
ORIGINALWELLNAME   .         4535                          : 
Spud_date          .         2013                          : 1961
TIME               .         14_25                         : LOG TIME
Viscosity          .         0                             : 
X                  .m        42402.3                       : 46154
Y                  .m        84653.8                       : 85761.93
YEAR               .         2018                          : 
~Parameter Information Block
#_______________________________________________________________________________
#
#PARAMETER_NAME    .UNIT     VALUE                         : DESCRIPTION
#_______________________________________________________________________________
SET                .         LQC_KAZNIPI_Petrel            : 
TLFamily_CALI      .         Caliper                       : 
TLFamily_COLL      .         Net Reservoir Flag            : 
TLFamily_CSAT      .         Fluid Code                    : 
TLFamily_DEPT      .         Measured Depth                : 
TLFamily_DT        .         Compressional Slowness        : 
TLFamily_GR        .         Russian Gamma Ray             : 
TLFamily_GZ3       .         Gradient 225                  : 
TLFamily_IK1       .         Resistivity 05                : 
TLFamily_IK2       .         Resistivity 07                : 
TLFamily_IK3       .         Resistivity 10                : 
TLFamily_IK4       .         Resistivity 14                : 
TLFamily_IK5       .         Resistivity 20                : 
TLFamily_LLS       .         Lateral Log Resistivity       : 
TLFamily_MBK       .         Micro Lateral Log Resistivity : 
TLFamily_MINV      .         Micro Gradient Resistivity    : 
TLFamily_MNOR      .         Micro Resistivity             : 
TLFamily_NNKTB_1   .         Neutron Far                   : 
TLFamily_NNKTM_1   .         Neutron Near                  : 
TLFamily_NPHI      .         Neutron Porosity              : 
TLFamily_OGZ       .         Gradient Inverted 225         : 
TLFamily_PHIE      .         Effective Porosity            : 
TLFamily_PHIED     .         Effective Porosity            : 
TLFamily_PHIEN     .         Effective Porosity            : 
TLFamily_PHIES     .         Effective Porosity            : 
TLFamily_PHIT      .         Porosity                      : 
TLFamily_PRMB      .         Permeability                  : 
TLFamily_PRMB_DGR  .         Permeability                  : 
TLFamily_RHOB      .         Bulk Density                  : 
TLFamily_RT        .         Formation Resistivity         : 
TLFamily_SOIL_ARCHIE .         Oil Saturation                : 
TLFamily_SOIL_DW   .         Oil Saturation                : 
TLFamily_SP        .         Spontaneous Potential         : 
TLFamily_VSH_FIN   .         Shale Volume                  : 
TLFamily_VSH_GR    .         Shale Volume                  : 
TLFamily_VSH_SP    .         Shale Volume                  : 
~Curve Information
#_______________________________________________________________________________
#
#LOGNAME           .UNIT     LOG_ID                        : DESCRIPTION
#_______________________________________________________________________________
DEPT               .м                                      : Колонка глубины 
CALI               .м                                      : Каверномер 
COLL               .unitless                               : Описание 
CSAT               .unitless                               : Описание 
DT                 .мкс/м                                  : Интервальное время пробега продольной волны 
GR                 .uR/h                                   : Гамма каротаж 
GZ3                .Ohmm                                   : Градиент-зонд  длиной 2.25м 
IK1                .Ohmm                                   : И0.10И0.40 
IK2                .Ohmm                                   : И0.14И0.56 
IK3                .Ohmm                                   : И0.20И0.8 
IK4                .Ohmm                                   : И0.28И1.12 
IK5                .Ohmm                                   : И0.40И1.60 
LLS                .Ohmm                                   : Боковой каротаж 
MBK                .Ohmm                                   : Микробоковой каротаж 
MINV               .Ohmm                                   : Микро-градиент зонд 
MNOR               .Ohmm                                   : Микро-потенциал зонд 
NNKTB_1            .у.е.                                   : Показания большого зонда 2ННКт аппаратуры СРК 
NNKTM_1            .у.е.                                   : Показания малого зонда 2ННКт аппаратуры СРК 
NPHI               .v/v                                    : Neutron porosity index 
OGZ                .Ohmm                                   : N0.5M2.0A 
PHIE               .v/v                                    : Описание 
PHIED              .v/v                                    :  
PHIEN              .v/v                                    :  
PHIES              .v/v                                    :  
PHIT               .v/v                                    : Описание 
PRMB               .mD                                     :  
PRMB_DGR           .mD                                     :  
RHOB               .г/см3                                  : Плотность по ГГК-П 
RT                 .ohmm                                   : УЭС пласта 
SOIL_ARCHIE        .v/v                                    :  
SOIL_DW            .v/v                                    :  
SP                 .мВ                                     : Потенциал самополяризации 
VSH_FIN            .v/v                                    : Описание 
VSH_GR             .v/v                                    : Shale volume 
VSH_SP             .v/v                                    : Shale Volume 
~Ascii
# ...
877.6      0.225      -9999      -9999      364.138    8.87       3.74       2.9728     2.9952     2.7963     2.7212     2.6407     2.23       2.39       1.62       1.48       1.79       1.39       -9999      2.47       -9999      -9999      -9999      -9999      -9999      -9999      -9999      2.341      2.641      -9999      -9999      341.09     -9999      0.4070561  0.8       
877.8      0.226      -9999      -9999      356.699    8.3        3.94       2.9003     2.758      2.6957     2.6497     2.6504     2.11       2.39       1.25       1.44       1.71       1.39       -9999      2.35       -9999      -9999      -9999      -9999      -9999      -9999      -9999      2.302      2.65       -9999      -9999      341.64     -9999      0.2780892  0.8       
878        0.225      -9999      -9999      355.389    8.39       3.94       2.3608     2.4757     2.3823     2.3309     2.399      1.87       2.15       1.23       1.33       1.79       1.38       -9999      2.2        -9999      -9999      -9999      -9999      -9999      -9999      -9999      2.329      2.399      -9999      -9999      341.9      -9999      0.2953323  0.8       
878.2000000000001 0.231      -9999      -9999      359.175    8.17       3.6        2.1741     2.2818     2.2824     2.2943     2.3044     1.77       2.13       1.09       1.2        1.93       1.37       -9999      2.06       -9999      -9999      -9999      -9999      -9999      -9999      -9999      2.287      2.304      -9999      -9999      341.91     -9999      0.2549443  0.8       
878.4      0.229      -9999      -9999      349.746    8.14       3.24       2.2715     2.4067     2.3806     2.339      2.4346     1.77       2.16       0.98       1.21       1.98       1.37       -9999      1.68       -9999      -9999      -9999      -9999      -9999      -9999      -9999      2.297      2.435      -9999      -9999      341.37     -9999      0.2498828  0.8       
878.6      0.221      -9999      -9999      334.517    7.75       3.09       2.6062     2.6693     2.5246     2.4254     2.5373     1.84       2.51       1.1        1.29       2.05       1.41       -9999      1.43       -9999      -9999      -9999      -9999      -9999      -9999      -9999      2.222      2.537      -9999      -9999      340.4      -9999      0.1925395  0.8       
878.8      0.217      -9999      -9999      314.699    7.07       2.88       3.077      2.7683     2.4958     2.3816     2.2379     1.88       2.91       1.22       1.47       2.14       1.45       -9999      1.4        -9999      -9999      -9999      -9999      -9999      -9999      -9999      2.251      2.238      -9999      -9999      338.03     -9999      0.1222128  0.8       
879        0.214      -9999      -9999      275.56     6.57       2.57       3.3571     2.9536     2.369      2.2088     2.1368     1.9        2.6        1.21       1.52       2.13       1.47       -9999      1.45       -9999      -9999      -9999      -9999      -9999      -9999      -9999      2.174      2.137      -9999      -9999      335.25     -9999      0.0874918  0.8       
879.2000000000001 0.213      -9999      -9999      274.521    6.03       2.61       4.3851     3.173200000000001 2.4781     2.2073     2.0385     1.98       2.73       1.19       1.55       2.18       1.5        -9999      1.4        -9999      -9999      -9999      -9999      -9999      -9999      -9999      2.215      2.039      -9999      -9999      332.26     -9999      0.06098262 0.8       
879.4      0.213      -9999      -9999      262.986    5.53       2.84       4.8851     3.4321     2.5191     2.1663     1.9969     1.95       3.12       1.37       1.63       2.22       1.52       -9999      1.45       -9999      -9999      -9999      -9999      -9999      -9999      -9999      2.174      1.997      -9999      -9999      330.1      -9999      0.04365728 0.8       
879.6      0.211      -9999      -9999      278.81     5.6        2.7        4.3362     3.0258     2.2034     1.7471     1.8112     1.77       2.51       1.26       1.57       2.2        1.51       -9999      1.7        -9999      -9999      -9999      -9999      -9999      -9999      -9999      2.159      1.811      -9999      -9999      328.94     -9999      0.04574857 0.8       
879.8      0.213      -9999      -9999      288.441    6.01       2.41       3.9402     2.9174     2.0214     1.7069     1.6587     1.77       2.54       1.03       1.53       2.21       1.48       -9999      2.04       -9999      -9999      -9999      -9999      -9999      -9999      -9999      2.188      1.659      -9999      -9999      328.75     -9999      0.06017278 0.8       
880        0.214      -9999      -9999      301.758    6.2        2.75       3.7902     2.804      1.9691     1.6729     1.6873     1.9        2.5        1.04       1.46       2.32       1.47       -9999      2.69       -9999      -9999      -9999      -9999      -9999      -9999      -9999      2.244      1.687      -9999      -9999      328.81     -9999      0.06832139 0.8       
880.2000000000001 0.215      -9999      -9999      303.203    6.06       3.72       3.8505     3.0738     2.0786     2.0131     1.9007     2.23       2.69       1.14       1.43       2.52       1.52       -9999      3.74       -9999      -9999      -9999      -9999      -9999      -9999      -9999      2.294      1.901      -9999      -9999      328.94     -9999      0.06221784 0.8       
880.4      0.216      -9999      -9999      269.701    6.18       4.52       9.779899999999998 4.9523     3.265      2.7232     2.3939     2.9        8.19       1.5        2.11       2.68       1.59       -9999      4.17       -9999      -9999      -9999      -9999      -9999      -9999      -9999      2.325      2.394      -9999      -9999      329.04     -9999      0.0674141  0.8       
880.6      0.216      -9999      -9999      271.03     6.2        4.15       7.746699999999999 5.1245     3.4997     2.8642     2.6214     2.53       3.63       1.34       1.75       2.66       1.61       -9999      3.64       -9999      -9999      -9999      -9999      -9999      -9999      -9999      2.263      2.621      -9999      -9999      329.21     -9999      0.06832139 0.8       
880.8      0.214      -9999      -9999      286.703    6.05       3.03       4.8228     3.501799999999999 2.6799     2.1236     2.0841     1.71       2.7        1.3        1.64       2.45       1.54       -9999      2.64       -9999      -9999      -9999      -9999      -9999      -9999      -9999      2.219      2.084      -9999      -9999      329.29     -9999      0.06180335 0.8       
881        0.214      -9999      -9999      289.652    5.91       2.11       4.0477     2.9582     2.177      1.8297     1.7351     1.6        2.61       1.25       1.58       2.18       1.46       -9999      2.11       -9999      -9999      -9999      -9999      -9999      -9999      -9999      2.156      1.735      -9999      -9999      328.83     -9999      0.05628208 0.8       
881.2000000000001 0.214      -9999      -9999      291.15     5.91       1.42       3.9649     2.6497     2.015      1.6928     1.6394     1.59       2.57       1.33       1.56       2.04       1.45       -9999      1.83       -9999      -9999      -9999      -9999      -9999      -9999      -9999      2.194      1.639      -9999      -9999      328.23     -9999      0.05628208 0.8       
881.4      0.213      -9999      -9999      304.129    5.89       1.15       4.2211     2.7415     1.9235     1.6631     1.613      1.6        2.74       1.19       1.53       2.04       1.45       -9999      1.74       -9999      -9999      -9999      -9999      -9999      -9999      -9999      2.175      1.613      -9999      -9999      327.81     -9999      0.05553466 0.8       
881.6      0.213      -9999      -9999      310.232    6.09       1.21       4.0186     2.6791     1.8035     1.6182     1.4974     1.59       2.62       1.26       1.5        2.01       1.47       -9999      1.59       -9999      -9999      -9999      -9999      -9999      -9999      -9999      2.175      1.497      -9999      -9999      327.89     -9999      0.0634781  0.8       
