~Version
 VERS              .         2.0                           : CWLS LOG ASCII STANDARD - VERSION 2.0
 WRAP              .         NO                            : ONE LINE PER DEPTH STEP
 DLM               .         SPACE                         : DELIMITING CHARACTER(SPACE TAB OR COMMA)
~Well Information
#_______________________________________________________________________________
#
#PARAMETER_NAME    .UNIT     VALUE                         : DESCRIPTION
#_______________________________________________________________________________
STRT               .м        0                             : First reference value
STOP               .м        1190.8                        : Last reference value
STEP               .м        0.2                           : Step increment
NULL               .         -9999                         : Missing value
COMP               .                                       : Company
WELL               .         4535                          : Well name
FLD                .         УЗЕНЬ                         : Field
LOC                .                                       : Location
CNTY               .                                       : County
STAT               .                                       : State
CTRY               .                                       : Country
SRVC               .         AO "UPGF"                     : Service Company
DATE               .         17/7/2013                     : Date
UWI                .                                       : Unique Well ID
Block              .         7                             : 
Category           .         Нагнетательная                : 
Condition          .         В работе                      : 
Date               .         31.07.2013                    : 
EREF               .m        91.9                          : 100.8
GRP                .                                       : Group name
Gorizont           .         15                            : 14
ISS                .                                       : Well surveys
Interpretator      .         Ким С.В.                      : 
Kupol              .         основной                      : osnovnoi
Mud                .         0                             : 
Mud_density        .         0                             : 
Mud_resistivity    .         0                             : 
NGDU               .         НГДУ-2                        : 
ORIGINALWELLNAME   .         4535                          : 
Spud_date          .         2013                          : 1961
TIME               .         14_25                         : LOG TIME
Viscosity          .         0                             : 
X                  .m        42402.3                       : 46154
Y                  .m        84653.8                       : 85761.93
YEAR               .         2018                          : 
~Parameter Information Block
#_______________________________________________________________________________
#
#PARAMETER_NAME    .UNIT     VALUE                         : DESCRIPTION
#_______________________________________________________________________________
SET                .         LQC_KAZNIPI_Petrel            : 
TLFamily_CALI      .         Caliper                       : 
TLFamily_COLL      .         Net Reservoir Flag            : 
TLFamily_CSAT      .         Fluid Code                    : 
TLFamily_DEPT      .         Measured Depth                : 
TLFamily_DT        .         Compressional Slowness        : 
TLFamily_GR        .         Russian Gamma Ray             : 
TLFamily_GZ3       .         Gradient 225                  : 
TLFamily_IK1       .         Resistivity 05                : 
TLFamily_IK2       .         Resistivity 07                : 
TLFamily_IK3       .         Resistivity 10                : 
TLFamily_IK4       .         Resistivity 14                : 
TLFamily_IK5       .         Resistivity 20                : 
TLFamily_LLS       .         Lateral Log Resistivity       : 
TLFamily_MBK       .         Micro Lateral Log Resistivity : 
TLFamily_MINV      .         Micro Gradient Resistivity    : 
TLFamily_MNOR      .         Micro Resistivity             : 
TLFamily_NNKTB_1   .         Neutron Far                   : 
TLFamily_NNKTM_1   .         Neutron Near                  : 
TLFamily_NPHI      .         Neutron Porosity              : 
TLFamily_OGZ       .         Gradient Inverted 225         : 
TLFamily_PHIE      .         Effective Porosity            : 
TLFamily_PHIED     .         Effective Porosity            : 
TLFamily_PHIEN     .         Effective Porosity            : 
TLFamily_PHIES     .         Effective Porosity            : 
TLFamily_PHIT      .         Porosity                      : 
TLFamily_PRMB      .         Permeability                  : 
TLFamily_PRMB_DGR  .         Permeability                  : 
TLFamily_RHOB      .         Bulk Density                  : 
TLFamily_RT        .         Formation Resistivity         : 
TLFamily_SOIL_ARCHIE .         Oil Saturation                : 
TLFamily_SOIL_DW   .         Oil Saturation                : 
TLFamily_SP        .         Spontaneous Potential         : 
TLFamily_VSH_FIN   .         Shale Volume                  : 
TLFamily_VSH_GR    .         Shale Volume                  : 
TLFamily_VSH_SP    .         Shale Volume                  : 
~Curve Information
#_______________________________________________________________________________
#
#LOGNAME           .UNIT     LOG_ID                        : DESCRIPTION
#_______________________________________________________________________________
DEPT               .м                                      : Колонка глубины 
CALI               .м                                      : Каверномер 
COLL               .unitless                               : Описание 
CSAT               .unitless                               : Описание 
DT                 .мкс/м                                  : Интервальное время пробега продольной волны 
GR                 .uR/h                                   : Гамма каротаж 
GZ3                .Ohmm                                   : Градиент-зонд  длиной 2.25м 
IK1                .Ohmm                                   : И0.10И0.40 
IK2                .Ohmm                                   : И0.14И0.56 
IK3                .Ohmm                                   : И0.20И0.8 
IK4                .Ohmm                                   : И0.28И1.12 
IK5                .Ohmm                                   : И0.40И1.60 
LLS                .Ohmm                                   : Боковой каротаж 
MBK                .Ohmm                                   : Микробоковой каротаж 
MINV               .Ohmm                                   : Микро-градиент зонд 
MNOR               .Ohmm                                   : Микро-потенциал зонд 
NNKTB_1            .у.е.                                   : Показания большого зонда 2ННКт аппаратуры СРК 
NNKTM_1            .у.е.                                   : Показания малого зонда 2ННКт аппаратуры СРК 
NPHI               .v/v                                    : Neutron porosity index 
OGZ                .Ohmm                                   : N0.5M2.0A 
PHIE               .v/v                                    : Описание 
PHIED              .v/v                                    :  
PHIEN              .v/v                                    :  
PHIES              .v/v                                    :  
PHIT               .v/v                                    : Описание 
PRMB               .mD                                     :  
PRMB_DGR           .mD                                     :  
RHOB               .г/см3                                  : Плотность по ГГК-П 
RT                 .ohmm                                   : УЭС пласта 
SOIL_ARCHIE        .v/v                                    :  
SOIL_DW            .v/v                                    :  
SP                 .мВ                                     : Потенциал самополяризации 
VSH_FIN            .v/v                                    : Описание 
VSH_GR             .v/v                                    : Shale volume 
VSH_SP             .v/v                                    : Shale Volume 
~Ascii
# ...
986.8      0.234      -9999      -9999      379.866    5.61       2.36       1.8134     1.6888     1.8347     1.7812     1.6813     1.4        1.61       0.67       1.03       1.96       1.42       -9999      2.29       0.1838594  0.1421971  -9999      0.2255217  0.2455192  7.123295   6.215718   2.287      1.681      0.2339424  0.3448363  326.01     0.3933266  0.3076842  0.4789689 
987        0.228      -9999      -9999      399.165    5.87       2.22       1.2239     1.3903     1.3915     1.4184     1.4933     1.27       1.37       0.83       0.89       1.77       1.36       -9999      2.41       0.1894026  0.1449689  -9999      0.2338363  0.2541853  9.023062   4.121085   2.275      1.493      0.2107822  0.3271167  325.33     0.4132481  0.363902   0.4625942 
987.2000000000001 0.235      -9999      -9999      409.617    6.21       2.36       1.0846     1.1902     1.2593     1.2852     1.3369     1.29       1.54       0.86       0.89       1.73       1.33       -9999      2.56       0.1782158  0.1263614  -9999      0.2300702  0.2485381  5.599472   2.407768   2.293      1.337      0.1235731  0.2611116  324.54     0.4485849  0.4531982  0.4439715 
987.4      0.233      -9999      -9999      390.735    6.31       2.25       1.0044     1.2455     1.2816     1.2615     1.3153     1.4        1.76       0.8        0.96       1.76       1.34       -9999      2.85       0.1547467  0.09462047 -9999      0.2148729  0.2259195  2.057986   2.055743   2.344      1.315      0.001132128 0.1647693  323.69     0.4540101  0.4834133  0.4246069 
987.6      0.231      -9999      -9999      381.973    6.19       2.06       1.451      1.5501     1.5737     1.7471     1.4096     1.65       1.93       0.97       1.07       1.94       1.38       -9999      2.92       0.1525429  0.09031343 -9999      0.2147724  0.2204079  1.87337    2.4851     2.359      1.41       0.02114609 0.1767327  323.37     0.4329097  0.4473856  0.4184338 
987.8      0.224      -9999      -9999      349.845    6.03       2.17       1.6102     1.7294     1.8347     1.8252     1.734      1.95       2.98       1.26       1.43       2.22       1.43       -9999      3.13       0.1155016  0.03734445 -9999      0.1936588  0.1801713  0.3859476  3.200202   2.455      1.734      0          0.06301175 323.44     0.4125266  0.4034905  0.4215627 
988        0.223      -9999      -9999      318.974    5.63       2.49       2.7984     2.8104     2.4074     2.4323     2.4467     2.38       3.82       1.92       1.94       2.49       1.5        -9999      3.16       0.1400089  0.1047905  -9999      0.1752273  0.1980703  1.097647   6.022295   2.495      2.447      0.1856699  0.3106062  323.69     0.3703727  0.3116817  0.4290637 
988.2000000000001 0.225      -9999      -9999      308.859    5.06       2.4        3.689499999999999 3.326000000000001 2.959      2.7767     2.7219     2.67       3.87       1.77       1.93       2.59       1.56       -9999      2.9        0.1548458  0.1311377  -9999      0.1785539  0.2053711  2.066703   14.82672   2.451      2.722      0.2904282  0.3862341  323.62     0.3223002  0.2157434  0.428857  
988.4      0.227      -9999      -9999      301.323    4.91       2.31       3.7215     3.1962     2.9774     2.8231     2.8005     2.63       3.14       1.58       1.76       2.51       1.59       -9999      2.73       0.1390303  0.1053892  -9999      0.1726714  0.1878651  1.052779   18.79378   2.494      2.801      0.2310156  0.3334187  323.49     0.3115164  0.1958356  0.4271971 
988.6      0.228      -9999      -9999      296.669    4.81       2.63       3.786900000000001 3.458      3.2836     2.9674     2.8069     2.57       3.97       2.09       2.17       2.51       1.57       -9999      2.62       0.1672134  0.1652694  -9999      0.1691574  0.2148273  3.502326   22.01203   2.394      2.807      0.3458694  0.4298369  323.29     0.3037279  0.1835952  0.4238605 
988.8      0.229      -9999      -9999      304.158    4.74       2.67       3.9685     3.7045     3.4046     3.0593     2.7753     2.43       3.64       2.05       2.02       2.48       1.55       -9999      2.58       0.1834842  0.1862276  -9999      0.1807408  0.2300536  7.010202   24.58739   2.359      2.775      0.3934344  0.4699657  323.01     0.2970658  0.175485   0.4186466 
989        0.239      -9999      -9999      321.168    5.01       2.27       2.2824     2.6595     2.6349     2.2943     2.2903     1.96       2.08       1.19       1.26       2.32       1.49       -9999      2.44       0.194841   0.1934132  -9999      0.1962687  0.2436067  11.37851   16.04604   2.347      2.29       0.3700423  0.449644   322.72     0.3110759  0.2088922  0.4132596 
989.2000000000001 0.242      -9999      -9999      326.442    5.63       2.2        2.0517     2.0659     2.0759     2.1391     2.1214     1.73       2.33       0.88       1.16       2.14       1.42       -9999      2.33       0.2000215  0.2137725  -9999      0.1862705  0.2566637  14.19192   6.022295   2.313      2.121      0.3617222  0.4512776  322.56     0.3613198  0.3116817  0.4109579 
989.4      0.24       -9999      -9999      303.922    6.22       2.44       2.1298     2.1591     2.1625     2.1706     2.0978     1.71       2.39       1.2        1.36       2.05       1.41       -9999      2.22       0.1071602  0.07615769 -9999      0.1381626  0.1748727  0.2704108  2.370011   2.383      2.098      0          0.106244   322.36     0.4319372  0.4561326  0.4077418 
989.6      0.239      -9999      -9999      280.258    6.25       2.53       1.9175     2.0726     2.0923     2.1306     2.0584     1.69       2.46       1.38       1.36       2.04       1.43       -9999      2.24       0.116819   0.1281922  -9999      0.1054458  0.1849985  0.4082529  2.260249   2.295      2.058      0          0.1572379  322.17     0.4349159  0.4650507  0.4047811 
989.8      0.23       -9999      -9999      296.542    6.29       2.34       1.9691     1.9388     1.9283     2.0015     1.9893     1.63       2.23       1.11       1.14       1.94       1.43       -9999      2.3        0.1020081  0.07717344 -9999      0.1268428  0.1706967  0.2170682  2.121767   2.379      1.989      0          0.05012453 321.86     0.4381633  0.4772133  0.3991132 
990        0.231      -9999      -9999      325.333    6.34       2.5        1.7043     1.7367     1.7094     1.7758     1.809      1.55       1.99       0.96       1.15       1.93       1.41       -9999      2.34       0.1399778  0.1207954  -9999      0.1591603  0.2095779  1.096194   1.960536   2.304      1.809      0.0614669  0.2243985  321.62     0.4439777  0.4928648  0.3950905 
990.2000000000001 0.235      -9999      -9999      360.526    6.29       2.83       1.5791     1.666      1.6414     1.668      1.7278     1.54       1.8        0.95       1.07       2.04       1.39       -9999      2.34       0.1429724  0.08976498 -9999      0.1961798  0.2112254  1.245528   2.121767   2.359      1.728      0.05858966 0.2168972  321.49     0.4353852  0.4772133  0.3935571 
990.4      0.239      -9999      -9999      353.481    5.99       2.66       1.4858     1.6015     1.6675     1.6622     1.7445     1.6        2.14       0.99       1.18       2.17       1.39       -9999      2.46       0.1606964  0.1168852  -9999      0.2045076  0.2216235  2.652438   3.409073   2.331      1.745      0.1535926  0.2780237  321        0.3886529  0.3932068  0.3840989 
990.6      0.237      -9999      -9999      330.894    5.69       2.38       2.0306     2.0235     1.9369     1.9254     1.9055     1.77       2.44       1.29       1.29       2.31       1.42       -9999      2.47       0.1931461  0.1922156  -9999      0.1940767  0.2482428  10.58506   5.4774     2.349      1.906      0.3081336  0.4011144  320.7      0.3514607  0.3239885  0.3789329 
990.8      0.249      -9999      -9999      324.938    5.95       2.51       2.0332     2.0209     1.9691     1.9824     2.0267     1.83       2.37       1.35       1.31       2.26       1.44       -9999      2.37       0.1404831  0.1024442  -9999      0.178522   0.2001885  1.120072   3.631573   2.358      2.027      0.1130524  0.2483148  320.62     0.3808599  0.3831853  0.3785346 
