~Version
 VERS              .         2.0                           : CWLS LOG ASCII STANDARD - VERSION 2.0
 WRAP              .         NO                            : ONE LINE PER DEPTH STEP
 DLM               .         SPACE                         : DELIMITING CHARACTER(SPACE TAB OR COMMA)
~Well Information
#_______________________________________________________________________________
#
#PARAMETER_NAME    .UNIT     VALUE                         : DESCRIPTION
#_______________________________________________________________________________
STRT               .м        0                             : First reference value
STOP               .м        1190.8                        : Last reference value
STEP               .м        0.2                           : Step increment
NULL               .         -9999                         : Missing value
COMP               .                                       : Company
WELL               .         4535                          : Well name
FLD                .         УЗЕНЬ                         : Field
LOC                .                                       : Location
CNTY               .                                       : County
STAT               .                                       : State
CTRY               .                                       : Country
SRVC               .         AO "UPGF"                     : Service Company
DATE               .         17/7/2013                     : Date
UWI                .                                       : Unique Well ID
Block              .         7                             : 
Category           .         Нагнетательная                : 
Condition          .         В работе                      : 
Date               .         31.07.2013                    : 
EREF               .m        91.9                          : 100.8
GRP                .                                       : Group name
Gorizont           .         15                            : 14
ISS                .                                       : Well surveys
Interpretator      .         Ким С.В.                      : 
Kupol              .         основной                      : osnovnoi
Mud                .         0                             : 
Mud_density        .         0                             : 
Mud_resistivity    .         0                             : 
NGDU               .         НГДУ-2                        : 
ORIGINALWELLNAME   .         4535                          : 
Spud_date          .         2013                          : 1961
TIME               .         14_25                         : LOG TIME
Viscosity          .         0                             : 
X                  .m        42402.3                       : 46154
Y                  .m        84653.8                       : 85761.93
YEAR               .         2018                          : 
~Parameter Information Block
#_______________________________________________________________________________
#
#PARAMETER_NAME    .UNIT     VALUE                         : DESCRIPTION
#_______________________________________________________________________________
SET                .         LQC_KAZNIPI_Petrel            : 
TLFamily_CALI      .         Caliper                       : 
TLFamily_COLL      .         Net Reservoir Flag            : 
TLFamily_CSAT      .         Fluid Code                    : 
TLFamily_DEPT      .         Measured Depth                : 
TLFamily_DT        .         Compressional Slowness        : 
TLFamily_GR        .         Russian Gamma Ray             : 
TLFamily_GZ3       .         Gradient 225                  : 
TLFamily_IK1       .         Resistivity 05                : 
TLFamily_IK2       .         Resistivity 07                : 
TLFamily_IK3       .         Resistivity 10                : 
TLFamily_IK4       .         Resistivity 14                : 
TLFamily_IK5       .         Resistivity 20                : 
TLFamily_LLS       .         Lateral Log Resistivity       : 
TLFamily_MBK       .         Micro Lateral Log Resistivity : 
TLFamily_MINV      .         Micro Gradient Resistivity    : 
TLFamily_MNOR      .         Micro Resistivity             : 
TLFamily_NNKTB_1   .         Neutron Far                   : 
TLFamily_NNKTM_1   .         Neutron Near                  : 
TLFamily_NPHI      .         Neutron Porosity              : 
TLFamily_OGZ       .         Gradient Inverted 225         : 
TLFamily_PHIE      .         Effective Porosity            : 
TLFamily_PHIED     .         Effective Porosity            : 
TLFamily_PHIEN     .         Effective Porosity            : 
TLFamily_PHIES     .         Effective Porosity            : 
TLFamily_PHIT      .         Porosity                      : 
TLFamily_PRMB      .         Permeability                  : 
TLFamily_PRMB_DGR  .         Permeability                  : 
TLFamily_RHOB      .         Bulk Density                  : 
TLFamily_RT        .         Formation Resistivity         : 
TLFamily_SOIL_ARCHIE .         Oil Saturation                : 
TLFamily_SOIL_DW   .         Oil Saturation                : 
TLFamily_SP        .         Spontaneous Potential         : 
TLFamily_VSH_FIN   .         Shale Volume                  : 
TLFamily_VSH_GR    .         Shale Volume                  : 
TLFamily_VSH_SP    .         Shale Volume                  : 
~Curve Information
#_______________________________________________________________________________
#
#LOGNAME           .UNIT     LOG_ID                        : DESCRIPTION
#_______________________________________________________________________________
DEPT               .м                                      : Колонка глубины 
CALI               .м                                      : Каверномер 
COLL               .unitless                               : Описание 
CSAT               .unitless                               : Описание 
DT                 .мкс/м                                  : Интервальное время пробега продольной волны 
GR                 .uR/h                                   : Гамма каротаж 
GZ3                .Ohmm                                   : Градиент-зонд  длиной 2.25м 
IK1                .Ohmm                                   : И0.10И0.40 
IK2                .Ohmm                                   : И0.14И0.56 
IK3                .Ohmm                                   : И0.20И0.8 
IK4                .Ohmm                                   : И0.28И1.12 
IK5                .Ohmm                                   : И0.40И1.60 
LLS                .Ohmm                                   : Боковой каротаж 
MBK                .Ohmm                                   : Микробоковой каротаж 
MINV               .Ohmm                                   : Микро-градиент зонд 
MNOR               .Ohmm                                   : Микро-потенциал зонд 
NNKTB_1            .у.е.                                   : Показания большого зонда 2ННКт аппаратуры СРК 
NNKTM_1            .у.е.                                   : Показания малого зонда 2ННКт аппаратуры СРК 
NPHI               .v/v                                    : Neutron porosity index 
OGZ                .Ohmm                                   : N0.5M2.0A 
PHIE               .v/v                                    : Описание 
PHIED              .v/v                                    :  
PHIEN              .v/v                                    :  
PHIES              .v/v                                    :  
PHIT               .v/v                                    : Описание 
PRMB               .mD                                     :  
PRMB_DGR           .mD                                     :  
RHOB               .г/см3                                  : Плотность по ГГК-П 
RT                 .ohmm                                   : УЭС пласта 
SOIL_ARCHIE        .v/v                                    :  
SOIL_DW            .v/v                                    :  
SP                 .мВ                                     : Потенциал самополяризации 
VSH_FIN            .v/v                                    : Описание 
VSH_GR             .v/v                                    : Shale volume 
VSH_SP             .v/v                                    : Shale Volume 
~Ascii
# ...
1180       0.224      -9999      -9999      273.739    9.35       1.62       1.4399     1.324      1.2769     1.2583     1.2567     1.19       1.93       1.15       1.14       2.35       1.53       0.259      3.26       0.04890667 0.01158443 0.07647085 0.05866472 0.167556   0.02254386 1.674564   2.446      1.257      0          0          303.07     0.5531186  0.5256389  0.5805984 
1180.2     0.221      -9999      -9999      291.079    9.21       1.44       1.4991     1.3836     1.2929     1.2746     1.2976     1.25       1.76       0.96       1.13       2.39       1.54       0.254      3.11       0.05882582 0.01099199 0.07683165 0.08865383 0.1739905  0.03441557 2.097099   2.453      1.298      0          0          303.39     0.5368738  0.4794976  0.59425   
1180.4     0.22       -9999      -9999      296.704    8.91       1.33       1.628      1.3458     1.3181     1.3212     1.3512     1.38       2.53       1.26       1.42       2.43       1.56       0.248      3.15       0.09916704 0.0384976  0.1180434  0.1409602  0.1836427  0.1922969  3.396345   2.46       1.351      0          0          303.51     0.393808   0.3938078  0.6015719 
1180.6     0.219      -9999      -9999      314.22     8.49       2.03       1.5746     1.4426     1.405      1.3926     1.5392     1.46       2.7        1.11       1.46       2.42       1.6        0.25       3.22       0.1466519  0.09640715 0.1513505  0.192198   0.210777   1.457158   6.670556   2.509      1.539      0.04128408 0.1893126  303.73     0.298938   0.2989381  0.6122983 
1180.8     0.216      -9999      -9999      311.815    8.45       1.7        1.9296     1.7855     1.734      1.7305     1.7155     1.58       2.96       1.3        1.25       2.41       1.64       0.251      3.01       0.1489082  0.09999999 0.1549063  0.1918182  0.2113719  1.604348   7.113461   2.503      1.716      0.1010643  0.238357   303.87     0.291193   0.2911931  0.620482  
1181       0.227      -9999      -9999      302.183    8.26       1.7        2.0008     1.8755     1.8369     1.8353     1.809      1.47       1.53       0.72       0.85       2.53       1.64       0.235      3.3        0.1458016  0.09640715 0.1501712  0.1908265  0.2009429  1.405264   9.653753   2.509      1.809      0.1068033  0.2292044  304.16     0.257057   0.2570572  0.6338924 
1181.2     0.234      -9999      -9999      279.732    8.05       1.64       2.4023     2.0079     1.8517     1.7471     1.6471     1.33       1.75       0.76       0.87       2.72       1.62       0.213      3.04       0.1456186  0.1269461  0.1390919  0.1708178  0.1936611  1.394338   13.52917   2.458      1.647      0.0655797  0.1742039  304.43     0.223964   0.2239641  0.6468455 
1181.4     0.226      -9999      -9999      269.169    7.99       1.57       1.7969     1.5581     1.3519     1.3733     1.3462     1.21       1.5        0.73       0.88       2.69       1.64       0.216      3.18       0.1527047  0.1556886  0.1449454  0.15748    0.1988923  1.886335   14.89877   2.41       1.346      0.01440141 0.1183034  304.45     0.215317   0.2153167  0.6511895 
1181.6     0.222      -9999      -9999      263.714    7.81       1.69       1.8112     1.3777     1.2895     1.2449     1.2122     1.26       2.29       0.77       1.08       2.56       1.65       0.232      3.21       0.1586568  0.1508982  0.1688621  0.15621    0.1996983  2.431456   19.89692   2.418      1.212      0          0.08783334 304.62     0.191327   0.1913271  0.6608723 
1181.8     0.216      1          2          266.923    7.79       1.36       1.8853     1.5088     1.4204     1.3494     1.3119     1.47       1.91       0.89       1.18       2.58       1.67       0.229      3.02       0.1637228  0.1622755  0.1666854  0.1622076  0.2042292  3.017882   20.54686   2.399      1.312      0.06122452 0.1459907  304.69     0.188832   0.1888324  0.6670837 
1182       0.21       1          2          277.779    8.07       1.69       2.3624     1.7273     1.6224     1.5978     1.5918     1.74       3.8        1.07       1.43       2.53       1.67       0.235      3.29       0.1665284  0.1724551  0.1601154  0.1670148  0.2152056  3.401484   13.10123   2.382      1.592      0.1552806  0.2532005  305.35     0.226923   0.2269229  0.6949298 
1182.2     0.209      1          2          292.291    8.23       1.44       2.3187     1.7181     1.6597     1.7367     1.7424     1.89       3.81       1.04       1.37       2.4        1.66       0.252      3.01       0.1674341  0.1538921  0.1688248  0.1795854  0.2215005  3.535444   10.13062   2.413      1.742      0.1940459  0.2995109  305.6      0.252046   0.2520458  0.7081513 
1182.4     0.209      1          2          291.092    8.31       1.45       2.666      1.8627     1.8201     1.8919     1.9393     1.99       4.28       1.11       1.51       2.43       1.65       0.248      3.16       0.1484775  0.1113773  0.1603414  0.1737137  0.2054581  1.575146   8.90835    2.484      1.939      0.1490091  0.2706287  305.7      0.265632   0.2656319  0.7158644 
1182.6     0.209      1          2          290.447    8.32       1.68       3.077      2.0392     2.0909     2.1505     2.1326     2.14       4.71       1.06       1.52       2.56       1.65       0.232      3.12       0.1458712  0.1215569  0.1437643  0.1722925  0.2032271  1.409441   8.766336   2.467      2.133      0.1736011  0.2949647  306.07     0.267381   0.2673807  0.7340498 
1182.8     0.208      1          2          289.062    8.43       1.34       3.5563     2.5866     2.5854     2.5077     2.3806     2.43       5.36       1.09       1.65       2.61       1.66       0.226      3.01       0.1441384  0.1371258  0.1311593  0.1641301  0.2057876  1.309033   7.345821   2.441      2.381      0.2069622  0.3342693  306.2      0.287396   0.2873962  0.7431651 
1183       0.207      1          2          288.252    8.54       1.72       5.094699999999999 3.1504     2.9114     2.7415     2.6368     2.96       7.67       1.17       1.69       2.65       1.69       0.221      3.26       0.1454701  0.1610778  0.1190597  0.1562727  0.2117343  1.385532   6.155497   2.401      2.637      0.2501003  0.380253   306.48     0.30891    0.3089098  0.7583213 
1183.2     0.208      1          2          287.295    8.03       1.45       5.0844     3.1936     2.8563     2.7395     2.7178     3.07       6.81       1.2        1.69       2.72       1.7        0.213      2.99       0.1562208  0.1461077  0.1400555  0.1824992  0.2036369  2.191525   13.97112   2.426      2.718      0.3051867  0.3937854  306.69     0.221044   0.2210436  0.7708987 
1183.4     0.207      1          2          292.568    7.55       1.53       5.906399999999999 3.370099999999999 2.9317     2.804      2.7423     3.16       7.51       1.23       1.72       2.68       1.7        0.218      3.22       0.175687   0.1538921  0.164766   0.2084028  0.2102906  5.026981   30.21758   2.413      2.742      0.3753205  0.4362562  306.76     0.161315   0.161315   0.7779408 
1183.6     0.208      1          2          298.528    7.67       1.67       5.932199999999999 3.4264     3.0385     2.9906     3.0219     3.41       7.64       1.2        1.71       2.6        1.68       0.227      -9999      0.1728652  0.1371258  0.1694044  0.2120655  0.2103041  4.456988   24.91739   2.441      3.022      0.3947063  0.459316   306.95     0.174532   0.1745322  0.7899562 
1183.8     0.208      1          2          284.661    7.58       1.35       4.9535     3.4037     3.291700000000001 3.2404     3.1639     3.7        6.91       1.16       1.55       2.66       1.67       0.22       -9999      0.1740413  0.1598802  0.1657077  0.196536   0.2093329  4.686247   28.79523   2.403      3.164      0.4110975  0.4717058  306.94     0.164522   0.1645223  0.7938287 
1184       0.207      1          2          278.029    7.31       1.75       6.986400000000001 4.497300000000001 4.0771     3.7727     3.4103     3.69       7.55       1.14       1.64       2.72       1.69       0.213      -9999      0.1660595  0.1353293  0.1675237  0.1953256  0.1956205  3.334138   44.44      2.444      3.41       0.4077005  0.4602545  -9999      0.137807   0.1378075  -9999     
