~Version
 VERS              .         2.0                           : CWLS LOG ASCII STANDARD - VERSION 2.0
 WRAP              .         NO                            : ONE LINE PER DEPTH STEP
 DLM               .         SPACE                         : DELIMITING CHARACTER(SPACE TAB OR COMMA)
~Well Information
#_______________________________________________________________________________
#
#PARAMETER_NAME    .UNIT     VALUE                         : DESCRIPTION
#_______________________________________________________________________________
STRT               .м        0                             : First reference value
STOP               .м        1190.8                        : Last reference value
STEP               .м        0.2                           : Step increment
NULL               .         -9999                         : Missing value
COMP               .                                       : Company
WELL               .         4535                          : Well name
FLD                .         УЗЕНЬ                         : Field
LOC                .                                       : Location
CNTY               .                                       : County
STAT               .                                       : State
CTRY               .                                       : Country
SRVC               .         AO "UPGF"                     : Service Company
DATE               .         17/7/2013                     : Date
UWI                .                                       : Unique Well ID
Block              .         7                             : 
Category           .         Нагнетательная                : 
Condition          .         В работе                      : 
Date               .         31.07.2013                    : 
EREF               .m        91.9                          : 100.8
GRP                .                                       : Group name
Gorizont           .         15                            : 14
ISS                .                                       : Well surveys
Interpretator      .         Ким С.В.                      : 
Kupol              .         основной                      : osnovnoi
Mud                .         0                             : 
Mud_density        .         0                             : 
Mud_resistivity    .         0                             : 
NGDU               .         НГДУ-2                        : 
ORIGINALWELLNAME   .         4535                          : 
Spud_date          .         2013                          : 1961
TIME               .         14_25                         : LOG TIME
Viscosity          .         0                             : 
X                  .m        42402.3                       : 46154
Y                  .m        84653.8                       : 85761.93
YEAR               .         2018                          : 
~Parameter Information Block
#_______________________________________________________________________________
#
#PARAMETER_NAME    .UNIT     VALUE                         : DESCRIPTION
#_______________________________________________________________________________
SET                .         LQC_KAZNIPI_Petrel            : 
TLFamily_CALI      .         Caliper                       : 
TLFamily_COLL      .         Net Reservoir Flag            : 
TLFamily_CSAT      .         Fluid Code                    : 
TLFamily_DEPT      .         Measured Depth                : 
TLFamily_DT        .         Compressional Slowness        : 
TLFamily_GR        .         Russian Gamma Ray             : 
TLFamily_GZ3       .         Gradient 225                  : 
TLFamily_IK1       .         Resistivity 05                : 
TLFamily_IK2       .         Resistivity 07                : 
TLFamily_IK3       .         Resistivity 10                : 
TLFamily_IK4       .         Resistivity 14                : 
TLFamily_IK5       .         Resistivity 20                : 
TLFamily_LLS       .         Lateral Log Resistivity       : 
TLFamily_MBK       .         Micro Lateral Log Resistivity : 
TLFamily_MINV      .         Micro Gradient Resistivity    : 
TLFamily_MNOR      .         Micro Resistivity             : 
TLFamily_NNKTB_1   .         Neutron Far                   : 
TLFamily_NNKTM_1   .         Neutron Near                  : 
TLFamily_NPHI      .         Neutron Porosity              : 
TLFamily_OGZ       .         Gradient Inverted 225         : 
TLFamily_PHIE      .         Effective Porosity            : 
TLFamily_PHIED     .         Effective Porosity            : 
TLFamily_PHIEN     .         Effective Porosity            : 
TLFamily_PHIES     .         Effective Porosity            : 
TLFamily_PHIT      .         Porosity                      : 
TLFamily_PRMB      .         Permeability                  : 
TLFamily_PRMB_DGR  .         Permeability                  : 
TLFamily_RHOB      .         Bulk Density                  : 
TLFamily_RT        .         Formation Resistivity         : 
TLFamily_SOIL_ARCHIE .         Oil Saturation                : 
TLFamily_SOIL_DW   .         Oil Saturation                : 
TLFamily_SP        .         Spontaneous Potential         : 
TLFamily_VSH_FIN   .         Shale Volume                  : 
TLFamily_VSH_GR    .         Shale Volume                  : 
TLFamily_VSH_SP    .         Shale Volume                  : 
~Curve Information
#_______________________________________________________________________________
#
#LOGNAME           .UNIT     LOG_ID                        : DESCRIPTION
#_______________________________________________________________________________
DEPT               .м                                      : Колонка глубины 
CALI               .м                                      : Каверномер 
COLL               .unitless                               : Описание 
CSAT               .unitless                               : Описание 
DT                 .мкс/м                                  : Интервальное время пробега продольной волны 
GR                 .uR/h                                   : Гамма каротаж 
GZ3                .Ohmm                                   : Градиент-зонд  длиной 2.25м 
IK1                .Ohmm                                   : И0.10И0.40 
IK2                .Ohmm                                   : И0.14И0.56 
IK3                .Ohmm                                   : И0.20И0.8 
IK4                .Ohmm                                   : И0.28И1.12 
IK5                .Ohmm                                   : И0.40И1.60 
LLS                .Ohmm                                   : Боковой каротаж 
MBK                .Ohmm                                   : Микробоковой каротаж 
MINV               .Ohmm                                   : Микро-градиент зонд 
MNOR               .Ohmm                                   : Микро-потенциал зонд 
NNKTB_1            .у.е.                                   : Показания большого зонда 2ННКт аппаратуры СРК 
NNKTM_1            .у.е.                                   : Показания малого зонда 2ННКт аппаратуры СРК 
NPHI               .v/v                                    : Neutron porosity index 
OGZ                .Ohmm                                   : N0.5M2.0A 
PHIE               .v/v                                    : Описание 
PHIED              .v/v                                    :  
PHIEN              .v/v                                    :  
PHIES              .v/v                                    :  
PHIT               .v/v                                    : Описание 
PRMB               .mD                                     :  
PRMB_DGR           .mD                                     :  
RHOB               .г/см3                                  : Плотность по ГГК-П 
RT                 .ohmm                                   : УЭС пласта 
SOIL_ARCHIE        .v/v                                    :  
SOIL_DW            .v/v                                    :  
SP                 .мВ                                     : Потенциал самополяризации 
VSH_FIN            .v/v                                    : Описание 
VSH_GR             .v/v                                    : Shale volume 
VSH_SP             .v/v                                    : Shale Volume 
~Ascii
# ...
919.6      0.21       1          3          339.051    2.21       1.65       4.5113     2.9017     2.002      1.6005     1.5058     1.52       2.71       1.04       1.58       2.82       1.76       -9999      1.62       0.2876283  0.2910179  -9999      0.2842386  0.3018028  595.2945   2424.311   2.184      1.506      0.4537399  0.4916596  333.07     0.09041896 0.02691993 0.153918  
919.8      0.212      1          3          345.279    2.26       1.73       4.1068     2.6891     1.896      1.5795     1.4933     1.55       3.19       1.08       1.65       2.86       1.74       -9999      1.75       0.2694242  0.2502993  -9999      0.288549   0.2844865  273.8718   2295.569   2.252      1.493      0.4193732  0.4569014  334.89     0.0960826  0.02752647 0.1646387 
920        0.211      1          3          345.279    2.22       1.64       4.3321     2.9377     2.028      1.714      1.5585     1.6        2.94       1.08       1.59       2.94       1.73       -9999      1.76       0.2837996  0.2808383  -9999      0.286761   0.2997561  505.6105   2397.997   2.201      1.559      0.4562249  0.4955295  336.59     0.1017855  0.02704016 0.1765308 
920.2000000000001 0.211      1          3          347.159    2.17       1.58       4.8562     3.0958     2.1158     1.7471     1.5909     1.6        2.72       1.07       1.57       2.89       1.72       -9999      1.6        0.2717757  0.2562874  -9999      0.2872641  0.2883777  302.7637   2532.483   2.242      1.591      0.4406888  0.4798957  337.7      0.1059036  0.02644433 0.1853629 
920.4      0.212      1          3          345.068    2.08       1.64       4.4518     3.0258     2.0557     1.6788     1.5683     1.57       2.92       0.98       1.51       2.78       1.71       -9999      1.66       0.2777166  0.2706587  -9999      0.2847745  0.2945649  390.0713   2793.848   2.218      1.568      0.4473606  0.487187   338.19     0.1074751  0.02540474 0.1895456 
920.6      0.211      1          3          343.168    2.1        1.64       4.6835     3.2039     2.1326     1.6988     1.5629     1.59       2.9        1.14       1.58       2.87       1.71       -9999      1.8        0.2783838  0.2742516  -9999      0.282516   0.2954436  401.3297   2733.528   2.212      1.563      0.4476871  0.487767   338.47     0.1088242  0.02563217 0.1920163 
920.8      0.21       1          3          344.405    2.25       1.5        4.7992     3.2588     2.1597     1.6948     1.5418     1.59       2.92       1.27       1.63       3.11       1.73       -9999      1.81       0.2654402  0.2473054  -9999      0.283575   0.2825692  231.0758   2320.759   2.257      1.542      0.420637   0.4600832  338.37     0.1092655  0.02740408 0.191127  
921        0.211      1          3          341.21     2.38       1.55       4.550199999999999 3.0811     2.0411     1.6182     1.5764     1.63       2.84       1.21       1.67       3.33       1.75       -9999      1.77       0.2690927  0.257485   -9999      0.2807004  0.2861038  270.0278   2013.796   2.24       1.576      0.4333216  0.4728177  338.01     0.1085135  0.02903852 0.1879884 
921.2000000000001 0.212      1          3          342.254    2.55       1.73       5.0335     3.227300000000001 2.196      1.712      1.5991     1.74       4.22       1.28       1.7        3.36       1.78       -9999      1.97       0.2577652  0.233533   -9999      0.2819975  0.2746391  166.5695   1672.796   2.28       1.599      0.4156793  0.4542787  337.53     0.1076384  0.03132384 0.1839529 
921.4      0.211      1          3          346.228    2.62       1.82       5.9647     3.601      2.4244     1.886      1.6932     1.82       3.22       1.35       1.71       3.22       1.81       -9999      1.98       0.2556925  0.2251498  -9999      0.2862354  0.2723658  152.477    1549.765   2.294      1.693      0.4271204  0.4652733  337.09     0.1063585  0.03231634 0.1804007 
921.6      0.21       1          3          349.336    2.59       1.72       5.220599999999999 3.4494     2.3641     1.8685     1.7063     1.75       2.84       1.32       1.68       3.11       1.8        -9999      1.87       0.2760562  0.2622754  -9999      0.2898371  0.2923985  363.4036   1601.344   2.232      1.706      0.4660267  0.5050184  336.6      0.1042469  0.03188719 0.1766066 
921.8      0.21       1          3          346.186    2.56       1.7        5.2636     3.570500000000001 2.3477     1.8387     1.7074     1.72       3.07       1.3        1.67       3.07       1.8        -9999      1.82       0.2608404  0.2341317  -9999      0.2875491  0.2768368  189.9133   1654.639   2.279      1.707      0.4391518  0.476895   336.06     0.1020405  0.03146373 0.1726173 
922        0.21       1          3          345.279    2.63       1.75       5.269      3.6226     2.2824     1.8252     1.6823     1.71       3.36       1.26       1.67       3.11       1.82       -9999      1.94       0.2645592  0.2425149  -9999      0.2866035  0.2805943  222.5546   1532.944   2.265      1.682      0.4421756  0.4802299  335.99     0.1022876  0.03246068 0.1721146 
922.2000000000001 0.21       1          3          345.279    2.66       1.73       4.827599999999999 3.3535     2.2793     1.7888     1.6452     1.65       2.69       1.22       1.59       3.02       1.81       -9999      1.82       0.2689142  0.251497   -9999      0.2863314  0.2850854  267.979    1483.568   2.25       1.645      0.4442814  0.4827967  336.17     0.1031558  0.03289755 0.173414  
922.4      0.209      1          3          345.279    2.53       1.55       4.5328     3.1885     2.1843     1.7315     1.6158     1.62       2.88       1.22       1.63       2.93       1.81       -9999      1.74       0.271468   0.2568863  -9999      0.2860497  0.28778    298.8159   1709.708   2.241      1.616      0.4442179  0.4830726  336.66     0.104054   0.0310459  0.1770622 
922.6      0.209      1          3          347.388    2.52       1.62       4.7478     3.3043     2.2424     1.7492     1.6102     1.63       2.84       1.25       1.61       3.1        1.81       -9999      1.71       0.2787661  0.2700598  -9999      0.2874723  0.2953725  407.927    1728.469   2.219      1.61       0.4559634  0.4955287  337.16     0.1059323  0.03090786 0.1809566 
922.8      0.208      1          3          357.531    2.55       1.66       4.5242     3.1988     2.1843     1.6769     1.5594     1.58       2.61       1.17       1.55       3.21       1.8        -9999      1.82       0.2877889  0.2790419  -9999      0.2965358  0.3045349  599.3853   1672.796   2.204      1.559      0.4627957  0.5030476  337.33     0.1068224  0.03132384 0.182321  
923        0.209      1          3          350.924    2.58       1.55       4.380999999999999 3.0641     2.0598     1.6191     1.5185     1.54       2.63       1.15       1.58       3.11       1.8        -9999      1.84       0.285298   0.2802396  -9999      0.2903564  0.3021215  538.9755   1618.916   2.202      1.519      0.4520704  0.4923641  337.4      0.1073171  0.03174541 0.1828889 
923.2000000000001 0.209      1          3          349.531    2.62       1.45       4.4771     3.1056     2.0111     1.5759     1.4899     1.52       2.4        1.21       1.59       3.02       1.79       -9999      1.77       0.2825078  0.2760478  -9999      0.2889677  0.2993761  478.5061   1549.765   2.209      1.49       0.4423384  0.4825914  337.4      0.1076026  0.03231634 0.1828889 
923.4      0.206      1          3          357.935    2.64       1.55       3.8846     2.7559     1.9115     1.5449     1.4549     1.48       2.42       1.18       1.59       3.03       1.78       -9999      1.92       0.2795047  0.2622754  -9999      0.296734   0.2963321  420.9809   1516.305   2.232      1.455      0.4308098  0.4709202  337.3      0.1073422  0.03260566 0.1820787 
923.6      0.202      1          3          357.935    2.78       1.67       3.837      2.7725     1.9653     1.5841     1.4638     1.5        2.7        1.19       1.63       2.97       1.76       -9999      2.01       0.2831497  0.2700598  -9999      0.2962396  0.3002244  491.7879   1301.466   2.219      1.464      0.4388231  0.4793663  337.43     0.108919   0.03470463 0.1831333 
