~Version
 VERS              .         2.0                           : CWLS LOG ASCII STANDARD - VERSION 2.0
 WRAP              .         NO                            : ONE LINE PER DEPTH STEP
 DLM               .         SPACE                         : DELIMITING CHARACTER(SPACE TAB OR COMMA)
~Well Information
#_______________________________________________________________________________
#
#PARAMETER_NAME    .UNIT     VALUE                         : DESCRIPTION
#_______________________________________________________________________________
STRT               .м        0                             : First reference value
STOP               .м        1190.8                        : Last reference value
STEP               .м        0.2                           : Step increment
NULL               .         -9999                         : Missing value
COMP               .                                       : Company
WELL               .         4535                          : Well name
FLD                .         УЗЕНЬ                         : Field
LOC                .                                       : Location
CNTY               .                                       : County
STAT               .                                       : State
CTRY               .                                       : Country
SRVC               .         AO "UPGF"                     : Service Company
DATE               .         17/7/2013                     : Date
UWI                .                                       : Unique Well ID
Block              .         7                             : 
Category           .         Нагнетательная                : 
Condition          .         В работе                      : 
Date               .         31.07.2013                    : 
EREF               .m        91.9                          : 100.8
GRP                .                                       : Group name
Gorizont           .         15                            : 14
ISS                .                                       : Well surveys
Interpretator      .         Ким С.В.                      : 
Kupol              .         основной                      : osnovnoi
Mud                .         0                             : 
Mud_density        .         0                             : 
Mud_resistivity    .         0                             : 
NGDU               .         НГДУ-2                        : 
ORIGINALWELLNAME   .         4535                          : 
Spud_date          .         2013                          : 1961
TIME               .         14_25                         : LOG TIME
Viscosity          .         0                             : 
X                  .m        42402.3                       : 46154
Y                  .m        84653.8                       : 85761.93
YEAR               .         2018                          : 
~Parameter Information Block
#_______________________________________________________________________________
#
#PARAMETER_NAME    .UNIT     VALUE                         : DESCRIPTION
#_______________________________________________________________________________
SET                .         LQC_KAZNIPI_Petrel            : 
TLFamily_CALI      .         Caliper                       : 
TLFamily_COLL      .         Net Reservoir Flag            : 
TLFamily_CSAT      .         Fluid Code                    : 
TLFamily_DEPT      .         Measured Depth                : 
TLFamily_DT        .         Compressional Slowness        : 
TLFamily_GR        .         Russian Gamma Ray             : 
TLFamily_GZ3       .         Gradient 225                  : 
TLFamily_IK1       .         Resistivity 05                : 
TLFamily_IK2       .         Resistivity 07                : 
TLFamily_IK3       .         Resistivity 10                : 
TLFamily_IK4       .         Resistivity 14                : 
TLFamily_IK5       .         Resistivity 20                : 
TLFamily_LLS       .         Lateral Log Resistivity       : 
TLFamily_MBK       .         Micro Lateral Log Resistivity : 
TLFamily_MINV      .         Micro Gradient Resistivity    : 
TLFamily_MNOR      .         Micro Resistivity             : 
TLFamily_NNKTB_1   .         Neutron Far                   : 
TLFamily_NNKTM_1   .         Neutron Near                  : 
TLFamily_NPHI      .         Neutron Porosity              : 
TLFamily_OGZ       .         Gradient Inverted 225         : 
TLFamily_PHIE      .         Effective Porosity            : 
TLFamily_PHIED     .         Effective Porosity            : 
TLFamily_PHIEN     .         Effective Porosity            : 
TLFamily_PHIES     .         Effective Porosity            : 
TLFamily_PHIT      .         Porosity                      : 
TLFamily_PRMB      .         Permeability                  : 
TLFamily_PRMB_DGR  .         Permeability                  : 
TLFamily_RHOB      .         Bulk Density                  : 
TLFamily_RT        .         Formation Resistivity         : 
TLFamily_SOIL_ARCHIE .         Oil Saturation                : 
TLFamily_SOIL_DW   .         Oil Saturation                : 
TLFamily_SP        .         Spontaneous Potential         : 
TLFamily_VSH_FIN   .         Shale Volume                  : 
TLFamily_VSH_GR    .         Shale Volume                  : 
TLFamily_VSH_SP    .         Shale Volume                  : 
~Curve Information
#_______________________________________________________________________________
#
#LOGNAME           .UNIT     LOG_ID                        : DESCRIPTION
#_______________________________________________________________________________
DEPT               .м                                      : Колонка глубины 
CALI               .м                                      : Каверномер 
COLL               .unitless                               : Описание 
CSAT               .unitless                               : Описание 
DT                 .мкс/м                                  : Интервальное время пробега продольной волны 
GR                 .uR/h                                   : Гамма каротаж 
GZ3                .Ohmm                                   : Градиент-зонд  длиной 2.25м 
IK1                .Ohmm                                   : И0.10И0.40 
IK2                .Ohmm                                   : И0.14И0.56 
IK3                .Ohmm                                   : И0.20И0.8 
IK4                .Ohmm                                   : И0.28И1.12 
IK5                .Ohmm                                   : И0.40И1.60 
LLS                .Ohmm                                   : Боковой каротаж 
MBK                .Ohmm                                   : Микробоковой каротаж 
MINV               .Ohmm                                   : Микро-градиент зонд 
MNOR               .Ohmm                                   : Микро-потенциал зонд 
NNKTB_1            .у.е.                                   : Показания большого зонда 2ННКт аппаратуры СРК 
NNKTM_1            .у.е.                                   : Показания малого зонда 2ННКт аппаратуры СРК 
NPHI               .v/v                                    : Neutron porosity index 
OGZ                .Ohmm                                   : N0.5M2.0A 
PHIE               .v/v                                    : Описание 
PHIED              .v/v                                    :  
PHIEN              .v/v                                    :  
PHIES              .v/v                                    :  
PHIT               .v/v                                    : Описание 
PRMB               .mD                                     :  
PRMB_DGR           .mD                                     :  
RHOB               .г/см3                                  : Плотность по ГГК-П 
RT                 .ohmm                                   : УЭС пласта 
SOIL_ARCHIE        .v/v                                    :  
SOIL_DW            .v/v                                    :  
SP                 .мВ                                     : Потенциал самополяризации 
VSH_FIN            .v/v                                    : Описание 
VSH_GR             .v/v                                    : Shale volume 
VSH_SP             .v/v                                    : Shale Volume 
~Ascii
# ...
1159       0.225      -9999      -9999      280.449    9.45       2.08       1.5863     1.4146     1.3299     1.3054     1.3722     1.25       1.59       0.85       0.89       2.01       1.43       0.31       1.51       0.0408814  0.02097707 0.07902821 0.02263892 0.1910199  0.01600961 1.21193    2.376      1.372      0          0          320.76     0.6999145  0.599829   0.8       
1159.2     0.226      -9999      -9999      290.188    9.58       2.08       1.5541     1.4176     1.3591     1.2979     1.3462     1.26       1.56       0.68       0.98       1.98       1.42       0.315      1.54       0.04844168 0.04248954 0.07504313 0.02779238 0.2044208  0.02210118 0.9796157  2.33       1.346      0          0          320.82     0.727142   0.6542841  0.8       
1159.4     0.228      -9999      -9999      297.1      9.17       2.35       1.5612     1.3501     1.3017     1.2551     1.3023     1.26       1.53       0.57       0.87       2          1.43       0.312      1.59       0.06213427 0.0269299  0.09792181 0.0615511  0.2012915  0.03963105 1.916635   2.385      1.302      0          0          320.11     0.6487218  0.4974437  0.8       
1159.6     0.232      -9999      -9999      302.567    8.83       2.77       1.5728     1.3573     1.3098     1.2979     1.3167     1.3        1.99       0.63       0.86       2.08       1.46       0.299      1.81       0.05741648 -0.01880082 0.1042132  0.08683708 0.1840337  0.03240788 3.343932   2.483      1.317      0          0          319.29     0.5902631  0.3963166  0.7842094 
1159.8     0.233      -9999      -9999      323.402    8.74       2.38       1.6481     1.5181     1.4614     1.4246     1.3855     1.38       1.88       0.94       1.36       2.2        1.5        0.28       1.71       0.06421301 -0.02341474 0.09528694 0.1207668  0.184282   0.04330507 3.874733   2.502      1.386      0          0          318.24     0.5597365  0.3731774  0.7462957 
1160       0.223      -9999      -9999      333.558    8.48       1.97       1.7958     1.6042     1.5058     1.4731     1.4081     1.41       1.35       1.65       1.73       2.16       1.52       0.286      1.32       0.07846216 -0.04215202 0.1242163  0.1533222  0.1836264  0.0795184  5.930416   2.559      1.408      0          0          316.02     0.4902537  0.3136445  0.6668629 
1160.2     0.226      -9999      -9999      327.875    8.55       1.89       1.7455     1.5841     1.4908     1.4231     1.3877     1.34       1.46       0.79       0.88       2          1.5        0.312      1.25       0.1156596  0.02405399 0.1632059  0.1597189  0.2123802  0.3885563  5.288338   2.463      1.388      0          0.05188407 313.13     0.4508913  0.328669   0.5731136 
1160.4     0.229      -9999      -9999      327.875    8.65       1.59       1.6548     1.4887     1.4304     1.3638     1.3369     1.3        1.34       0.79       0.88       1.83       1.45       0.341      1.39       0.1336185  0.03042519 0.2016955  0.1687349  0.2241706  0.83579    4.489792   2.463      1.337      0          0.1168942  310.31     0.4221348  0.3513893  0.4928804 
1160.6     0.232      -9999      -9999      327.875    8.47       1.69       1.6001     1.4529     1.3937     1.3345     1.3384     1.29       1.82       0.67       0.87       1.85       1.43       0.337      1.33       0.1942493  0.1808383  0.2158892  0.1860205  0.272975   11.09499   6.028288   2.368      1.338      0.1872105  0.3253844  307.47     0.3670024  0.3115551  0.4224498 
1160.8     0.233      -9999      -9999      327.664    8.38       1.82       1.6093     1.4561     1.3877     1.3373     1.3271     1.29       2.09       0.75       0.85       2.02       1.42       0.308      1.2        0.2054283  0.2143712  0.2018776  0.2000362  0.274411   17.87266   6.985192   2.312      1.327      0.2228665  0.3401563  304.04     0.3215829  0.2933648  0.3498011 
1161       0.235      -9999      -9999      322.481    8.6        1.51       1.6734     1.4545     1.3744     1.3437     1.3209     1.27       1.99       0.86       0.89       2.06       1.42       0.302      1.33       0.2010209  0.2143712  0.1950516  0.1936399  0.2705405  14.80993   4.872731   2.312      1.321      0.2063614  0.3271062  301.7      0.324086   0.3398394  0.3083326 
1161.2     0.237      -9999      -9999      315.641    8.85       1.42       1.5872     1.3537     1.3112     1.302      1.3078     1.24       1.7        0.9        0.95       2.01       1.42       0.31       1.46       0.1987959  0.2251498  0.1939411  0.1772967  0.2742375  13.46913   3.236223   2.294      1.308      0.1949026  0.3260135  301.21     0.3516935  0.4016506  0.3017364 
1161.4     0.245      -9999      -9999      307.509    8.75       1.82       1.4694     1.3261     1.2723     1.2654     1.2587     1.22       1.77       1.01       1.01       2.05       1.42       0.303      1.48       0.1873097  0.2011975  0.190058   0.1706734  0.2607253  8.252533   3.811819   2.334      1.259      0.1367404  0.2747279  301.52     0.3422484  0.3756803  0.3088166 
1161.6     0.242      -9999      -9999      303.319    8.64       1.78       1.399      1.2557     1.2043     1.1908     1.2019     1.2        1.73       1.1        1.04       2.07       1.43       0.3        1.74       0.1828121  0.1928143  0.1886116  0.1670104  0.2552179  6.812122   4.563889   2.348      1.202      0.09889255 0.2407864  302.38     0.3375405  0.3490484  0.3260326 
1161.8     0.239      -9999      -9999      316.735    8.67       1.65       1.1455     1.1155     1.0914     1.1101     1.1591     1.19       1.42       1.05       0.99       2.04       1.42       0.305      1.92       0.1909423  0.2053893  0.1889145  0.1785232  0.2664014  9.635479   4.345172   2.327      1.159      0.117444   0.25948    303.4      0.3517742  0.3561185  0.3474299 
1162       0.237      -9999      -9999      316.297    8.74       1.88       1.4157     1.257      1.2159     1.2076     1.2301     1.24       1.96       1.08       0.96       1.92       1.4        0.325      1.83       0.1908573  0.1958084  0.2036972  0.1730662  0.2697077  9.600595   3.874733   2.343      1.23       0.1413946  0.2862268  304.02     0.367584   0.3731774  0.3619906 
1162.2     0.245      -9999      -9999      311.999    9.3        1.9        1.7003     1.4169     1.3519     1.3394     1.3051     1.28       2.09       1.2        1.01       1.84       1.39       0.339      2.11       0.1490457  0.1217267  0.1867394  0.138671   0.2480196  1.613787   1.549236   2.296      1.305      0          0.1947158  304.78     0.4613957  0.5426037  0.3801877 
1162.4     0.24       -9999      -9999      308.37     9.4        1.61       1.3773     1.27       1.2638     1.2674     1.2717     1.26       1.82       1.26       0.92       1.8        1.39       0.346      2.43       0.1413369  0.1133344  0.1848069  0.1258693  0.2461172  1.161609   1.315299   2.3        1.272      0          0.1630402  305.43     0.4884638  0.5801129  0.3968147 
1162.6     0.246      -9999      -9999      318.233    8.94       1.6        1.4809     1.3268     1.2697     1.2366     1.2478     1.26       2.02       1.21       1.01       1.71       1.4        0.363      2.57       0.1732738  0.1363647  0.224515   0.1589419  0.2632932  4.535342   2.792897   2.287      1.248      0.07233395 0.2522216  306.02     0.4196515  0.426555   0.412748  
1162.8     0.25       -9999      -9999      319.227    8.91       1.71       1.4328     1.3594     1.3092     1.2766     1.2625     1.28       2.03       1.19       0.85       1.76       1.42       0.354      2.57       0.1574261  0.09636194 0.2156895  0.160227   0.2473321  2.307128   2.933477   2.354      1.263      0          0.1979173  306.23     0.4191229  0.4180866  0.4201593 
1163       0.245      -9999      -9999      315.392    9.06       1.35       1.6548     1.366      1.2796     1.2474     1.249      1.27       1.86       1.19       1.04       1.88       1.43       0.332      2.61       0.1488148  0.1116412  0.1861228  0.1486804  0.2436393  1.597971   2.294784   2.32       1.249      0          0.1675044  306.2      0.4420522  0.46218    0.4219243 
