~Version
 VERS              .         2.0                           : CWLS LOG ASCII STANDARD - VERSION 2.0
 WRAP              .         NO                            : ONE LINE PER DEPTH STEP
 DLM               .         SPACE                         : DELIMITING CHARACTER(SPACE TAB OR COMMA)
~Well Information
#_______________________________________________________________________________
#
#PARAMETER_NAME    .UNIT     VALUE                         : DESCRIPTION
#_______________________________________________________________________________
STRT               .м        0                             : First reference value
STOP               .м        1190.8                        : Last reference value
STEP               .м        0.2                           : Step increment
NULL               .         -9999                         : Missing value
COMP               .                                       : Company
WELL               .         4535                          : Well name
FLD                .         УЗЕНЬ                         : Field
LOC                .                                       : Location
CNTY               .                                       : County
STAT               .                                       : State
CTRY               .                                       : Country
SRVC               .         AO "UPGF"                     : Service Company
DATE               .         17/7/2013                     : Date
UWI                .                                       : Unique Well ID
Block              .         7                             : 
Category           .         Нагнетательная                : 
Condition          .         В работе                      : 
Date               .         31.07.2013                    : 
EREF               .m        91.9                          : 100.8
GRP                .                                       : Group name
Gorizont           .         15                            : 14
ISS                .                                       : Well surveys
Interpretator      .         Ким С.В.                      : 
Kupol              .         основной                      : osnovnoi
Mud                .         0                             : 
Mud_density        .         0                             : 
Mud_resistivity    .         0                             : 
NGDU               .         НГДУ-2                        : 
ORIGINALWELLNAME   .         4535                          : 
Spud_date          .         2013                          : 1961
TIME               .         14_25                         : LOG TIME
Viscosity          .         0                             : 
X                  .m        42402.3                       : 46154
Y                  .m        84653.8                       : 85761.93
YEAR               .         2018                          : 
~Parameter Information Block
#_______________________________________________________________________________
#
#PARAMETER_NAME    .UNIT     VALUE                         : DESCRIPTION
#_______________________________________________________________________________
SET                .         LQC_KAZNIPI_Petrel            : 
TLFamily_CALI      .         Caliper                       : 
TLFamily_COLL      .         Net Reservoir Flag            : 
TLFamily_CSAT      .         Fluid Code                    : 
TLFamily_DEPT      .         Measured Depth                : 
TLFamily_DT        .         Compressional Slowness        : 
TLFamily_GR        .         Russian Gamma Ray             : 
TLFamily_GZ3       .         Gradient 225                  : 
TLFamily_IK1       .         Resistivity 05                : 
TLFamily_IK2       .         Resistivity 07                : 
TLFamily_IK3       .         Resistivity 10                : 
TLFamily_IK4       .         Resistivity 14                : 
TLFamily_IK5       .         Resistivity 20                : 
TLFamily_LLS       .         Lateral Log Resistivity       : 
TLFamily_MBK       .         Micro Lateral Log Resistivity : 
TLFamily_MINV      .         Micro Gradient Resistivity    : 
TLFamily_MNOR      .         Micro Resistivity             : 
TLFamily_NNKTB_1   .         Neutron Far                   : 
TLFamily_NNKTM_1   .         Neutron Near                  : 
TLFamily_NPHI      .         Neutron Porosity              : 
TLFamily_OGZ       .         Gradient Inverted 225         : 
TLFamily_PHIE      .         Effective Porosity            : 
TLFamily_PHIED     .         Effective Porosity            : 
TLFamily_PHIEN     .         Effective Porosity            : 
TLFamily_PHIES     .         Effective Porosity            : 
TLFamily_PHIT      .         Porosity                      : 
TLFamily_PRMB      .         Permeability                  : 
TLFamily_PRMB_DGR  .         Permeability                  : 
TLFamily_RHOB      .         Bulk Density                  : 
TLFamily_RT        .         Formation Resistivity         : 
TLFamily_SOIL_ARCHIE .         Oil Saturation                : 
TLFamily_SOIL_DW   .         Oil Saturation                : 
TLFamily_SP        .         Spontaneous Potential         : 
TLFamily_VSH_FIN   .         Shale Volume                  : 
TLFamily_VSH_GR    .         Shale Volume                  : 
TLFamily_VSH_SP    .         Shale Volume                  : 
~Curve Information
#_______________________________________________________________________________
#
#LOGNAME           .UNIT     LOG_ID                        : DESCRIPTION
#_______________________________________________________________________________
DEPT               .м                                      : Колонка глубины 
CALI               .м                                      : Каверномер 
COLL               .unitless                               : Описание 
CSAT               .unitless                               : Описание 
DT                 .мкс/м                                  : Интервальное время пробега продольной волны 
GR                 .uR/h                                   : Гамма каротаж 
GZ3                .Ohmm                                   : Градиент-зонд  длиной 2.25м 
IK1                .Ohmm                                   : И0.10И0.40 
IK2                .Ohmm                                   : И0.14И0.56 
IK3                .Ohmm                                   : И0.20И0.8 
IK4                .Ohmm                                   : И0.28И1.12 
IK5                .Ohmm                                   : И0.40И1.60 
LLS                .Ohmm                                   : Боковой каротаж 
MBK                .Ohmm                                   : Микробоковой каротаж 
MINV               .Ohmm                                   : Микро-градиент зонд 
MNOR               .Ohmm                                   : Микро-потенциал зонд 
NNKTB_1            .у.е.                                   : Показания большого зонда 2ННКт аппаратуры СРК 
NNKTM_1            .у.е.                                   : Показания малого зонда 2ННКт аппаратуры СРК 
NPHI               .v/v                                    : Neutron porosity index 
OGZ                .Ohmm                                   : N0.5M2.0A 
PHIE               .v/v                                    : Описание 
PHIED              .v/v                                    :  
PHIEN              .v/v                                    :  
PHIES              .v/v                                    :  
PHIT               .v/v                                    : Описание 
PRMB               .mD                                     :  
PRMB_DGR           .mD                                     :  
RHOB               .г/см3                                  : Плотность по ГГК-П 
RT                 .ohmm                                   : УЭС пласта 
SOIL_ARCHIE        .v/v                                    :  
SOIL_DW            .v/v                                    :  
SP                 .мВ                                     : Потенциал самополяризации 
VSH_FIN            .v/v                                    : Описание 
VSH_GR             .v/v                                    : Shale volume 
VSH_SP             .v/v                                    : Shale Volume 
~Ascii
# ...
944.8      0.22       -9999      -9999      280.151    3.98       5.78       5.932199999999999 4.3472     4.4899     4.162299999999999 4.312      3.6        2.78       2.34       2.78       3.32       1.8        -9999      5.16       0.1810967  0.175449   -9999      0.1867443  0.2085489  6.331513   81.73774   2.377      4.312      0.5011068  0.5475418  337.27     0.1751176  0.1074504  0.2427848 
945        0.221      -9999      -9999      280.641    4.13       5.71       3.7605     3.2854     3.441600000000001 3.7335     3.8984     3.34       3.29       2.15       2.26       3.16       1.76       -9999      5.19       0.1732554  0.1610778  -9999      0.185433   0.2017198  4.531778   64.48421   2.401      3.898      0.4563473  0.5057064  337.28     0.1815738  0.1183734  0.2447743 
945.2000000000001 0.221      -9999      -9999      273.65     4.15       5.61       7.011300000000001 5.5964     4.6926     4.3513     4.0114     3.75       10.25      4.4        4.43       3.13       1.75       -9999      5.44       0.1723188  0.169461   -9999      0.1751766  0.2007044  4.354322   62.47757   2.387      4.011      0.4610507  0.5101756  336.94     0.1810711  0.1199113  0.242231  
945.4      0.22       -9999      -9999      267.157    4.39       5.48       7.873899999999999 5.508500000000001 5.089600000000001 4.4633     4.0882     3.81       4.11       2.77       2.71       3.08       1.77       -9999      5.32       0.1809492  0.1994013  -9999      0.1624971  0.2105943  6.291814   42.7537    2.337      4.088      0.4880971  0.5377474  336.48     0.1891059  0.1400017  0.2382102 
945.6      0.22       -9999      -9999      277.657    4.36       5.49       3.6143     3.0235     3.0577     3.1529     3.3849     3.04       2.94       1.88       2          3.1        1.72       -9999      5.35       0.1752122  0.1706587  -9999      0.1797658  0.2043198  4.926219   44.82987   2.385      3.385      0.4247836  0.4759704  336        0.1856766  0.1373169  0.2340364 
945.8      0.222      -9999      -9999      273.722    3.81       5.91       3.7475     3.3897     3.1437     3.2615     3.371      3.45       5.78       2.67       3.04       3.23       1.72       -9999      5.71       0.1722212  0.163473   -9999      0.1809694  0.1977654  4.336237   106.9353   2.397      3.371      0.4149558  0.461023   335.49     0.1629456  0.0962845  0.2296067 
946        0.221      -9999      -9999      264.146    3.36       6.29       8.8958     6.447299999999999 5.285299999999999 4.8169     4.4644     4.44       18.33      4.37       5.09       3.35       1.83       -9999      5.889999   0.154961   0.1401197  -9999      0.1698023  0.1785129  2.076882   217.7853   2.436      4.464      0.4377877  0.4804136  335.25     0.1502375  0.07201437 0.2284606 
946.2000000000001 0.221      -9999      -9999      268.066    3.27       6.14       6.390600000000001 5.0627     4.456      4.637299999999999 4.6161     4.08       4.92       2.4        2.65       3.28       1.85       -9999      5.34       0.1676126  0.1586827  -9999      0.1765425  0.190961   3.56246    251.0787   2.405      4.616      0.4831187  0.5245982  335.23     0.1489395  0.06795036 0.2299286 
946.4      0.223      -9999      -9999      274.766    3.65       5.86       3.9578     3.4321     3.5027     3.6319     4.209400000000001 3.37       3.54       1.87       2.25       3          1.77       -9999      4.69       0.1778437  0.1718563  -9999      0.1838311  0.202751   5.511315   137.7066   2.383      4.209      0.4873856  0.5309618  335.17     0.1588833  0.08683757 0.2309291 
946.6      0.225      -9999      -9999      281.644    3.85       5.75       5.669599999999999 4.9671     4.0771     4.0248     3.888100000000001 3.59       7.71       2.35       3.13       2.89       1.72       -9999      4.27       0.1911638  0.1904192  -9999      0.1919085  0.2171163  9.726937   100.3836   2.352      3.888      0.5003811  0.5450057  335.14     0.1655506  0.09880264 0.2322986 
946.8      0.224      -9999      -9999      306.514    3.6        5.51       6.0839     5.2894     4.5764     3.999499999999999 4.2761     3.58       3.86       2.36       2.7        3          1.76       -9999      4.03       0.2109776  0.1952095  -9999      0.2267456  0.2359901  22.6451    149.0314   2.344      4.276      0.5615202  0.6034346  335.22     0.1595548  0.08407993 0.2350296 
947        0.22       -9999      -9999      311.978    3.74       5.34       5.4638     3.6822     3.7055     3.604099999999999 3.664200000000001 3.06       3.05       1.99       2.07       3.02       1.74       -9999      3.98       0.2061203  0.1814371  -9999      0.2308034  0.2323723  18.40794   119.4464   2.367      3.664      0.518896   0.5634616  335.7      0.1674613  0.0920312  0.2428914 
947.2000000000001 0.218      -9999      -9999      332.96     4.16       5.52       4.0734     3.7859     3.6081     3.5524     3.4531     3.03       5.77       2.82       3.08       2.95       1.71       -9999      4.12       0.2207935  0.194012   -9999      0.247575   0.2502136  34.4183    61.49784   2.346      3.453      0.5340759  0.5814557  336.44     0.1876704  0.1206877  0.254653  
947.4      0.218      -9999      -9999      378.04     4.39       5.58       7.8938     5.405700000000001 4.4856     4.1057     3.458899999999999 3.26       3.22       2.5        2.24       2.87       1.71       -9999      4.37       0.2428935  0.202994   -9999      0.282793   0.2751902  88.33528   42.7537    2.331      3.459      0.5715717  0.6198137  337.51     0.2060208  0.1400017  0.27204   
947.6      0.218      -9999      -9999      392.831    4.61       5.19       4.2999     3.1911     3.1163     3.0449     3.0409     2.71       2.8        2.22       2          2.69       1.67       -9999      4.28       0.2424229  0.1976048  -9999      0.287241   0.2781927  86.58018   30.19618   2.34       3.041      0.5441106  0.5967062  338.83     0.2281752  0.1613616  0.2949887 
947.8      0.218      -9999      -9999      365.047    4.79       4.92       3.1588     2.2787     2.4261     2.5384     2.7732     2.67       3.1        2.11       2.09       2.64       1.59       -9999      4.3        0.2113406  0.1628743  -9999      0.259807   0.249745   22.99846   22.71901   2.398      2.773      0.4635096  0.5236514  339.5      0.2449809  0.1812405  0.3087214 
948        0.218      -9999      -9999      341.88     4.72       5.23       3.8744     3.2247     3.2863     3.2091     3.3052     3.45       5.87       2.91       3.18       2.98       1.64       -9999      4.6        0.1899255  0.1407186  -9999      0.2391323  0.2280491  9.22653    25.37708   2.435      3.305      0.4577421  0.5189154  339.61     0.2431904  0.1732343  0.3131465 
948.2000000000001 0.218      -9999      -9999      329.992    4.52       5.86       8.742900000000001 5.9829     5.379      5.012099999999999 4.67       4.52       7.14       3.47       3.64       3.49       1.79       -9999      4.530001   0.1773495  0.1251497  -9999      0.2295492  0.2142373  5.396353   34.81239   2.461      4.67       0.5106023  0.5680921  339.76     0.2353072  0.1522555  0.318359  
948.4      0.218      -9999      -9999      321.891    4.14       6.07       8.437800000000001 5.680299999999999 5.4467     5.1297     4.9045     4.45       5.36       3.05       3.22       3.6        1.88       -9999      4.05       0.1728429  0.1203592  -9999      0.2253266  0.2074797  4.452744   63.47298   2.469      4.904      0.5108595  0.5659562  339.86     0.2209478  0.1191398  0.3227558 
948.6      0.218      -9999      -9999      341.425    3.78       5.86       7.953800000000001 5.6441     4.9094     4.396399999999999 4.324      3.75       6.67       3.29       3.48       3.22       1.83       -9999      3.67       0.2169768  0.1844312  -9999      0.2495225  0.2496824  29.24795   112.1282   2.362      4.324      0.5743341  0.6227256  339.72     0.2086286  0.0944381  0.3228191 
948.8      0.218      -9999      -9999      366.225    3.85       5.56       5.4297     4.1357     3.8915     3.5614     3.257      2.9        2.88       1.82       1.95       2.73       1.74       -9999      3.29       0.2278747  0.1844312  -9999      0.2713182  0.2610275  46.55322   100.3836   2.362      3.257      0.5341094  0.5850011  339.65     0.211481   0.09880264 0.3241594 
