~Version
 VERS              .         2.0                           : CWLS LOG ASCII STANDARD - VERSION 2.0
 WRAP              .         YES                            : ONE LINE PER DEPTH STEP
 DLM               .         SPACE                         : DELIMITING CHARACTER(SPACE TAB OR COMMA)
~Well Information
#_______________________________________________________________________________
#
#PARAMETER_NAME    .UNIT     VALUE                         : DESCRIPTION
#_______________________________________________________________________________
STRT               .M        900                           : First reference value
STOP               .M        1287.2                        : Last reference value
STEP               .M        0.2                           : Step increment
NULL               .         -9999                         : Missing value
COMP               .                                       : Company
WELL               .         1437                          : Well name
FLD                .         Узень                         : Field
LOC                .                                       : Location
CNTY               .                                       : County
STAT               .                                       : State
CTRY               .                                       : Country
SRVC               .                                       : Service Company
DATE               .         09.08.1970                    : Date
UWI                .                                       : Unique Well ID
Block              .         6а                            : 
Cartographic_reference_system .         GCS_WGS_1984                  : ESRI,PE_10_3_1- <?xml version="1.0" encoding="utf-16"?><ILateBoundCoordinateReferenceSystem name="GCS_WGS_1984"><AuthorityCode>EPSG,4326</AuthorityCode></ILateBoundCoordinateReferenceSystem>
Category           .         Нефтяная                      : 
Condition          .         В работе                      : 
EREF               .m        83.2                          : 100.8
Gorizont           .         14                            : 14
HZCS               .GCS_WGS_1984 WGS_1984_EASE-Grid_2.0_Global : ESRI,PE_10_3_1- <?xml version="1.0" encoding="utf-16"?><ILateBoundCoordinateReferenceSystem name="WGS_1984_EASE-Grid_2.0_Global"><AuthorityCode>EPSG,6933</AuthorityCode></ILateBoundCoordinateReferenceSystem>
Interpretator      .         Сагынбаева А.Н.               : 
Kupol              .         основной                      : osnovnoi
LATI               .dega     0.6696466301                  : GCS_WGS_1984
LONG               .dega     0.461773424                   : GCS_WGS_1984
Mud                .         глинистый                     : 
Mud_density        .         1,18                          : 
Mud_resistivity    .         0                             : 
NGDU               .         НГДУ-2                        : 
ORIGINALWELLNAME   .         1437                          : 
Spud_date          .         1970                          : 1961
Viscosity          .         25                            : 
X                  .m        44554.8                       : 46154
Y                  .m        85427.13                      : 85761.93
YEAR               .         2019                          : 
~Parameter Information Block
#_______________________________________________________________________________
#
#PARAMETER_NAME    .UNIT     VALUE                         : DESCRIPTION
#_______________________________________________________________________________
SET                .         LQC_KAZNIPI_Petrel            : 
TLFamily_CALI      .         Caliper                       : 
TLFamily_COLL      .         Net Reservoir Flag            : 
TLFamily_CSAT      .         Fluid Code                    : 
TLFamily_DEPT      .         Measured Depth                : 
TLFamily_GR        .         Russian Gamma Ray             : 
TLFamily_LLS       .         Lateral Log Resistivity       : 
TLFamily_MINV      .         Micro Gradient Resistivity    : 
TLFamily_MNOR      .         Micro Resistivity             : 
TLFamily_NGLD      .         Neutron Gamma                 : 
TLFamily_PHIE      .         Effective Porosity            : 
TLFamily_PHIEN     .         Effective Porosity            : 
TLFamily_PHIT      .         Porosity                      : 
TLFamily_PRMB      .         Permeability                  : 
TLFamily_PRMB_DGR  .         Permeability                  : 
TLFamily_RT        .         Formation Resistivity         : 
TLFamily_SOIL_ARCHIE .         Oil Saturation                : 
TLFamily_SOIL_DW   .         Oil Saturation                : 
TLFamily_SP        .         Spontaneous Potential         : 
TLFamily_VSH_FIN   .         Shale Volume                  : 
TLFamily_VSH_GR    .         Shale Volume                  : 
TLFamily_VSH_SP    .         Shale Volume                  : 
~Curve Information
#_______________________________________________________________________________
#
#LOGNAME           .UNIT     LOG_ID                        : DESCRIPTION
#_______________________________________________________________________________
DEPT               .M                                      : Колонка глубины 
CALI               .м                                      : Каверномер 
COLL               .unitless                               : Описание 
CSAT               .unitless                               :  
GR                 .uR/h                                   : Гамма каротаж 
LLS                .Ohmm                                   : УЭС пласта 
MINV               .Ohmm                                   : Микро-градиент зонд 
MNOR               .Ohmm                                   : Микро-потенциал зонд 
NGLD               .у.е.                                   : Показания зонда НГК-60 аппаратуры ДРСТ-3-90 
PHIE               .v/v                                    : Описание 
PHIEN              .v/v                                    :  
PHIT               .v/v                                    : Описание 
PRMB               .mD                                     :  
PRMB_DGR           .mD                                     :  
RT                 .ohmm                                   : УЭС пласта 
SOIL_ARCHIE        .v/v                                    :  
SOIL_DW            .v/v                                    :  
SP                 .мВ                                     : Потенциал самополяризации 
VSH_FIN            .v/v                                    : Описание 
VSH_GR             .v/v                                    : Shale volume 
VSH_SP             .v/v                                    : Shale Volume 
~Ascii
# ...
1137.6     
  0.21       1          2          6.468019   9.382      1.712      
  1.981      1.270515   0.2184359  0.2184359  0.2566498  31.12586   
  74.51779   9.382      0.7057821  0.7486103  11.049     0.1157995  
  0.1115856  0.1200134 
1137.8     
  0.21       1          2          6.437268   9.382      1.737      
  2.337      1.271857   0.2176443  0.2176443  0.2557812  30.09249   
  76.99732   9.382      0.7048503  0.7477309  11.811     0.1155666  
  0.110104   0.1210291 
1138       
  0.21       1          2          6.389271   9.332      1.509      
  2.476      1.272454   0.21745    0.21745    0.2553951  29.84415   
  81.03323   9.332      0.7038789  0.74674    12.573     0.1149854  
  0.1078309  0.1221398 
1138.2     
  0.21       1          2          6.337272   9.261      1.915      
  2.362      1.272333   0.2179256  0.2179256  0.2554731  30.45569   
  85.64485   9.261      0.7033808  0.7460515  12.573     0.1137805  
  0.1054212  0.1221398 
1138.4     
  0.21       1          2          6.30124    8.403      1.915      
  2.362      1.270766   0.2192103  0.2192103  0.2564876  32.17106   
  88.99333   8.403      0.6911199  0.7346722  12.573     0.1129614  
  0.1037831  0.1221398 
1138.6     
  0.21       1          2          6.295372   8.403      1.991      
  2.413      1.26711    0.2217438  0.2217438  0.2588533  35.84186   
  89.55097   8.403      0.6941957  0.7373552  12.065     0.1124533  
  0.1035187  0.121388  
1138.8     
  0.21       1          2          6.320817   8.403      1.445      
  2.146      1.261418   0.2253533  0.2253533  0.2625362  41.80695   
  87.15811   8.403      0.6984662  0.741262   11.557     0.1126753  
  0.1046699  0.1206808 
1139       
  0.21       1          2          6.369389   7.426      1.813      
  2.299      1.253737   0.2301952  0.2301952  0.2675068  51.39623   
  82.76647   7.426      0.6863214  0.7301689  10.414     0.1130655  
  0.1069031  0.119228  
1139.2     
  0.21       1          2          6.434086   7.338      1.42       
  1.93       1.243743   0.2361592  0.2361592  0.2739739  66.28251   
  77.25851   7.338      0.6915113  0.7351539  10.414     0.1145899  
  0.1099519  0.119228  
1139.4     
  0.21       1          2          6.516558   8.512      1.42       
  1.93       1.231876   0.2431765  0.2431765  0.2816533  89.40828   
  70.76557   8.512      0.7195098  0.7609668  10.414     0.1165963  
  0.1139646  0.119228  
1139.6     
  0.21       1          2          6.620335   8.512      1.585      
  2.07       1.220864   0.2495089  0.2495089  0.2887792  117.1298   
  63.36486   8.512      0.72572    0.7669367  10.033     0.119001   
  0.1192228  0.1187791 
1139.8     
  0.21       1          2          6.742084   8.512      1.724      
  2.159      1.215087   0.2523193  0.2523193  0.2925172  132.0454   
  55.66307   8.512      0.7283828  0.7697523  9.271      0.121812   
  0.1257016  0.1179224 
1140       
  0.21       1          2          6.866221   8.94       1.737      
  2.311      1.21727    0.2499567  0.2499567  0.2911043  119.3886   
  48.77327   8.94       0.7323806  0.7738019  8.128      0.1246898  
  0.1326701  0.1167094 
1140.2     
  0.21       1          2          6.966647   8.792      1.902      
  2.388      1.225958   0.2433582  0.2433582  0.2854825  90.10368   
  43.82861   8.792      0.7239173  0.7666959  8.128      0.1276494  
  0.1385893  0.1167094 
1140.4     
  0.21       1          2          7.0225     7.376      1.902      
  2.388      1.23717    0.2355412  0.2355412  0.2782274  64.55848   
  41.29886   7.376      0.6915551  0.7378744  8.128      0.1293522  
  0.1419949  0.1167094 
1140.6     
  0.21       1          2          7.041035   7.376      1.801      
  2.311      1.247259   0.2287132  0.2287132  0.2716988  48.24823   
  40.49206   7.376      0.6835503  0.7309288  8.763      0.1302593  
  0.1431434  0.1173751 
1140.8     
  0.21       1          2          7.056147   7.376      1.686      
  2.261      1.253993   0.2239925  0.2239925  0.2673412  39.44954   
  39.84592   7.376      0.6777495  0.7259989  9.906      0.1313598  
  0.1440867  0.1186328 
1141       
  0.21       1          2          7.098748   6.748      1.483      
  2.286      1.256737   0.2213178  0.2213178  0.2655654  35.19657   
  38.07947   6.748      0.6604744  0.7109628  12.065     0.1340837  
  0.1467795  0.121388  
1141.2     
  0.209      1          2          7.171003   6.389      1.724      
  2.172      1.256482   0.2207101  0.2207101  0.2657304  34.29613   
  35.26054   6.389      0.6508164  0.7027137  12.065     0.1364251  
  0.1514623  0.121388  
1141.4     
  0.209      1          2          7.254458   5.764      1.724      
  2.172      1.254711   0.2209331  0.2209331  0.2668766  34.62386   
  32.26337   5.764      0.6338558  0.6879202  12.065     0.1392226  
  0.1570571  0.121388  
1141.6     
  0.209      1          2          7.333539   5.764      1.547      
  2.146      1.2524     0.2214923  0.2214923  0.2683722  35.4595    
  29.65874   5.764      0.634661   0.6892574  12.192     0.1420604  
  0.1625493  0.1215716 
1141.8     
  0.209      1          2          7.399723   5.764      1.61       
  1.994      1.250438   0.2220089  0.2220089  0.2696413  36.24945   
  27.64127   5.764      0.6354016  0.6904074  12.065     0.1443405  
  0.1672931  0.121388  
1142       
  0.209      1          2          7.442687   5.422      1.458      
  2.108      1.250137   0.2218562  0.2218562  0.2698364  36.01413   
  26.40564   5.422      0.6245598  0.6808332  11.303     0.1453944  
  0.1704465  0.1203424 
1142.2     
  0.21       1          2          7.454      5.241      1.75       
  2.07       1.252224   0.2203669  0.2203669  0.2684856  33.79767   
  26.08959   5.241      0.6162857  0.6734986  11.303     0.1458145  
  0.1712866  0.1203424 
1142.4     
  0.21       1          2          7.43725    5.514      1.75       
  2.07       1.255901   0.218193   0.218193   0.2661068  30.80503   
  26.55889   5.514      0.6220717  0.6787006  11.303     0.1451933  
  0.1700442  0.1203424 
1142.6     
  0.21       1          2          7.406404   5.514      1.648      
  2.235      1.259157   0.2165405  0.2165405  0.2639998  28.70872   
  27.4454    5.514      0.6195611  0.6761838  10.922     0.1438159  
  0.1677796  0.1198523 
1142.8     
  0.21       1          2          7.373583   5.514      1.763      
  2.261      1.259908   0.2165493  0.2165493  0.2635134  28.71943   
  28.42115   5.514      0.6195744  0.6758443  10.414     0.1423156  
  0.1654032  0.119228  
1143       
  0.21       1          2          7.343022   5.788      1.547      
  2.261      1.257396   0.2186331  0.2186331  0.2651389  31.38869   
  29.36088   5.788      0.6312231  0.6860049  9.906      0.1409267  
  0.1632206  0.1186328 
1143.2     
  0.21       1          2          7.316779   5.997      1.801      
  2.337      1.252963   0.2218071  0.2218071  0.2680075  35.93877   
  30.19261   5.997      0.6418353  0.6952977  9.906      0.1400011  
  0.1613695  0.1186328 
1143.4     
  0.21       1          2          7.297701   6.23       1.801      
  2.337      1.249168   0.2244827  0.2244827  0.2704632  40.28305   
  30.812     6.23       0.6518399  0.7041237  9.906      0.1393349  
  0.1600369  0.1186328 
1143.6     
  0.21       1          2          7.28222    6.23       1.483      
  2.045      1.247285   0.225902   0.225902   0.2716816  42.79685   
  31.32395   6.23       0.6537458  0.705676   9.779      0.1387258  
  0.1589637  0.118488  
1143.8     
  0.211      1          2          7.260571   6.23       1.483      
  2.083      1.245852   0.2270989  0.2270989  0.2726091  45.0381    
  32.05413   6.23       0.6553357  0.7069103  9.652      0.1379098  
  0.1574749  0.1183446 
1144       
  0.211      1          2          7.227835   6.254      1.902      
  2.07       1.242023   0.2299906  0.2299906  0.2750871  50.94971   
  33.19075   6.254      0.6597275  0.7105506  9.398      0.136656   
  0.1552502  0.1180619 
