~Version
 VERS              .         2.0                           : CWLS LOG ASCII STANDARD - VERSION 2.0
 WRAP              .         YES                            : ONE LINE PER DEPTH STEP
 DLM               .         SPACE                         : DELIMITING CHARACTER(SPACE TAB OR COMMA)
~Well Information
#_______________________________________________________________________________
#
#PARAMETER_NAME    .UNIT     VALUE                         : DESCRIPTION
#_______________________________________________________________________________
STRT               .M        900                           : First reference value
STOP               .M        1287.2                        : Last reference value
STEP               .M        0.2                           : Step increment
NULL               .         -9999                         : Missing value
COMP               .                                       : Company
WELL               .         1437                          : Well name
FLD                .         Узень                         : Field
LOC                .                                       : Location
CNTY               .                                       : County
STAT               .                                       : State
CTRY               .                                       : Country
SRVC               .                                       : Service Company
DATE               .         09.08.1970                    : Date
UWI                .                                       : Unique Well ID
Block              .         6а                            : 
Cartographic_reference_system .         GCS_WGS_1984                  : ESRI,PE_10_3_1- <?xml version="1.0" encoding="utf-16"?><ILateBoundCoordinateReferenceSystem name="GCS_WGS_1984"><AuthorityCode>EPSG,4326</AuthorityCode></ILateBoundCoordinateReferenceSystem>
Category           .         Нефтяная                      : 
Condition          .         В работе                      : 
EREF               .m        83.2                          : 100.8
Gorizont           .         14                            : 14
HZCS               .GCS_WGS_1984 WGS_1984_EASE-Grid_2.0_Global : ESRI,PE_10_3_1- <?xml version="1.0" encoding="utf-16"?><ILateBoundCoordinateReferenceSystem name="WGS_1984_EASE-Grid_2.0_Global"><AuthorityCode>EPSG,6933</AuthorityCode></ILateBoundCoordinateReferenceSystem>
Interpretator      .         Сагынбаева А.Н.               : 
Kupol              .         основной                      : osnovnoi
LATI               .dega     0.6696466301                  : GCS_WGS_1984
LONG               .dega     0.461773424                   : GCS_WGS_1984
Mud                .         глинистый                     : 
Mud_density        .         1,18                          : 
Mud_resistivity    .         0                             : 
NGDU               .         НГДУ-2                        : 
ORIGINALWELLNAME   .         1437                          : 
Spud_date          .         1970                          : 1961
Viscosity          .         25                            : 
X                  .m        44554.8                       : 46154
Y                  .m        85427.13                      : 85761.93
YEAR               .         2019                          : 
~Parameter Information Block
#_______________________________________________________________________________
#
#PARAMETER_NAME    .UNIT     VALUE                         : DESCRIPTION
#_______________________________________________________________________________
SET                .         LQC_KAZNIPI_Petrel            : 
TLFamily_CALI      .         Caliper                       : 
TLFamily_COLL      .         Net Reservoir Flag            : 
TLFamily_CSAT      .         Fluid Code                    : 
TLFamily_DEPT      .         Measured Depth                : 
TLFamily_GR        .         Russian Gamma Ray             : 
TLFamily_LLS       .         Lateral Log Resistivity       : 
TLFamily_MINV      .         Micro Gradient Resistivity    : 
TLFamily_MNOR      .         Micro Resistivity             : 
TLFamily_NGLD      .         Neutron Gamma                 : 
TLFamily_PHIE      .         Effective Porosity            : 
TLFamily_PHIEN     .         Effective Porosity            : 
TLFamily_PHIT      .         Porosity                      : 
TLFamily_PRMB      .         Permeability                  : 
TLFamily_PRMB_DGR  .         Permeability                  : 
TLFamily_RT        .         Formation Resistivity         : 
TLFamily_SOIL_ARCHIE .         Oil Saturation                : 
TLFamily_SOIL_DW   .         Oil Saturation                : 
TLFamily_SP        .         Spontaneous Potential         : 
TLFamily_VSH_FIN   .         Shale Volume                  : 
TLFamily_VSH_GR    .         Shale Volume                  : 
TLFamily_VSH_SP    .         Shale Volume                  : 
~Curve Information
#_______________________________________________________________________________
#
#LOGNAME           .UNIT     LOG_ID                        : DESCRIPTION
#_______________________________________________________________________________
DEPT               .M                                      : Колонка глубины 
CALI               .м                                      : Каверномер 
COLL               .unitless                               : Описание 
CSAT               .unitless                               :  
GR                 .uR/h                                   : Гамма каротаж 
LLS                .Ohmm                                   : УЭС пласта 
MINV               .Ohmm                                   : Микро-градиент зонд 
MNOR               .Ohmm                                   : Микро-потенциал зонд 
NGLD               .у.е.                                   : Показания зонда НГК-60 аппаратуры ДРСТ-3-90 
PHIE               .v/v                                    : Описание 
PHIEN              .v/v                                    :  
PHIT               .v/v                                    : Описание 
PRMB               .mD                                     :  
PRMB_DGR           .mD                                     :  
RT                 .ohmm                                   : УЭС пласта 
SOIL_ARCHIE        .v/v                                    :  
SOIL_DW            .v/v                                    :  
SP                 .мВ                                     : Потенциал самополяризации 
VSH_FIN            .v/v                                    : Описание 
VSH_GR             .v/v                                    : Shale volume 
VSH_SP             .v/v                                    : Shale Volume 
~Ascii
# ...
1025.4     
  0.291      -9999      -9999      6.990988   2.327      1.788      
  1.334      1.091253   0.1479303  0.1479303  0.3726501  1.538815   
  0.9777445  2.327      0.2052492  0.5297641  52.07      0.6809689  
  0.6547951  0.7071428 
1025.6     
  0.291      -9999      -9999      7.002074   2.327      1.585      
  1.219      1.094808   0.1451819  0.1451819  0.3703498  1.368608   
  0.9678828  2.327      0.1921614  0.5246871  52.07      0.682327   
  0.6575112  0.7071428 
1025.8     
  0.294      -9999      -9999      7.042809   2.283      1.483      
  1.308      1.099567   0.1396496  0.1396496  0.3672703  1.080955   
  0.9324924  2.283      0.1568392  0.5107654  52.197     0.6897597  
  0.6675888  0.7119307 
1026       
  0.306      -9999      -9999      7.078147   2.283      1.775      
  1.359      1.10508    0.1338247  0.1338247  0.3637029  0.8431706  
  0.9028403  2.283      0.1249636  0.5001466  52.324     0.6966007  
  0.6764562  0.7167452 
1026.2     
  0.325      -9999      -9999      7.081417   2.283      1.928      
  1.499      1.109159   0.131843   0.131843   0.3610632  0.7748374  
  0.9001445  2.283      0.1135198  0.4951277  52.197     0.6946067  
  0.6772827  0.7119307 
1026.4     
  0.325      -9999      -9999      7.052338   2.297      1.928      
  1.499      1.110625   0.1321013  0.1321013  0.3601146  0.7834188  
  0.9244018  2.297      0.1175646  0.4961625  52.197     0.6909496  
  0.6699684  0.7119307 
1026.6     
  0.325      -9999      -9999      7.00116    2.327      1.572      
  1.257      1.11137    0.1337118  0.1337118  0.3596326  0.8391201  
  0.9686922  2.327      0.1321294  0.5011406  52.197     0.6846088  
  0.6572869  0.7119307 
1026.8     
  0.285      -9999      -9999      6.931262   2.56       1.801      
  1.346      1.114505   0.1352672  0.1352672  0.3576041  0.8966755  
  1.032632   2.56       0.1784533  0.5246167  52.07      0.6737481  
  0.6403534  0.7071428 
1027       
  0.267      -9999      -9999      6.849226   2.56       2.029      
  1.359      1.120684   0.1352416  0.1352416  0.3536053  0.8956941  
  1.113077   2.56       0.1783175  0.5211413  51.943     0.6617083  
  0.6210354  0.7023812 
1027.2     
  0.285      -9999      -9999      6.777811   2.56       1.394      
  1.067      1.127042   0.1384473  0.1384473  0.3494912  1.026922   
  1.188194   2.56       0.1949132  0.5216035  51.181     0.6395271  
  0.6046932  0.6743611 
1027.4     
  0.285      -9999      -9999      6.74007    2.607      1.394      
  1.067      1.130451   0.1376373  0.1376373  0.3472851  0.9920548  
  1.229918   2.607      0.1976676  0.5230044  51.181     0.6352962  
  0.5962313  0.6743611 
1027.6     
  0.285      -9999      -9999      6.734179   2.619      2.194      
  1.321      1.131309   0.1372986  0.1372986  0.3467301  0.9778233  
  1.23656    2.619      0.1976744  0.5231872  51.181     0.6346412  
  0.5949214  0.6743611 
1027.8     
  0.297      -9999      -9999      6.741301   2.588      1.826      
  1.524      1.133255   0.1380313  0.1380313  0.3454704  1.008865   
  1.228534   2.588      0.1969105  0.5201537  50.8       0.6286032  
  0.5965055  0.660701  
1028       
  0.306      -9999      -9999      6.745478   2.588      1.826      
  1.295      1.139493   0.1360576  0.1360576  0.3414344  0.9274161  
  1.22385    2.588      0.1867733  0.514014   50.419     0.622354   
  0.5974365  0.6472715 
1028.2     
  0.31       -9999      -9999      6.741495   2.588      1.788      
  1.422      1.150477   0.1327055  0.1327055  0.3343264  0.8038715  
  1.228316   2.588      0.1689115  0.5029776  49.784     0.6109722  
  0.5965486  0.6253958 
1028.4     
  0.31       -9999      -9999      6.727462   2.602      1.788      
  1.422      1.164966   0.1238443  0.1238443  0.3249508  0.5508775  
  1.244179   2.602      0.1195844  0.4824829  49.784     0.6094134  
  0.5934311  0.6253958 
1028.6     
  0.31       -9999      -9999      6.696173   2.615      1.661      
  1.206      1.181719   0.1141407  0.1141407  0.3141097  0.3641833  
  1.280293   2.615      0.05694981 0.4568137  49.784     0.6059669  
  0.586538   0.6253958 
1028.8     
  0.301      -9999      -9999      6.634119   2.399      0.823      
  0.902      1.199836   0.1060485  0.1060485  0.302386   0.257889   
  1.355045   2.399      0          0.4034978  49.53      0.5949624  
  0.5731034  0.6168212 
1029       
  0.31       -9999      -9999      6.538312   2.399      0.848      
  0.902      1.219362   0.0988276  0.0988276  0.2897506  0.1895331  
  1.479118   2.399      0          0.3714185  49.149     0.5785546  
  0.5529634  0.6041457 
1029.2     
  0.3        -9999      -9999      6.423782   2.399      1.089      
  1.041      1.242214   0.08923415 0.08923415 0.2749636  0.1258899  
  1.642432   2.399      0          0.3261752  48.895     0.5628164  
  0.5298141  0.5958188 
1029.4     
  0.3        -9999      -9999      6.301623   2.327      1.089      
  1.041      1.271483   0.07419222 0.07419222 0.2560236  0.0662793  
  1.836547   2.327      0          0.2367719  48.895     0.5510042  
  0.5061897  0.5958188 
1029.6     
  0.3        -9999      -9999      6.154193   2.878      0.734      
  0.965      1.308771   0.05453681 0.05453681 0.2318946  0.02866237 
  2.101613   2.878      0          0.1904286  48.895     0.5374478  
  0.4790768  0.5958188 
1029.8     
  0.311      -9999      -9999      5.953954   3.802      0.785      
  0.94       1.351711   0.03312606 0.03312606 0.2041081  0.01150093 
  2.523925   3.802      0          0.1113833  48.768     0.5181274  
  0.4445626  0.5916921 
1030       
  0.323      -9999      -9999      5.697415   3.802      1.547      
  1.829      1.394684   0.01133734 0.01133734 0.1762997  0.004541017 
  3.191235   3.802      0          0          48.895     0.4998859  
  0.4039531  0.5958188 
1030.2     
  0.297      -9999      -9999      5.408775   3.802      3.388      
  3.442      1.431171   0.011337   0          0.1526891  0.004540951 
  4.155183   3.802      0          0          49.022     0.4813248  
  0.3626796  0.59997   
1030.4     
  0.297      -9999      -9999      5.111986   4.102      3.388      
  3.442      1.455671   0.011337   0          0.1368355  0.004540951 
  5.450773   4.102      0          0          49.022     0.4623019  
  0.3246338  0.59997   
1030.6     
  0.297      -9999      -9999      4.823374   4.405      3.858      
  3.111      1.463638   0.011337   0          0.1316796  0.004540951 
  7.097056   4.405      0          0          49.022     0.4457189  
  0.2914677  0.59997   
1030.8     
  0.304      -9999      -9999      4.57359    4.351      2.766      
  3.67       1.451623   0.011337   0          0.1394549  0.004540951 
  8.918218   4.351      0          0          49.149     0.4348288  
  0.2655119  0.6041457 
1031       
  0.315      -9999      -9999      4.41051    4.351      3.947      
  2.858      1.419939   0.01905233 0.01905233 0.1599577  0.006310351 
  10.35248   4.351      0          0          49.149     0.4269859  
  0.2498261  0.6041457 
1031.2     
  0.223      -9999      -9999      4.365751   4.351      4.01       
  3.238      1.374101   0.04939716 0.04939716 0.1896193  0.02302042 
  10.785     4.351      0          0.2199892  49.149     0.4249156  
  0.2456854  0.6041457 
1031.4     
  0.223      -9999      -9999      4.439542   4.073      4.01       
  3.238      1.321027   0.08260854 0.08260854 0.2239632  0.09490051 
  10.08125   4.073      0          0.3927988  49.149     0.4283474  
  0.2525491  0.6041457 
1031.6     
  0.223      -9999      -9999      4.622015   3.581      3.858      
  2.146      1.266058   0.1152407  0.1152407  0.2595336  0.3816769  
  8.531917   3.581      0.1930678  0.4777117  49.149     0.4372511  
  0.2703565  0.6041457 
1031.8     
  0.223      -9999      -9999      4.900471   2.745      2.22       
  1.981      1.215331   0.1438674  0.1438674  0.2923593  1.293993   
  6.613934   2.745      0.2464759  0.490627   49.022     0.4499753  
  0.2999805  0.59997   
