~Version
 VERS              .         2.0                           : CWLS LOG ASCII STANDARD - VERSION 2.0
 WRAP              .         YES                            : ONE LINE PER DEPTH STEP
 DLM               .         SPACE                         : DELIMITING CHARACTER(SPACE TAB OR COMMA)
~Well Information
#_______________________________________________________________________________
#
#PARAMETER_NAME    .UNIT     VALUE                         : DESCRIPTION
#_______________________________________________________________________________
STRT               .M        900                           : First reference value
STOP               .M        1287.2                        : Last reference value
STEP               .M        0.2                           : Step increment
NULL               .         -9999                         : Missing value
COMP               .                                       : Company
WELL               .         1437                          : Well name
FLD                .         Узень                         : Field
LOC                .                                       : Location
CNTY               .                                       : County
STAT               .                                       : State
CTRY               .                                       : Country
SRVC               .                                       : Service Company
DATE               .         09.08.1970                    : Date
UWI                .                                       : Unique Well ID
Block              .         6а                            : 
Cartographic_reference_system .         GCS_WGS_1984                  : ESRI,PE_10_3_1- <?xml version="1.0" encoding="utf-16"?><ILateBoundCoordinateReferenceSystem name="GCS_WGS_1984"><AuthorityCode>EPSG,4326</AuthorityCode></ILateBoundCoordinateReferenceSystem>
Category           .         Нефтяная                      : 
Condition          .         В работе                      : 
EREF               .m        83.2                          : 100.8
Gorizont           .         14                            : 14
HZCS               .GCS_WGS_1984 WGS_1984_EASE-Grid_2.0_Global : ESRI,PE_10_3_1- <?xml version="1.0" encoding="utf-16"?><ILateBoundCoordinateReferenceSystem name="WGS_1984_EASE-Grid_2.0_Global"><AuthorityCode>EPSG,6933</AuthorityCode></ILateBoundCoordinateReferenceSystem>
Interpretator      .         Сагынбаева А.Н.               : 
Kupol              .         основной                      : osnovnoi
LATI               .dega     0.6696466301                  : GCS_WGS_1984
LONG               .dega     0.461773424                   : GCS_WGS_1984
Mud                .         глинистый                     : 
Mud_density        .         1,18                          : 
Mud_resistivity    .         0                             : 
NGDU               .         НГДУ-2                        : 
ORIGINALWELLNAME   .         1437                          : 
Spud_date          .         1970                          : 1961
Viscosity          .         25                            : 
X                  .m        44554.8                       : 46154
Y                  .m        85427.13                      : 85761.93
YEAR               .         2019                          : 
~Parameter Information Block
#_______________________________________________________________________________
#
#PARAMETER_NAME    .UNIT     VALUE                         : DESCRIPTION
#_______________________________________________________________________________
SET                .         LQC_KAZNIPI_Petrel            : 
TLFamily_CALI      .         Caliper                       : 
TLFamily_COLL      .         Net Reservoir Flag            : 
TLFamily_CSAT      .         Fluid Code                    : 
TLFamily_DEPT      .         Measured Depth                : 
TLFamily_GR        .         Russian Gamma Ray             : 
TLFamily_LLS       .         Lateral Log Resistivity       : 
TLFamily_MINV      .         Micro Gradient Resistivity    : 
TLFamily_MNOR      .         Micro Resistivity             : 
TLFamily_NGLD      .         Neutron Gamma                 : 
TLFamily_PHIE      .         Effective Porosity            : 
TLFamily_PHIEN     .         Effective Porosity            : 
TLFamily_PHIT      .         Porosity                      : 
TLFamily_PRMB      .         Permeability                  : 
TLFamily_PRMB_DGR  .         Permeability                  : 
TLFamily_RT        .         Formation Resistivity         : 
TLFamily_SOIL_ARCHIE .         Oil Saturation                : 
TLFamily_SOIL_DW   .         Oil Saturation                : 
TLFamily_SP        .         Spontaneous Potential         : 
TLFamily_VSH_FIN   .         Shale Volume                  : 
TLFamily_VSH_GR    .         Shale Volume                  : 
TLFamily_VSH_SP    .         Shale Volume                  : 
~Curve Information
#_______________________________________________________________________________
#
#LOGNAME           .UNIT     LOG_ID                        : DESCRIPTION
#_______________________________________________________________________________
DEPT               .M                                      : Колонка глубины 
CALI               .м                                      : Каверномер 
COLL               .unitless                               : Описание 
CSAT               .unitless                               :  
GR                 .uR/h                                   : Гамма каротаж 
LLS                .Ohmm                                   : УЭС пласта 
MINV               .Ohmm                                   : Микро-градиент зонд 
MNOR               .Ohmm                                   : Микро-потенциал зонд 
NGLD               .у.е.                                   : Показания зонда НГК-60 аппаратуры ДРСТ-3-90 
PHIE               .v/v                                    : Описание 
PHIEN              .v/v                                    :  
PHIT               .v/v                                    : Описание 
PRMB               .mD                                     :  
PRMB_DGR           .mD                                     :  
RT                 .ohmm                                   : УЭС пласта 
SOIL_ARCHIE        .v/v                                    :  
SOIL_DW            .v/v                                    :  
SP                 .мВ                                     : Потенциал самополяризации 
VSH_FIN            .v/v                                    : Описание 
VSH_GR             .v/v                                    : Shale volume 
VSH_SP             .v/v                                    : Shale Volume 
~Ascii
# ...
1117.8     
  0.231      -9999      -9999      9.733212   3.382      0.861      
  0.876      1.189503   0.1456894  0.1456894  0.3090726  1.398553   
  2.305935   3.382      0.3242173  0.5587418  46.736     0.4951008  
  0.4612662  0.5289354 
1118       
  0.233      -9999      -9999      9.502565   3.382      0.899      
  1.143      1.1842     0.1822064  0.1822064  0.3125045  6.638386   
  2.947601   3.382      0.4438314  0.5981811  40.513     0.3948426  
  0.4172674  0.3724179 
1118.2     
  0.229      -9999      -9999      9.232582   3.352      1.483      
  1.473      1.184661   0.1895312  0.1895312  0.3122061  9.072685   
  3.928936   3.352      0.4603475  0.6024577  40.513     0.3717422  
  0.3710666  0.3724179 
1118.4     
  0.229      -9999      -9999      8.996311   3.302      1.483      
  1.473      1.191714   0.1909425  0.1909425  0.3076421  9.635558   
  5.05239    3.302      0.4600285  0.5971157  40.513     0.353635   
  0.334852   0.3724179 
1118.6     
  0.229      -9999      -9999      8.834413   2.644      0.886      
  1.029      1.20491    0.197343   0.197343   0.2991029  12.65989   
  6.002584   2.644      0.417641   0.5482298  36.957     0.3083631  
  0.3120992  0.304627  
1118.8     
  0.226      -9999      -9999      8.755761   2.644      1.127      
  1.054      1.222138   0.1948175  0.1948175  0.2879547  11.36712   
  6.526747   2.644      0.4110712  0.5355225  34.29      0.282234   
  0.3016104  0.2628577 
1119       
  0.223      -9999      -9999      8.741214   2.644      1.153      
  1.067      1.240268   0.1919372  0.1919372  0.2762226  10.05313   
  6.628598   2.644      0.4033815  0.521067   30.099     0.2554101  
  0.2997093  0.2111109 
1119.2     
  0.219      -9999      -9999      8.735989   2.074      1.216      
  1.27       1.257192   0.1810979  0.1810979  0.265271   6.331843   
  6.665567   2.074      0.2966528  0.4328203  30.099     0.2550702  
  0.2990295  0.2111109 
1119.4     
  0.219      -9999      -9999      8.680499   2.081      1.216      
  1.27       1.272734   0.1722166  0.1722166  0.255214   4.335383   
  7.071123   2.081      0.2663259  0.408653   30.099     0.2515073  
  0.2919038  0.2111109 
1119.6     
  0.219      -9999      -9999      8.556619   3.246      1.381      
  1.397      1.286806   0.1692475  0.1692475  0.2461076  3.819724   
  8.067802   3.246      0.3953867  0.5127919  27.813     0.2329095  
  0.2766023  0.1892167 
1119.8     
  0.216      -9999      -9999      8.391399   3.246      2.27       
  2.286      1.297207   0.1686468  0.1686468  0.2393773  3.72311    
  9.619041   3.246      0.3935115  0.5040471  25.527     0.2143348  
  0.2574356  0.1712339 
1120       
  0.215      1          2          8.219674   3.246      1.724      
  1.854      1.300747   0.173218   0.173218   0.2370867  4.524544   
  11.54824   3.246      0.4074751  0.5067245  21.59      0.1935416  
  0.2389206  0.1481626 
1120.2     
  0.213      1          2          8.061224   3.574      1.331      
  1.765      1.296721   0.1784468  0.1784468  0.239692   5.654921   
  13.66983   3.574      0.4481267  0.538632   21.59      0.1855914  
  0.2230202  0.1481626 
1120.4     
  0.213      1          2          7.930108   4.097      1.331      
  1.765      1.287751   0.1862898  0.1862898  0.2454965  7.901269   
  15.71718   4.097      0.5014173  0.5826053  21.59      0.1794143  
  0.210666   0.1481626 
1120.6     
  0.213      1          2          7.838392   4.674      1.47       
  1.753      1.27732    0.1955767  0.1955767  0.2522464  11.74122   
  17.32897   4.674      0.5507552  0.623081   19.939     0.1717264  
  0.2024333  0.1410196 
1120.8     
  0.213      1          2          7.789279   4.674      1.585      
  1.753      1.267619   0.2037284  0.2037284  0.2585237  16.6227    
  18.25897   4.674      0.5664519  0.6347309  17.907     0.1660464  
  0.1981579  0.1339349 
1121       
  0.212      1          2          7.775095   4.674      1.648      
  1.981      1.259193   0.2103363  0.2103363  0.2639759  22.03415   
  18.53674   4.674      0.5783389  0.6439325  15.748     0.1625444  
  0.19694    0.1281489 
1121.2     
  0.212      1          2          7.785524   4.926      1.585      
  2.057      1.251409   0.2152258  0.2152258  0.269013   27.14321   
  18.33209   4.926      0.5967546  0.6602375  15.748     0.1629918  
  0.1978347  0.1281489 
1121.4     
  0.212      1          2          7.816961   5.782      1.585      
  2.057      1.243529   0.2198762  0.2198762  0.2741126  33.09773   
  17.7288    5.782      0.632861   0.6925652  15.748     0.1643527  
  0.2005565  0.1281489 
1121.6     
  0.212      1          2          7.86396    8.05       1.674      
  2.248      1.236215   0.2238273  0.2238273  0.2788455  39.17268   
  16.86372   8.05       0.6905059  0.7439452  16.002     0.1667218  
  0.2046955  0.1287481 
1121.8     
  0.212      1          2          7.912228   8.05       1.724      
  2.146      1.231893   0.2256999  0.2256999  0.2816421  42.42946   
  16.01917   8.05       0.6927435  0.7463117  16.51      0.1695218  
  0.2090352  0.1300083 
1122       
  0.212      1          2          7.941993   8.05       1.661      
  2.184      1.232243   0.2245027  0.2245027  0.2814153  40.31742   
  15.5196    8.05       0.691317   0.7456246  17.653     0.1724624  
  0.211757   0.1331678 
1122.2     
  0.213      1          2          7.939253   9.072      1.851      
  2.21       1.2357     0.2223074  0.2223074  0.2791784  36.71394   
  15.56493   9.072      0.705645   0.7582734  17.653     0.1723364  
  0.211505   0.1331678 
1122.4     
  0.213      1          2          7.904364   9.753      1.851      
  2.21       1.238578   0.2209706  0.2209706  0.2773164  34.67929   
  16.15382   9.753      0.7139767  0.7653651  17.653     0.1707449  
  0.2083219  0.1331678 
1122.6     
  0.213      1          2          7.849496   10.963     1.775      
  2.375      1.238851   0.2214125  0.2214125  0.2771397  35.3391    
  17.12536   10.963     0.7297216  0.7787963  18.034     0.1688702  
  0.2034127  0.1343277 
1122.8     
  0.213      1          2          7.789087   10.963     1.737      
  2.248      1.237519   0.223458   0.223458   0.2780014  38.56046   
  18.2627    10.963     0.7318776  0.7800467  17.399     0.1652832  
  0.1981414  0.132425  
1123       
  0.212      1          2          7.727482   10.963     1.788      
  2.235      1.236923   0.225601   0.225601   0.2783871  42.25095   
  19.50039   10.963     0.7340973  0.7811053  15.24      0.1599579  
  0.1929063  0.1270095 
1123.2     
  0.212      1          2          7.659017   12.25      1.674      
  2.438      1.238988   0.2251979  0.2251979  0.2770508  41.53069   
  20.97457   12.25      0.7471997  0.7921894  15.24      0.1571299  
  0.1872504  0.1270095 
1123.4     
  0.212      1          2          7.580632   13.95      1.674      
  2.438      1.243681   0.2231962  0.2231962  0.2740142  38.13233   
  22.79965   13.95      0.7602987  0.8032787  15.24      0.1539939  
  0.1809784  0.1270095 
1123.6     
  0.212      1          2          7.498828   15.825     1.775      
  2.565      1.248453   0.2214909  0.2214909  0.2709259  35.45734   
  24.87391   15.825     0.7725582  0.8134835  14.224     0.1498031  
  0.1746567  0.1249496 
1123.8     
  0.212      1          2          7.423404   15.825     1.394      
  2.476      1.249996   0.2217188  0.2217188  0.2699275  35.80375   
  26.95321   15.825     0.7727619  0.8131665  13.208     0.1460868  
  0.1690239  0.1231497 
1124       
  0.211      1          2          7.36147    15.825     1.813      
  2.337      1.247749   0.2243772  0.2243772  0.2713819  40.10212   
  28.78998   15.825     0.7751085  0.8146814  11.303     0.1424385  
  0.1645346  0.1203424 
1124.2     
  0.21       1          2          7.317862   16.4       1.75       
  2.35       1.244643   0.2268968  0.2268968  0.2733918  44.65155   
  30.15783   16.4       0.7809841  0.8195868  11.303     0.1408939  
  0.1614455  0.1203424 
