~Version
 VERS              .         2.0                           : CWLS LOG ASCII STANDARD - VERSION 2.0
 WRAP              .         YES                            : ONE LINE PER DEPTH STEP
 DLM               .         SPACE                         : DELIMITING CHARACTER(SPACE TAB OR COMMA)
~Well Information
#_______________________________________________________________________________
#
#PARAMETER_NAME    .UNIT     VALUE                         : DESCRIPTION
#_______________________________________________________________________________
STRT               .M        900                           : First reference value
STOP               .M        1287.2                        : Last reference value
STEP               .M        0.2                           : Step increment
NULL               .         -9999                         : Missing value
COMP               .                                       : Company
WELL               .         1437                          : Well name
FLD                .         Узень                         : Field
LOC                .                                       : Location
CNTY               .                                       : County
STAT               .                                       : State
CTRY               .                                       : Country
SRVC               .                                       : Service Company
DATE               .         09.08.1970                    : Date
UWI                .                                       : Unique Well ID
Block              .         6а                            : 
Cartographic_reference_system .         GCS_WGS_1984                  : ESRI,PE_10_3_1- <?xml version="1.0" encoding="utf-16"?><ILateBoundCoordinateReferenceSystem name="GCS_WGS_1984"><AuthorityCode>EPSG,4326</AuthorityCode></ILateBoundCoordinateReferenceSystem>
Category           .         Нефтяная                      : 
Condition          .         В работе                      : 
EREF               .m        83.2                          : 100.8
Gorizont           .         14                            : 14
HZCS               .GCS_WGS_1984 WGS_1984_EASE-Grid_2.0_Global : ESRI,PE_10_3_1- <?xml version="1.0" encoding="utf-16"?><ILateBoundCoordinateReferenceSystem name="WGS_1984_EASE-Grid_2.0_Global"><AuthorityCode>EPSG,6933</AuthorityCode></ILateBoundCoordinateReferenceSystem>
Interpretator      .         Сагынбаева А.Н.               : 
Kupol              .         основной                      : osnovnoi
LATI               .dega     0.6696466301                  : GCS_WGS_1984
LONG               .dega     0.461773424                   : GCS_WGS_1984
Mud                .         глинистый                     : 
Mud_density        .         1,18                          : 
Mud_resistivity    .         0                             : 
NGDU               .         НГДУ-2                        : 
ORIGINALWELLNAME   .         1437                          : 
Spud_date          .         1970                          : 1961
Viscosity          .         25                            : 
X                  .m        44554.8                       : 46154
Y                  .m        85427.13                      : 85761.93
YEAR               .         2019                          : 
~Parameter Information Block
#_______________________________________________________________________________
#
#PARAMETER_NAME    .UNIT     VALUE                         : DESCRIPTION
#_______________________________________________________________________________
SET                .         LQC_KAZNIPI_Petrel            : 
TLFamily_CALI      .         Caliper                       : 
TLFamily_COLL      .         Net Reservoir Flag            : 
TLFamily_CSAT      .         Fluid Code                    : 
TLFamily_DEPT      .         Measured Depth                : 
TLFamily_GR        .         Russian Gamma Ray             : 
TLFamily_LLS       .         Lateral Log Resistivity       : 
TLFamily_MINV      .         Micro Gradient Resistivity    : 
TLFamily_MNOR      .         Micro Resistivity             : 
TLFamily_NGLD      .         Neutron Gamma                 : 
TLFamily_PHIE      .         Effective Porosity            : 
TLFamily_PHIEN     .         Effective Porosity            : 
TLFamily_PHIT      .         Porosity                      : 
TLFamily_PRMB      .         Permeability                  : 
TLFamily_PRMB_DGR  .         Permeability                  : 
TLFamily_RT        .         Formation Resistivity         : 
TLFamily_SOIL_ARCHIE .         Oil Saturation                : 
TLFamily_SOIL_DW   .         Oil Saturation                : 
TLFamily_SP        .         Spontaneous Potential         : 
TLFamily_VSH_FIN   .         Shale Volume                  : 
TLFamily_VSH_GR    .         Shale Volume                  : 
TLFamily_VSH_SP    .         Shale Volume                  : 
~Curve Information
#_______________________________________________________________________________
#
#LOGNAME           .UNIT     LOG_ID                        : DESCRIPTION
#_______________________________________________________________________________
DEPT               .M                                      : Колонка глубины 
CALI               .м                                      : Каверномер 
COLL               .unitless                               : Описание 
CSAT               .unitless                               :  
GR                 .uR/h                                   : Гамма каротаж 
LLS                .Ohmm                                   : УЭС пласта 
MINV               .Ohmm                                   : Микро-градиент зонд 
MNOR               .Ohmm                                   : Микро-потенциал зонд 
NGLD               .у.е.                                   : Показания зонда НГК-60 аппаратуры ДРСТ-3-90 
PHIE               .v/v                                    : Описание 
PHIEN              .v/v                                    :  
PHIT               .v/v                                    : Описание 
PRMB               .mD                                     :  
PRMB_DGR           .mD                                     :  
RT                 .ohmm                                   : УЭС пласта 
SOIL_ARCHIE        .v/v                                    :  
SOIL_DW            .v/v                                    :  
SP                 .мВ                                     : Потенциал самополяризации 
VSH_FIN            .v/v                                    : Описание 
VSH_GR             .v/v                                    : Shale volume 
VSH_SP             .v/v                                    : Shale Volume 
~Ascii
# ...
1256.4     
  0.207      -9999      -9999      10.02279   -9999      1.432      
  1.651      1.208195   0.1546611  0.1546611  0.2969769  2.050489   
  2.718868   -9999      -9999      -9999      0          0.4312598  
  0.4312598  0.118079  
1256.6     
  0.207      -9999      -9999      10.10243   -9999      1.572      
  1.537      1.203402   0.1530311  0.1530311  0.3000785  1.912782   
  2.509583   -9999      -9999      -9999      0          0.4455983  
  0.4455983  0.118079  
1256.8     
  0.21       -9999      -9999      10.18237   -9999      1.813      
  1.626      1.196599   0.1525256  0.1525256  0.3044806  1.871986   
  2.315715   -9999      -9999      -9999      0          0.4604697  
  0.4604697  0.118079  
1257       
  0.211      -9999      -9999      10.25542   -9999      2.499      
  2.108      1.192243   0.1507169  0.1507169  0.3072999  1.733011   
  2.151672   -9999      -9999      -9999      0          0.4744938  
  0.4744938  0.118079  
1257.2     
  0.209      -9999      -9999      10.33149   -9999      1.089      
  1.219      1.193007   0.145253   0.145253   0.3068052  1.372765   
  1.993185   -9999      -9999      -9999      0          0.489552   
  0.489552   0.118079  
1257.4     
  0.209      -9999      -9999      10.42278   -9999      1.089      
  1.219      1.198213   0.1357124  0.1357124  0.3034365  0.9138621  
  1.818326   -9999      -9999      -9999      0          0.5082548  
  0.5082548  0.118079  
1257.6     
  0.209      -9999      -9999      10.52498   -9999      1.229      
  1.181      1.204399   0.1245189  0.1245189  0.2994331  0.566956   
  1.640693   -9999      -9999      -9999      0          0.5300432  
  0.5300432  0.118079  
1257.8     
  0.21       -9999      -9999      10.61319   -9999      1.255      
  1.156      1.207772   0.1158837  0.1158837  0.2972507  0.3922881  
  1.501403   -9999      -9999      -9999      0          0.5495971  
  0.5495971  0.118079  
1258       
  0.211      -9999      -9999      10.66531   -9999      1.394      
  1.334      1.207056   0.1124225  0.1124225  0.2977139  0.3384504  
  1.424719   -9999      -9999      -9999      0          0.5614891  
  0.5614891  0.118079  
1258.2     
  0.21       -9999      -9999      10.67819   -9999      1.826      
  1.321      1.204253   0.113254   0.113254   0.2995278  0.350668   
  1.406386   -9999      -9999      -9999      0          0.5644663  
  0.5644663  0.118079  
1258.4     
  0.21       -9999      -9999      10.66258   -9999      1.826      
  1.321      1.202779   0.115398   0.115398   0.3004816  0.3842456  
  1.42864    -9999      -9999      -9999      0          0.5608594  
  0.5608594  0.118079  
1258.6     
  0.21       -9999      -9999      10.63164   -9999      1.674      
  1.219      1.204341   0.1167239  0.1167239  0.2994708  0.406601   
  1.473791   -9999      -9999      -9999      0          0.5537785  
  0.5537785  0.118079  
1258.8     
  0.207      -9999      -9999      10.60061   -9999      1.255      
  1.359      1.207255   0.117153   0.117153   0.2975855  0.4141094  
  1.520517   -9999      -9999      -9999      0          0.5467653  
  0.5467653  0.118079  
1259       
  0.206      -9999      -9999      10.58117   -9999      1.47       
  1.321      1.208465   0.1178048  0.1178048  0.2968026  0.4257833  
  1.55054    -9999      -9999      -9999      0          0.5424174  
  0.5424174  0.118079  
1259.2     
  0.206      -9999      -9999      10.57441   -9999      1.75       
  1.448      1.20708    0.1191977  0.1191977  0.2976988  0.4518436  
  1.561126   -9999      -9999      -9999      0          0.5409124  
  0.5409124  0.118079  
1259.4     
  0.206      -9999      -9999      10.57979   -9999      1.75       
  1.448      1.204808   0.1202721  0.1202721  0.2991684  0.4730306  
  1.552693   -9999      -9999      -9999      0          0.5421101  
  0.5421101  0.118079  
1259.6     
  0.206      -9999      -9999      10.59955   -9999      1.75       
  1.537      1.20246    0.1203339  0.1203339  0.3006881  0.4742791  
  1.522136   -9999      -9999      -9999      0          0.5465279  
  0.5465279  0.118079  
1259.8     
  0.207      -9999      -9999      10.62517   -9999      1.001      
  1.257      1.198828   0.1207769  0.1207769  0.3030383  0.4833259  
  1.483424   -9999      -9999      -9999      0          0.5523072  
  0.5523072  0.118079  
1260       
  0.207      -9999      -9999      10.63586   -9999      1.445      
  1.499      1.193282   0.123564   0.123564   0.3066274  0.5443303  
  1.467559   -9999      -9999      -9999      0          0.5547376  
  0.5547376  0.118079  
1260.2     
  0.207      -9999      -9999      10.62574   -9999      1.394      
  1.537      1.186972   0.1284063  0.1284063  0.3107104  0.6691983  
  1.482574   -9999      -9999      -9999      0          0.5524366  
  0.5524366  0.118079  
1260.4     
  0.207      -9999      -9999      10.61732   -9999      1.394      
  1.537      1.18115    0.1328027  0.1328027  0.3144778  0.8072088  
  1.495175   -9999      -9999      -9999      0          0.5505306  
  0.5505306  0.118079  
1260.6     
  0.207      -9999      -9999      10.6307    -9999      1.559      
  1.334      1.176023   0.1351198  0.1351198  0.3177958  0.8910544  
  1.475192   -9999      -9999      -9999      0          0.5535638  
  0.5535638  0.118079  
1260.8     
  0.207      -9999      -9999      10.6551    -9999      1.864      
  1.473      1.171948   0.1359162  0.1359162  0.3204323  0.9218401  
  1.439424   -9999      -9999      -9999      0          0.5591398  
  0.5591398  0.118079  
1261       
  0.207      -9999      -9999      10.66451   -9999      1.623      
  1.346      1.170221   0.1363196  0.1363196  0.3215502  0.9378394  
  1.425866   -9999      -9999      -9999      0          0.5613046  
  0.5613046  0.118079  
1261.2     
  0.207      -9999      -9999      10.65554   -9999      1.47       
  1.473      1.172077   0.1358001  0.1358001  0.3203489  0.9172865  
  1.438799   -9999      -9999      -9999      0          0.559239   
  0.559239   0.118079  
1261.4     
  0.207      -9999      -9999      10.6464    -9999      1.47       
  1.473      1.177597   0.1329196  0.1329196  0.3167773  0.8112428  
  1.452081   -9999      -9999      -9999      0          0.5571445  
  0.5571445  0.118079  
1261.6     
  0.207      -9999      -9999      10.64283   -9999      1.623      
  1.346      1.185792   0.1278862  0.1278862  0.3114742  0.6545165  
  1.457311   -9999      -9999      -9999      0          0.5563272  
  0.5563272  0.118079  
1261.8     
  0.207      -9999      -9999      10.63118   -9999      1.394      
  1.359      1.195267   0.122631   0.122631   0.305343   0.5230968  
  1.474482   -9999      -9999      -9999      0          0.5536726  
  0.5536726  0.118079  
1262       
  0.207      -9999      -9999      10.60826   -9999      1.115      
  1.168      1.204408   0.118427   0.118427   0.2994274  0.4372327  
  1.508861   -9999      -9999      -9999      0          0.5484862  
  0.5484862  0.118079  
1262.2     
  0.207      -9999      -9999      10.59756   -9999      1.851      
  1.41       1.21121    0.1148192  0.1148192  0.2950261  0.374876   
  1.525185   -9999      -9999      -9999      0          0.5460815  
  0.5460815  0.118079  
1262.4     
  0.207      -9999      -9999      10.62314   -9999      1.851      
  1.41       1.213753   0.1112712  0.1112712  0.2933807  0.3222336  
  1.486456   -9999      -9999      -9999      0          0.5518471  
  0.5518471  0.118079  
1262.6     
  0.207      -9999      -9999      10.68307   -9999      1.839      
  1.372      1.211274   0.1083363  0.1083363  0.2949843  0.2843213  
  1.399492   -9999      -9999      -9999      0          0.5656001  
  0.5656001  0.118079  
1262.8     
  0.208      -9999      -9999      10.75677   -9999      1.547      
  1.295      1.204341   0.1070879  0.1070879  0.2994712  0.2695793  
  1.299515   -9999      -9999      -9999      0          0.5829796  
  0.5829796  0.118079  
