~Version
 VERS              .         2.0                           : CWLS LOG ASCII STANDARD - VERSION 2.0
 WRAP              .         YES                            : ONE LINE PER DEPTH STEP
 DLM               .         SPACE                         : DELIMITING CHARACTER(SPACE TAB OR COMMA)
~Well Information
#_______________________________________________________________________________
#
#PARAMETER_NAME    .UNIT     VALUE                         : DESCRIPTION
#_______________________________________________________________________________
STRT               .M        900                           : First reference value
STOP               .M        1287.2                        : Last reference value
STEP               .M        0.2                           : Step increment
NULL               .         -9999                         : Missing value
COMP               .                                       : Company
WELL               .         1437                          : Well name
FLD                .         Узень                         : Field
LOC                .                                       : Location
CNTY               .                                       : County
STAT               .                                       : State
CTRY               .                                       : Country
SRVC               .                                       : Service Company
DATE               .         09.08.1970                    : Date
UWI                .                                       : Unique Well ID
Block              .         6а                            : 
Cartographic_reference_system .         GCS_WGS_1984                  : ESRI,PE_10_3_1- <?xml version="1.0" encoding="utf-16"?><ILateBoundCoordinateReferenceSystem name="GCS_WGS_1984"><AuthorityCode>EPSG,4326</AuthorityCode></ILateBoundCoordinateReferenceSystem>
Category           .         Нефтяная                      : 
Condition          .         В работе                      : 
EREF               .m        83.2                          : 100.8
Gorizont           .         14                            : 14
HZCS               .GCS_WGS_1984 WGS_1984_EASE-Grid_2.0_Global : ESRI,PE_10_3_1- <?xml version="1.0" encoding="utf-16"?><ILateBoundCoordinateReferenceSystem name="WGS_1984_EASE-Grid_2.0_Global"><AuthorityCode>EPSG,6933</AuthorityCode></ILateBoundCoordinateReferenceSystem>
Interpretator      .         Сагынбаева А.Н.               : 
Kupol              .         основной                      : osnovnoi
LATI               .dega     0.6696466301                  : GCS_WGS_1984
LONG               .dega     0.461773424                   : GCS_WGS_1984
Mud                .         глинистый                     : 
Mud_density        .         1,18                          : 
Mud_resistivity    .         0                             : 
NGDU               .         НГДУ-2                        : 
ORIGINALWELLNAME   .         1437                          : 
Spud_date          .         1970                          : 1961
Viscosity          .         25                            : 
X                  .m        44554.8                       : 46154
Y                  .m        85427.13                      : 85761.93
YEAR               .         2019                          : 
~Parameter Information Block
#_______________________________________________________________________________
#
#PARAMETER_NAME    .UNIT     VALUE                         : DESCRIPTION
#_______________________________________________________________________________
SET                .         LQC_KAZNIPI_Petrel            : 
TLFamily_CALI      .         Caliper                       : 
TLFamily_COLL      .         Net Reservoir Flag            : 
TLFamily_CSAT      .         Fluid Code                    : 
TLFamily_DEPT      .         Measured Depth                : 
TLFamily_GR        .         Russian Gamma Ray             : 
TLFamily_LLS       .         Lateral Log Resistivity       : 
TLFamily_MINV      .         Micro Gradient Resistivity    : 
TLFamily_MNOR      .         Micro Resistivity             : 
TLFamily_NGLD      .         Neutron Gamma                 : 
TLFamily_PHIE      .         Effective Porosity            : 
TLFamily_PHIEN     .         Effective Porosity            : 
TLFamily_PHIT      .         Porosity                      : 
TLFamily_PRMB      .         Permeability                  : 
TLFamily_PRMB_DGR  .         Permeability                  : 
TLFamily_RT        .         Formation Resistivity         : 
TLFamily_SOIL_ARCHIE .         Oil Saturation                : 
TLFamily_SOIL_DW   .         Oil Saturation                : 
TLFamily_SP        .         Spontaneous Potential         : 
TLFamily_VSH_FIN   .         Shale Volume                  : 
TLFamily_VSH_GR    .         Shale Volume                  : 
TLFamily_VSH_SP    .         Shale Volume                  : 
~Curve Information
#_______________________________________________________________________________
#
#LOGNAME           .UNIT     LOG_ID                        : DESCRIPTION
#_______________________________________________________________________________
DEPT               .M                                      : Колонка глубины 
CALI               .м                                      : Каверномер 
COLL               .unitless                               : Описание 
CSAT               .unitless                               :  
GR                 .uR/h                                   : Гамма каротаж 
LLS                .Ohmm                                   : УЭС пласта 
MINV               .Ohmm                                   : Микро-градиент зонд 
MNOR               .Ohmm                                   : Микро-потенциал зонд 
NGLD               .у.е.                                   : Показания зонда НГК-60 аппаратуры ДРСТ-3-90 
PHIE               .v/v                                    : Описание 
PHIEN              .v/v                                    :  
PHIT               .v/v                                    : Описание 
PRMB               .mD                                     :  
PRMB_DGR           .mD                                     :  
RT                 .ohmm                                   : УЭС пласта 
SOIL_ARCHIE        .v/v                                    :  
SOIL_DW            .v/v                                    :  
SP                 .мВ                                     : Потенциал самополяризации 
VSH_FIN            .v/v                                    : Описание 
VSH_GR             .v/v                                    : Shale volume 
VSH_SP             .v/v                                    : Shale Volume 
~Ascii
# ...
1230       
  0.207      -9999      -9999      9.540088   1.57       1.597      
  1.829      1.222162   0.1723716  0.1723716  0.2879387  4.364135   
  4.418142   1.57       0.1749052  0.3752732  27.94      0.3502034  
  0.3537051  0.3467018 
1230.2     
  0.207      -9999      -9999      9.56436    1.57       1.686      
  1.753      1.214955   0.1651316  0.1651316  0.2926024  3.204761   
  4.31159    1.57       0.1434858  0.3705567  33.02      0.3862752  
  0.3572486  0.4153018 
1230.4     
  0.207      -9999      -9999      9.596044   1.57       1.686      
  1.753      1.211485   0.1666052  0.1666052  0.2948481  3.412648   
  4.176356   1.57       0.150088   0.3756585  33.02      0.3886147  
  0.3619277  0.4153018 
1230.6     
  0.207      -9999      -9999      9.625016   1.641      1.483      
  1.575      1.210585   0.1664729  0.1664729  0.2954306  3.393441   
  4.056411   1.641      0.1669703  0.3898472  33.02      0.3907809  
  0.36626    0.4153018 
1230.8     
  0.207      -9999      -9999      9.629886   1.711      1.813      
  1.727      1.21165    0.1578725  0.1578725  0.294741   2.351469   
  4.036593   1.711      0.1445165  0.3889316  34.925     0.414753   
  0.3669932  0.4625129 
1231       
  0.207      -9999      -9999      9.609116   1.828      1.496      
  1.689      1.215181   0.1498776  0.1498776  0.2924566  1.672071   
  4.121807   1.828      0.1322619  0.3937986  36.322     0.4320576  
  0.363876   0.5002393 
1231.2     
  0.207      -9999      -9999      9.587866   1.936      1.851      
  1.549      1.221367   0.1378176  0.1378176  0.2884532  0.9997098  
  4.210847   1.936      0.09129914 0.3863732  38.1       0.4564715  
  0.3607142  0.5522289 
1231.4     
  0.207      -9999      -9999      9.589777   1.936      1.851      
  1.549      1.229657   0.1324064  0.1324064  0.2830888  0.7936816  
  4.202762   1.936      0.05903899 0.3696358  38.1       0.4566132  
  0.3609974  0.5522289 
1231.6     
  0.207      -9999      -9999      9.610255   1.936      2.067      
  1.778      1.23906    0.125819   0.125819   0.2770044  0.5992818  
  4.117085   1.936      0.01627338 0.348574   38.1       0.4581376  
  0.3640463  0.5522289 
1231.8     
  0.207      -9999      -9999      9.617769   2.03       1.686      
  1.638      1.248045   0.1223465  0.1223465  0.27119    0.5167874  
  4.086085   2.03       0.01417882 0.3485274  37.592     0.4510408  
  0.3651715  0.53691   
1232       
  0.207      -9999      -9999      9.581293   2.13       2.105      
  1.651      1.255166   0.1264272  0.1264272  0.2665823  0.6150304  
  4.238779   2.13       0.06332695 0.3651887  35.941     0.4247123  
  0.3597418  0.4896829 
1232.2     
  0.206      -9999      -9999      9.495605   2.12       1.877      
  1.587      1.260124   0.1394902  0.1394902  0.2633739  1.073629   
  4.620298   2.12       0.1383026  0.3829258  32.512     0.3754054  
  0.347302   0.4035088 
1232.4     
  0.206      -9999      -9999      9.373637   2.12       1.877      
  1.587      1.264006   0.1397776  0.1397776  0.2608615  1.086871   
  5.223323   2.12       0.1398461  0.3798256  32.512     0.3669211  
  0.3303334  0.4035088 
1232.6     
  0.206      -9999      -9999      9.2235     2.12       1.788      
  1.778      1.267377   0.1408559  0.1408559  0.2586806  1.138024   
  6.074751   2.12       0.1455841  0.3785464  32.512     0.3570444  
  0.3105799  0.4035088 
1232.8     
  0.206      -9999      -9999      9.046793   1.82       1.75       
  1.956      1.2691     0.147959   0.147959   0.2575654  1.540696   
  7.256314   1.82       0.120662   0.3405322  31.242     0.3321408  
  0.2888385  0.3754431 
1233       
  0.205      -9999      -9999      8.865798   1.715      1.686      
  1.791      1.267205   0.1543605  0.1543605  0.2587919  2.024367   
  8.705155   1.715      0.1285447  0.3339715  30.734     0.3164587  
  0.2681464  0.3647709 
1233.2     
  0.205      -9999      -9999      8.742534   1.781      2.055      
  1.638      1.261382   0.1539205  0.1539205  0.2625596  1.986734   
  9.85416    1.781      0.14172    0.3513171  32.512     0.3292092  
  0.2549095  0.4035088 
1233.4     
  0.205      -9999      -9999      8.74059    1.781      2.055      
  1.638      1.254328   0.1585187  0.1585187  0.2671242  2.417183   
  9.873447   1.781      0.1634446  0.3655146  32.512     0.3291075  
  0.2547061  0.4035088 
1233.6     
  0.205      -9999      -9999      8.860497   1.781      1.94       
  1.753      1.250371   0.1589584  0.1589584  0.2696852  2.462933   
  8.751697   1.781      0.16546    0.3698294  32.512     0.335536   
  0.2675632  0.4035088 
1233.8     
  0.204      -9999      -9999      9.031852   1.928      2.029      
  1.778      1.252388   0.1468533  0.1468533  0.26838    1.469728   
  7.366182   1.928      0.1385207  0.3730991  34.417     0.3682627  
  0.2870715  0.4494538 
1234       
  0.203      -9999      -9999      9.174349   2.004      2.664      
  1.816      1.259652   0.1349304  0.1349304  0.2636789  0.8838864  
  6.382611   2.004      0.08926126 0.3574724  35.433     0.3901471  
  0.3043733  0.4759209 
1234.2     
  0.203      -9999      -9999      9.253424   2.046      2.512      
  1.638      1.268312   0.1298816  0.1298816  0.2580756  0.7126555  
  5.894642   2.046      0.06762265 0.3460752  34.925     0.3884666  
  0.3144203  0.4625129 
1234.4     
  0.203      -9999      -9999      9.276669   2.046      2.512      
  1.638      1.273992   0.1257081  0.1257081  0.2543997  0.5964546  
  5.758429   2.046      0.04071985 0.3319063  34.925     0.3899746  
  0.3174364  0.4625129 
1234.6     
  0.203      -9999      -9999      9.26523    2.046      2.029      
  1.753      1.274229   0.1258005  0.1258005  0.2542467  0.5988102  
  5.825058   2.046      0.04133366 0.3318493  34.925     0.3892308  
  0.3159486  0.4625129 
1234.8     
  0.203      -9999      -9999      9.23634    1.986      1.94       
  1.765      1.269331   0.1358796  0.1358796  0.2574162  0.9204035  
  5.996806   1.986      0.09096421 0.3468361  33.401     0.3682927  
  0.3122219  0.4243636 
1235       
  0.203      -9999      -9999      9.199897   2.01       1.712      
  1.956      1.261599   0.1474458  0.1474458  0.2624193  1.50734    
  6.22069    2.01       0.1581527  0.3786277  31.877     0.3484047  
  0.3075837  0.3892258 
1235.2     
  0.204      1          3          9.155141   2.357      1.763      
  1.651      1.253725   0.1651811  0.1651811  0.2675148  3.211538   
  6.507114   2.357      0.2923558  0.4580161  28.321     0.3101022  
  0.3019816  0.3182227 
1235.4     
  0.204      1          3          9.091653   2.357      1.763      
  1.651      1.247157   0.1707134  0.1707134  0.2717646  4.066151   
  6.936186   2.357      0.3123711  0.4701946  28.321     0.306216   
  0.2942094  0.3182227 
1235.6     
  0.204      1          3          9.006804   2.357      1.674      
  1.765      1.242618   0.1753134  0.1753134  0.2747021  4.94751    
  7.554111   2.357      0.3281121  0.4792248  28.321     0.3011782  
  0.2841336  0.3182227 
1235.8     
  0.204      1          3          8.921262   2.489      1.661      
  1.664      1.241513   0.182952   0.182952   0.275417   6.852887   
  8.232837   2.489      0.3689561  0.5027445  26.416     0.2801969  
  0.2743246  0.2860692 
1236       
  0.205      1          3          8.867898   2.383      1.61       
  1.689      1.244947   0.1852027  0.1852027  0.2731946  7.543315   
  8.686788   2.383      0.3627584  0.4919338  25.019     0.2666419  
  0.2683778  0.264906  
1236.2     
  0.205      1          3          8.864365   2.163      1.661      
  1.715      1.25159    0.1833065  0.1833065  0.2688958  6.957271   
  8.717716   2.163      0.3271199  0.4594375  24.003     0.2593615  
  0.2679886  0.2507344 
1236.4     
  0.205      1          3          8.905138   2.163      1.661      
  1.715      1.258571   0.178043   0.178043   0.264379   5.558354   
  8.367438   2.163      0.3098273  0.4474353  24.003     0.2616242  
  0.272514   0.2507344 
