~Version
 VERS              .         2.0                           : CWLS LOG ASCII STANDARD - VERSION 2.0
 WRAP              .         YES                            : ONE LINE PER DEPTH STEP
 DLM               .         SPACE                         : DELIMITING CHARACTER(SPACE TAB OR COMMA)
~Well Information
#_______________________________________________________________________________
#
#PARAMETER_NAME    .UNIT     VALUE                         : DESCRIPTION
#_______________________________________________________________________________
STRT               .M        900                           : First reference value
STOP               .M        1287.2                        : Last reference value
STEP               .M        0.2                           : Step increment
NULL               .         -9999                         : Missing value
COMP               .                                       : Company
WELL               .         1437                          : Well name
FLD                .         Узень                         : Field
LOC                .                                       : Location
CNTY               .                                       : County
STAT               .                                       : State
CTRY               .                                       : Country
SRVC               .                                       : Service Company
DATE               .         09.08.1970                    : Date
UWI                .                                       : Unique Well ID
Block              .         6а                            : 
Cartographic_reference_system .         GCS_WGS_1984                  : ESRI,PE_10_3_1- <?xml version="1.0" encoding="utf-16"?><ILateBoundCoordinateReferenceSystem name="GCS_WGS_1984"><AuthorityCode>EPSG,4326</AuthorityCode></ILateBoundCoordinateReferenceSystem>
Category           .         Нефтяная                      : 
Condition          .         В работе                      : 
EREF               .m        83.2                          : 100.8
Gorizont           .         14                            : 14
HZCS               .GCS_WGS_1984 WGS_1984_EASE-Grid_2.0_Global : ESRI,PE_10_3_1- <?xml version="1.0" encoding="utf-16"?><ILateBoundCoordinateReferenceSystem name="WGS_1984_EASE-Grid_2.0_Global"><AuthorityCode>EPSG,6933</AuthorityCode></ILateBoundCoordinateReferenceSystem>
Interpretator      .         Сагынбаева А.Н.               : 
Kupol              .         основной                      : osnovnoi
LATI               .dega     0.6696466301                  : GCS_WGS_1984
LONG               .dega     0.461773424                   : GCS_WGS_1984
Mud                .         глинистый                     : 
Mud_density        .         1,18                          : 
Mud_resistivity    .         0                             : 
NGDU               .         НГДУ-2                        : 
ORIGINALWELLNAME   .         1437                          : 
Spud_date          .         1970                          : 1961
Viscosity          .         25                            : 
X                  .m        44554.8                       : 46154
Y                  .m        85427.13                      : 85761.93
YEAR               .         2019                          : 
~Parameter Information Block
#_______________________________________________________________________________
#
#PARAMETER_NAME    .UNIT     VALUE                         : DESCRIPTION
#_______________________________________________________________________________
SET                .         LQC_KAZNIPI_Petrel            : 
TLFamily_CALI      .         Caliper                       : 
TLFamily_COLL      .         Net Reservoir Flag            : 
TLFamily_CSAT      .         Fluid Code                    : 
TLFamily_DEPT      .         Measured Depth                : 
TLFamily_GR        .         Russian Gamma Ray             : 
TLFamily_LLS       .         Lateral Log Resistivity       : 
TLFamily_MINV      .         Micro Gradient Resistivity    : 
TLFamily_MNOR      .         Micro Resistivity             : 
TLFamily_NGLD      .         Neutron Gamma                 : 
TLFamily_PHIE      .         Effective Porosity            : 
TLFamily_PHIEN     .         Effective Porosity            : 
TLFamily_PHIT      .         Porosity                      : 
TLFamily_PRMB      .         Permeability                  : 
TLFamily_PRMB_DGR  .         Permeability                  : 
TLFamily_RT        .         Formation Resistivity         : 
TLFamily_SOIL_ARCHIE .         Oil Saturation                : 
TLFamily_SOIL_DW   .         Oil Saturation                : 
TLFamily_SP        .         Spontaneous Potential         : 
TLFamily_VSH_FIN   .         Shale Volume                  : 
TLFamily_VSH_GR    .         Shale Volume                  : 
TLFamily_VSH_SP    .         Shale Volume                  : 
~Curve Information
#_______________________________________________________________________________
#
#LOGNAME           .UNIT     LOG_ID                        : DESCRIPTION
#_______________________________________________________________________________
DEPT               .M                                      : Колонка глубины 
CALI               .м                                      : Каверномер 
COLL               .unitless                               : Описание 
CSAT               .unitless                               :  
GR                 .uR/h                                   : Гамма каротаж 
LLS                .Ohmm                                   : УЭС пласта 
MINV               .Ohmm                                   : Микро-градиент зонд 
MNOR               .Ohmm                                   : Микро-потенциал зонд 
NGLD               .у.е.                                   : Показания зонда НГК-60 аппаратуры ДРСТ-3-90 
PHIE               .v/v                                    : Описание 
PHIEN              .v/v                                    :  
PHIT               .v/v                                    : Описание 
PRMB               .mD                                     :  
PRMB_DGR           .mD                                     :  
RT                 .ohmm                                   : УЭС пласта 
SOIL_ARCHIE        .v/v                                    :  
SOIL_DW            .v/v                                    :  
SP                 .мВ                                     : Потенциал самополяризации 
VSH_FIN            .v/v                                    : Описание 
VSH_GR             .v/v                                    : Shale volume 
VSH_SP             .v/v                                    : Shale Volume 
~Ascii
# ...
1210.2     
  0.216      -9999      -9999      10.05731   1.893      1.94       
  1.384      1.214538   0.1047525  0.1047525  0.2928725  0.2440216  
  2.626094   1.893      0          0.3197439  45.72      0.5700608  
  0.4374172  0.7027044 
1210.4     
  0.216      -9999      -9999      10.13364   1.893      1.94       
  1.384      1.207919   0.1067374  0.1067374  0.2971557  0.265579   
  2.432041   1.893      0          0.3305624  45.72      0.5770251  
  0.4513458  0.7027044 
1210.6     
  0.216      -9999      -9999      10.19285   2.353      1.394      
  1.168      1.205007   0.1067881  0.1067881  0.2990398  0.2661538  
  2.291419   2.353      0          0.4020948  45.72      0.5825808  
  0.4624572  0.7027044 
1210.8     
  0.216      -9999      -9999      10.22189   3.028      0.823      
  1.067      1.20542    0.1010556  0.1010556  0.2987727  0.2084267  
  2.225466   3.028      0.03478947 0.4622702  46.736     0.5991427  
  0.4680051  0.7302803 
1211       
  0.217      -9999      -9999      10.21839   3.238      1.001      
  1.054      1.209511   0.1019452  0.1019452  0.2961255  0.2164865  
  2.233314   3.238      0.07180019 0.4785905  45.974     0.588425   
  0.4673329  0.7095172 
1211.2     
  0.216      -9999      -9999      10.18919   3.238      1.077      
  1.08       1.216728   0.1180734  0.1180734  0.2914554  0.4306886  
  2.299876   3.238      0.1832528  0.5003739  41.148     0.5254001  
  0.461762   0.5890383 
1211.4     
  0.216      -9999      -9999      10.14333   3.05       1.077      
  1.08       1.225228   0.1139948  0.1139948  0.2859551  0.3619243  
  2.408454   3.05       0.1338869  0.4721926  41.148     0.5210918  
  0.4531454  0.5890383 
1211.6     
  0.216      -9999      -9999      10.08356   2.7        1.127      
  1.08       1.233858   0.1102228  0.1102228  0.2803703  0.3081424  
  2.557664   2.7        0.05562768 0.4249296  41.148     0.5155984  
  0.4421586  0.5890383 
1211.8     
  0.215      8          2          9.999365   2.012      1.242      
  1.359      1.242806   0.119222   0.119222   0.2745802  0.4523119  
  2.7837     2.012      0          0.344317   37.719     0.4707825  
  0.4271299  0.5144351 
1212       
  0.214      8          2          9.874136   2.012      1.343      
  1.372      1.252273   0.129403   0.129403   0.2684543  0.698256   
  3.157358   2.012      0.05723542 0.3554261  33.655     0.4213676  
  0.4057173  0.4370177 
1212.2     
  0.211      8          2          9.709002   2.012      1.496      
  1.6        1.261667   0.1434909  0.1434909  0.2623755  1.273376   
  3.727831   2.012      0.1383818  0.3721483  27.559     0.3602565  
  0.3791137  0.3413993 
1212.4     
  0.211      8          2          9.524516   1.691      1.496      
  1.6        1.270432   0.1423835  0.1423835  0.2567037  1.214635   
  4.487881   1.691      0.05883171 0.3039077  27.559     0.3464248  
  0.3514503  0.3413993 
1212.6     
  0.211      8          2          9.33972    1.43       1.369      
  1.499      1.278703   0.1412692  0.1412692  0.2513511  1.158259   
  5.404588   1.43       0          0.2309666  27.559     0.3335815  
  0.3257638  0.3413993 
1212.8     
  0.21       8          2          9.163963   1.595      1.331      
  1.74       1.286329   0.1426181  0.1426181  0.2464164  1.226848   
  6.449629   1.595      0.0340472  0.2658774  26.416     0.3145404  
  0.3030778  0.326003  
1213       
  0.209      -9999      -9999      9.014568   1.595      1.381      
  1.74       1.291888   0.1400319  0.1400319  0.2428191  1.098723   
  7.495354   1.595      0.01852793 0.2539312  27.305     0.3114765  
  0.285041   0.337912  
1213.2     
  0.208      -9999      -9999      8.918904   1.595      1.559      
  1.765      1.293827   0.1322795  0.1322795  0.2415644  0.7893977  
  8.25238    1.595      0          0.2344735  30.734     0.3311664  
  0.2740591  0.3882736 
1213.4     
  0.208      -9999      -9999      8.884326   1.595      1.559      
  1.765      1.292089   0.1340421  0.1340421  0.2426894  0.8510267  
  8.544437   1.595      0          0.2406061  30.734     0.3292341  
  0.2701946  0.3882736 
1213.6     
  0.208      -9999      -9999      8.874968   1.88       1.648      
  1.715      1.288477   0.1365505  0.1365505  0.2450267  0.9471185  
  8.625242   1.88       0.0712548  0.309657   30.734     0.3287159  
  0.2691582  0.3882736 
1213.8     
  0.208      -9999      -9999      8.840787   2.003      1.928      
  1.829      1.28564    0.1376718  0.1376718  0.2468622  0.9935129  
  8.92692    2.003      0.1048668  0.3363501  31.242     0.33088    
  0.2654061  0.3963539 
1214       
  0.207      -9999      -9999      8.766675   1.714      1.153      
  1.384      1.285799   0.1405442  0.1405442  0.2467594  1.122996   
  9.617775   1.714      0.05412888 0.2882647  30.607     0.3218643  
  0.2574495  0.3862791 
1214.2     
  0.207      -9999      -9999      8.683279   1.714      1.381      
  1.626      1.289183   0.1546908  0.1546908  0.24457    2.053082   
  10.4593    1.714      0.1299271  0.3115584  24.003     0.2723613  
  0.248781   0.2959416 
1214.4     
  0.207      -9999      -9999      8.635258   1.714      1.381      
  1.626      1.293482   0.1527103  0.1527103  0.2417879  1.886792   
  10.97688   1.714      0.1201079  0.303228   24.003     0.2699321  
  0.2439225  0.2959416 
1214.6     
  0.207      -9999      -9999      8.642794   1.518      1.28       
  1.702      1.295367   0.1513654  0.1513654  0.2405678  1.781613   
  10.894     1.518      0.06130641 0.2547096  24.003     0.2703101  
  0.2446786  0.2959416 
1214.8     
  0.207      -9999      -9999      8.689358   1.329      1.534      
  1.676      1.293137   0.157978   0.157978   0.2420111  2.362077   
  10.39555   1.329      0.0373935  0.2200051  20.701     0.2546456  
  0.2494028  0.2598885 
1215       
  0.207      -9999      -9999      8.736908   1.05       1.331      
  1.778      1.288017   0.1655313  0.1655313  0.2453243  3.259858   
  9.910081   1.05       0          0.1460017  17.399     0.2417972  
  0.2543212  0.2292731 
1215.2     
  0.206      -9999      -9999      8.75567    1.05       1.331      
  1.537      1.282721   0.1747019  0.1747019  0.2487515  4.820156   
  9.724829   1.05       0.01506019 0.1715773  12.446     0.2243928  
  0.2562885  0.1924971 
1215.4     
  0.206      -9999      -9999      8.75288    1.05       1.331      
  1.537      1.278596   0.1774193  0.1774193  0.2514205  5.412452   
  9.752149   1.05       0.02821211 0.1819876  12.446     0.2242461  
  0.255995   0.1924971 
1215.6     
  0.206      -9999      -9999      8.7692     1.022      1.381      
  1.651      1.274709   0.1796509  0.1796509  0.2539361  5.952889   
  9.593374   1.022      0.02646407 0.179937   12.446     0.2251069  
  0.2577166  0.1924971 
1215.8     
  0.205      -9999      -9999      8.843964   1.151      1.28       
  1.537      1.269477   0.1822388  0.1822388  0.2573211  6.64756    
  8.898441   1.151      0.09068027 0.2377578  11.938     0.2275223  
  0.2657526  0.1892919 
1216       
  0.205      -9999      -9999      8.984728   1.778      1.432      
  1.499      1.262692   0.1836247  0.1836247  0.2617119  7.052341   
  7.723725   1.778      0.2634072  0.3946609  12.319     0.2366277  
  0.281569   0.1916865 
1216.2     
  0.205      -9999      -9999      9.167947   1.778      1.585      
  1.613      1.25542    0.1570251  0.1570251  0.2664177  2.268001   
  6.423839   1.778      0.1558506  0.3615506  28.829     0.3314927  
  0.303574   0.3594114 
1216.4     
  0.205      -9999      -9999      9.360554   1.778      1.585      
  1.613      1.248474   0.1573964  0.1573964  0.2709122  2.304203   
  5.292513   1.778      0.1575853  0.3685194  28.829     0.3439873  
  0.3285631  0.3594114 
1216.6     
  0.205      -9999      -9999      9.52215    1.812      1.394      
  1.283      1.24166    0.1580857  0.1580857  0.2753215  2.372947   
  4.498574   1.812      0.1682119  0.381588   28.829     0.3552601  
  0.3511089  0.3594114 
