~Version
 VERS              .         2.0                           : CWLS LOG ASCII STANDARD - VERSION 2.0
 WRAP              .         YES                            : ONE LINE PER DEPTH STEP
 DLM               .         SPACE                         : DELIMITING CHARACTER(SPACE TAB OR COMMA)
~Well Information
#_______________________________________________________________________________
#
#PARAMETER_NAME    .UNIT     VALUE                         : DESCRIPTION
#_______________________________________________________________________________
STRT               .M        900                           : First reference value
STOP               .M        1287.2                        : Last reference value
STEP               .M        0.2                           : Step increment
NULL               .         -9999                         : Missing value
COMP               .                                       : Company
WELL               .         1437                          : Well name
FLD                .         Узень                         : Field
LOC                .                                       : Location
CNTY               .                                       : County
STAT               .                                       : State
CTRY               .                                       : Country
SRVC               .                                       : Service Company
DATE               .         09.08.1970                    : Date
UWI                .                                       : Unique Well ID
Block              .         6а                            : 
Cartographic_reference_system .         GCS_WGS_1984                  : ESRI,PE_10_3_1- <?xml version="1.0" encoding="utf-16"?><ILateBoundCoordinateReferenceSystem name="GCS_WGS_1984"><AuthorityCode>EPSG,4326</AuthorityCode></ILateBoundCoordinateReferenceSystem>
Category           .         Нефтяная                      : 
Condition          .         В работе                      : 
EREF               .m        83.2                          : 100.8
Gorizont           .         14                            : 14
HZCS               .GCS_WGS_1984 WGS_1984_EASE-Grid_2.0_Global : ESRI,PE_10_3_1- <?xml version="1.0" encoding="utf-16"?><ILateBoundCoordinateReferenceSystem name="WGS_1984_EASE-Grid_2.0_Global"><AuthorityCode>EPSG,6933</AuthorityCode></ILateBoundCoordinateReferenceSystem>
Interpretator      .         Сагынбаева А.Н.               : 
Kupol              .         основной                      : osnovnoi
LATI               .dega     0.6696466301                  : GCS_WGS_1984
LONG               .dega     0.461773424                   : GCS_WGS_1984
Mud                .         глинистый                     : 
Mud_density        .         1,18                          : 
Mud_resistivity    .         0                             : 
NGDU               .         НГДУ-2                        : 
ORIGINALWELLNAME   .         1437                          : 
Spud_date          .         1970                          : 1961
Viscosity          .         25                            : 
X                  .m        44554.8                       : 46154
Y                  .m        85427.13                      : 85761.93
YEAR               .         2019                          : 
~Parameter Information Block
#_______________________________________________________________________________
#
#PARAMETER_NAME    .UNIT     VALUE                         : DESCRIPTION
#_______________________________________________________________________________
SET                .         LQC_KAZNIPI_Petrel            : 
TLFamily_CALI      .         Caliper                       : 
TLFamily_COLL      .         Net Reservoir Flag            : 
TLFamily_CSAT      .         Fluid Code                    : 
TLFamily_DEPT      .         Measured Depth                : 
TLFamily_GR        .         Russian Gamma Ray             : 
TLFamily_LLS       .         Lateral Log Resistivity       : 
TLFamily_MINV      .         Micro Gradient Resistivity    : 
TLFamily_MNOR      .         Micro Resistivity             : 
TLFamily_NGLD      .         Neutron Gamma                 : 
TLFamily_PHIE      .         Effective Porosity            : 
TLFamily_PHIEN     .         Effective Porosity            : 
TLFamily_PHIT      .         Porosity                      : 
TLFamily_PRMB      .         Permeability                  : 
TLFamily_PRMB_DGR  .         Permeability                  : 
TLFamily_RT        .         Formation Resistivity         : 
TLFamily_SOIL_ARCHIE .         Oil Saturation                : 
TLFamily_SOIL_DW   .         Oil Saturation                : 
TLFamily_SP        .         Spontaneous Potential         : 
TLFamily_VSH_FIN   .         Shale Volume                  : 
TLFamily_VSH_GR    .         Shale Volume                  : 
TLFamily_VSH_SP    .         Shale Volume                  : 
~Curve Information
#_______________________________________________________________________________
#
#LOGNAME           .UNIT     LOG_ID                        : DESCRIPTION
#_______________________________________________________________________________
DEPT               .M                                      : Колонка глубины 
CALI               .м                                      : Каверномер 
COLL               .unitless                               : Описание 
CSAT               .unitless                               :  
GR                 .uR/h                                   : Гамма каротаж 
LLS                .Ohmm                                   : УЭС пласта 
MINV               .Ohmm                                   : Микро-градиент зонд 
MNOR               .Ohmm                                   : Микро-потенциал зонд 
NGLD               .у.е.                                   : Показания зонда НГК-60 аппаратуры ДРСТ-3-90 
PHIE               .v/v                                    : Описание 
PHIEN              .v/v                                    :  
PHIT               .v/v                                    : Описание 
PRMB               .mD                                     :  
PRMB_DGR           .mD                                     :  
RT                 .ohmm                                   : УЭС пласта 
SOIL_ARCHIE        .v/v                                    :  
SOIL_DW            .v/v                                    :  
SP                 .мВ                                     : Потенциал самополяризации 
VSH_FIN            .v/v                                    : Описание 
VSH_GR             .v/v                                    : Shale volume 
VSH_SP             .v/v                                    : Shale Volume 
~Ascii
# ...
906.6      
  0.224      -9999      -9999      6.524349   20.555     4.049      
  3.137      1.360717   -9999      -9999      -9999      -9999      
  -9999      20.555     -9999      -9999      49.53      -9999      
  0.0902238  0.8       
906.8      
  0.224      -9999      -9999      6.740825   19.485     4.036      
  4.013      1.307072   -9999      -9999      -9999      -9999      
  -9999      19.485     -9999      -9999      50.038     -9999      
  0.1069195  0.8       
907        
  0.224      -9999      -9999      6.938919   19.485     4.036      
  4.013      1.264124   -9999      -9999      -9999      -9999      
  -9999      19.485     -9999      -9999      50.546     -9999      
  0.1069195  0.8       
907.2000000000001 
  0.224      -9999      -9999      7.13912    17.449     4.036      
  3.429      1.232107   -9999      -9999      -9999      -9999      
  -9999      17.449     -9999      -9999      50.927     -9999      
  0.1267047  0.8       
907.4      
  0.224      -9999      -9999      7.360487   15.583     3.934      
  2.972      1.211005   -9999      -9999      -9999      -9999      
  -9999      15.583     -9999      -9999      50.992     -9999      
  0.1310986  0.8       
907.6      
  0.225      -9999      -9999      7.596584   13.412     3.706      
  3.861      1.199932   -9999      -9999      -9999      -9999      
  -9999      13.412     -9999      -9999      51.054     -9999      
  0.1937012  0.8       
907.8      
  0.226      -9999      -9999      7.828826   10.759     3.883      
  3.111      1.19452    -9999      -9999      -9999      -9999      
  -9999      10.759     -9999      -9999      51.054     -9999      
  0.2145597  0.8       
908        
  0.226      -9999      -9999      8.061168   10.759     3.883      
  3.111      1.189134   -9999      -9999      -9999      -9999      
  -9999      10.759     -9999      -9999      51.054     -9999      
  0.2145597  0.8       
908.2000000000001 
  0.228      -9999      -9999      8.319325   9.089      2.906      
  2.426      1.181779   -9999      -9999      -9999      -9999      
  -9999      9.089      -9999      -9999      51.054     -9999      
  0.2720221  0.8       
908.4      
  0.236      -9999      -9999      8.611425   8.287      1.851      
  1.587      1.1749     -9999      -9999      -9999      -9999      
  -9999      8.287      -9999      -9999      51.054     -9999      
  0.3117633  0.8       
908.6      
  0.26       -9999      -9999      8.900411   8.145      1.267      
  1.194      1.171588   -9999      -9999      -9999      -9999      
  -9999      8.145      -9999      -9999      50.927     -9999      
  0.4684001  0.8       
908.8      
  0.298      -9999      -9999      9.121532   8.257      0.912      
  1.118      1.172666   -9999      -9999      -9999      -9999      
  -9999      8.257      -9999      -9999      50.927     -9999      
  0.5743256  0.8       
909        
  0.298      -9999      -9999      9.2237     8.257      0.912      
  1.118      1.176758   -9999      -9999      -9999      -9999      
  -9999      8.257      -9999      -9999      50.8       -9999      
  0.5743256  0.8       
909.2000000000001 
  0.332      -9999      -9999      9.194786   8.589      0.429      
  0.902      1.180992   -9999      -9999      -9999      -9999      
  -9999      8.589      -9999      -9999      50.546     -9999      
  0.5648076  0.8       
909.4      
  0.327      -9999      -9999      9.066654   9.263      3.642      
  2.832      1.181844   -9999      -9999      -9999      -9999      
  -9999      9.263      -9999      -9999      50.419     -9999      
  0.5458778  0.8       
909.6      
  0.327      -9999      -9999      8.913542   9.359      1.343      
  1.486      1.177379   -9999      -9999      -9999      -9999      
  -9999      9.359      -9999      -9999      50.419     -9999      
  0.3393852  0.8       
909.8      
  0.327      -9999      -9999      8.823059   8.966      1.127      
  1.08       1.169149   -9999      -9999      -9999      -9999      
  -9999      8.966      -9999      -9999      50.419     -9999      
  0.3451045  0.8       
910        
  0.327      -9999      -9999      8.840895   8.966      1.127      
  1.08       1.160768   -9999      -9999      -9999      -9999      
  -9999      8.966      -9999      -9999      50.419     -9999      
  0.3451045  0.8       
910.2000000000001 
  0.289      -9999      -9999      8.939922   8.177      0.95       
  1.168      1.155052   -9999      -9999      -9999      -9999      
  -9999      8.177      -9999      -9999      50.8       -9999      
  0.430278   0.8       
910.4      
  0.267      -9999      -9999      9.04829    7.503      1.331      
  1.346      1.152748   -9999      -9999      -9999      -9999      
  -9999      7.503      -9999      -9999      50.8       -9999      
  0.5275824  0.8       
910.6      
  0.32       -9999      -9999      9.100731   6.564      0.607      
  0.965      1.15277    -9999      -9999      -9999      -9999      
  -9999      6.564      -9999      -9999      50.927     -9999      
  0.5098999  0.8       
910.8      
  0.349      -9999      -9999      9.068606   5.975      3.96       
  0.889      1.153212   -9999      -9999      -9999      -9999      
  -9999      5.975      -9999      -9999      51.054     -9999      
  0.4928103  0.8       
911        
  0.349      -9999      -9999      8.953397   5.975      3.96       
  0.889      1.151966   -9999      -9999      -9999      -9999      
  -9999      5.975      -9999      -9999      51.054     -9999      
  0.4928103  0.8       
911.2000000000001 
  0.355      -9999      -9999      8.781024   5.951      2.283      
  3.772      1.147153   -9999      -9999      -9999      -9999      
  -9999      5.951      -9999      -9999      51.054     -9999      
  0.3694546  0.8       
911.4      
  0.367      -9999      -9999      8.599066   5.9        1.077      
  2.095      1.138332   -9999      -9999      -9999      -9999      
  -9999      5.9        -9999      -9999      51.181     -9999      
  0.3451045  0.8       
911.6      
  0.259      -9999      -9999      8.460454   6.168      0.899      
  1.283      1.128134   -9999      -9999      -9999      -9999      
  -9999      6.168      -9999      -9999      51.181     -9999      
  0.2498828  0.8       
911.8      
  0.253      -9999      -9999      8.391139   6.575      0.683      
  1.118      1.121519   -9999      -9999      -9999      -9999      
  -9999      6.575      -9999      -9999      51.181     -9999      
  0.2912157  0.8       
912        
  0.253      -9999      -9999      8.370512   6.575      0.683      
  1.118      1.121602   -9999      -9999      -9999      -9999      
  -9999      6.575      -9999      -9999      51.181     -9999      
  0.2912157  0.8       
912.2000000000001 
  0.29       -9999      -9999      8.347419   7.086      0.734      
  1.245      1.12643    -9999      -9999      -9999      -9999      
  -9999      7.086      -9999      -9999      51.181     -9999      
  0.3013144  0.8       
912.4      
  0.339      -9999      -9999      8.277875   6.759      1.229      
  1.372      1.130709   -9999      -9999      -9999      -9999      
  -9999      6.759      -9999      -9999      51.054     -9999      
  0.3223592  0.8       
912.6      
  0.328      -9999      -9999      8.15695    6.123      3.223      
  3.353      1.130678   -9999      -9999      -9999      -9999      
  -9999      6.123      -9999      -9999      50.927     -9999      
  0.2498828  0.8       
912.8      
  0.301      -9999      -9999      8.01986    5.89       1.305      
  1.384      1.126289   -9999      -9999      -9999      -9999      
  -9999      5.89       -9999      -9999      50.673     -9999      
  0.210863   0.8       
913        
  0.301      -9999      -9999      7.913925   5.89       1.305      
  1.384      1.119313   -9999      -9999      -9999      -9999      
  -9999      5.89       -9999      -9999      50.419     -9999      
  0.210863   0.8       
