~Version
 VERS              .         2.0                           : CWLS LOG ASCII STANDARD - VERSION 2.0
 WRAP              .         YES                            : ONE LINE PER DEPTH STEP
 DLM               .         SPACE                         : DELIMITING CHARACTER(SPACE TAB OR COMMA)
~Well Information
#_______________________________________________________________________________
#
#PARAMETER_NAME    .UNIT     VALUE                         : DESCRIPTION
#_______________________________________________________________________________
STRT               .M        900                           : First reference value
STOP               .M        1287.2                        : Last reference value
STEP               .M        0.2                           : Step increment
NULL               .         -9999                         : Missing value
COMP               .                                       : Company
WELL               .         1437                          : Well name
FLD                .         Узень                         : Field
LOC                .                                       : Location
CNTY               .                                       : County
STAT               .                                       : State
CTRY               .                                       : Country
SRVC               .                                       : Service Company
DATE               .         09.08.1970                    : Date
UWI                .                                       : Unique Well ID
Block              .         6а                            : 
Cartographic_reference_system .         GCS_WGS_1984                  : ESRI,PE_10_3_1- <?xml version="1.0" encoding="utf-16"?><ILateBoundCoordinateReferenceSystem name="GCS_WGS_1984"><AuthorityCode>EPSG,4326</AuthorityCode></ILateBoundCoordinateReferenceSystem>
Category           .         Нефтяная                      : 
Condition          .         В работе                      : 
EREF               .m        83.2                          : 100.8
Gorizont           .         14                            : 14
HZCS               .GCS_WGS_1984 WGS_1984_EASE-Grid_2.0_Global : ESRI,PE_10_3_1- <?xml version="1.0" encoding="utf-16"?><ILateBoundCoordinateReferenceSystem name="WGS_1984_EASE-Grid_2.0_Global"><AuthorityCode>EPSG,6933</AuthorityCode></ILateBoundCoordinateReferenceSystem>
Interpretator      .         Сагынбаева А.Н.               : 
Kupol              .         основной                      : osnovnoi
LATI               .dega     0.6696466301                  : GCS_WGS_1984
LONG               .dega     0.461773424                   : GCS_WGS_1984
Mud                .         глинистый                     : 
Mud_density        .         1,18                          : 
Mud_resistivity    .         0                             : 
NGDU               .         НГДУ-2                        : 
ORIGINALWELLNAME   .         1437                          : 
Spud_date          .         1970                          : 1961
Viscosity          .         25                            : 
X                  .m        44554.8                       : 46154
Y                  .m        85427.13                      : 85761.93
YEAR               .         2019                          : 
~Parameter Information Block
#_______________________________________________________________________________
#
#PARAMETER_NAME    .UNIT     VALUE                         : DESCRIPTION
#_______________________________________________________________________________
SET                .         LQC_KAZNIPI_Petrel            : 
TLFamily_CALI      .         Caliper                       : 
TLFamily_COLL      .         Net Reservoir Flag            : 
TLFamily_CSAT      .         Fluid Code                    : 
TLFamily_DEPT      .         Measured Depth                : 
TLFamily_GR        .         Russian Gamma Ray             : 
TLFamily_LLS       .         Lateral Log Resistivity       : 
TLFamily_MINV      .         Micro Gradient Resistivity    : 
TLFamily_MNOR      .         Micro Resistivity             : 
TLFamily_NGLD      .         Neutron Gamma                 : 
TLFamily_PHIE      .         Effective Porosity            : 
TLFamily_PHIEN     .         Effective Porosity            : 
TLFamily_PHIT      .         Porosity                      : 
TLFamily_PRMB      .         Permeability                  : 
TLFamily_PRMB_DGR  .         Permeability                  : 
TLFamily_RT        .         Formation Resistivity         : 
TLFamily_SOIL_ARCHIE .         Oil Saturation                : 
TLFamily_SOIL_DW   .         Oil Saturation                : 
TLFamily_SP        .         Spontaneous Potential         : 
TLFamily_VSH_FIN   .         Shale Volume                  : 
TLFamily_VSH_GR    .         Shale Volume                  : 
TLFamily_VSH_SP    .         Shale Volume                  : 
~Curve Information
#_______________________________________________________________________________
#
#LOGNAME           .UNIT     LOG_ID                        : DESCRIPTION
#_______________________________________________________________________________
DEPT               .M                                      : Колонка глубины 
CALI               .м                                      : Каверномер 
COLL               .unitless                               : Описание 
CSAT               .unitless                               :  
GR                 .uR/h                                   : Гамма каротаж 
LLS                .Ohmm                                   : УЭС пласта 
MINV               .Ohmm                                   : Микро-градиент зонд 
MNOR               .Ohmm                                   : Микро-потенциал зонд 
NGLD               .у.е.                                   : Показания зонда НГК-60 аппаратуры ДРСТ-3-90 
PHIE               .v/v                                    : Описание 
PHIEN              .v/v                                    :  
PHIT               .v/v                                    : Описание 
PRMB               .mD                                     :  
PRMB_DGR           .mD                                     :  
RT                 .ohmm                                   : УЭС пласта 
SOIL_ARCHIE        .v/v                                    :  
SOIL_DW            .v/v                                    :  
SP                 .мВ                                     : Потенциал самополяризации 
VSH_FIN            .v/v                                    : Описание 
VSH_GR             .v/v                                    : Shale volume 
VSH_SP             .v/v                                    : Shale Volume 
~Ascii
# ...
1045.2     
  0.315      -9999      -9999      8.998847   1.964      0.924      
  1.143      1.102292   0.1960347  0.1960347  0.3655069  11.97281   
  1.403163   1.964      0.3265612  0.5340953  44.323     0.5135524  
  0.5649954  0.4621094 
1045.4     
  0.315      -9999      -9999      9.035914   2.106      0.924      
  1.143      1.100993   0.1958376  0.1958376  0.3663476  11.8726    
  1.365637   2.106      0.3476931  0.5505298  44.323     0.5166968  
  0.5712842  0.4621094 
1045.6     
  0.315      -9999      -9999      9.065931   2.207      1.28       
  1.359      1.104009   0.191939   0.191939   0.3643958  10.0539    
  1.335985   2.207      0.3506017  0.5560368  44.577     0.5225961  
  0.5764281  0.4687641 
1045.8     
  0.299      -9999      -9999      9.09982    1.797      2.436      
  1.74       1.10887    0.1867135  0.1867135  0.3612501  8.045342   
  1.303281   1.797      0.2674529  0.5000454  44.831     0.528899   
  0.5822912  0.4755067 
1046       
  0.282      -9999      -9999      9.131996   1.797      1.343      
  1.016      1.111143   0.1831883  0.1831883  0.3597797  6.922292   
  1.272971   1.797      0.2551904  0.495086   45.085     0.5351254  
  0.5879132  0.4823376 
1046.2     
  0.306      -9999      -9999      9.156548   1.797      0.873      
  0.838      1.107658   0.1847293  0.1847293  0.3620345  7.392524   
  1.250319   1.797      0.2606047  0.4986429  45.085     0.5372885  
  0.5922394  0.4823376 
1046.4     
  0.306      -9999      -9999      9.186682   1.679      0.873      
  0.838      1.098639   0.1896824  0.1896824  0.3678709  9.131375   
  1.223066   1.679      0.2540488  0.4916148  45.085     0.5399653  
  0.5975929  0.4823376 
1046.6     
  0.306      -9999      -9999      9.241837   1.687      0.835      
  0.864      1.087705   0.1945508  0.1945508  0.3749458  11.23854   
  1.174714   1.687      0.2719586  0.503603   45.212     0.5466518  
  0.6075171  0.4857865 
1046.8     
  0.341      -9999      -9999      9.31914    1.857      0.734      
  0.952      1.079828   0.1967345  0.1967345  0.3800433  12.33554   
  1.110145   1.857      0.3107651  0.532792   45.339     0.5554812  
  0.6217047  0.4892577 
1047       
  0.327      -9999      -9999      9.388441   1.857      1.445      
  1.308      1.077479   0.1955328  0.1955328  0.381563   11.71924   
  1.055283   1.857      0.3070773  0.5328273  45.466     0.563728   
  0.6347049  0.4927512 
1047.2     
  0.317      -9999      -9999      9.422717   1.857      0.734      
  0.927      1.078397   0.1938619  0.1938619  0.3809696  10.91315   
  1.029159   1.857      0.3018786  0.5308282  45.466     0.5669931  
  0.6412349  0.4927512 
1047.4     
  0.317      -9999      -9999      9.429721   1.76       0.734      
  0.927      1.078257   0.1937305  0.1937305  0.3810597  10.85216   
  1.023901   1.76       0.2836571  0.5180166  45.466     0.5676643  
  0.6425774  0.4927512 
1047.6     
  0.317      -9999      -9999      9.446363   1.646      0.747      
  0.8        1.075871   0.1947463  0.1947463  0.3826038  11.33268   
  1.011515   1.646      0.2641485  0.5038438  45.466     0.5692651  
  0.645779   0.4927512 
1047.8     
  0.33       -9999      -9999      9.504015   1.6        0.823      
  0.978      1.074368   0.1932884  0.1932884  0.3835764  10.6495    
  0.9697533  1.6        0.2493992  0.4960891  45.593     0.5766301  
  0.656993   0.4962672 
1048       
  0.336      -9999      -9999      9.595766   1.6        0.848      
  0.94       1.076832   0.1880987  0.1880987  0.3819817  8.53497    
  0.906818   1.6        0.231394   0.4894863  45.72      0.5875244  
  0.675243   0.4998059 
1048.2     
  0.334      -9999      -9999      9.679072   1.6        0.848      
  0.864      1.081862   0.1820377  0.1820377  0.3787273  6.590804   
  0.85322    1.6        0.2091529  0.4803193  45.72      0.5960289  
  0.6922519  0.4998059 
1048.4     
  0.334      -9999      -9999      9.714664   1.655      0.848      
  0.864      1.085128   0.1787034  0.1787034  0.3766135  5.717144   
  0.8312977  1.655      0.2089624  0.4836351  45.72      0.5997274  
  0.6996489  0.4998059 
1048.6     
  0.334      -9999      -9999      9.695684   1.701      0.772      
  0.775      1.085287   0.1786658  0.1786658  0.3765109  5.707973   
  0.842917   1.701      0.2189306  0.4905382  45.847     0.5995308  
  0.6956946  0.5033671 
1048.8     
  0.331      -9999      -9999      9.642577   1.725      0.823      
  0.889      1.085639   0.1790572  0.1790572  0.3762827  5.804054   
  0.876299   1.725      0.2255265  0.4943247  46.101     0.5976531  
  0.6847485  0.5105577 
1049       
  0.324      -9999      -9999      9.578502   1.725      0.734      
  0.749      1.089353   0.1757634  0.1757634  0.3738799  5.043394   
  0.9183401  1.725      0.2129012  0.488722   46.736     0.6003531  
  0.6717707  0.5289354 
1049.2     
  0.325      -9999      -9999      9.516586   1.725      0.81       
  0.978      1.095599   0.1737521  0.1737521  0.369838   4.628798   
  0.9608786  1.725      0.2049715  0.483009   46.736     0.5941998  
  0.6594641  0.5289354 
1049.4     
  0.325      -9999      -9999      9.462409   1.719      0.81       
  0.978      1.101449   0.1717125  0.1717125  0.3660521  4.243162   
  0.9997144  1.719      0.1954386  0.4764502  46.736     0.588908   
  0.6488807  0.5289354 
1049.6     
  0.325      -9999      -9999      9.418572   1.686      0.785      
  0.838      1.105164   0.168836   0.168836   0.3636485  3.753275   
  1.032283   1.686      0.1760524  0.4657795  47.117     0.5903409  
  0.6404417  0.5402402 
1049.8     
  0.318      -9999      -9999      9.38557    1.706      0.721      
  0.775      1.106363   0.1684666  0.1684666  0.3628722  3.694606   
  1.057501   1.706      0.1790348  0.4677733  47.244     0.589108   
  0.6341609  0.5440552 
1050       
  0.311      -9999      -9999      9.363872   1.706      0.886      
  0.902      1.105341   0.1698041  0.1698041  0.3635339  3.911489   
  1.074416   1.706      0.1846697  0.4699626  47.244     0.5870601  
  0.6300651  0.5440552 
1050.2     
  0.314      -9999      -9999      9.355659   1.706      0.658      
  0.686      1.103492   0.1712553  0.1712553  0.3647305  4.161236   
  1.080888   1.706      0.1906906  0.4727449  47.244     0.5862885  
  0.6285218  0.5440552 
1050.4     
  0.314      -9999      -9999      9.357373   1.762      0.658      
  0.686      1.103196   0.1713936  0.1713936  0.3649218  4.18584    
  1.079534   1.762      0.2034241  0.4815186  47.244     0.5864494  
  0.6288435  0.5440552 
1050.6     
  0.314      -9999      -9999      9.345077   1.799      0.835      
  0.762      1.105689   0.1701607  0.1701607  0.3633086  3.971423   
  1.089286   1.799      0.2061789  0.4840552  47.244     0.5852969  
  0.6265386  0.5440552 
1050.8     
  0.322      -9999      -9999      9.281985   1.764      1.229      
  0.876      1.109936   0.1705971  0.1705971  0.3605605  4.046041   
  1.140724   1.764      0.2006118  0.4770068  46.99      0.5756466  
  0.6148447  0.5364486 
1051       
  0.306      -9999      -9999      9.147895   1.764      3.274      
  3.315      1.113683   0.1727763  0.1727763  0.3581359  4.440118   
  1.258256   1.764      0.2094004  0.4773441  46.863     0.5616957  
  0.5907111  0.5326803 
1051.2     
  0.305      -9999      -9999      8.958799   1.764      1.229      
  0.838      1.1148     0.1774049  0.1774049  0.3574132  5.409133   
  1.444867   1.764      0.2273964  0.4819557  46.863     0.5454795  
  0.5582787  0.5326803 
1051.4     
  0.305      -9999      -9999      8.756706   1.679      1.229      
  0.838      1.112357   0.1843802  0.1843802  0.3589936  7.283262   
  1.675      1.679      0.2354     0.4782518  46.863     0.5291317  
  0.5255831  0.5326803 
1051.6     
  0.305      -9999      -9999      8.591279   1.61       0.835      
  1.016      1.107326   0.1918156  0.1918156  0.3622491  10.00112   
  1.890412   1.61       0.2465881  0.4781912  46.863     0.5164651  
  0.5002498  0.5326803 
