~Version
 VERS              .         2.0                           : CWLS LOG ASCII STANDARD - VERSION 2.0
 WRAP              .         YES                            : ONE LINE PER DEPTH STEP
 DLM               .         SPACE                         : DELIMITING CHARACTER(SPACE TAB OR COMMA)
~Well Information
#_______________________________________________________________________________
#
#PARAMETER_NAME    .UNIT     VALUE                         : DESCRIPTION
#_______________________________________________________________________________
STRT               .M        900                           : First reference value
STOP               .M        1287.2                        : Last reference value
STEP               .M        0.2                           : Step increment
NULL               .         -9999                         : Missing value
COMP               .                                       : Company
WELL               .         1437                          : Well name
FLD                .         Узень                         : Field
LOC                .                                       : Location
CNTY               .                                       : County
STAT               .                                       : State
CTRY               .                                       : Country
SRVC               .                                       : Service Company
DATE               .         09.08.1970                    : Date
UWI                .                                       : Unique Well ID
Block              .         6а                            : 
Cartographic_reference_system .         GCS_WGS_1984                  : ESRI,PE_10_3_1- <?xml version="1.0" encoding="utf-16"?><ILateBoundCoordinateReferenceSystem name="GCS_WGS_1984"><AuthorityCode>EPSG,4326</AuthorityCode></ILateBoundCoordinateReferenceSystem>
Category           .         Нефтяная                      : 
Condition          .         В работе                      : 
EREF               .m        83.2                          : 100.8
Gorizont           .         14                            : 14
HZCS               .GCS_WGS_1984 WGS_1984_EASE-Grid_2.0_Global : ESRI,PE_10_3_1- <?xml version="1.0" encoding="utf-16"?><ILateBoundCoordinateReferenceSystem name="WGS_1984_EASE-Grid_2.0_Global"><AuthorityCode>EPSG,6933</AuthorityCode></ILateBoundCoordinateReferenceSystem>
Interpretator      .         Сагынбаева А.Н.               : 
Kupol              .         основной                      : osnovnoi
LATI               .dega     0.6696466301                  : GCS_WGS_1984
LONG               .dega     0.461773424                   : GCS_WGS_1984
Mud                .         глинистый                     : 
Mud_density        .         1,18                          : 
Mud_resistivity    .         0                             : 
NGDU               .         НГДУ-2                        : 
ORIGINALWELLNAME   .         1437                          : 
Spud_date          .         1970                          : 1961
Viscosity          .         25                            : 
X                  .m        44554.8                       : 46154
Y                  .m        85427.13                      : 85761.93
YEAR               .         2019                          : 
~Parameter Information Block
#_______________________________________________________________________________
#
#PARAMETER_NAME    .UNIT     VALUE                         : DESCRIPTION
#_______________________________________________________________________________
SET                .         LQC_KAZNIPI_Petrel            : 
TLFamily_CALI      .         Caliper                       : 
TLFamily_COLL      .         Net Reservoir Flag            : 
TLFamily_CSAT      .         Fluid Code                    : 
TLFamily_DEPT      .         Measured Depth                : 
TLFamily_GR        .         Russian Gamma Ray             : 
TLFamily_LLS       .         Lateral Log Resistivity       : 
TLFamily_MINV      .         Micro Gradient Resistivity    : 
TLFamily_MNOR      .         Micro Resistivity             : 
TLFamily_NGLD      .         Neutron Gamma                 : 
TLFamily_PHIE      .         Effective Porosity            : 
TLFamily_PHIEN     .         Effective Porosity            : 
TLFamily_PHIT      .         Porosity                      : 
TLFamily_PRMB      .         Permeability                  : 
TLFamily_PRMB_DGR  .         Permeability                  : 
TLFamily_RT        .         Formation Resistivity         : 
TLFamily_SOIL_ARCHIE .         Oil Saturation                : 
TLFamily_SOIL_DW   .         Oil Saturation                : 
TLFamily_SP        .         Spontaneous Potential         : 
TLFamily_VSH_FIN   .         Shale Volume                  : 
TLFamily_VSH_GR    .         Shale Volume                  : 
TLFamily_VSH_SP    .         Shale Volume                  : 
~Curve Information
#_______________________________________________________________________________
#
#LOGNAME           .UNIT     LOG_ID                        : DESCRIPTION
#_______________________________________________________________________________
DEPT               .M                                      : Колонка глубины 
CALI               .м                                      : Каверномер 
COLL               .unitless                               : Описание 
CSAT               .unitless                               :  
GR                 .uR/h                                   : Гамма каротаж 
LLS                .Ohmm                                   : УЭС пласта 
MINV               .Ohmm                                   : Микро-градиент зонд 
MNOR               .Ohmm                                   : Микро-потенциал зонд 
NGLD               .у.е.                                   : Показания зонда НГК-60 аппаратуры ДРСТ-3-90 
PHIE               .v/v                                    : Описание 
PHIEN              .v/v                                    :  
PHIT               .v/v                                    : Описание 
PRMB               .mD                                     :  
PRMB_DGR           .mD                                     :  
RT                 .ohmm                                   : УЭС пласта 
SOIL_ARCHIE        .v/v                                    :  
SOIL_DW            .v/v                                    :  
SP                 .мВ                                     : Потенциал самополяризации 
VSH_FIN            .v/v                                    : Описание 
VSH_GR             .v/v                                    : Shale volume 
VSH_SP             .v/v                                    : Shale Volume 
~Ascii
# ...
979.2000000000001 
  0.274      -9999      -9999      6.3167     3.166      2.232      
  1.968      1.114719   0.1505695  0.1505695  0.3574653  1.722147   
  1.088399   3.166      0.3226784  0.5887415  54.229     0.6269571  
  0.6267471  0.627167  
979.4      
  0.297      -9999      -9999      6.429842   2.948      2.131      
  1.74       1.113589   0.1481288  0.1481288  0.3581965  1.551897   
  0.9944515  2.948      0.2895789  0.571793   54.102     0.6365688  
  0.6502807  0.622857  
979.6      
  0.271      -9999      -9999      6.551493   2.616      2.398      
  1.422      1.109992   0.1454073  0.1454073  0.360524   1.381827   
  0.9024662  2.616      0.2363755  0.5442189  54.229     0.6518688  
  0.6765707  0.627167  
979.8      
  0.249      -9999      -9999      6.646434   2.616      1.559      
  1.08       1.10526    0.1442471  0.1442471  0.363586   1.315118   
  0.8366306  2.616      0.231029   0.545345   54.356     0.6646633  
  0.6978245  0.631502  
980        
  0.249      -9999      -9999      6.682026   2.748      1.559      
  1.08       1.101363   0.1454265  0.1454265  0.3661083  1.382957   
  0.813206   2.748      0.2538989  0.5596515  54.356     0.6687328  
  0.7059634  0.631502  
980.2000000000001 
  0.269      -9999      -9999      6.652349   2.986      3.096      
  2.019      1.098444   0.146265   0.146265   0.3679968  1.433314   
  0.8326907  2.986      0.2860052  0.579825   54.737     0.6719145  
  0.6991707  0.6446583 
980.4      
  0.293      -9999      -9999      6.587638   3.05       3.667      
  1.321      1.095165   0.1500616  0.1500616  0.3701186  1.685243   
  0.8768122  3.05       0.3086782  0.5896175  54.864     0.6668396  
  0.6845849  0.6490943 
980.6      
  0.287      -9999      -9999      6.531659   2.909      3.363      
  2.045      1.090404   0.1537076  0.1537076  0.3731998  1.968774   
  0.9168612  2.909      0.3077769  0.5856455  55.118     0.6651278  
  0.6722129  0.6580428 
980.8      
  0.272      -9999      -9999      6.504804   2.909      2.829      
  1.245      1.083921   0.1581239  0.1581239  0.3773944  2.376818   
  0.936718   2.909      0.3246459  0.5928222  55.245     0.6644562  
  0.6663573  0.6625553 
981        
  0.272      -9999      -9999      6.496665   2.649      2.829      
  1.245      1.076493   0.1632222  0.1632222  0.3822016  2.954123   
  0.9428205  2.649      0.3135492  0.5816283  55.245     0.663574   
  0.6645927  0.6625553 
981.2000000000001 
  0.257      -9999      -9999      6.495339   2.398      1.534      
  1.168      1.070455   0.1656748  0.1656748  0.3861087  3.27987    
  0.9438184  2.398      0.2900045  0.5654903  55.499     0.6679816  
  0.6643057  0.6716574 
981.4      
  0.236      -9999      -9999      6.503925   2.354      1.14       
  0.978      1.068484   0.1666432  0.1666432  0.3873841  3.418172   
  0.9373758  2.354      0.2874338  0.5633016  55.499     0.6689119  
  0.6661664  0.6716574 
981.6      
  0.254      -9999      -9999      6.529425   2.389      1.166      
  1.219      1.071039   0.1633155  0.1633155  0.3857307  2.965903   
  0.9184971  2.389      0.2798099  0.5620887  55.626     0.6739855  
  0.6717238  0.6762471 
981.8      
  0.287      -9999      -9999      6.564571   2.389      1.572      
  1.422      1.076329   0.1586161  0.1586161  0.3823076  2.42724    
  0.8930987  2.389      0.2612612  0.5548581  55.626     0.6778533  
  0.6794595  0.6762471 
982        
  0.287      -9999      -9999      6.588995   2.493      1.572      
  1.422      1.083215   0.1532645  0.1532645  0.3778517  1.931917   
  0.8758636  2.493      0.2539142  0.5554432  55.626     0.6805673  
  0.6848875  0.6762471 
982.2000000000001 
  0.311      -9999      -9999      6.584447   2.558      0.873      
  0.902      1.092763   0.1464917  0.1464917  0.3716732  1.447239   
  0.8790474  2.558      0.2332766  0.5491541  55.753     0.682368   
  0.6838735  0.6808626 
982.4      
  0.33       -9999      -9999      6.548972   2.546      0.772      
  0.952      1.106216   0.1390831  0.1390831  0.3629679  1.055149   
  0.9042839  2.546      0.1960533  0.5325273  55.753     0.6784388  
  0.6760151  0.6808626 
982.6      
  0.322      -9999      -9999      6.497926   2.498      0.975      
  1.168      1.122302   0.1305133  0.1305133  0.3525584  0.7321163  
  0.9418728  2.498      0.1426432  0.5080971  55.753     0.6728641  
  0.6648657  0.6808626 
982.8      
  0.31       -9999      -9999      6.450705   2.498      1.407      
  1.283      1.137541   0.122327   0.122327   0.3426973  0.5163569  
  0.9780359  2.498      0.09288236 0.4873847  55.753     0.667789   
  0.6547155  0.6808626 
983        
  0.31       -9999      -9999      6.418457   2.72       1.407      
  1.283      1.148939   0.1160799  0.1160799  0.3353212  0.3955841  
  1.003526   2.72       0.08769645 0.4925242  55.753     0.6643679  
  0.6478731  0.6808626 
983.2000000000001 
  0.323      -9999      -9999      6.402532   2.945      1.712      
  1.511      1.15589    0.1121356  0.1121356  0.3308238  0.3343348  
  1.016358   2.945      0.09422984 0.5020337  55.753     0.6626915  
  0.6445204  0.6808626 
983.4      
  0.31       -9999      -9999      6.399454   2.806      1.585      
  1.524      1.159648   0.1098103  0.1098103  0.3283919  0.3027683  
  1.018857   2.806      0.05637886 0.4836541  55.753     0.6623686  
  0.6438745  0.6808626 
983.6      
  0.289      -9999      -9999      6.402161   2.659      1.432      
  1.397      1.161822   0.1090714  0.1090714  0.3269852  0.2933761  
  1.016659   2.659      0.02654088 0.4668396  55.626     0.6603448  
  0.6444425  0.6762471 
983.8      
  0.283      -9999      -9999      6.39632    2.659      1.826      
  1.41       1.163291   0.1083228  0.1083228  0.3260344  0.2841569  
  1.021407   2.659      0.02068396 0.4645523  55.626     0.6597323  
  0.6432175  0.6762471 
984        
  0.283      -9999      -9999      6.367496   2.558      1.826      
  1.41       1.165197   0.1080816  0.1080816  0.3248012  0.2812489  
  1.04517    2.558      0.0007872345 0.4523055  55.626     0.6567263  
  0.6372055  0.6762471 
984.2000000000001 
  0.292      -9999      -9999      6.310972   2.588      1.597      
  1.384      1.170527   0.1065506  0.1065506  0.3213519  0.263472   
  1.093384   2.588      0          0.4489643  55.626     0.6509129  
  0.6255788  0.6762471 
984.4      
  0.283      -9999      -9999      6.233176   2.73       1.013      
  1.003      1.182572   0.1013399  0.1013399  0.3135579  0.2109692  
  1.163401   2.73       0          0.4453098  55.626     0.6430848  
  0.6099225  0.6762471 
984.6      
  0.275      -9999      -9999      6.143075   2.909      1.826      
  1.676      1.200229   0.09282496 0.09282496 0.3021318  0.1467241  
  1.250114   2.909      0          0.4326845  55.626     0.6342631  
  0.5922791  0.6762471 
984.8      
  0.28       -9999      -9999      6.045812   2.909      2.436      
  1.448      1.217194   0.08489536 0.08489536 0.291154   0.1046228  
  1.350989   2.909      0          0.4009626  55.626     0.6250262  
  0.5738053  0.6762471 
985        
  0.28       -9999      -9999      5.938305   3.103      2.436      
  1.448      1.228083   0.08110727 0.08110727 0.2841072  0.08901463 
  1.471985   3.103      0          0.4014595  55.626     0.6151515  
  0.5540559  0.6762471 
985.2000000000001 
  0.269      -9999      -9999      5.808286   3.292      2.385      
  1.448      1.233107   0.0824056  0.0824056  0.2808567  0.0940827  
  1.632886   3.292      0          0.4174424  55.499     0.601367   
  0.5310766  0.6716574 
985.4      
  0.259      -9999      -9999      5.649758   3.49       2.093      
  1.829      1.235379   0.08534626 0.08534626 0.2793866  0.1066542  
  1.853047   3.49       0          0.4388106  55.499     0.588001   
  0.5043445  0.6716574 
985.6      
  0.273      -9999      -9999      5.480198   3.662      2.448      
  1.765      1.235631   0.08965552 0.08965552 0.2792235  0.1281728  
  2.121483   3.662      0.006340381 0.4609792  55.499     0.5744484  
  0.4772394  0.6716574 
