~Version
 VERS              .         2.0                           : CWLS LOG ASCII STANDARD - VERSION 2.0
 WRAP              .         YES                            : ONE LINE PER DEPTH STEP
 DLM               .         SPACE                         : DELIMITING CHARACTER(SPACE TAB OR COMMA)
~Well Information
#_______________________________________________________________________________
#
#PARAMETER_NAME    .UNIT     VALUE                         : DESCRIPTION
#_______________________________________________________________________________
STRT               .M        900                           : First reference value
STOP               .M        1287.2                        : Last reference value
STEP               .M        0.2                           : Step increment
NULL               .         -9999                         : Missing value
COMP               .                                       : Company
WELL               .         1437                          : Well name
FLD                .         Узень                         : Field
LOC                .                                       : Location
CNTY               .                                       : County
STAT               .                                       : State
CTRY               .                                       : Country
SRVC               .                                       : Service Company
DATE               .         09.08.1970                    : Date
UWI                .                                       : Unique Well ID
Block              .         6а                            : 
Cartographic_reference_system .         GCS_WGS_1984                  : ESRI,PE_10_3_1- <?xml version="1.0" encoding="utf-16"?><ILateBoundCoordinateReferenceSystem name="GCS_WGS_1984"><AuthorityCode>EPSG,4326</AuthorityCode></ILateBoundCoordinateReferenceSystem>
Category           .         Нефтяная                      : 
Condition          .         В работе                      : 
EREF               .m        83.2                          : 100.8
Gorizont           .         14                            : 14
HZCS               .GCS_WGS_1984 WGS_1984_EASE-Grid_2.0_Global : ESRI,PE_10_3_1- <?xml version="1.0" encoding="utf-16"?><ILateBoundCoordinateReferenceSystem name="WGS_1984_EASE-Grid_2.0_Global"><AuthorityCode>EPSG,6933</AuthorityCode></ILateBoundCoordinateReferenceSystem>
Interpretator      .         Сагынбаева А.Н.               : 
Kupol              .         основной                      : osnovnoi
LATI               .dega     0.6696466301                  : GCS_WGS_1984
LONG               .dega     0.461773424                   : GCS_WGS_1984
Mud                .         глинистый                     : 
Mud_density        .         1,18                          : 
Mud_resistivity    .         0                             : 
NGDU               .         НГДУ-2                        : 
ORIGINALWELLNAME   .         1437                          : 
Spud_date          .         1970                          : 1961
Viscosity          .         25                            : 
X                  .m        44554.8                       : 46154
Y                  .m        85427.13                      : 85761.93
YEAR               .         2019                          : 
~Parameter Information Block
#_______________________________________________________________________________
#
#PARAMETER_NAME    .UNIT     VALUE                         : DESCRIPTION
#_______________________________________________________________________________
SET                .         LQC_KAZNIPI_Petrel            : 
TLFamily_CALI      .         Caliper                       : 
TLFamily_COLL      .         Net Reservoir Flag            : 
TLFamily_CSAT      .         Fluid Code                    : 
TLFamily_DEPT      .         Measured Depth                : 
TLFamily_GR        .         Russian Gamma Ray             : 
TLFamily_LLS       .         Lateral Log Resistivity       : 
TLFamily_MINV      .         Micro Gradient Resistivity    : 
TLFamily_MNOR      .         Micro Resistivity             : 
TLFamily_NGLD      .         Neutron Gamma                 : 
TLFamily_PHIE      .         Effective Porosity            : 
TLFamily_PHIEN     .         Effective Porosity            : 
TLFamily_PHIT      .         Porosity                      : 
TLFamily_PRMB      .         Permeability                  : 
TLFamily_PRMB_DGR  .         Permeability                  : 
TLFamily_RT        .         Formation Resistivity         : 
TLFamily_SOIL_ARCHIE .         Oil Saturation                : 
TLFamily_SOIL_DW   .         Oil Saturation                : 
TLFamily_SP        .         Spontaneous Potential         : 
TLFamily_VSH_FIN   .         Shale Volume                  : 
TLFamily_VSH_GR    .         Shale Volume                  : 
TLFamily_VSH_SP    .         Shale Volume                  : 
~Curve Information
#_______________________________________________________________________________
#
#LOGNAME           .UNIT     LOG_ID                        : DESCRIPTION
#_______________________________________________________________________________
DEPT               .M                                      : Колонка глубины 
CALI               .м                                      : Каверномер 
COLL               .unitless                               : Описание 
CSAT               .unitless                               :  
GR                 .uR/h                                   : Гамма каротаж 
LLS                .Ohmm                                   : УЭС пласта 
MINV               .Ohmm                                   : Микро-градиент зонд 
MNOR               .Ohmm                                   : Микро-потенциал зонд 
NGLD               .у.е.                                   : Показания зонда НГК-60 аппаратуры ДРСТ-3-90 
PHIE               .v/v                                    : Описание 
PHIEN              .v/v                                    :  
PHIT               .v/v                                    : Описание 
PRMB               .mD                                     :  
PRMB_DGR           .mD                                     :  
RT                 .ohmm                                   : УЭС пласта 
SOIL_ARCHIE        .v/v                                    :  
SOIL_DW            .v/v                                    :  
SP                 .мВ                                     : Потенциал самополяризации 
VSH_FIN            .v/v                                    : Описание 
VSH_GR             .v/v                                    : Shale volume 
VSH_SP             .v/v                                    : Shale Volume 
~Ascii
# ...
1164       
  0.209      1          2          6.844194   15.43      1.966      
  2.438      1.297249   0.1979703  0.1979703  0.2393502  13.00315   
  49.93031   15.43      0.7462035  0.787243   10.541     0.1253936  
  0.1314061  0.1193811 
1164.2     
  0.209      1          2          6.893462   10.069     1.775      
  2.476      1.289501   0.2025145  0.2025145  0.2443637  15.78404   
  47.37934   10.069     0.6959862  0.7422434  10.541     0.1268157  
  0.1342503  0.1193811 
1164.4     
  0.209      1          2          6.973287   10.069     1.775      
  2.476      1.282182   0.206469   0.206469   0.2491002  18.68376   
  43.5199    10.069     0.7010638  0.7471596  10.541     0.1291855  
  0.1389899  0.1193811 
1164.6     
  0.209      1          2          7.063017   10.069     1.826      
  2.438      1.275627   0.2097986  0.2097986  0.2533419  21.53463   
  39.55563   10.069     0.7052001  0.7512996  10.541     0.1319494  
  0.1445176  0.1193811 
1164.8     
  0.209      1          2          7.135828   8.94       1.763      
  2.299      1.27037    0.2124078  0.2124078  0.2567433  24.06938   
  36.60575   8.94       0.6916179  0.7394516  10.668     0.1343502  
  0.1491643  0.1195362 
1165       
  0.209      1          2          7.184762   8.484      1.89       
  2.388      1.266732   0.2139868  0.2139868  0.2590977  25.74614   
  34.74793   8.484      0.68598    0.7347786  11.811     0.1366999  
  0.1523707  0.1210291 
1165.2     
  0.209      1          2          7.230147   5.75       1.509      
  2.21       1.264017   0.2152428  0.2152428  0.2608546  27.16292   
  33.10918   5.75       0.6250119  0.6798847  11.811     0.1382177  
  0.1554063  0.1210291 
1165.4     
  0.209      1          2          7.29822    5.75       1.509      
  2.21       1.261152   0.2163269  0.2163269  0.2627088  28.44834   
  30.79498   5.75       0.6266491  0.6818672  11.811     0.1405511  
  0.160073   0.1210291 
1165.6     
  0.209      1          2          7.401056   5.75       1.902      
  2.476      1.257229   0.2174097  0.2174097  0.2652472  29.79298   
  27.60207   5.75       0.6282692  0.6842955  12.827     0.144962   
  0.16739    0.122534  
1165.8     
  0.209      1          2          7.532553   5.038      1.851      
  2.489      1.251186   0.2193752  0.2193752  0.2691578  32.39807   
  23.99683   5.038      0.6075678  0.6668322  13.97      0.1508562  
  0.1772358  0.1244767 
1166       
  0.209      1          2          7.681489   4.361      1.864      
  2.362      1.241565   0.2228379  0.2228379  0.2753831  37.55403   
  20.4788    4.361      0.5857614  0.6489342  16.256     0.159228   
  0.1890884  0.1293677 
1166.2     
  0.209      1          2          7.850239   3.113      1.585      
  1.943      1.22813    0.2291576  0.2291576  0.2840773  49.17151   
  17.11182   3.113      0.526439   0.5966672  16.256     0.166423   
  0.2034784  0.1293677 
1166.4     
  0.209      1          2          8.059649   3.113      1.585      
  1.943      1.212855   0.2358427  0.2358427  0.2939616  65.39393   
  13.69276   3.113      0.5381516  0.6093336  16.256     0.1761176  
  0.2228676  0.1293677 
1166.6     
  0.209      1          2          8.331717   3.113      1.801      
  2.388      1.19821    0.2397523  0.2397523  0.3034383  77.25945   
  10.24993   3.113      0.5447178  0.6190935  18.288     0.192988   
  0.2508436  0.1351324 
1166.8     
  0.212      1          2          8.661254   2.165      2.105      
  2.159      1.185575   0.2385649  0.2385649  0.3116147  73.44454   
  7.217473   2.165      0.4577853  0.5493154  22.606     0.221363   
  0.2894723  0.1532537 
1167       
  0.217      -9999      -9999      9.007123   1.661      1.763      
  1.829      1.175599   0.2176561  0.2176561  0.3180702  30.10764   
  4.994577   1.661      0.3349213  0.4719351  34.925     0.3042853  
  0.3364293  0.2721412 
1167.2     
  0.221      -9999      -9999      9.316502   1.661      1.432      
  1.6        1.169006   0.2139322  0.2139322  0.3223359  25.68628   
  3.593198   1.661      0.3248496  0.4723694  34.925     0.3284961  
  0.384851   0.2721412 
1167.4     
  0.221      -9999      -9999      9.565372   1.661      1.432      
  1.6        1.166423   0.2083498  0.2083498  0.3240075  20.24423   
  2.756986   1.661      0.3091213  0.4683041  34.925     0.3504781  
  0.428815   0.2721412 
1167.6     
  0.221      8          2          9.766155   1.65       1.978      
  2.045      1.167509   0.2011949  0.2011949  0.3233047  14.92024   
  2.226476   1.65       0.2855471  0.4582506  34.925     0.3700298  
  0.4679184  0.2721412 
1167.8     
  0.219      8          2          9.928751   1.566      1.496      
  1.537      1.170985   0.1962902  0.1962902  0.3210557  12.10402   
  1.87264    1.566      0.2519041  0.4360171  33.655     0.3780771  
  0.502183   0.2539713 
1168       
  0.217      8          2          10.0356    1.481      1.293      
  1.524      1.175228   0.2004715  0.2004715  0.3183101  14.46691   
  1.67133    1.481      0.246023   0.4219979  27.686     0.3570866  
  0.5260541  0.1881191 
1168.2     
  0.214      8          2          10.06726   4.565      1.458      
  1.905      1.178902   0.1968911  0.1968911  0.3159325  12.41823   
  1.61594    4.565      0.5483954  0.6668918  27.686     0.3607314  
  0.5333437  0.1881191 
1168.4     
  0.214      8          2          10.02888   4.565      1.458      
  1.905      1.180712   0.1971757  0.1971757  0.3147613  12.56983   
  1.683319   4.565      0.548963   0.6663466  27.686     0.3563201  
  0.524521   0.1881191 
1168.6     
  0.214      8          2          9.941334   4.565      1.928      
  2.21       1.178862   0.2024803  0.2024803  0.3159584  15.76101   
  1.847726   4.565      0.559272   0.6706524  27.051     0.3438732  
  0.5049369  0.1828094 
1168.8     
  0.215      8          2          9.828142   6.407      1.445      
  2.159      1.171932   0.2102675  0.2102675  0.320443   21.96964   
  2.084314   6.407      0.6362407  0.7285066  27.559     0.333865   
  0.4806964  0.1870335 
1169       
  0.217      8          2          9.718494   6.982      1.775      
  1.778      1.160665   0.2116068  0.2116068  0.3277335  23.2611    
  2.342342   6.982      0.6525462  0.7440385  33.02      0.351899   
  0.458325   0.2454729 
1169.2     
  0.229      -9999      -9999      9.642753   3.545      0.543      
  0.94       1.147725   0.2224295  0.2224295  0.3361071  36.90551   
  2.539007   3.545      0.5427392  0.6532246  33.02      0.3444777  
  0.4434824  0.2454729 
1169.4     
  0.229      -9999      -9999      9.613385   3.545      0.543      
  0.94       1.135105   0.231524   0.231524   0.3442735  54.39314   
  2.619628   3.545      0.5584232  0.6636624  33.02      0.3416653  
  0.4378577  0.2454729 
1169.6     
  0.229      -9999      -9999      9.60762    3.545      0.62       
  0.699      1.122502   0.2325328  0.2325328  0.3524291  56.78448   
  2.635753   3.545      0.5600922  0.6688808  36.068     0.3633222  
  0.4367619  0.2898825 
1169.8     
  0.247      -9999      -9999      9.575363   3.545      1.039      
  1.041      1.10884    0.2158295  0.2158295  0.3612697  27.85122   
  2.727823   3.545      0.5305846  0.6637815  38.862     0.4407279  
  0.4306811  0.4507747 
1170       
  0.264      -9999      -9999      9.477551   2.659      0.67       
  0.775      1.094941   0.2088375  0.2088375  0.3702637  20.66974   
  3.027137   2.659      0.4471287  0.6124651  42.926     0.4891702  
  0.4127554  0.5655851 
1170.2     
  0.322      -9999      -9999      9.332674   1.998      0.429      
  0.787      1.084051   0.220041   0.220041   0.3773109  33.33125   
  3.531874   1.998      0.3959068  0.5670499  42.926     0.4765754  
  0.3875658  0.5655851 
1170.4     
  0.322      -9999      -9999      9.212033   1.428      0.429      
  0.787      1.079463   0.2262764  0.2262764  0.3802795  43.48559   
  4.01582    1.428      0.3097847  0.4959308  42.926     0.4666761  
  0.3677672  0.5655851 
