~Version
 VERS              .         2.0                           : CWLS LOG ASCII STANDARD - VERSION 2.0
 WRAP              .         YES                            : ONE LINE PER DEPTH STEP
 DLM               .         SPACE                         : DELIMITING CHARACTER(SPACE TAB OR COMMA)
~Well Information
#_______________________________________________________________________________
#
#PARAMETER_NAME    .UNIT     VALUE                         : DESCRIPTION
#_______________________________________________________________________________
STRT               .M        900                           : First reference value
STOP               .M        1287.2                        : Last reference value
STEP               .M        0.2                           : Step increment
NULL               .         -9999                         : Missing value
COMP               .                                       : Company
WELL               .         1437                          : Well name
FLD                .         Узень                         : Field
LOC                .                                       : Location
CNTY               .                                       : County
STAT               .                                       : State
CTRY               .                                       : Country
SRVC               .                                       : Service Company
DATE               .         09.08.1970                    : Date
UWI                .                                       : Unique Well ID
Block              .         6а                            : 
Cartographic_reference_system .         GCS_WGS_1984                  : ESRI,PE_10_3_1- <?xml version="1.0" encoding="utf-16"?><ILateBoundCoordinateReferenceSystem name="GCS_WGS_1984"><AuthorityCode>EPSG,4326</AuthorityCode></ILateBoundCoordinateReferenceSystem>
Category           .         Нефтяная                      : 
Condition          .         В работе                      : 
EREF               .m        83.2                          : 100.8
Gorizont           .         14                            : 14
HZCS               .GCS_WGS_1984 WGS_1984_EASE-Grid_2.0_Global : ESRI,PE_10_3_1- <?xml version="1.0" encoding="utf-16"?><ILateBoundCoordinateReferenceSystem name="WGS_1984_EASE-Grid_2.0_Global"><AuthorityCode>EPSG,6933</AuthorityCode></ILateBoundCoordinateReferenceSystem>
Interpretator      .         Сагынбаева А.Н.               : 
Kupol              .         основной                      : osnovnoi
LATI               .dega     0.6696466301                  : GCS_WGS_1984
LONG               .dega     0.461773424                   : GCS_WGS_1984
Mud                .         глинистый                     : 
Mud_density        .         1,18                          : 
Mud_resistivity    .         0                             : 
NGDU               .         НГДУ-2                        : 
ORIGINALWELLNAME   .         1437                          : 
Spud_date          .         1970                          : 1961
Viscosity          .         25                            : 
X                  .m        44554.8                       : 46154
Y                  .m        85427.13                      : 85761.93
YEAR               .         2019                          : 
~Parameter Information Block
#_______________________________________________________________________________
#
#PARAMETER_NAME    .UNIT     VALUE                         : DESCRIPTION
#_______________________________________________________________________________
SET                .         LQC_KAZNIPI_Petrel            : 
TLFamily_CALI      .         Caliper                       : 
TLFamily_COLL      .         Net Reservoir Flag            : 
TLFamily_CSAT      .         Fluid Code                    : 
TLFamily_DEPT      .         Measured Depth                : 
TLFamily_GR        .         Russian Gamma Ray             : 
TLFamily_LLS       .         Lateral Log Resistivity       : 
TLFamily_MINV      .         Micro Gradient Resistivity    : 
TLFamily_MNOR      .         Micro Resistivity             : 
TLFamily_NGLD      .         Neutron Gamma                 : 
TLFamily_PHIE      .         Effective Porosity            : 
TLFamily_PHIEN     .         Effective Porosity            : 
TLFamily_PHIT      .         Porosity                      : 
TLFamily_PRMB      .         Permeability                  : 
TLFamily_PRMB_DGR  .         Permeability                  : 
TLFamily_RT        .         Formation Resistivity         : 
TLFamily_SOIL_ARCHIE .         Oil Saturation                : 
TLFamily_SOIL_DW   .         Oil Saturation                : 
TLFamily_SP        .         Spontaneous Potential         : 
TLFamily_VSH_FIN   .         Shale Volume                  : 
TLFamily_VSH_GR    .         Shale Volume                  : 
TLFamily_VSH_SP    .         Shale Volume                  : 
~Curve Information
#_______________________________________________________________________________
#
#LOGNAME           .UNIT     LOG_ID                        : DESCRIPTION
#_______________________________________________________________________________
DEPT               .M                                      : Колонка глубины 
CALI               .м                                      : Каверномер 
COLL               .unitless                               : Описание 
CSAT               .unitless                               :  
GR                 .uR/h                                   : Гамма каротаж 
LLS                .Ohmm                                   : УЭС пласта 
MINV               .Ohmm                                   : Микро-градиент зонд 
MNOR               .Ohmm                                   : Микро-потенциал зонд 
NGLD               .у.е.                                   : Показания зонда НГК-60 аппаратуры ДРСТ-3-90 
PHIE               .v/v                                    : Описание 
PHIEN              .v/v                                    :  
PHIT               .v/v                                    : Описание 
PRMB               .mD                                     :  
PRMB_DGR           .mD                                     :  
RT                 .ohmm                                   : УЭС пласта 
SOIL_ARCHIE        .v/v                                    :  
SOIL_DW            .v/v                                    :  
SP                 .мВ                                     : Потенциал самополяризации 
VSH_FIN            .v/v                                    : Описание 
VSH_GR             .v/v                                    : Shale volume 
VSH_SP             .v/v                                    : Shale Volume 
~Ascii
# ...
999        
  0.249      -9999      -9999      6.395514   2.867      2.118      
  1.143      1.085319   0.1654696  0.1654696  0.3764899  3.251296   
  1.022065   2.867      0.3463887  0.5960779  54.483     0.6394554  
  0.6430485  0.6358623 
999.2000000000001 
  0.266      -9999      -9999      6.501229   2.759      1.458      
  1.359      1.074976   0.1684447  0.1684447  0.383183   3.691163   
  0.9393942  2.759      0.3447538  0.5954701  54.483     0.6507219  
  0.6655815  0.6358623 
999.4      
  0.283      -9999      -9999      6.622267   2.6        1.305      
  0.965      1.067202   0.2103338  0.2103338  0.3882138  22.03185   
  2.438024   2.6        0.4447399  0.6202607  54.229     0.5390301  
  0.4508931  0.627167  
999.6      
  0.301      -9999      -9999      6.736455   2.42       1.255      
  1.08       1.061569   0.2123727  0.2123727  0.3918585  24.03339   
  2.211364   2.42       0.4305325  0.6100986  53.975     0.5438967  
  0.4692214  0.6185719 
999.8      
  0.318      -9999      -9999      6.827448   2.42       0.734      
  1.016      1.058043   0.2142532  0.2142532  0.3941403  26.0404    
  2.04593    2.42       0.4348884  0.6128123  53.594     0.5451123  
  0.4843587  0.605866  
1000       
  0.318      -9999      -9999      6.900875   2.307      0.734      
  1.016      1.057052   0.2128202  0.2128202  0.3947813  24.4965    
  1.9215     2.307      0.4186759  0.6027937  53.594     0.5513974  
  0.4969289  0.605866  
1000.2     
  0.331      -9999      -9999      6.973136   2.298      0.797      
  0.775      1.058709   0.2117141  0.2117141  0.3937092  23.36777   
  1.806436   2.298      0.4149596  0.6005442  53.213     0.5515001  
  0.5096182  0.5933821 
1000.4     
  0.335      -9999      -9999      7.04453    2.368      0.912      
  1.092      1.062256   0.2086514  0.2086514  0.3914145  20.50632   
  1.699522   2.368      0.4157719  0.6028351  52.959     0.5538275  
  0.5224732  0.5851818 
1000.6     
  0.325      -9999      -9999      7.096426   2.423      1.089      
  1.232      1.065916   0.2053776  0.2053776  0.3890455  17.834     
  1.625799   2.423      0.4140171  0.6034756  52.832     0.5565695  
  0.5320207  0.5811182 
1000.8     
  0.318      -9999      -9999      7.119084   2.423      1.013      
  0.952      1.067975   0.2026785  0.2026785  0.3877137  15.8948    
  1.594623   2.423      0.4072263  0.600595   52.959     0.5607127  
  0.5362436  0.5851818 
1001       
  0.318      -9999      -9999      7.123749   2.425      1.013      
  0.952      1.067547   0.202811   0.202811   0.3879904  15.98492   
  1.58828    2.425      0.4077931  0.6010352  52.959     0.5611495  
  0.5371171  0.5851818 
1001.2     
  0.312      -9999      -9999      7.120172   2.373      0.594      
  0.864      1.064592   0.2048336  0.2048336  0.3899024  17.42501   
  1.593142   2.373      0.4068867  0.5994453  52.959     0.5608145  
  0.5364472  0.5851818 
1001.4     
  0.311      -9999      -9999      7.103688   2.319      0.95       
  1.08       1.059492   0.2086413  0.2086413  0.3932024  20.49752   
  1.615742   2.319      0.4099864  0.5997681  52.959     0.5592761  
  0.5333704  0.5851818 
1001.6     
  0.316      -9999      -9999      7.070549   2.244      0.734      
  0.902      1.053703   0.2140698  0.2140698  0.3969487  25.83751   
  1.662152   2.244      0.4140689  0.599515   52.832     0.5541783  
  0.5272383  0.5811182 
1001.8     
  0.324      -9999      -9999      7.031455   2.244      0.683      
  0.787      1.049768   0.2184616  0.2184616  0.3994953  31.15998   
  1.718618   2.244      0.4243414  0.6042297  52.705     0.5485869  
  0.5200949  0.5770789 
1002       
  0.324      -9999      -9999      6.997572   2.123      0.683      
  0.787      1.049222   0.2198235  0.2198235  0.3998486  33.02352   
  1.769106   2.123      0.4123608  0.5943165  52.705     0.5455305  
  0.5139821  0.5770789 
1002.2     
  0.328      -9999      -9999      6.961185   2.029      0.772      
  0.914      1.051175   0.2209504  0.2209504  0.3985844  34.64938   
  1.824979   2.029      0.4024061  0.5850616  52.451     0.538285   
  0.5074975  0.5690725 
1002.4     
  0.327      -9999      -9999      6.904954   1.989      0.747      
  0.838      1.053675   0.2216146  0.2216146  0.396967   35.64494   
  1.914813   1.989      0.3983711  0.5803713  52.324     0.5313711  
  0.4976368  0.5651054 
1002.6     
  0.329      -9999      -9999      6.832346   2.013      0.721      
  1.105      1.05556    0.2230998  0.2230998  0.3957474  37.97586   
  2.037384   2.013      0.405218   0.5832012  52.197     0.5231746  
  0.4851872  0.5611621 
1002.8     
  0.327      -9999      -9999      6.777118   2.013      0.886      
  1.13       1.057016   0.2236854  0.2236854  0.3948051  38.93634   
  2.135843   2.013      0.4065745  0.5830314  52.197     0.5185444  
  0.4759267  0.5611621 
1003       
  0.327      -9999      -9999      6.778934   2.085      0.886      
  1.13       1.058709   0.22254    0.22254    0.3937094  37.07988   
  2.132532   2.085      0.4136646  0.5887715  52.197     0.5186952  
  0.4762282  0.5611621 
1003.2     
  0.307      -9999      -9999      6.851846   2.154      1.026      
  1.168      1.061076   0.2189836  0.2189836  0.3921779  31.8615    
  2.003715   2.154      0.4143955  0.5918707  52.197     0.5248309  
  0.4884999  0.5611621 
1003.4     
  0.299      -9999      -9999      6.973681   2.149      1.166      
  1.245      1.063906   0.2130013  0.2130013  0.3903467  24.68646   
  1.805595   2.149      0.3994418  0.5857497  52.324     0.5374103  
  0.5097151  0.5651054 
1003.6     
  0.296      -9999      -9999      7.099507   2.091      1.102      
  1.232      1.066642   0.2068011  0.2068011  0.3885759  18.95028   
  1.621525   2.091      0.3758272  0.5739882  52.451     0.5508327  
  0.5325928  0.5690725 
1003.8     
  0.306      -9999      -9999      7.189994   2.091      1.051      
  1.092      1.06862    0.2020435  0.2020435  0.3872958  15.47013   
  1.500865   2.091      0.3630455  0.5692466  52.578     0.5613706  
  0.5496775  0.5730636 
1004       
  0.306      -9999      -9999      7.235948   2.074      1.051      
  1.092      1.069116   0.2002565  0.2002565  0.3869748  14.33489   
  1.44307    2.074      0.3556343  0.565772   52.578     0.5658131  
  0.5585625  0.5730636 
1004.2     
  0.323      -9999      -9999      7.253527   2.121      0.937      
  1.016      1.067653   0.1999737  0.1999737  0.3879216  14.16305   
  1.421554   2.121      0.3615894  0.571018   52.705     0.5695391  
  0.5619993  0.5770789 
1004.4     
  0.331      -9999      -9999      7.258583   2.121      0.962      
  1.041      1.064419   0.2012362  0.2012362  0.3900144  14.94657   
  1.415425   2.121      0.3650793  0.5734706  52.832     0.5720549  
  0.5629916  0.5811182 
1004.6     
  0.326      -9999      -9999      7.251502   2.107      0.873      
  0.952      1.060056   0.2036186  0.2036186  0.392838   16.5451    
  1.424016   2.107      0.3695982  0.5758809  52.959     0.573392   
  0.5616023  0.5851818 
1004.8     
  0.325      -9999      -9999      7.231345   2.107      0.721      
  1.016      1.054887   0.2069385  0.2069385  0.3961829  19.06167   
  1.448757   2.107      0.3784156  0.5807148  53.086     0.5734679  
  0.5576661  0.5892697 
1005       
  0.325      -9999      -9999      7.214147   2.077      0.721      
  1.016      1.049068   0.2112542  0.2112542  0.3999481  22.91388   
  1.470206   2.077      0.3853676  0.5834873  53.086     0.5717997  
  0.5543296  0.5892697 
1005.2     
  0.334      -9999      -9999      7.220827   2.019      0.924      
  1.041      1.043934   0.2136847  0.2136847  0.4032705  25.41656   
  1.461837   2.019      0.3833191  0.5815437  53.213     0.5745026  
  0.5556232  0.5933821 
1005.4     
  0.339      -9999      -9999      7.252648   1.989      0.873      
  0.952      1.041892   0.2132993  0.2132993  0.4045914  25.00227   
  1.422621   1.989      0.3779946  0.5789453  53.34      0.5796729  
  0.5618271  0.5975188 
