~Version
 VERS              .         2.0                           : CWLS LOG ASCII STANDARD - VERSION 2.0
 WRAP              .         YES                            : ONE LINE PER DEPTH STEP
 DLM               .         SPACE                         : DELIMITING CHARACTER(SPACE TAB OR COMMA)
~Well Information
#_______________________________________________________________________________
#
#PARAMETER_NAME    .UNIT     VALUE                         : DESCRIPTION
#_______________________________________________________________________________
STRT               .M        900                           : First reference value
STOP               .M        1287.2                        : Last reference value
STEP               .M        0.2                           : Step increment
NULL               .         -9999                         : Missing value
COMP               .                                       : Company
WELL               .         1437                          : Well name
FLD                .         Узень                         : Field
LOC                .                                       : Location
CNTY               .                                       : County
STAT               .                                       : State
CTRY               .                                       : Country
SRVC               .                                       : Service Company
DATE               .         09.08.1970                    : Date
UWI                .                                       : Unique Well ID
Block              .         6а                            : 
Cartographic_reference_system .         GCS_WGS_1984                  : ESRI,PE_10_3_1- <?xml version="1.0" encoding="utf-16"?><ILateBoundCoordinateReferenceSystem name="GCS_WGS_1984"><AuthorityCode>EPSG,4326</AuthorityCode></ILateBoundCoordinateReferenceSystem>
Category           .         Нефтяная                      : 
Condition          .         В работе                      : 
EREF               .m        83.2                          : 100.8
Gorizont           .         14                            : 14
HZCS               .GCS_WGS_1984 WGS_1984_EASE-Grid_2.0_Global : ESRI,PE_10_3_1- <?xml version="1.0" encoding="utf-16"?><ILateBoundCoordinateReferenceSystem name="WGS_1984_EASE-Grid_2.0_Global"><AuthorityCode>EPSG,6933</AuthorityCode></ILateBoundCoordinateReferenceSystem>
Interpretator      .         Сагынбаева А.Н.               : 
Kupol              .         основной                      : osnovnoi
LATI               .dega     0.6696466301                  : GCS_WGS_1984
LONG               .dega     0.461773424                   : GCS_WGS_1984
Mud                .         глинистый                     : 
Mud_density        .         1,18                          : 
Mud_resistivity    .         0                             : 
NGDU               .         НГДУ-2                        : 
ORIGINALWELLNAME   .         1437                          : 
Spud_date          .         1970                          : 1961
Viscosity          .         25                            : 
X                  .m        44554.8                       : 46154
Y                  .m        85427.13                      : 85761.93
YEAR               .         2019                          : 
~Parameter Information Block
#_______________________________________________________________________________
#
#PARAMETER_NAME    .UNIT     VALUE                         : DESCRIPTION
#_______________________________________________________________________________
SET                .         LQC_KAZNIPI_Petrel            : 
TLFamily_CALI      .         Caliper                       : 
TLFamily_COLL      .         Net Reservoir Flag            : 
TLFamily_CSAT      .         Fluid Code                    : 
TLFamily_DEPT      .         Measured Depth                : 
TLFamily_GR        .         Russian Gamma Ray             : 
TLFamily_LLS       .         Lateral Log Resistivity       : 
TLFamily_MINV      .         Micro Gradient Resistivity    : 
TLFamily_MNOR      .         Micro Resistivity             : 
TLFamily_NGLD      .         Neutron Gamma                 : 
TLFamily_PHIE      .         Effective Porosity            : 
TLFamily_PHIEN     .         Effective Porosity            : 
TLFamily_PHIT      .         Porosity                      : 
TLFamily_PRMB      .         Permeability                  : 
TLFamily_PRMB_DGR  .         Permeability                  : 
TLFamily_RT        .         Formation Resistivity         : 
TLFamily_SOIL_ARCHIE .         Oil Saturation                : 
TLFamily_SOIL_DW   .         Oil Saturation                : 
TLFamily_SP        .         Spontaneous Potential         : 
TLFamily_VSH_FIN   .         Shale Volume                  : 
TLFamily_VSH_GR    .         Shale Volume                  : 
TLFamily_VSH_SP    .         Shale Volume                  : 
~Curve Information
#_______________________________________________________________________________
#
#LOGNAME           .UNIT     LOG_ID                        : DESCRIPTION
#_______________________________________________________________________________
DEPT               .M                                      : Колонка глубины 
CALI               .м                                      : Каверномер 
COLL               .unitless                               : Описание 
CSAT               .unitless                               :  
GR                 .uR/h                                   : Гамма каротаж 
LLS                .Ohmm                                   : УЭС пласта 
MINV               .Ohmm                                   : Микро-градиент зонд 
MNOR               .Ohmm                                   : Микро-потенциал зонд 
NGLD               .у.е.                                   : Показания зонда НГК-60 аппаратуры ДРСТ-3-90 
PHIE               .v/v                                    : Описание 
PHIEN              .v/v                                    :  
PHIT               .v/v                                    : Описание 
PRMB               .mD                                     :  
PRMB_DGR           .mD                                     :  
RT                 .ohmm                                   : УЭС пласта 
SOIL_ARCHIE        .v/v                                    :  
SOIL_DW            .v/v                                    :  
SP                 .мВ                                     : Потенциал самополяризации 
VSH_FIN            .v/v                                    : Описание 
VSH_GR             .v/v                                    : Shale volume 
VSH_SP             .v/v                                    : Shale Volume 
~Ascii
# ...
1071.6     
  0.282      -9999      -9999      9.211884   2.291      1.547      
  1.156      1.175459   0.1184356  0.1184356  0.3181604  0.437393   
  1.200731   2.291      0.02832547 0.4319459  49.276     0.6052268  
  0.6021073  0.6083462 
1071.8     
  0.276      -9999      -9999      9.287436   2.287      1.813      
  1.245      1.177507   0.1155365  0.1155365  0.3168352  0.3865225  
  1.136186   2.287      0.006310198 0.4248788  49.149     0.609996   
  0.6158463  0.6041457 
1072       
  0.268      -9999      -9999      9.395658   2.287      1.559      
  1.321      1.18269    0.1074548  0.1074548  0.3134813  0.2738298  
  1.049728   2.287      0          0.4059728  49.403     0.6243228  
  0.6360744  0.6125713 
1072.2     
  0.261      -9999      -9999      9.50861    2.287      2.334      
  1.308      1.189015   0.09976172 0.09976172 0.3093887  0.1972364  
  0.9665     2.287      0          0.3853127  49.403     0.6352332  
  0.6578951  0.6125713 
1072.4     
  0.261      -9999      -9999      9.594118   2.263      2.334      
  1.308      1.194356   0.09349763 0.09349763 0.3059322  0.1509944  
  0.9079117  2.263      0          0.3636523  49.403     0.6437411  
  0.6749108  0.6125713 
1072.6     
  0.261      -9999      -9999      9.622217   2.283      2.232      
  1.613      1.197737   0.08967056 0.08967056 0.3037447  0.128255   
  0.8894446  2.283      0          0.3544814  49.53      0.6487095  
  0.6805978  0.6168212 
1072.8     
  0.266      -9999      -9999      9.586815   2.397      2.334      
  1.308      1.199      0.09003378 0.09003378 0.302927   0.1302573  
  0.9127737  2.397      0          0.3697279  49.53      0.6451308  
  0.6734405  0.6168212 
1073       
  0.272      -9999      -9999      9.513399   2.397      1.864      
  1.397      1.198085   0.09233023 0.09233023 0.3035192  0.1436607  
  0.9631206  2.397      0          0.3758094  49.657     0.6399664  
  0.6588367  0.6210961 
1073.2     
  0.266      -9999      -9999      9.439207   2.397      2.042      
  1.308      1.195481   0.09639728 0.09639728 0.3052042  0.1708715  
  1.016822   2.397      0          0.3870566  49.657     0.6327482  
  0.6444003  0.6210961 
1073.4     
  0.266      -9999      -9999      9.385825   2.305      2.042      
  1.308      1.192963   0.0997084  0.0997084  0.3068338  0.1967884  
  1.057304   2.305      0          0.384252   49.657     0.6276527  
  0.6342093  0.6210961 
1073.6     
  0.266      -9999      -9999      9.347743   2.216      1.547      
  1.206      1.192893   0.101642   0.101642   0.3068788  0.2137053  
  1.087164   2.216      0          0.3761902  49.53      0.6219295  
  0.6270377  0.6168212 
1073.8     
  0.273      -9999      -9999      9.304201   2.634      1.89       
  1.118      1.19615    0.1008714  0.1008714  0.3047715  0.2067952  
  1.12234    2.634      0          0.4237256  49.53      0.6178793  
  0.6189373  0.6168212 
1074       
  0.27       -9999      -9999      9.243948   2.634      1.521      
  2.184      1.200733   0.1011252  0.1011252  0.3018059  0.2090461  
  1.172901   2.634      0          0.4205213  49.276     0.6081232  
  0.6079003  0.6083462 
1074.2     
  0.249      -9999      -9999      9.170637   2.634      2.956      
  3.937      1.203208   0.1016957  0.1016957  0.3002044  0.214195   
  1.237502   2.634      0          0.41963    49.276     0.6015413  
  0.5947365  0.6083462 
1074.4     
  0.249      -9999      -9999      9.085119   2.836      2.956      
  3.937      1.201301   0.1054037  0.1054037  0.301438   0.2508937  
  1.317368   2.836      0.02697919 0.4490817  49.276     0.5940434  
  0.5797405  0.6083462 
1074.6     
  0.249      -9999      -9999      8.982276   3.076      3.274      
  2.007      1.195173   0.1129554  0.1129554  0.3054035  0.3462315  
  1.420272   3.076      0.1181532  0.4881081  49.149     0.5831761  
  0.5622064  0.6041457 
1074.8     
  0.24       -9999      -9999      8.875828   2.737      3.21       
  1.384      1.187244   0.1223628  0.1223628  0.3105345  0.5171468  
  1.535256   2.737      0.131177   0.4782854  48.895     0.5702174  
  0.544616   0.5958188 
1075       
  0.229      -9999      -9999      8.804235   2.737      1.775      
  1.359      1.180844   0.1311046  0.1311046  0.3146761  0.7508172  
  1.617779   2.737      0.1818555  0.4955129  48.387     0.5562772  
  0.5330961  0.5794582 
1075.2     
  0.275      -9999      -9999      8.785516   2.737      2.004      
  1.194      1.177984   0.1334452  0.1334452  0.3165263  0.8296348  
  1.640079   2.737      0.1943678  0.5006405  48.387     0.5547913  
  0.5301243  0.5794582 
1075.4     
  0.275      -9999      -9999      8.784216   2.614      2.004      
  1.194      1.178377   0.1332249  0.1332249  0.3162721  0.8218764  
  1.641639   2.614      0.1756102  0.4884564  48.387     0.5546884  
  0.5299186  0.5794582 
1075.6     
  0.275      -9999      -9999      8.740214   2.586      1.902      
  1.778      1.180736   0.1341656  0.1341656  0.3147456  0.8555206  
  1.695325   2.586      0.1764955  0.4854596  48.133     0.5472122  
  0.523001   0.5714234 
1075.8     
  0.259      -9999      -9999      8.619754   3.02       2.131      
  2.388      1.183907   0.1364727  0.1364727  0.3126937  0.9439811  
  1.851453   3.02       0.2456051  0.5249133  47.879     0.5340033  
  0.5045217  0.5634848 
1076       
  0.243      -9999      -9999      8.428263   3.02       3.083      
  2.476      1.186709   0.1392866  0.1392866  0.3108809  1.064348   
  2.129768   3.02       0.2588963  0.5267951  47.879     0.5199827  
  0.4764805  0.5634848 
1076.2     
  0.229      -9999      -9999      8.191556   3.02       2.702      
  2.553      1.187946   0.1438512  0.1438512  0.31008    1.293098   
  2.532287   3.02       0.2794204  0.5317438  47.879     0.5037237  
  0.4439625  0.5634848 
1076.4     
  0.229      -9999      -9999      7.943569   3.149      2.702      
  2.553      1.186423   0.1500655  0.1500655  0.3110655  1.685524   
  3.035824   3.149      0.3189791  0.5496215  47.879     0.4878788  
  0.4122727  0.5634848 
1076.6     
  0.229      -9999      -9999      7.742303   3.188      3.896      
  1.537      1.180862   0.1563221  0.1563221  0.3146639  2.201016   
  3.517228   3.188      0.3465663  0.5624422  48.133     0.4798236  
  0.3882239  0.5714234 
1076.8     
  0.24       -9999      -9999      7.668876   2.877      3.274      
  1.791      1.171016   0.1620885  0.1620885  0.3210356  2.814685   
  3.711264   2.877      0.3356163  0.5513402  48.514     0.4816579  
  0.3798038  0.5835119 
1077       
  0.259      -9999      -9999      7.772818   2.877      2.042      
  3.632      1.159469   0.1620886  0.1620886  0.3285074  2.814695   
  3.439608   2.877      0.3356166  0.5576521  49.53      0.5042995  
  0.3917776  0.6168212 
1077.2     
  0.265      -9999      -9999      8.015878   2.877      2.626      
  1.613      1.150709   0.1628906  0.1628906  0.3341759  2.912642   
  2.879456   2.877      0.3384666  0.5631256  49.53      0.5190465  
  0.4212718  0.6168212 
1077.4     
  0.265      -9999      -9999      8.31239    2.623      2.626      
  1.613      1.147713   0.1583938  0.1583938  0.3361147  2.404341   
  2.318113   2.623      0.2920908  0.5392157  49.53      0.5385482  
  0.4602751  0.6168212 
1077.6     
  0.265      -9999      -9999      8.607878   2.454      1.559      
  1.626      1.150303   0.1482973  0.1482973  0.3344389  1.563086   
  1.867602   2.454      0.2264932  0.5101371  49.784     0.5640657  
  0.5027356  0.6253958 
1077.8     
  0.272      -9999      -9999      8.884667   2.528      1.813      
  1.435      1.156626   0.1370581  0.1370581  0.3303476  0.9678453  
  1.525362   2.528      0.1830022  0.4992049  49.784     0.5857257  
  0.5460556  0.6253958 
1078       
  0.283      -9999      -9999      9.119655   2.528      1.94       
  1.232      1.164803   0.1266316  0.1266316  0.3250559  0.6204142  
  1.284513   2.528      0.1247158  0.4792563  49.53      0.6012858  
  0.5857504  0.6168212 
