~Version
 VERS              .         2.0                           : CWLS LOG ASCII STANDARD - VERSION 2.0
 WRAP              .         YES                            : ONE LINE PER DEPTH STEP
 DLM               .         SPACE                         : DELIMITING CHARACTER(SPACE TAB OR COMMA)
~Well Information
#_______________________________________________________________________________
#
#PARAMETER_NAME    .UNIT     VALUE                         : DESCRIPTION
#_______________________________________________________________________________
STRT               .M        900                           : First reference value
STOP               .M        1287.2                        : Last reference value
STEP               .M        0.2                           : Step increment
NULL               .         -9999                         : Missing value
COMP               .                                       : Company
WELL               .         1437                          : Well name
FLD                .         Узень                         : Field
LOC                .                                       : Location
CNTY               .                                       : County
STAT               .                                       : State
CTRY               .                                       : Country
SRVC               .                                       : Service Company
DATE               .         09.08.1970                    : Date
UWI                .                                       : Unique Well ID
Block              .         6а                            : 
Cartographic_reference_system .         GCS_WGS_1984                  : ESRI,PE_10_3_1- <?xml version="1.0" encoding="utf-16"?><ILateBoundCoordinateReferenceSystem name="GCS_WGS_1984"><AuthorityCode>EPSG,4326</AuthorityCode></ILateBoundCoordinateReferenceSystem>
Category           .         Нефтяная                      : 
Condition          .         В работе                      : 
EREF               .m        83.2                          : 100.8
Gorizont           .         14                            : 14
HZCS               .GCS_WGS_1984 WGS_1984_EASE-Grid_2.0_Global : ESRI,PE_10_3_1- <?xml version="1.0" encoding="utf-16"?><ILateBoundCoordinateReferenceSystem name="WGS_1984_EASE-Grid_2.0_Global"><AuthorityCode>EPSG,6933</AuthorityCode></ILateBoundCoordinateReferenceSystem>
Interpretator      .         Сагынбаева А.Н.               : 
Kupol              .         основной                      : osnovnoi
LATI               .dega     0.6696466301                  : GCS_WGS_1984
LONG               .dega     0.461773424                   : GCS_WGS_1984
Mud                .         глинистый                     : 
Mud_density        .         1,18                          : 
Mud_resistivity    .         0                             : 
NGDU               .         НГДУ-2                        : 
ORIGINALWELLNAME   .         1437                          : 
Spud_date          .         1970                          : 1961
Viscosity          .         25                            : 
X                  .m        44554.8                       : 46154
Y                  .m        85427.13                      : 85761.93
YEAR               .         2019                          : 
~Parameter Information Block
#_______________________________________________________________________________
#
#PARAMETER_NAME    .UNIT     VALUE                         : DESCRIPTION
#_______________________________________________________________________________
SET                .         LQC_KAZNIPI_Petrel            : 
TLFamily_CALI      .         Caliper                       : 
TLFamily_COLL      .         Net Reservoir Flag            : 
TLFamily_CSAT      .         Fluid Code                    : 
TLFamily_DEPT      .         Measured Depth                : 
TLFamily_GR        .         Russian Gamma Ray             : 
TLFamily_LLS       .         Lateral Log Resistivity       : 
TLFamily_MINV      .         Micro Gradient Resistivity    : 
TLFamily_MNOR      .         Micro Resistivity             : 
TLFamily_NGLD      .         Neutron Gamma                 : 
TLFamily_PHIE      .         Effective Porosity            : 
TLFamily_PHIEN     .         Effective Porosity            : 
TLFamily_PHIT      .         Porosity                      : 
TLFamily_PRMB      .         Permeability                  : 
TLFamily_PRMB_DGR  .         Permeability                  : 
TLFamily_RT        .         Formation Resistivity         : 
TLFamily_SOIL_ARCHIE .         Oil Saturation                : 
TLFamily_SOIL_DW   .         Oil Saturation                : 
TLFamily_SP        .         Spontaneous Potential         : 
TLFamily_VSH_FIN   .         Shale Volume                  : 
TLFamily_VSH_GR    .         Shale Volume                  : 
TLFamily_VSH_SP    .         Shale Volume                  : 
~Curve Information
#_______________________________________________________________________________
#
#LOGNAME           .UNIT     LOG_ID                        : DESCRIPTION
#_______________________________________________________________________________
DEPT               .M                                      : Колонка глубины 
CALI               .м                                      : Каверномер 
COLL               .unitless                               : Описание 
CSAT               .unitless                               :  
GR                 .uR/h                                   : Гамма каротаж 
LLS                .Ohmm                                   : УЭС пласта 
MINV               .Ohmm                                   : Микро-градиент зонд 
MNOR               .Ohmm                                   : Микро-потенциал зонд 
NGLD               .у.е.                                   : Показания зонда НГК-60 аппаратуры ДРСТ-3-90 
PHIE               .v/v                                    : Описание 
PHIEN              .v/v                                    :  
PHIT               .v/v                                    : Описание 
PRMB               .mD                                     :  
PRMB_DGR           .mD                                     :  
RT                 .ohmm                                   : УЭС пласта 
SOIL_ARCHIE        .v/v                                    :  
SOIL_DW            .v/v                                    :  
SP                 .мВ                                     : Потенциал самополяризации 
VSH_FIN            .v/v                                    : Описание 
VSH_GR             .v/v                                    : Shale volume 
VSH_SP             .v/v                                    : Shale Volume 
~Ascii
# ...
1183.8     
  0.269      -9999      -9999      9.750261   3.376      0.785      
  0.851      1.174245   0.1730474  0.1730474  0.3189458  4.491753   
  2.264463   3.376      0.4258935  0.6000195  37.592     0.4421164  
  0.4646971  0.4195358 
1184       
  0.292      -9999      -9999      9.868833   3.376      2.537      
  2.21       1.178181   0.1639118  0.1639118  0.3163989  3.042302   
  1.995965   3.376      0.3981232  0.5894204  38.227     0.4620821  
  0.4892735  0.4348907 
1184.2     
  0.239      -9999      -9999      9.966522   3.376      2.283      
  1.994      1.184733   0.1491709  0.1491709  0.3121593  1.622428   
  1.798844   3.376      0.3466404  0.5706369  39.878     0.4939043  
  0.5104953  0.4773133 
1184.4     
  0.239      -9999      -9999      10.04055   2.851      2.283      
  1.994      1.190249   0.1333814  0.1333814  0.3085897  0.8273802  
  1.662539   2.851      0.2203184  0.5090516  41.91      0.5309342  
  0.5271881  0.5346802 
1184.6     
  0.239      -9999      -9999      10.07833   2.531      2.029      
  2.057      1.191918   0.1308614  0.1308614  0.3075097  0.7430677  
  1.597013   2.531      0.161708   0.4740606  41.91      0.5352979  
  0.5359156  0.5346802 
1184.8     
  0.225      -9999      -9999      10.05499   3.135      2.766      
  1.168      1.189269   0.1334684  0.1334684  0.3092241  0.8304551  
  1.637192   3.135      0.2547223  0.5325324  41.91      0.532593   
  0.5305058  0.5346802 
1185       
  0.223      -9999      -9999      9.961531   3.135      2.029      
  1.651      1.183454   0.1375579  0.1375579  0.3129871  0.9887006  
  1.808428   3.135      0.2740574  0.5412733  42.545     0.5316036  
  0.509389   0.5538182 
1185.2     
  0.224      -9999      -9999      9.827762   3.135      3.947      
  3.683      1.176198   0.1470002  0.1470002  0.317682   1.478964   
  2.085158   3.135      0.3148418  0.5567679  42.545     0.5172176  
  0.4806169  0.5538182 
1185.4     
  0.224      -9999      -9999      9.7012     2.776      3.947      
  3.683      1.168895   0.1553278  0.1553278  0.3224083  2.109626   
  2.385863   2.776      0.3085936  0.5429858  42.672     0.5063047  
  0.4548927  0.5577168 
1185.6     
  0.224      -9999      -9999      9.612597   2.347      2.105      
  2.68       1.16192    0.1626767  0.1626767  0.3269218  2.886196   
  2.621828   2.347      0.2814448  0.5159023  42.672     0.4977122  
  0.4377076  0.5577168 
1185.8     
  0.223      -9999      -9999      9.573874   1.842      1.75       
  1.816      1.154958   0.1680665  0.1680665  0.3314267  3.632104   
  2.732152   1.842      0.2174563  0.4649227  42.735     0.4950309  
  0.4304024  0.5596595 
1186       
  0.223      -9999      -9999      9.590557   1.842      2.613      
  1.486      1.148348   0.170194   0.170194   0.3357039  3.977083   
  2.684062   1.842      0.2259829  0.47169    43.053     0.501545   
  0.4335347  0.5695552 
1186.2     
  0.226      -9999      -9999      9.657534   1.842      2.321      
  1.562      1.143473   0.1685759  0.1685759  0.3388587  3.711867   
  2.499372   1.842      0.2195159  0.4727574  43.561     0.5160085  
  0.4463407  0.5856763 
1186.4     
  0.226      -9999      -9999      9.759173   2.107      2.321      
  1.562      1.141583   0.1664727  0.1664727  0.3400819  3.393413   
  2.243083   2.107      0.2591683  0.5057253  43.561     0.5260884  
  0.4665006  0.5856763 
1186.6     
  0.226      -9999      -9999      9.879992   2.507      2.105      
  1.397      1.142814   0.1615259  0.1615259  0.3392851  2.747956   
  1.972398   2.507      0.2990206  0.5409235  43.561     0.5386643  
  0.4916523  0.5856763 
1186.8     
  0.227      -9999      -9999      10.00394   2.539      2.143      
  1.308      1.14679    0.1531087  0.1531087  0.3367122  1.919119   
  1.728601   2.539      0.2699318  0.5322305  43.815     0.5563743  
  0.5188663  0.5938823 
1187       
  0.228      -9999      -9999      10.10961   2.539      1.445      
  1.308      1.153321   0.1468839  0.1468839  0.3324862  1.471652   
  1.544709   2.539      0.2430578  0.5210926  43.434     0.562431   
  0.5432525  0.5816096 
1187.2     
  0.231      -9999      -9999      10.18122   2.453      1.242      
  1.105      1.161734   0.1450976  0.1450976  0.3270416  1.363693   
  1.431344   2.453      0.2224761  0.5054548  42.164     0.5513457  
  0.5604265  0.5422649 
1187.4     
  0.231      -9999      -9999      10.22105   2.119      1.242      
  1.105      1.170791   0.1376224  0.1376224  0.3211813  0.9914219  
  1.371927   2.119      0.1279329  0.4510775  42.164     0.5562391  
  0.5702132  0.5422649 
1187.6     
  0.231      -9999      -9999      10.25057   1.811      1.001      
  0.965      1.179854   0.1305426  0.1305426  0.3153165  0.7330326  
  1.329487   1.811      0.01703857 0.3874076  42.164     0.5599208  
  0.5775768  0.5422649 
1187.8     
  0.237      -9999      -9999      10.30028   1.811      2.486      
  1.334      1.188992   0.1268609  0.1268609  0.3094033  0.6265121  
  1.260969   1.811      0          0.3734631  41.275     0.5531587  
  0.5901917  0.5161257 
1188       
  0.248      -9999      -9999      10.39094   1.811      2.042      
  1.562      1.197467   0.1192541  0.1192541  0.303919   0.452933   
  1.144971   1.811      0          0.351786   40.894     0.5595906  
  0.6139122  0.5052691 
1188.2     
  0.253      -9999      -9999      10.50773   2.178      2.156      
  1.232      1.203173   0.1072829  0.1072829  0.300227   0.2718307  
  1.011129   2.178      0          0.3811411  41.529     0.5846788  
  0.6458796  0.523478  
1188.4     
  0.253      -9999      -9999      10.60388   3.725      2.156      
  1.232      1.204178   0.1020843  0.1020843  0.2995762  0.2177746  
  0.9127668  3.725      0.1318968  0.5177402  41.529     0.5984603  
  0.6734425  0.523478  
1188.6     
  0.253      -9999      -9999      10.6321    4.94       1.509      
  1.321      1.200753   0.1029294  0.1029294  0.3017927  0.2257669  
  0.8857558  4.94       0.2450452  0.5844279  41.529     0.602616   
  0.6817539  0.523478  
1188.8     
  0.254      -9999      -9999      10.57259   4.94       0.886      
  1.118      1.195749   0.1108539  0.1108539  0.3050306  0.3165496  
  0.9436831  4.94       0.2922724  0.5979751  41.148     0.5884143  
  0.6643447  0.5124839 
1189       
  0.25       -9999      -9999      10.4353    4.94       1.445      
  1.295      1.19342    0.1250738  0.1250738  0.3065378  0.5805342  
  1.092169   4.94       0.3628891  0.6164116  39.751     0.549891   
  0.6258627  0.4739193 
1189.2     
  0.243      -9999      -9999      10.24568   3.854      1.115      
  1.219      1.197263   0.1511419  0.1511419  0.3040513  1.764707   
  1.336424   3.854      0.3929839  0.5936481  34.417     0.4633617  
  0.5763509  0.3503726 
1189.4     
  0.243      -9999      -9999      10.03113   3.115      1.115      
  1.219      1.208608   0.1522675  0.1522675  0.2967095  1.851491   
  1.679297   3.115      0.3335327  0.5425201  34.417     0.4377031  
  0.5250335  0.3503726 
1189.6     
  0.243      -9999      -9999      9.818105   2.359      1.635      
  1.448      1.22591    0.1457338  0.1457338  0.2855135  1.401206   
  3.340402   2.359      0.2111     0.4525381  34.417     0.4235748  
  0.3964876  0.4506621 
1189.8     
  0.261      -9999      -9999      9.633516   2.359      2.118      
  1.549      1.244868   0.1514386  0.1514386  0.2732462  1.787183   
  4.021878   2.359      0.2370472  0.4461537  29.591     0.3691138  
  0.3675409  0.3706868 
1190       
  0.257      -9999      -9999      9.498723   2.359      2.563      
  1.892      1.260455   0.1556973  0.1556973  0.2631594  2.143138   
  4.605834   2.359      0.2552551  0.4397163  24.638     0.3256427  
  0.3477469  0.3035385 
1190.2     
  0.222      -9999      -9999      9.41826    2.234      1.699      
  1.791      1.270094   0.159361   0.159361   0.2569222  2.505596   
  4.994081   2.234      0.2513038  0.4214058  20.193     0.2956397  
  0.336443   0.2548365 
