~Version
 VERS              .         2.0                           : CWLS LOG ASCII STANDARD - VERSION 2.0
 WRAP              .         YES                            : ONE LINE PER DEPTH STEP
 DLM               .         SPACE                         : DELIMITING CHARACTER(SPACE TAB OR COMMA)
~Well Information
#_______________________________________________________________________________
#
#PARAMETER_NAME    .UNIT     VALUE                         : DESCRIPTION
#_______________________________________________________________________________
STRT               .M        900                           : First reference value
STOP               .M        1287.2                        : Last reference value
STEP               .M        0.2                           : Step increment
NULL               .         -9999                         : Missing value
COMP               .                                       : Company
WELL               .         1437                          : Well name
FLD                .         Узень                         : Field
LOC                .                                       : Location
CNTY               .                                       : County
STAT               .                                       : State
CTRY               .                                       : Country
SRVC               .                                       : Service Company
DATE               .         09.08.1970                    : Date
UWI                .                                       : Unique Well ID
Block              .         6а                            : 
Cartographic_reference_system .         GCS_WGS_1984                  : ESRI,PE_10_3_1- <?xml version="1.0" encoding="utf-16"?><ILateBoundCoordinateReferenceSystem name="GCS_WGS_1984"><AuthorityCode>EPSG,4326</AuthorityCode></ILateBoundCoordinateReferenceSystem>
Category           .         Нефтяная                      : 
Condition          .         В работе                      : 
EREF               .m        83.2                          : 100.8
Gorizont           .         14                            : 14
HZCS               .GCS_WGS_1984 WGS_1984_EASE-Grid_2.0_Global : ESRI,PE_10_3_1- <?xml version="1.0" encoding="utf-16"?><ILateBoundCoordinateReferenceSystem name="WGS_1984_EASE-Grid_2.0_Global"><AuthorityCode>EPSG,6933</AuthorityCode></ILateBoundCoordinateReferenceSystem>
Interpretator      .         Сагынбаева А.Н.               : 
Kupol              .         основной                      : osnovnoi
LATI               .dega     0.6696466301                  : GCS_WGS_1984
LONG               .dega     0.461773424                   : GCS_WGS_1984
Mud                .         глинистый                     : 
Mud_density        .         1,18                          : 
Mud_resistivity    .         0                             : 
NGDU               .         НГДУ-2                        : 
ORIGINALWELLNAME   .         1437                          : 
Spud_date          .         1970                          : 1961
Viscosity          .         25                            : 
X                  .m        44554.8                       : 46154
Y                  .m        85427.13                      : 85761.93
YEAR               .         2019                          : 
~Parameter Information Block
#_______________________________________________________________________________
#
#PARAMETER_NAME    .UNIT     VALUE                         : DESCRIPTION
#_______________________________________________________________________________
SET                .         LQC_KAZNIPI_Petrel            : 
TLFamily_CALI      .         Caliper                       : 
TLFamily_COLL      .         Net Reservoir Flag            : 
TLFamily_CSAT      .         Fluid Code                    : 
TLFamily_DEPT      .         Measured Depth                : 
TLFamily_GR        .         Russian Gamma Ray             : 
TLFamily_LLS       .         Lateral Log Resistivity       : 
TLFamily_MINV      .         Micro Gradient Resistivity    : 
TLFamily_MNOR      .         Micro Resistivity             : 
TLFamily_NGLD      .         Neutron Gamma                 : 
TLFamily_PHIE      .         Effective Porosity            : 
TLFamily_PHIEN     .         Effective Porosity            : 
TLFamily_PHIT      .         Porosity                      : 
TLFamily_PRMB      .         Permeability                  : 
TLFamily_PRMB_DGR  .         Permeability                  : 
TLFamily_RT        .         Formation Resistivity         : 
TLFamily_SOIL_ARCHIE .         Oil Saturation                : 
TLFamily_SOIL_DW   .         Oil Saturation                : 
TLFamily_SP        .         Spontaneous Potential         : 
TLFamily_VSH_FIN   .         Shale Volume                  : 
TLFamily_VSH_GR    .         Shale Volume                  : 
TLFamily_VSH_SP    .         Shale Volume                  : 
~Curve Information
#_______________________________________________________________________________
#
#LOGNAME           .UNIT     LOG_ID                        : DESCRIPTION
#_______________________________________________________________________________
DEPT               .M                                      : Колонка глубины 
CALI               .м                                      : Каверномер 
COLL               .unitless                               : Описание 
CSAT               .unitless                               :  
GR                 .uR/h                                   : Гамма каротаж 
LLS                .Ohmm                                   : УЭС пласта 
MINV               .Ohmm                                   : Микро-градиент зонд 
MNOR               .Ohmm                                   : Микро-потенциал зонд 
NGLD               .у.е.                                   : Показания зонда НГК-60 аппаратуры ДРСТ-3-90 
PHIE               .v/v                                    : Описание 
PHIEN              .v/v                                    :  
PHIT               .v/v                                    : Описание 
PRMB               .mD                                     :  
PRMB_DGR           .mD                                     :  
RT                 .ohmm                                   : УЭС пласта 
SOIL_ARCHIE        .v/v                                    :  
SOIL_DW            .v/v                                    :  
SP                 .мВ                                     : Потенциал самополяризации 
VSH_FIN            .v/v                                    : Описание 
VSH_GR             .v/v                                    : Shale volume 
VSH_SP             .v/v                                    : Shale Volume 
~Ascii
# ...
933        
  0.212      1          3          2.512846   2.678      2.143      
  2.223      1.273007   0.2153438  0.2153438  0.2550373  27.28021   
  310.339    2.678      0.4635015  0.5248901  31.496     0.1202833  
  0.06231811 0.1782485 
933.2000000000001 
  0.212      1          3          2.555333   2.993      1.978      
  2.07       1.276398   0.2129069  0.2129069  0.2528429  24.58727   
  293.1197   2.993      0.4857081  0.546159   31.496     0.1210181  
  0.06378777 0.1782485 
933.4      
  0.21       1          3          2.616996   3.222      1.648      
  2.07       1.278877   0.2109409  0.2109409  0.251239   22.60968   
  269.8143   3.222      0.4991663  0.5592476  31.496     0.1221156  
  0.06598258 0.1782485 
933.6      
  0.21       1          3          2.672957   3.411      2.08       
  2.438      1.281      0.2092275  0.2092275  0.249865   21.01641   
  250.2717   3.411      0.5089098  0.5687888  31.496     0.1231441  
  0.06803975 0.1782485 
933.8      
  0.209      1          3          2.70009    3.411      1.813      
  1.981      1.28423    0.2069689  0.2069689  0.2477749  19.08642   
  241.3126   3.411      0.5042456  0.5646989  31.496     0.1236543  
  0.06906011 0.1782485 
934        
  0.209      1          3          2.686919   3.505      1.813      
  1.981      1.289189   0.2038417  0.2038417  0.2445656  16.70325   
  245.6209   3.505      0.5039961  0.5645372  31.496     0.1234057  
  0.0685629  0.1782485 
934.2000000000001 
  0.208      1          3          2.64205    3.599      1.864      
  2.057      1.294702   0.2005493  0.2005493  0.2409981  14.515     
  260.8831   3.599      0.5031208  0.5636066  31.496     0.1225721  
  0.06689577 0.1782485 
934.4      
  0.207      1          3          2.589694   3.618      1.89       
  1.968      1.299622   0.1976784  0.1976784  0.2378146  12.84225   
  279.8955   3.618      0.4980834  0.5587182  31.496     0.1216251  
  0.06500161 0.1782485 
934.6      
  0.207      1          3          2.553859   3.224      2.067      
  2.197      1.304249   0.1948933  0.1948933  0.2348208  11.40392   
  293.7012   3.224      0.4635906  0.5262662  31.496     0.1209924  
  0.06373618 0.1782485 
934.8      
  0.207      1          3          2.5421     3.027      2.194      
  2.362      1.308891   0.1919568  0.1919568  0.2318167  10.06153   
  298.378    3.027      0.4401284  0.5042744  31.496     0.1207874  
  0.06332634 0.1782485 
935        
  0.207      1          3          2.541911   3.027      2.194      
  2.362      1.312665   0.1895943  0.1895943  0.2293743  9.097148   
  298.4537   3.027      0.4340571  0.498616   31.434     0.1205454  
  0.06331978 0.1777711 
935.2000000000001 
  0.208      1          3          2.533283   3.129      2.118      
  2.413      1.315177   0.1881003  0.1881003  0.2277488  8.535551   
  301.9337   3.129      0.4389379  0.5031682  31.369     0.1201471  
  0.06302075 0.1772735 
935.4      
  0.209      1          3          2.509712   3.416      1.928      
  2.057      1.317824   0.1865214  0.1865214  0.2260363  7.979695   
  311.6483   3.416      0.4576062  0.5207157  31.369     0.1197423  
  0.06221107 0.1772735 
935.6      
  0.21       1          3          2.483666   3.948      1.978      
  2.159      1.322415   0.1836958  0.1836958  0.2230651  7.073752   
  322.7475   3.948      0.4864402  0.5478491  31.369     0.119301   
  0.06132842 0.1772735 
935.8      
  0.21       1          3          2.469084   4.309      2.055      
  2.21       1.329224   0.1793704  0.1793704  0.2186591  5.88211    
  329.1331   4.309      0.4967633  0.5577583  31.369     0.1190566  
  0.06083974 0.1772735 
936        
  0.21       1          3          2.466026   4.309      2.055      
  2.21       1.337592   0.1739724  0.1739724  0.2132442  4.672487   
  330.488    4.309      0.4831907  0.5454777  31.369     0.1190056  
  0.06073778 0.1772735 
936.2000000000001 
  0.21       1          3          2.465996   4.639      2.486      
  2.769      1.347206   0.1675901  0.1675901  0.2070227  3.559045   
  330.5013   4.639      0.4842626  0.5472969  31.496     0.1194927  
  0.06073678 0.1782485 
936.4      
  0.21       1          3          2.461949   4.835      2.143      
  2.591      1.357167   0.1611671  0.1611671  0.2005775  2.706226   
  332.3034   4.835      0.4766687  0.5408792  31.496     0.1194253  
  0.06060206 0.1782485 
936.6      
  0.21       1          3          2.452302   4.841      2.69       
  2.591      1.364741   0.1563185  0.1563185  0.1956761  2.200679   
  336.6384   4.841      0.4628718  0.5285199  31.496     0.1192654  
  0.06028218 0.1782485 
936.8      
  0.21       1          3          2.439714   4.517      2.029      
  2.032      1.366699   0.1549575  0.1549575  0.1944094  2.076576   
  342.3804   4.517      0.4408821  0.5082577  31.623     0.1195511  
  0.0598673  0.1792348 
937        
  0.21       1          3          2.428067   4.517      2.029      
  2.032      1.361933   0.157925   0.157925   0.1974929  2.356738   
  347.7801   4.517      0.4500433  0.5165932  31.761     0.1199027  
  0.05948599 0.1803195 
937.2000000000001 
  0.21       1          3          2.41942    4.022      2.309      
  2.54       1.352392   0.1639936  0.1639936  0.2036672  3.052928   
  351.8442   4.022      0.4380206  0.5046852  31.877     0.120223   
  0.05920445 0.1812416 
937.4      
  0.21       1          3          2.414563   3.728      2.004      
  2.159      1.341859   0.1708354  0.1708354  0.210483   4.087365   
  354.1476   3.728      0.4380083  0.5038512  31.877     0.1201443  
  0.05904692 0.1812416 
937.6      
  0.21       1          3          2.414687   3.664      2.359      
  2.4        1.333683   0.1761257  0.1761257  0.215774   5.121921   
  354.0886   3.664      0.4482742  0.5129755  31.877     0.1201463  
  0.05905093 0.1812416 
937.8      
  0.21       1          3          2.4205     3.872      2.118      
  2.515      1.328992   0.1789612  0.1789612  0.218809   5.780334   
  351.3339   3.872      0.4698126  0.5332037  32.004     0.1207509  
  0.05923956 0.1822623 
938        
  0.21       1          3          2.433802   3.872      2.118      
  2.515      1.327009   0.1801731  0.1801731  0.2200925  6.086971   
  345.1108   3.872      0.4729201  0.5361024  32.004     0.1209679  
  0.05967344 0.1822623 
938.2000000000001 
  0.21       1          3          2.458453   4.159      2.334      
  2.311      1.326412   0.1805936  0.1805936  0.2204787  6.197119   
  333.8679   4.159      0.4913461  0.5532877  31.877     0.1208638  
  0.06048594 0.1812416 
938.4      
  0.21       1          3          2.494264   4.46       2.423      
  2.553      1.326419   0.1803915  0.1803915  0.2204746  6.143932   
  318.1845   4.46       0.5072737  0.5684163  31.877     0.1214638  
  0.06168604 0.1812416 
938.6      
  0.21       1          3          2.53153    4.831      2.067      
  2.362      1.327002   0.1798037  0.1798037  0.220097   5.991813   
  302.6454   4.831      0.524056   0.5843358  31.877     0.1221009  
  0.06296019 0.1812416 
938.8      
  0.209      1          3          2.557271   5.293      3.693      
  3.785      1.328451   0.178885   0.178885   0.2191596  5.761596   
  292.3577   5.293      0.5419846  0.6010482  31.75      0.1220441  
  0.06385561 0.1802325 
939        
  0.209      1          3          2.566243   5.293      3.693      
  3.785      1.329652   0.1782203  0.1782203  0.2183822  5.60055    
  288.8547   5.293      0.5404971  0.5995995  31.623     0.1217028  
  0.06417068 0.1792348 
939.2000000000001 
  0.209      1          3          2.556932   4.961      2.175      
  2.521      1.326591   0.1803375  0.1803375  0.2203632  6.129786   
  292.4906   4.961      0.5311618  0.5906172  31.559     0.1212901  
  0.06384375 0.1787364 
939.4      
  0.209      1          3          2.525539   4.132      1.75       
  1.816      1.314828   0.1882097  0.1882097  0.2279751  8.575493   
  305.0915   4.132      0.5078187  0.5680073  31.496     0.1205011  
  0.06275358 0.1782485 
