~Version
 VERS              .         2.0                           : CWLS LOG ASCII STANDARD - VERSION 2.0
 WRAP              .         YES                            : ONE LINE PER DEPTH STEP
 DLM               .         SPACE                         : DELIMITING CHARACTER(SPACE TAB OR COMMA)
~Well Information
#_______________________________________________________________________________
#
#PARAMETER_NAME    .UNIT     VALUE                         : DESCRIPTION
#_______________________________________________________________________________
STRT               .M        900                           : First reference value
STOP               .M        1287.2                        : Last reference value
STEP               .M        0.2                           : Step increment
NULL               .         -9999                         : Missing value
COMP               .                                       : Company
WELL               .         1437                          : Well name
FLD                .         Узень                         : Field
LOC                .                                       : Location
CNTY               .                                       : County
STAT               .                                       : State
CTRY               .                                       : Country
SRVC               .                                       : Service Company
DATE               .         09.08.1970                    : Date
UWI                .                                       : Unique Well ID
Block              .         6а                            : 
Cartographic_reference_system .         GCS_WGS_1984                  : ESRI,PE_10_3_1- <?xml version="1.0" encoding="utf-16"?><ILateBoundCoordinateReferenceSystem name="GCS_WGS_1984"><AuthorityCode>EPSG,4326</AuthorityCode></ILateBoundCoordinateReferenceSystem>
Category           .         Нефтяная                      : 
Condition          .         В работе                      : 
EREF               .m        83.2                          : 100.8
Gorizont           .         14                            : 14
HZCS               .GCS_WGS_1984 WGS_1984_EASE-Grid_2.0_Global : ESRI,PE_10_3_1- <?xml version="1.0" encoding="utf-16"?><ILateBoundCoordinateReferenceSystem name="WGS_1984_EASE-Grid_2.0_Global"><AuthorityCode>EPSG,6933</AuthorityCode></ILateBoundCoordinateReferenceSystem>
Interpretator      .         Сагынбаева А.Н.               : 
Kupol              .         основной                      : osnovnoi
LATI               .dega     0.6696466301                  : GCS_WGS_1984
LONG               .dega     0.461773424                   : GCS_WGS_1984
Mud                .         глинистый                     : 
Mud_density        .         1,18                          : 
Mud_resistivity    .         0                             : 
NGDU               .         НГДУ-2                        : 
ORIGINALWELLNAME   .         1437                          : 
Spud_date          .         1970                          : 1961
Viscosity          .         25                            : 
X                  .m        44554.8                       : 46154
Y                  .m        85427.13                      : 85761.93
YEAR               .         2019                          : 
~Parameter Information Block
#_______________________________________________________________________________
#
#PARAMETER_NAME    .UNIT     VALUE                         : DESCRIPTION
#_______________________________________________________________________________
SET                .         LQC_KAZNIPI_Petrel            : 
TLFamily_CALI      .         Caliper                       : 
TLFamily_COLL      .         Net Reservoir Flag            : 
TLFamily_CSAT      .         Fluid Code                    : 
TLFamily_DEPT      .         Measured Depth                : 
TLFamily_GR        .         Russian Gamma Ray             : 
TLFamily_LLS       .         Lateral Log Resistivity       : 
TLFamily_MINV      .         Micro Gradient Resistivity    : 
TLFamily_MNOR      .         Micro Resistivity             : 
TLFamily_NGLD      .         Neutron Gamma                 : 
TLFamily_PHIE      .         Effective Porosity            : 
TLFamily_PHIEN     .         Effective Porosity            : 
TLFamily_PHIT      .         Porosity                      : 
TLFamily_PRMB      .         Permeability                  : 
TLFamily_PRMB_DGR  .         Permeability                  : 
TLFamily_RT        .         Formation Resistivity         : 
TLFamily_SOIL_ARCHIE .         Oil Saturation                : 
TLFamily_SOIL_DW   .         Oil Saturation                : 
TLFamily_SP        .         Spontaneous Potential         : 
TLFamily_VSH_FIN   .         Shale Volume                  : 
TLFamily_VSH_GR    .         Shale Volume                  : 
TLFamily_VSH_SP    .         Shale Volume                  : 
~Curve Information
#_______________________________________________________________________________
#
#LOGNAME           .UNIT     LOG_ID                        : DESCRIPTION
#_______________________________________________________________________________
DEPT               .M                                      : Колонка глубины 
CALI               .м                                      : Каверномер 
COLL               .unitless                               : Описание 
CSAT               .unitless                               :  
GR                 .uR/h                                   : Гамма каротаж 
LLS                .Ohmm                                   : УЭС пласта 
MINV               .Ohmm                                   : Микро-градиент зонд 
MNOR               .Ohmm                                   : Микро-потенциал зонд 
NGLD               .у.е.                                   : Показания зонда НГК-60 аппаратуры ДРСТ-3-90 
PHIE               .v/v                                    : Описание 
PHIEN              .v/v                                    :  
PHIT               .v/v                                    : Описание 
PRMB               .mD                                     :  
PRMB_DGR           .mD                                     :  
RT                 .ohmm                                   : УЭС пласта 
SOIL_ARCHIE        .v/v                                    :  
SOIL_DW            .v/v                                    :  
SP                 .мВ                                     : Потенциал самополяризации 
VSH_FIN            .v/v                                    : Описание 
VSH_GR             .v/v                                    : Shale volume 
VSH_SP             .v/v                                    : Shale Volume 
~Ascii
# ...
1091.4     
  0.231      -9999      -9999      9.148263   3.027      1.826      
  1.232      1.169346   0.1439108  0.1439108  0.3221164  1.29639    
  1.257918   3.027      0.2804625  0.5433434  45.339     0.5400168  
  0.590776   0.4892577 
1091.6     
  0.231      -9999      -9999      9.132951   2.788      1.712      
  1.422      1.174016   0.1413337  0.1413337  0.3190946  1.161452   
  1.272083   2.788      0.2402857  0.5181125  45.339     0.5386692  
  0.5880808  0.4892577 
1091.8     
  0.251      -9999      -9999      9.08063    2.791      3.985      
  3.924      1.17985    0.1384858  0.1384858  0.3153189  1.028613   
  1.3217     2.791      0.2270869  0.511066   45.466     0.5358576  
  0.5789639  0.4927512 
1092       
  0.283      -9999      -9999      9.005487   2.791      2.105      
  1.168      1.186043   0.1348465  0.1348465  0.3113114  0.8807306  
  1.396366   2.791      0.2089503  0.5022174  45.847     0.534742   
  0.5661169  0.5033671 
1092.2     
  0.242      -9999      -9999      8.92845    2.791      1.813      
  1.702      1.192622   0.1327141  0.1327141  0.3070546  0.8041648  
  1.477295   2.791      0.1978914  0.4949096  45.847     0.5283045  
  0.5532418  0.5033671 
1092.4     
  0.242      -9999      -9999      8.860582   3.073      1.813      
  1.702      1.200424   0.1294963  0.1294963  0.3020054  0.7010421  
  1.552468   3.073      0.2167495  0.5091484  45.847     0.5227546  
  0.5421422  0.5033671 
1092.6     
  0.242      -9999      -9999      8.783907   3.422      1.775      
  1.372      1.209796   0.1242706  0.1242706  0.2959411  0.5609845  
  1.64201    3.422      0.2281046  0.5216427  46.101     0.5202137  
  0.5298697  0.5105577 
1092.8     
  0.235      -9999      -9999      8.652943   3.606      1.47       
  1.829      1.219682   0.1200247  0.1200247  0.2895435  0.4680656  
  1.807055   3.606      0.2236919  0.5214456  46.355     0.5136933  
  0.5095469  0.5178397 
1093       
  0.242      -9999      -9999      8.445729   3.606      3.972      
  3.861      1.227908   0.1179162  0.1179162  0.284221   0.4278107  
  2.102735   3.606      0.2116155  0.5126323  46.736     0.5039539  
  0.4789723  0.5289354 
1093.2     
  0.275      -9999      -9999      8.224219   3.606      1.89       
  1.638      1.232339   0.1201073  0.1201073  0.2813535  0.4697176  
  2.472514   3.606      0.2241569  0.5128157  46.736     0.4886248  
  0.4483142  0.5289354 
1093.4     
  0.275      -9999      -9999      8.102186   3.484      1.89       
  1.638      1.231962   0.1229985  0.1229985  0.2815975  0.5313591  
  2.703323   3.484      0.2276911  0.5089794  46.736     0.4806031  
  0.4322708  0.5289354 
1093.6     
  0.275      -9999      -9999      8.132957   3.547      3.248      
  1.715      1.228011   0.1236567  0.1236567  0.2841538  0.5464883  
  2.643168   3.547      0.2377107  0.5170739  46.99      0.4863549  
  0.4362611  0.5364486 
1093.8     
  0.278      -9999      -9999      8.267333   3.748      4.061      
  1.676      1.223501   0.1223733  0.1223733  0.2870727  0.517378   
  2.395771   3.748      0.2503943  0.5314059  47.244     0.4990893  
  0.4541235  0.5440552 
1094       
  0.266      -9999      -9999      8.410907   3.748      2.499      
  1.397      1.221034   0.1194163  0.1194163  0.2886689  0.4560774  
  2.156973   3.748      0.2342539  0.5288213  47.498     0.5128866  
  0.4740173  0.551756  
1094.2     
  0.256      -9999      -9999      8.490202   3.748      1.953      
  1.41       1.221276   0.1173856  0.1173856  0.2885123  0.4182387  
  2.035447   3.748      0.2227289  0.5256922  47.498     0.5185659  
  0.4853758  0.551756  
1094.4     
  0.256      -9999      -9999      8.481029   3.789      1.953      
  1.41       1.223048   0.1164578  0.1164578  0.2873654  0.4020117  
  2.049147   3.789      0.221324   0.5256993  47.498     0.517902   
  0.4840479  0.551756  
1094.6     
  0.256      -9999      -9999      8.406378   3.859      2.423      
  1.562      1.224244   0.1161587  0.1161587  0.2865919  0.3969171  
  2.164129   3.859      0.2262537  0.5287735  47.752     0.516464   
  0.4733767  0.5595514 
1094.8     
  0.269      -9999      -9999      8.311481   3.982      3.033      
  2.54       1.22274    0.1186652  0.1186652  0.287565   0.4416985  
  2.319656   3.982      0.2516081  0.5407033  47.879     0.5118175  
  0.4601501  0.5634848 
1095       
  0.278      -9999      -9999      8.232479   3.982      3.896      
  2.299      1.217935   0.121574   0.121574   0.2906743  0.5000392  
  2.457623   3.982      0.2672278  0.5478562  48.26      0.512425   
  0.4494213  0.5754287 
1095.2     
  0.276      -9999      -9999      8.188208   3.982      2.27       
  1.842      1.212016   0.1263779  0.1263779  0.2945043  0.6137396  
  2.538496   3.982      0.291548   0.5579421  48.26      0.5094738  
  0.4435188  0.5754287 
1095.4     
  0.276      -9999      -9999      8.179386   3.76       2.27       
  1.842      1.208423   0.128896   0.128896   0.2968298  0.6833199  
  2.554926   3.76       0.2846163  0.5506241  48.26      0.5088903  
  0.442352   0.5754287 
1095.6     
  0.276      -9999      -9999      8.181309   3.5        2.613      
  1.867      1.209191   0.128357   0.128357   0.2963327  0.6677929  
  2.551335   3.5        0.2574474  0.5330152  48.26      0.5090173  
  0.4426061  0.5754287 
1095.8     
  0.287      -9999      -9999      8.154507   3.336      1.94       
  1.397      1.214071   0.1251162  0.1251162  0.2931746  0.5815855  
  2.601837   3.336      0.2234301  0.5138535  48.387     0.509268   
  0.4390777  0.5794582 
1096       
  0.294      -9999      -9999      8.076428   3.336      2.588      
  1.816      1.221922   0.1203639  0.1203639  0.2880943  0.4748853  
  2.754728   3.336      0.1967926  0.5013912  48.641     0.5082741  
  0.4289585  0.5875897 
1096.2     
  0.257      -9999      -9999      7.956709   3.336      2.347      
  1.562      1.231953   0.1163582  0.1163582  0.281603   0.4003079  
  3.00679    3.336      0.172763   0.4878231  48.641     0.5007417  
  0.4138936  0.5875897 
1096.4     
  0.257      -9999      -9999      7.813296   4.279      2.347      
  1.562      1.243989   0.1114329  0.1114329  0.2738146  0.3244632  
  3.339278   4.279      0.2357163  0.5323102  48.641     0.4920659  
  0.3965421  0.5875897 
1096.6     
  0.257      -9999      -9999      7.648136   5.436      1.826      
  1.334      1.258361   0.1059548  0.1059548  0.2645149  0.2568606  
  3.767986   5.436      0.2862463  0.5679796  48.514     0.4804853  
  0.3774588  0.5835119 
1096.8     
  0.238      -9999      -9999      7.455685   5.989      2.791      
  1.981      1.275184   0.09988046 0.09988046 0.2536285  0.1982379  
  4.337443   5.989      0.2819819  0.5680853  48.26      0.4659031  
  0.3563775  0.5754287 
1097       
  0.232      -9999      -9999      7.248158   5.989      2.766      
  2.184      1.292417   0.0948825  0.0948825  0.2424772  0.1601814  
  5.048321   5.989      0.2491507  0.5471802  47.752     0.4472568  
  0.3349622  0.5595514 
1097.2     
  0.239      -9999      -9999      7.068776   5.989      4.049      
  3.899      1.304697   0.08981862 0.08981862 0.2345306  0.1290675  
  5.755999   5.989      0.2124128  0.5281947  47.752     0.4385212  
  0.3174911  0.5595514 
1097.4     
  0.239      -9999      -9999      6.973371   5.681      4.049      
  3.899      1.306159   0.09034386 0.09034386 0.2335844  0.1319913  
  6.171947   5.681      0.1967455  0.5153347  47.752     0.4340623  
  0.3085733  0.5595514 
1097.6     
  0.239      -9999      -9999      6.993951   5.296      2.994      
  1.892      1.294726   0.09807319 0.09807319 0.2409826  0.1835319  
  6.07975    5.296      0.2271346  0.5223354  47.625     0.4330587  
  0.3104756  0.5556418 
1097.8     
  0.237      -9999      -9999      7.119865   4.123      3.858      
  3.899      1.272638   0.1097588  0.1097588  0.2552762  0.3021051  
  5.544902   4.123      0.2119589  0.4991705  47.752     0.4409617  
  0.3223721  0.5595514 
