~Version
 VERS              .         2.0                           : CWLS LOG ASCII STANDARD - VERSION 2.0
 WRAP              .         YES                            : ONE LINE PER DEPTH STEP
 DLM               .         SPACE                         : DELIMITING CHARACTER(SPACE TAB OR COMMA)
~Well Information
#_______________________________________________________________________________
#
#PARAMETER_NAME    .UNIT     VALUE                         : DESCRIPTION
#_______________________________________________________________________________
STRT               .M        900                           : First reference value
STOP               .M        1287.2                        : Last reference value
STEP               .M        0.2                           : Step increment
NULL               .         -9999                         : Missing value
COMP               .                                       : Company
WELL               .         1437                          : Well name
FLD                .         Узень                         : Field
LOC                .                                       : Location
CNTY               .                                       : County
STAT               .                                       : State
CTRY               .                                       : Country
SRVC               .                                       : Service Company
DATE               .         09.08.1970                    : Date
UWI                .                                       : Unique Well ID
Block              .         6а                            : 
Cartographic_reference_system .         GCS_WGS_1984                  : ESRI,PE_10_3_1- <?xml version="1.0" encoding="utf-16"?><ILateBoundCoordinateReferenceSystem name="GCS_WGS_1984"><AuthorityCode>EPSG,4326</AuthorityCode></ILateBoundCoordinateReferenceSystem>
Category           .         Нефтяная                      : 
Condition          .         В работе                      : 
EREF               .m        83.2                          : 100.8
Gorizont           .         14                            : 14
HZCS               .GCS_WGS_1984 WGS_1984_EASE-Grid_2.0_Global : ESRI,PE_10_3_1- <?xml version="1.0" encoding="utf-16"?><ILateBoundCoordinateReferenceSystem name="WGS_1984_EASE-Grid_2.0_Global"><AuthorityCode>EPSG,6933</AuthorityCode></ILateBoundCoordinateReferenceSystem>
Interpretator      .         Сагынбаева А.Н.               : 
Kupol              .         основной                      : osnovnoi
LATI               .dega     0.6696466301                  : GCS_WGS_1984
LONG               .dega     0.461773424                   : GCS_WGS_1984
Mud                .         глинистый                     : 
Mud_density        .         1,18                          : 
Mud_resistivity    .         0                             : 
NGDU               .         НГДУ-2                        : 
ORIGINALWELLNAME   .         1437                          : 
Spud_date          .         1970                          : 1961
Viscosity          .         25                            : 
X                  .m        44554.8                       : 46154
Y                  .m        85427.13                      : 85761.93
YEAR               .         2019                          : 
~Parameter Information Block
#_______________________________________________________________________________
#
#PARAMETER_NAME    .UNIT     VALUE                         : DESCRIPTION
#_______________________________________________________________________________
SET                .         LQC_KAZNIPI_Petrel            : 
TLFamily_CALI      .         Caliper                       : 
TLFamily_COLL      .         Net Reservoir Flag            : 
TLFamily_CSAT      .         Fluid Code                    : 
TLFamily_DEPT      .         Measured Depth                : 
TLFamily_GR        .         Russian Gamma Ray             : 
TLFamily_LLS       .         Lateral Log Resistivity       : 
TLFamily_MINV      .         Micro Gradient Resistivity    : 
TLFamily_MNOR      .         Micro Resistivity             : 
TLFamily_NGLD      .         Neutron Gamma                 : 
TLFamily_PHIE      .         Effective Porosity            : 
TLFamily_PHIEN     .         Effective Porosity            : 
TLFamily_PHIT      .         Porosity                      : 
TLFamily_PRMB      .         Permeability                  : 
TLFamily_PRMB_DGR  .         Permeability                  : 
TLFamily_RT        .         Formation Resistivity         : 
TLFamily_SOIL_ARCHIE .         Oil Saturation                : 
TLFamily_SOIL_DW   .         Oil Saturation                : 
TLFamily_SP        .         Spontaneous Potential         : 
TLFamily_VSH_FIN   .         Shale Volume                  : 
TLFamily_VSH_GR    .         Shale Volume                  : 
TLFamily_VSH_SP    .         Shale Volume                  : 
~Curve Information
#_______________________________________________________________________________
#
#LOGNAME           .UNIT     LOG_ID                        : DESCRIPTION
#_______________________________________________________________________________
DEPT               .M                                      : Колонка глубины 
CALI               .м                                      : Каверномер 
COLL               .unitless                               : Описание 
CSAT               .unitless                               :  
GR                 .uR/h                                   : Гамма каротаж 
LLS                .Ohmm                                   : УЭС пласта 
MINV               .Ohmm                                   : Микро-градиент зонд 
MNOR               .Ohmm                                   : Микро-потенциал зонд 
NGLD               .у.е.                                   : Показания зонда НГК-60 аппаратуры ДРСТ-3-90 
PHIE               .v/v                                    : Описание 
PHIEN              .v/v                                    :  
PHIT               .v/v                                    : Описание 
PRMB               .mD                                     :  
PRMB_DGR           .mD                                     :  
RT                 .ohmm                                   : УЭС пласта 
SOIL_ARCHIE        .v/v                                    :  
SOIL_DW            .v/v                                    :  
SP                 .мВ                                     : Потенциал самополяризации 
VSH_FIN            .v/v                                    : Описание 
VSH_GR             .v/v                                    : Shale volume 
VSH_SP             .v/v                                    : Shale Volume 
~Ascii
# ...
952.8      
  0.216      -9999      -9999      4.890761   7.019      3.147      
  3.912      1.271619   0.1046493  0.1046493  0.2559354  0.2429499  
  3.395331   7.019      0.3600419  0.6099959  50.927     0.4584427  
  0.3938558  0.5230296 
953        
  0.216      -9999      -9999      4.971234   6.753      3.147      
  3.912      1.268869   0.1047023  0.1047023  0.2577147  0.2435     
  3.184183   6.753      0.3486215  0.6042071  50.927     0.4636739  
  0.4043182  0.5230296 
953.2000000000001 
  0.217      -9999      -9999      5.002774   6.458      3.96       
  3.048      1.269623   0.1053379  0.1053379  0.2572267  0.2501912  
  3.105055   6.458      0.3383211  0.5956758  50.546     0.460269   
  0.4084941  0.5120439 
953.4      
  0.217      -9999      -9999      4.990688   6.047      3.159      
  2.019      1.272781   0.1059234  0.1059234  0.2551832  0.2565166  
  3.135141   6.047      0.3208711  0.5808957  50.038     0.4523025  
  0.4068888  0.4977161 
953.6      
  0.217      -9999      -9999      4.954862   5.955      3.045      
  3.874      1.276727   0.1064536  0.1064536  0.2526299  0.2623836  
  3.226048   5.955      0.318936   0.5757566  49.53      0.4429586  
  0.4021674  0.4837497 
953.8      
  0.217      -9999      -9999      4.908948   5.955      3.375      
  2.273      1.28124    0.1062083  0.1062083  0.2497097  0.2596526  
  3.346419   5.955      0.3175661  0.5722684  49.149     0.4348528  
  0.3961964  0.4735092 
954        
  0.217      -9999      -9999      4.848032   6.136      3.375      
  2.273      1.287055   0.1037296  0.1037296  0.2459464  0.2336046  
  3.513081   6.136      0.3131044  0.5708441  49.149     0.4309601  
  0.3884109  0.4735092 
954.2000000000001 
  0.217      -9999      -9999      4.763302   6.355      3.261      
  2.667      1.293804   0.1016632  0.1016632  0.2415792  0.213898   
  3.758785   6.355      0.3123698  0.5703311  49.022     0.4239878  
  0.3778358  0.4701399 
954.4      
  0.217      -9999      -9999      4.665989   6.693      3.071      
  3.518      1.299011   0.09968348 0.09968348 0.2382099  0.1965794  
  4.06225    6.693      0.3172961  0.5745198  49.149     0.4197771  
  0.3660449  0.4735092 
954.6      
  0.217      -9999      -9999      4.586476   6.389      3.363      
  2.476      1.299706   0.09965559 0.09965559 0.2377603  0.1963457  
  4.328312   6.389      0.3020703  0.5639497  49.403     0.4184992  
  0.3566844  0.4803141 
954.8      
  0.217      -9999      -9999      4.545709   6.389      2.372      
  2.832      1.295079   0.1022883  0.1022883  0.2407541  0.2196779  
  4.471409   6.389      0.317742   0.5715193  49.657     0.4195931  
  0.3519784  0.4872078 
955        
  0.217      -9999      -9999      4.540339   5.858      2.372      
  2.832      1.286966   0.1076403  0.1076403  0.2460045  0.2760051  
  4.490607   5.858      0.3202618  0.5668216  49.657     0.4192855  
  0.3513632  0.4872078 
955.2000000000001 
  0.217      -9999      -9999      4.562274   4.95       2.829      
  2.032      1.278087   0.1106504  0.1106504  0.2517497  0.3138135  
  4.412701   4.95       0.2818202  0.5402876  50.165     0.4275736  
  0.3538831  0.501264  
955.4      
  0.217      -9999      -9999      4.613889   4.927      3.071      
  1.74       1.270308   0.1135123  0.1135123  0.2567838  0.3545528  
  4.234672   4.927      0.2960797  0.5492142  50.419     0.434156   
  0.3598841  0.5084278 
955.6      
  0.217      -9999      -9999      4.697312   5.183      3.617      
  2.045      1.263808   0.1142811  0.1142811  0.2609898  0.3663706  
  3.961989   5.183      0.3166437  0.5660381  50.8       0.444572   
  0.3697994  0.5193447 
955.8      
  0.217      -9999      -9999      4.795321   5.183      2.639      
  2.261      1.257902   0.1142877  0.1142877  0.2648118  0.3664748  
  3.663975   5.183      0.3166784  0.5699947  51.181     0.4561334  
  0.3817979  0.5304689 
956        
  0.217      -9999      -9999      4.874602   5.086      2.639      
  2.261      1.252154   0.1163591  0.1163591  0.2685315  0.4003233  
  3.439389   5.086      0.3212946  0.5725634  51.181     0.4611284  
  0.3917878  0.5304689 
956.2000000000001 
  0.217      -9999      -9999      4.90987    4.805      2.385      
  3.67       1.246227   0.1175768  0.1175768  0.2723663  0.4216639  
  3.343959   4.805      0.3092416  0.5658275  51.562     0.4690588  
  0.3963153  0.5418024 
956.4      
  0.217      -9999      -9999      4.901703   5.107      3.972      
  3.48       1.239334   0.1209451  0.1209451  0.2768268  0.4868047  
  3.365819   5.107      0.345032   0.5874887  51.816     0.4723688  
  0.3952623  0.5494754 
956.6      
  0.217      -9999      -9999      4.870147   5.564      2.893      
  3.442      1.230944   0.1251131  0.1251131  0.2822561  0.5815098  
  3.451637   5.564      0.3891456  0.6144771  52.197     0.4761908  
  0.3912196  0.5611621 
956.8      
  0.217      -9999      -9999      4.83416    5.564      3.045      
  2.286      1.22188    0.1310802  0.1310802  0.2881214  0.7500341  
  3.552179   5.564      0.4134368  0.6259884  52.324     0.4758825  
  0.3866596  0.5651054 
957        
  0.217      -9999      -9999      4.802878   5.406      3.045      
  2.286      1.21331    0.1372727  0.1372727  0.293667   0.9767457  
  3.641952   5.406      0.4288822  0.631511   52.324     0.4739222  
  0.3827389  0.5651054 
957.2000000000001 
  0.217      -9999      -9999      4.784034   4.61       3.287      
  2.108      1.205352   0.1414961  0.1414961  0.298817   1.169523   
  3.697121   4.61       0.4005885  0.6097556  52.578     0.47673    
  0.3803964  0.5730636 
957.4      
  0.217      -9999      -9999      4.78721    4.114      2.791      
  2.603      1.197612   0.1451104  0.1451104  0.3038253  1.364442   
  3.687765   4.114      0.3814379  0.5950351  52.832     0.4809542  
  0.3807902  0.5811182 
957.6      
  0.217      -9999      -9999      4.820521   4.473      3.985      
  2.565      1.190702   0.1482259  0.1482259  0.3082968  1.558334   
  3.591043   4.473      0.4161545  0.6182237  52.959     0.4850636  
  0.3849453  0.5851818 
957.8      
  0.218      -9999      -9999      4.885826   4.473      3.985      
  1.664      1.186641   0.1488134  0.1488134  0.3109247  1.597876   
  3.408727   4.473      0.4181626  0.6207969  53.086     0.4912464  
  0.393223   0.5892697 
958        
  0.218      -9999      -9999      4.983799   4.755      3.985      
  1.664      1.187533   0.1461316  0.1461316  0.3103473  1.425182   
  3.152419   4.755      0.425592   0.6292378  53.086     0.4976232  
  0.4059767  0.5892697 
958.2000000000001 
  0.218      -9999      -9999      5.1097     4.534      2.08       
  1.842      1.193679   0.1393497  0.1393497  0.3063701  1.067218   
  2.851143   4.534      0.3877983  0.6103225  53.086     0.5061224  
  0.422975   0.5892697 
958.4      
  0.219      -9999      -9999      5.243588   4.316      2.766      
  3.785      1.20269    0.1304075  0.1304075  0.3005395  0.7288226  
  2.562277   4.316      0.3362214  0.5856268  53.086     0.5155515  
  0.4418333  0.5892697 
958.6      
  0.219      -9999      -9999      5.351698   4.437      3.02       
  2.87       1.210158   0.1229611  0.1229611  0.2957066  0.5305138  
  2.350529   4.437      0.3103513  0.5780541  53.086     0.5234711  
  0.4576726  0.5892697 
958.8      
  0.219      -9999      -9999      5.405425   4.437      3.744      
  1.689      1.212503   0.1187493  0.1187493  0.2941893  0.4432851  
  2.251899   4.437      0.2890953  0.5712447  53.34      0.5316365  
  0.4657541  0.5975188 
959        
  0.219      -9999      -9999      5.398387   4.461      3.744      
  1.689      1.209638   0.1207794  0.1207794  0.2960434  0.4833763  
  2.26458    4.461      0.3012847  0.576728   53.34      0.5311031  
  0.4646874  0.5975188 
959.2000000000001 
  0.219      -9999      -9999      5.346186   4.189      2.74       
  1.918      1.204224   0.1241985  0.1241985  0.2995469  0.5592626  
  2.360888   4.189      0.2976359  0.5708559  53.594     0.5313587  
  0.4568515  0.605866  
