~Version
 VERS              .         2.0                           : CWLS LOG ASCII STANDARD - VERSION 2.0
 WRAP              .         NO                            : ONE LINE PER DEPTH STEP
 DLM               .         SPACE                         : DELIMITING CHARACTER(SPACE TAB OR COMMA)
~Well Information
#_______________________________________________________________________________
#
#PARAMETER_NAME    .UNIT     VALUE                         : DESCRIPTION
#_______________________________________________________________________________
STRT               .M        900                           : First reference value
STOP               .M        1180                          : Last reference value
STEP               .M        0.2                           : Step increment
NULL               .         -9999                         : Missing value
COMP               .                                       : Company
WELL               .         1666                          : Well name
FLD                .         УЗЕНЬ                         : Field
LOC                .                                       : Location
CNTY               .                                       : County
STAT               .                                       : State
CTRY               .                                       : Country
SRVC               .                                       : Service Company
DATE               .         8.10.97                       : Date
UWI                .         1666                          : Unique Well ID
Block              .         6а                            : 
Category           .         Нефтяная                      : 
Condition          .         Ликвидированная               : 
Date               .         23.09.1999                    : 
EREF               .m        79.7                          : 100.8
Gorizont           .         13                            : 14
Interpretator      .         Ким С.В.                      : 
Kupol              .         основной                      : osnovnoi
Mud                .         0                             : 
Mud_density        .         0                             : 
Mud_resistivity    .         0                             : 
NGDU               .         НГДУ-2                        : 
ORIGINALWELLNAME   .         1666                          : 
Spud_date          .         1997                          : 1961
Viscosity          .         0                             : 
X                  .m        44303.6                       : 46154
Y                  .m        85296.03                      : 85761.93
YEAR               .         2019                          : 
~Parameter Information Block
#_______________________________________________________________________________
#
#PARAMETER_NAME    .UNIT     VALUE                         : DESCRIPTION
#_______________________________________________________________________________
SET                .         LQC_KAZNIPI_Petrel            : 
GSDD               .         CSAT                          : CSATкрив,0,DEPT,BOTTOM,,,,0
TLFamily_CALI      .         Caliper                       : 
TLFamily_CILD      .         Conductivity                  : 
TLFamily_COLL      .         Net Reservoir Flag            : 
TLFamily_CSAT      .         Fluid Code                    : 
TLFamily_DEPT      .         Measured Depth                : 
TLFamily_GR        .         Russian Gamma Ray             : 
TLFamily_GZ3       .         Gradient 225                  : 
TLFamily_LLS       .         Lateral Log Resistivity       : 
TLFamily_MINV      .         Micro Gradient Resistivity    : 
TLFamily_MNOR      .         Micro Resistivity             : 
TLFamily_NGLD      .         Neutron Gamma                 : 
TLFamily_OGZ       .         Gradient Inverted 225         : 
TLFamily_PHIE      .         Effective Porosity            : 
TLFamily_PHIEN     .         Effective Porosity            : 
TLFamily_PHIT      .         Porosity                      : 
TLFamily_PRMB      .         Permeability                  : 
TLFamily_PRMB_DGR  .         Permeability                  : 
TLFamily_RT        .         Formation Resistivity         : 
TLFamily_SOIL_ARCHIE .         Oil Saturation                : 
TLFamily_SOIL_DW   .         Oil Saturation                : 
TLFamily_SP        .         Spontaneous Potential         : 
TLFamily_VSH_FIN   .         Shale Volume                  : 
TLFamily_VSH_GR    .         Shale Volume                  : 
TLFamily_VSH_SP    .         Shale Volume                  : 
~Curve Information
#_______________________________________________________________________________
#
#LOGNAME           .UNIT     LOG_ID                        : DESCRIPTION
#_______________________________________________________________________________
DEPT               .M                                      : Колонка глубины 
CALI               .м                                      : Каверномер 
CILD               .мСм/м                                  : Индукционный каротаж зондом 6Ф1 
COLL               .unitless                               : Описание 
CSAT               .unitless                               : Описание 
GR                 .uR/h                                   : Гамма каротаж 
GZ3                .Ohmm                                   :  
LLS                .Ohmm                                   : Боковой каротаж 
MINV               .Ohmm                                   : Микро-градиент зонд 
MNOR               .Ohmm                                   : Микро-потенциал зонд 
NGLD               .у.е.                                   : Показания зонда НГК-60 аппаратуры ДРСТ-3-90 
OGZ                .Ohmm                                   : Обращенный градиент-зонд 
PHIE               .v/v                                    : Описание 
PHIEN              .v/v                                    :  
PHIT               .v/v                                    : Описание 
PRMB               .mD                                     :  
PRMB_DGR           .mD                                     :  
RT                 .ohmm                                   : Удельное электрическое сопротивление 
SOIL_ARCHIE        .v/v                                    :  
SOIL_DW            .v/v                                    :  
SP                 .мВ                                     : Потенциал самополяризации 
VSH_FIN            .v/v                                    : Описание 
VSH_GR             .v/v                                    : Shale volume 
VSH_SP             .v/v                                    : Shale Volume 
~Ascii
# ...
955.8      0.194      0.218      -9999      -9999      3.284      5.056      3.791      4.741      3.581      1.068      4.069      0.1712064  0.1712064  0.2788     4.152565   50.54694   4.187      0.4688152  0.6035106  60.402     0.3260412  0.1307491  0.5213333 
956        0.194      0.226      -9999      -9999      3.426      5.117      3.515      4.599      3.487      1.073      3.583      0.1662533  0.1662533  0.277425   3.361805   40.38458   4.025      0.4448735  0.5896115  60.544     0.336884   0.1432989  0.5304691 
956.2000000000001 0.194      0.23       -9999      -9999      3.591      5.035      3.232      4.447      3.387      1.088      3.342      0.1593225  0.1593225  0.2733     2.501485   31.11339   3.948      0.4186535  0.5747219  60.562     0.3453862  0.1594021  0.5313704 
956.4      0.194      0.233      -9999      -9999      3.689      4.698      3.046      4.098      3.256      1.103      3.291      0.15363    0.15363    0.269175   1.962272   26.64851   3.892      0.3959005  0.5614421  60.553     0.3501362  0.1698104  0.5304619 
956.6      0.194      0.234      -9999      -9999      3.696      4.253      2.984      3.941      3.11       1.116      3.24       0.1486106  0.1486106  0.2656     1.584113   26.35527   3.874      0.3768136  0.5510024  60.676     0.3545134  0.1705794  0.5384474 
956.8      0.194      0.235      -9999      -9999      3.688      4.11       2.994      3.828      3.072      1.112      3.327      0.1463888  0.1463888  0.2667     1.4409     26.69066   3.855      0.3671255  0.5483572  60.985     0.3645794  0.1697009  0.559458  
957        0.194      0.236      -9999      -9999      3.667      4.008      3.065      3.974      3.173      1.101      3.521      0.1456677  0.1456677  0.269725   1.397259   27.5915    3.837      0.3630002  0.5495235  61.339     0.3759313  0.1674162  0.5844463 
957.2000000000001 0.194      0.237      -9999      -9999      3.675      3.88       3.129      4.433      3.515      1.088      3.68       0.1445951  0.1445951  0.2733     1.334782   27.24479   3.819      0.3574707  0.5507807  61.711     0.3900147  0.1682829  0.6117465 
957.4      0.194      0.24       -9999      -9999      3.696      4.038      3.165      4.543      3.491      1.079      3.772      0.1428252  0.1428252  0.275775   1.237732   26.35527   3.767      0.3463495  0.5480211  62.02      0.4028783  0.1705794  0.6351771 
957.6      0.194      0.243      -9999      -9999      3.746      4.079      3.128      4.636      3.446      1.077      3.67       0.141527   0.141527   0.276325   1.171065   24.35251   3.715      0.3368188  0.5438154  62.096     0.4084788  0.1761741  0.6407835 
957.8      0.194      0.246      -9999      -9999      3.831      4.079      3.045      4.578      3.314      1.075      3.568      0.1428516  0.1428516  0.276875   1.239129   21.29088   3.665      0.3379817  0.5429239  61.913     0.4061315  0.1861095  0.6261535 
958        0.195      0.247      -9999      -9999      3.919      4.003      2.972      4.843      3.473      1.075      3.465      0.1435118  0.1435118  0.276875   1.274513   18.5261    3.649      0.3392797  0.5427402  61.723     0.4041309  0.1969862  0.6112757 
958.2000000000001 0.197      0.245      -9999      -9999      3.968      3.865      2.953      4.554      3.343      1.083      3.44       0.139598   0.139598   0.274675   1.07858    17.14536   3.682      0.3260286  0.5376444  61.781     0.4093241  0.2033157  0.6153326 
958.4      0.199      0.24       -9999      -9999      3.981      3.721      2.997      4.194      3.147      1.091      3.506      0.1336186  0.1336186  0.272475   0.8357927  16.79664   3.767      0.3072938  0.5328292  62.06      0.420777   0.2050288  0.6365252 
958.6      0.204      0.233      -9999      -9999      4          3.548      3.102      3.95       3.029      1.099      3.875      0.1266844  0.1266844  0.270275   0.6218135  16.29969   3.892      0.2854158  0.5286148  62.393     0.4351231  0.2075587  0.6626876 
958.8      0.207      0.229      -9999      -9999      4.043      3.507      3.251      4.209      3.225      1.102      3.987      0.1204602  0.1204602  0.26945    0.4768405  15.22863   3.967      0.2600208  0.5232475  62.724     0.4514843  0.2133999  0.6895686 
959        0.212      0.229      -9999      -9999      4.1        3.466      3.369      4.622      3.553      1.098      4.008      0.1161994  0.1161994  0.27055    0.3976057  13.91656   3.967      0.2364438  0.5180485  63.017     0.4677291  0.2213971  0.7140611 
959.2000000000001 0.223      0.23       -9999      -9999      4.143      3.415      3.41       5.232      3.766      1.091      4.028      0.1126313  0.1126313  0.272475   0.3414787  13.0021    3.948      0.2136495  0.5134901  63.331     0.4843748  0.2276278  0.7411218 
959.4      0.234      0.233      -9999      -9999      4.136      3.512      3.36       5.519      3.824      1.084      3.887      0.1113423  0.1113423  0.2744     0.3232115  13.14676   3.892      0.2003836  0.5101281  63.564     0.4941144  0.2266017  0.7616271 
959.6      0.245      0.236      -9999      -9999      4.128      3.609      3.252      5.29       3.719      1.08       3.747      0.1096349  0.1096349  0.2755     0.3005125  13.31407   3.837      0.184118   0.5051095  63.767     0.5026215  0.2254346  0.7798084 
959.8      0.256      0.242      -9999      -9999      4.123      3.629      3.111      4.677      3.556      1.086      3.573      0.1067955  0.1067955  0.27385    0.2662377  13.41971   3.732      0.1543175  0.4914632  63.857     0.5062258  0.2247083  0.7877433 
960        0.267      0.248      -9999      -9999      4.171      3.522      2.965      4.312      3.469      1.106      3.44       0.1018208  0.1018208  0.26835    0.215341   12.4392    3.632      0.1071354  0.4687358  63.751     0.5046339  0.2317789  0.7774889 
960.2000000000001 0.272      0.252      -9999      -9999      4.214      3.384      2.851      4.068      3.387      1.129      3.332      0.1002703  0.1002703  0.262025   0.2015614  11.62181   3.568      0.08754163 0.4527252  63.364     0.4901658  0.2383018  0.7420298 
960.4      0.276      0.252      -9999      -9999      4.207      3.272      2.78       3.843      3.162      1.146      3.281      0.1022074  0.1022074  0.25735    0.2189207  11.75112   3.568      0.1026219  0.4501993  62.92      0.4701291  0.2372275  0.7030307 
960.6      0.279      0.25       -9999      -9999      4.159      3.218      2.737      3.672      3.003      1.147      3.281      0.1071041  0.1071041  0.257075   0.2697653  12.6774    3.6        0.1420644  0.4615529  62.637     0.4544573  0.2299906  0.6789238 
960.8      0.277      0.252      -9999      -9999      4.106      3.164      2.719      3.872      2.986      1.134      3.414      0.1134544  0.1134544  0.26065    0.3536785  13.7852    3.568      0.1806163  0.4751228  62.531     0.4460473  0.2222561  0.6698385 
961        0.27       0.255      -9999      -9999      4.099      3.113      2.737      4.006      3.155      1.122      3.511      0.1167787  0.1167787  0.26395    0.4075527  13.93858   3.522      0.1960891  0.4814677  62.546     0.4459735  0.2212542  0.6706928 
961.2000000000001 0.26       0.257      -9999      -9999      4.128      3.174      2.778      3.949      3.194      1.111      3.608      0.1181599  0.1181599  0.266975   0.4322805  13.31407   3.491      0.2009712  0.4851414  62.621     0.450955   0.2254346  0.6764753 
961.4      0.261      0.257      -9999      -9999      4.144      3.256      2.807      3.737      3.131      1.088      3.598      0.1226714  0.1226714  0.2733     0.5239978  12.98157   3.491      0.2266266  0.4996924  62.73      0.4564503  0.2277747  0.6851259 
961.6      0.267      0.256      -9999      -9999      4.127      3.277      2.805      3.617      3.053      1.072      3.481      0.127599   0.127599   0.2777     0.6465473  13.33513   3.506      0.2542062  0.5129753  62.726     0.4548516  0.2252891  0.6844141 
961.8      0.276      0.258      -9999      -9999      4.119      3.41       2.781      3.688      2.976      1.067      3.455      0.1292965  0.1292965  0.279075   0.6950929  13.50482   3.476      0.2597624  0.5148046  62.721     0.4538742  0.2241289  0.6836196 
