~Version
 VERS              .         2.0                           : CWLS LOG ASCII STANDARD - VERSION 2.0
 WRAP              .         NO                            : ONE LINE PER DEPTH STEP
 DLM               .         SPACE                         : DELIMITING CHARACTER(SPACE TAB OR COMMA)
~Well Information
#_______________________________________________________________________________
#
#PARAMETER_NAME    .UNIT     VALUE                         : DESCRIPTION
#_______________________________________________________________________________
STRT               .M        900                           : First reference value
STOP               .M        1180                          : Last reference value
STEP               .M        0.2                           : Step increment
NULL               .         -9999                         : Missing value
COMP               .                                       : Company
WELL               .         1666                          : Well name
FLD                .         УЗЕНЬ                         : Field
LOC                .                                       : Location
CNTY               .                                       : County
STAT               .                                       : State
CTRY               .                                       : Country
SRVC               .                                       : Service Company
DATE               .         8.10.97                       : Date
UWI                .         1666                          : Unique Well ID
Block              .         6а                            : 
Category           .         Нефтяная                      : 
Condition          .         Ликвидированная               : 
Date               .         23.09.1999                    : 
EREF               .m        79.7                          : 100.8
Gorizont           .         13                            : 14
Interpretator      .         Ким С.В.                      : 
Kupol              .         основной                      : osnovnoi
Mud                .         0                             : 
Mud_density        .         0                             : 
Mud_resistivity    .         0                             : 
NGDU               .         НГДУ-2                        : 
ORIGINALWELLNAME   .         1666                          : 
Spud_date          .         1997                          : 1961
Viscosity          .         0                             : 
X                  .m        44303.6                       : 46154
Y                  .m        85296.03                      : 85761.93
YEAR               .         2019                          : 
~Parameter Information Block
#_______________________________________________________________________________
#
#PARAMETER_NAME    .UNIT     VALUE                         : DESCRIPTION
#_______________________________________________________________________________
SET                .         LQC_KAZNIPI_Petrel            : 
GSDD               .         CSAT                          : CSATкрив,0,DEPT,BOTTOM,,,,0
TLFamily_CALI      .         Caliper                       : 
TLFamily_CILD      .         Conductivity                  : 
TLFamily_COLL      .         Net Reservoir Flag            : 
TLFamily_CSAT      .         Fluid Code                    : 
TLFamily_DEPT      .         Measured Depth                : 
TLFamily_GR        .         Russian Gamma Ray             : 
TLFamily_GZ3       .         Gradient 225                  : 
TLFamily_LLS       .         Lateral Log Resistivity       : 
TLFamily_MINV      .         Micro Gradient Resistivity    : 
TLFamily_MNOR      .         Micro Resistivity             : 
TLFamily_NGLD      .         Neutron Gamma                 : 
TLFamily_OGZ       .         Gradient Inverted 225         : 
TLFamily_PHIE      .         Effective Porosity            : 
TLFamily_PHIEN     .         Effective Porosity            : 
TLFamily_PHIT      .         Porosity                      : 
TLFamily_PRMB      .         Permeability                  : 
TLFamily_PRMB_DGR  .         Permeability                  : 
TLFamily_RT        .         Formation Resistivity         : 
TLFamily_SOIL_ARCHIE .         Oil Saturation                : 
TLFamily_SOIL_DW   .         Oil Saturation                : 
TLFamily_SP        .         Spontaneous Potential         : 
TLFamily_VSH_FIN   .         Shale Volume                  : 
TLFamily_VSH_GR    .         Shale Volume                  : 
TLFamily_VSH_SP    .         Shale Volume                  : 
~Curve Information
#_______________________________________________________________________________
#
#LOGNAME           .UNIT     LOG_ID                        : DESCRIPTION
#_______________________________________________________________________________
DEPT               .M                                      : Колонка глубины 
CALI               .м                                      : Каверномер 
CILD               .мСм/м                                  : Индукционный каротаж зондом 6Ф1 
COLL               .unitless                               : Описание 
CSAT               .unitless                               : Описание 
GR                 .uR/h                                   : Гамма каротаж 
GZ3                .Ohmm                                   :  
LLS                .Ohmm                                   : Боковой каротаж 
MINV               .Ohmm                                   : Микро-градиент зонд 
MNOR               .Ohmm                                   : Микро-потенциал зонд 
NGLD               .у.е.                                   : Показания зонда НГК-60 аппаратуры ДРСТ-3-90 
OGZ                .Ohmm                                   : Обращенный градиент-зонд 
PHIE               .v/v                                    : Описание 
PHIEN              .v/v                                    :  
PHIT               .v/v                                    : Описание 
PRMB               .mD                                     :  
PRMB_DGR           .mD                                     :  
RT                 .ohmm                                   : Удельное электрическое сопротивление 
SOIL_ARCHIE        .v/v                                    :  
SOIL_DW            .v/v                                    :  
SP                 .мВ                                     : Потенциал самополяризации 
VSH_FIN            .v/v                                    : Описание 
VSH_GR             .v/v                                    : Shale volume 
VSH_SP             .v/v                                    : Shale Volume 
~Ascii
# ...
1129.4     -9999      0.1        1          2          5.085      8.128      5.756      2.409      2.684      1.154      8.738      0.221536   0.221536   0.25515    35.52559   137.0703   9.6        0.712487   0.7521337  51.293     0.1018607  0.08700193 0.1167195 
1129.6     -9999      0.1        1          2          5.02       8.231      5.765      2.371      2.699      1.163      8.327999   0.2204822  0.2204822  0.252675   33.96439   176.2153   9.6        0.7112907  0.7502366  51.234     0.09755387 0.07851989 0.1165879 
1129.8     -9999      0.1        1          2          4.935      8.333      5.808      2.361      2.736      1.17       8.2        0.2202107  0.2202107  0.25075    33.57331   244.7446   9.6        0.7109806  0.7490071  51.161     0.09254342 0.06866303 0.1164238 
1130       -9999      0.099      1          2          4.832      8.769      5.886      2.392      2.768      1.17       8.072      0.2219347  0.2219347  0.25075    36.13486   364.414    9.701      0.7143433  0.7511474  51.095     0.08731926 0.05836191 0.1162766 
1130.2     -9999      0.099      1          2          4.799      8.974      5.99       2.439      2.828      1.161      7.943999   0.2248987  0.2248987  0.253225   41.0041    413.9848   9.701      0.7176251  0.7539423  51.091     0.08583733 0.05540031 0.1162744 
1130.4     -9999      0.099      1          2          4.769      9.18       6.12       2.485      2.913      1.15       7.816      0.2283429  0.2283429  0.25625    47.49221   464.8767   9.701      0.7213383  0.7571923  51.097     0.08456703 0.05283859 0.1162955 
1130.6     -9999      0.099      1          2          4.716      9.513      6.138      2.528      2.975      1.146      7.559      0.2301578  0.2301578  0.25735    51.31438   570.5534   9.701      0.7232531  0.7586057  51.054     0.08240054 0.0485989  0.1162022 
1130.8     -9999      0.099      1          2          4.668      9.949      6.02       2.525      2.964      1.143      7.431      0.2315928  0.2315928  0.258175   54.55301   686.8508   9.701      0.7247472  0.7596874  50.986     0.0805521  0.04505352 0.1160507 
1131       -9999      0.101      1          2          4.661      10.256     5.776      2.486      2.889      1.131      7.047      0.235006   0.235006   0.261475   63.10138   705.6873   9.501      0.7255625  0.760434   50.901     0.08020912 0.04455852 0.1158597 
1131.2     -9999      0.105      1          2          4.706      10.359     5.488      2.418      2.801      1.116      6.637      0.238616   0.238616   0.2656     73.60462   593.0364   9.124      0.7239875  0.7592893  50.83      0.08176966 0.04783795 0.1157014 
1131.4     -9999      0.111      1          2          4.707      10.462     5.156      2.377      2.766      1.109      6.252      0.2405466  0.2405466  0.267525   79.92179   590.749    8.609      0.7183425  0.7540654  50.78      0.08175267 0.0479135  0.1155918 
1131.6     -9999      0.12       1          2          4.715      10.282     4.866      2.386      2.788      1.113      6.143      0.2393404  0.2393404  0.266425   75.91412   572.7625   7.933      0.7060395  0.7426434  50.792     0.0820746  0.04852227 0.1156269 
1131.8     -9999      0.14       1          2          4.745      9.872      4.651      2.422      2.793      1.119      6.034      0.2372976  0.2372976  0.264775   69.58017   510.0599   6.743      0.6803654  0.718833   50.801     0.08326486 0.05087473 0.115655  
1132       -9999      0.165      1          2          4.745      9.744      4.507      2.446      2.781      1.127      5.923999   0.2350876  0.2350876  0.262575   63.32141   510.0599   5.661      0.6501852  0.6904318  50.824     0.08329521 0.05087473 0.1157157 
1132.2     -9999      0.196      1          2          4.737      9.358999   4.368      2.436      2.753      1.129      5.52       0.2346264  0.2346264  0.262025   62.08799   526.0764   4.702      0.6176962  0.659633   50.864     0.08302622 0.05023648 0.115816  
1132.4     -9999      0.217      1          2          4.725      8.846001   4.244      2.416      2.745      1.111      5.391      0.2396976  0.2396976  0.266975   77.07967   551.0492   4.208      0.6046863  0.6472827  50.95      0.08265874 0.04929407 0.1160234 
1132.6     -9999      0.232      1          2          4.742      8.333      4.156      2.415      2.75       1.097      5.233      0.2432752  0.2432752  0.270825   89.7854    516.0078   3.91       0.5960692  0.6393669  51.08      0.08348413 0.05063446 0.1163338 
1132.8     -9999      0.239      1          2          4.811      7.385      4.115      2.419      2.699      1.094      5.181      0.2430729  0.2430729  0.27165    89.0139    395.2234   3.784      0.589515   0.6339185  51.248     0.08659729 0.05645946 0.1167351 
1133       -9999      0.247      1          2          4.881      7.128      4.11       2.363      2.527      1.096      5.212      0.2413552  0.2413552  0.2711     82.72597   301.5434   3.649      0.5798702  0.6256415  51.448     0.09013581 0.06305404 0.1172176 
1133.2     -9999      0.255      1          2          4.883      6.487      4.127      2.199      2.333      1.1        5.243      0.2401608  0.2401608  0.27       78.61749   299.2218   3.522      0.5709783  0.6172528  51.599     0.09042172 0.06325336 0.1175901 
1133.4     -9999      0.262      1          2          4.912      6.359      4.153      2.074      2.252      1.104      5.345      0.2385515  0.2385515  0.2689     73.40236   267.496    3.417      0.5622857  0.6093861  51.647     0.09196527 0.06621549 0.117715  
1133.6     -9999      0.265      1          2          4.969      6.146      4.19       2.035      2.309      1.108      5.488999   0.2363987  0.2363987  0.2678     66.96301   214.6078   3.374      0.5561864  0.6044517  51.704     0.0951555  0.07244787 0.1178631 
1133.8     -9999      0.265      1          2          5.002      5.933      4.241      2.114      2.416      1.11       5.54       0.2351767  0.2351767  0.26725    63.56263   188.9105   3.374      0.5541787  0.603108   51.781     0.09719169 0.07632079 0.1180626 
1134       -9999      0.263      1          2          5.014      5.497001   4.306      2.179      2.502      1.108      5.591      0.2354531  0.2354531  0.2678     64.31616   180.3493   3.402      0.5563583  0.605408   51.857     0.09802095 0.0777799  0.118262  
1134.2     -9999      0.261      1          2          5.019      5.39       4.376      2.242      2.604      1.105      5.631999   0.2361902  0.2361902  0.268625   66.37023   176.8976   3.431      0.5593233  0.6082941  51.821     0.0982873  0.07839608 0.1181785 
1134.4     -9999      0.261      1          2          4.968      5.41       4.414      2.299      2.657      1.11       5.673      0.2358371  0.2358371  0.26725    65.37814   215.4387   3.431      0.5587486  0.6068897  51.766     0.09519073 0.07233363 0.1180478 
1134.6     -9999      0.263      1          2          4.939      5.431      4.401      2.3        2.653      1.121      5.714      0.2334153  0.2334153  0.264225   58.96253   240.9899   3.402      0.552987   0.6008791  51.593     0.09336261 0.06909786 0.1176274 
1134.8     -9999      0.264      1          2          4.901      5.431      4.319      2.253      2.601      1.132      5.714      0.2311714  0.2311714  0.2612     53.5813    279.1134   3.388      0.548337   0.595744   51.294     0.09099578 0.06507593 0.1169156 
1135       -9999      0.262      1          2          4.857      5.38       4.207      2.198      2.573      1.139      5.714      0.2301187  0.2301187  0.259275   51.22887   330.8517   3.417      0.5483481  0.5949652  50.898     0.08835236 0.06071051 0.1159942 
1135.2     -9999      0.259      1          2          4.826      5.272      4.095      2.196      2.593      1.142      5.735      0.2298724  0.2298724  0.25845    50.69358   372.9625   3.461      0.5506328  0.5966285  50.634     0.08659875 0.05781194 0.1153856 
1135.4     -9999      0.256      1          2          4.814      5.169      4.035      2.233      2.646      1.133      5.822001   0.2325848  0.2325848  0.260925   56.91068   390.6671   3.506      0.5578888  0.6034005  50.48      0.08587925 0.05672742 0.1150311 
