~Version
 VERS              .         2.0                           : CWLS LOG ASCII STANDARD - VERSION 2.0
 WRAP              .         NO                            : ONE LINE PER DEPTH STEP
 DLM               .         SPACE                         : DELIMITING CHARACTER(SPACE TAB OR COMMA)
~Well Information
#_______________________________________________________________________________
#
#PARAMETER_NAME    .UNIT     VALUE                         : DESCRIPTION
#_______________________________________________________________________________
STRT               .M        900                           : First reference value
STOP               .M        1180                          : Last reference value
STEP               .M        0.2                           : Step increment
NULL               .         -9999                         : Missing value
COMP               .                                       : Company
WELL               .         1666                          : Well name
FLD                .         УЗЕНЬ                         : Field
LOC                .                                       : Location
CNTY               .                                       : County
STAT               .                                       : State
CTRY               .                                       : Country
SRVC               .                                       : Service Company
DATE               .         8.10.97                       : Date
UWI                .         1666                          : Unique Well ID
Block              .         6а                            : 
Category           .         Нефтяная                      : 
Condition          .         Ликвидированная               : 
Date               .         23.09.1999                    : 
EREF               .m        79.7                          : 100.8
Gorizont           .         13                            : 14
Interpretator      .         Ким С.В.                      : 
Kupol              .         основной                      : osnovnoi
Mud                .         0                             : 
Mud_density        .         0                             : 
Mud_resistivity    .         0                             : 
NGDU               .         НГДУ-2                        : 
ORIGINALWELLNAME   .         1666                          : 
Spud_date          .         1997                          : 1961
Viscosity          .         0                             : 
X                  .m        44303.6                       : 46154
Y                  .m        85296.03                      : 85761.93
YEAR               .         2019                          : 
~Parameter Information Block
#_______________________________________________________________________________
#
#PARAMETER_NAME    .UNIT     VALUE                         : DESCRIPTION
#_______________________________________________________________________________
SET                .         LQC_KAZNIPI_Petrel            : 
GSDD               .         CSAT                          : CSATкрив,0,DEPT,BOTTOM,,,,0
TLFamily_CALI      .         Caliper                       : 
TLFamily_CILD      .         Conductivity                  : 
TLFamily_COLL      .         Net Reservoir Flag            : 
TLFamily_CSAT      .         Fluid Code                    : 
TLFamily_DEPT      .         Measured Depth                : 
TLFamily_GR        .         Russian Gamma Ray             : 
TLFamily_GZ3       .         Gradient 225                  : 
TLFamily_LLS       .         Lateral Log Resistivity       : 
TLFamily_MINV      .         Micro Gradient Resistivity    : 
TLFamily_MNOR      .         Micro Resistivity             : 
TLFamily_NGLD      .         Neutron Gamma                 : 
TLFamily_OGZ       .         Gradient Inverted 225         : 
TLFamily_PHIE      .         Effective Porosity            : 
TLFamily_PHIEN     .         Effective Porosity            : 
TLFamily_PHIT      .         Porosity                      : 
TLFamily_PRMB      .         Permeability                  : 
TLFamily_PRMB_DGR  .         Permeability                  : 
TLFamily_RT        .         Formation Resistivity         : 
TLFamily_SOIL_ARCHIE .         Oil Saturation                : 
TLFamily_SOIL_DW   .         Oil Saturation                : 
TLFamily_SP        .         Spontaneous Potential         : 
TLFamily_VSH_FIN   .         Shale Volume                  : 
TLFamily_VSH_GR    .         Shale Volume                  : 
TLFamily_VSH_SP    .         Shale Volume                  : 
~Curve Information
#_______________________________________________________________________________
#
#LOGNAME           .UNIT     LOG_ID                        : DESCRIPTION
#_______________________________________________________________________________
DEPT               .M                                      : Колонка глубины 
CALI               .м                                      : Каверномер 
CILD               .мСм/м                                  : Индукционный каротаж зондом 6Ф1 
COLL               .unitless                               : Описание 
CSAT               .unitless                               : Описание 
GR                 .uR/h                                   : Гамма каротаж 
GZ3                .Ohmm                                   :  
LLS                .Ohmm                                   : Боковой каротаж 
MINV               .Ohmm                                   : Микро-градиент зонд 
MNOR               .Ohmm                                   : Микро-потенциал зонд 
NGLD               .у.е.                                   : Показания зонда НГК-60 аппаратуры ДРСТ-3-90 
OGZ                .Ohmm                                   : Обращенный градиент-зонд 
PHIE               .v/v                                    : Описание 
PHIEN              .v/v                                    :  
PHIT               .v/v                                    : Описание 
PRMB               .mD                                     :  
PRMB_DGR           .mD                                     :  
RT                 .ohmm                                   : Удельное электрическое сопротивление 
SOIL_ARCHIE        .v/v                                    :  
SOIL_DW            .v/v                                    :  
SP                 .мВ                                     : Потенциал самополяризации 
VSH_FIN            .v/v                                    : Описание 
VSH_GR             .v/v                                    : Shale volume 
VSH_SP             .v/v                                    : Shale Volume 
~Ascii
# ...
1042.6     0.377      0.41       -9999      -9999      5.99       2.224      1.896      2.296      1.7        0.903      1.981      0.1756891  0.1756891  0.324175   5.027425   1.465446   2.039      0.2720399  0.4865416  60.451     0.4499574  0.5550641  0.3448507 
1042.8     0.368      0.404      -9999      -9999      5.975      2.173      1.89       2.497      1.869      0.909      1.955      0.1733929  0.1733929  0.322525   4.558425   1.497841   2.075      0.2696737  0.4867978  60.646     0.4519155  0.5501303  0.3537008 
1043       0.368      0.403      -9999      -9999      5.98       2.081      1.876      2.707      1.987      0.913      1.93       0.1713815  0.1713815  0.321425   4.183688   1.486964   2.081      0.2632132  0.4841256  60.729     0.4546773  0.5517701  0.3575845 
1043.2     0.4        0.411      -9999      -9999      6.003      2.055      1.855      2.525      1.885      0.908      2.001      0.1719657  0.1719657  0.3228     4.289243   1.437937   2.033      0.257305   0.4801189  60.666     0.4570735  0.5593758  0.3547713 
1043.4     0.415      0.421      -9999      -9999      5.98       2.098      1.825      2.114      1.643      0.899      2.006      0.1767071  0.1767071  0.325275   5.25052    1.486964   1.975      0.264773   0.4805392  60.529     0.4502057  0.5517701  0.3486414 
1043.6     0.419      0.429      -9999      -9999      5.942      2.142      1.789      1.841      1.521      0.893      1.955      0.1813573  0.1813573  0.326925   6.402287   1.571655   1.931      0.2735798  0.4815786  60.396     0.4411142  0.5394298  0.3427987 
1043.8     0.409      0.433      -9999      -9999      5.903      2.014      1.754      1.789      1.448      0.888      1.93       0.1850815  0.1850815  0.3283     7.504407   1.663593   1.909      0.2824794  0.484073   60.352     0.4339955  0.5270517  0.3409392 
1044       0.41       0.44       -9999      -9999      5.806      1.963      1.729      1.825      1.434      0.878      1.93       0.1921814  0.1921814  0.33105    10.15837   1.916262   1.873      0.2993911  0.4894225  60.423     0.4208139  0.4974831  0.3441447 
1044.2     0.416      0.448      -9999      -9999      5.755      1.937      1.707      1.898      1.384      0.867      1.95       0.1960609  0.1960609  0.334075   11.9862    2.064152   1.832      0.3042923  0.4906253  60.637     0.4182246  0.4826081  0.3538411 
1044.4     0.422      0.456      -9999      -9999      5.726      1.912      1.69       1.905      1.357      0.857      1.95       0.1985735  0.1985735  0.336825   13.34198   2.153283   1.793      0.3049827  0.4902405  60.845     0.4189441  0.4743489  0.3635392 
1044.6     0.427      0.461      -9999      -9999      5.739      1.861      1.68       1.828      1.315      0.849      1.873      0.1989246  0.1989246  0.339025   13.54331   2.112861   1.769      0.3016492  0.4891607  61.002     0.4245466  0.4780336  0.3710595 
1044.8     0.428      0.463      -9999      -9999      5.667      1.81       1.676      1.741      1.293      0.842      1.873      0.2027302  0.2027302  0.34095    15.92991   2.346673   1.76       0.3114345  0.4934373  61.179     0.4188479  0.4579796  0.3797162 
1045       0.423      0.463      -9999      -9999      5.579      1.759      1.677      1.774      1.407      0.834      1.848      0.2081876  0.2081876  0.34315    20.10473   2.667857   1.76       0.3271821  0.5007202  61.251     0.4089769  0.434608   0.3833457 
1045.2     0.417      0.462      -9999      -9999      5.569      1.733      1.677      1.854      1.437      0.831      1.848      0.2106289  0.2106289  0.343975   22.31088   2.707033   1.765      0.3348652  0.5044666  61.102     0.404079   0.4320287  0.3761294 
1045.4     0.419      0.464      -9999      -9999      5.642      1.733      1.676      1.901      1.409      0.828      1.843      0.2092202  0.2092202  0.3448     21.00989   2.433767   1.755      0.3291801  0.5024322  60.983     0.4108479  0.451215   0.3704807 
1045.6     0.406      0.466      -9999      -9999      5.736      1.707      1.673      1.848      1.259      0.823      1.863      0.2057584  0.2057584  0.346175   18.12604   2.122121   1.746      0.3177168  0.4990105  61.051     0.4255048  0.4771808  0.3738289 
1045.8     0.374      0.468      -9999      -9999      5.762      1.651      1.671      1.825      1.294      0.817      1.909      0.2045211  0.2045211  0.347825   17.1943    2.043197   1.737      0.3124577  0.4979432  61.255     0.4342543  0.4846231  0.3838856 
1046       0.362      0.468      -9999      -9999      5.808      1.651      1.668      1.789      1.356      0.81       1.909      0.2016697  0.2016697  0.34975    15.22544   1.910684   1.737      0.3039988  0.496811   61.56      0.4487282  0.4980757  0.3993808 
1046.2     0.357      0.47       -9999      -9999      5.869      1.651      1.668      2.003      1.58       0.805      1.909      0.1959844  0.1959844  0.351125   11.94715   1.748122   1.728      0.284705   0.490978   62.018     0.4701231  0.5164926  0.4237535 
1046.4     0.361      0.473      -9999      -9999      5.91       1.672      1.667      2.317      1.746      0.805      1.909      0.1901457  0.1901457  0.351125   9.313603   1.646705   1.714      0.262804   0.4827989  62.421     0.487816   0.5292523  0.4463798 
1046.6     0.365      0.475      -9999      -9999      5.886      1.692      1.658      2.497      1.723      0.808      1.909      0.1884842  0.1884842  0.3503     8.676455   1.705333   1.705      0.2553098  0.478907   62.636     0.490351   0.5217455  0.4589564 
1046.8     0.371      0.476      -9999      -9999      5.811      1.705      1.641      2.359      1.583      0.815      1.909      0.1909966  0.1909966  0.348375   9.657819   1.902347   1.701      0.2630371  0.4792495  62.564     0.4769042  0.4989658  0.4548425 
1047       0.374      0.475      -9999      -9999      5.759      1.718      1.626      2.077      1.387      0.823      2.017      0.1936681  0.1936681  0.346175   10.82332   2.052152   1.705      0.2727008  0.4807012  62.313     0.4621422  0.4837584  0.440526  
1047.2     0.369      0.473      -9999      -9999      5.718      1.692      1.623      1.99       1.414      0.842      2.114      0.1940682  0.1940682  0.34095    11.00959   2.17854    1.714      0.2757983  0.4777025  61.905     0.4450965  0.4720955  0.4180974 
1047.4     0.368      0.468      -9999      -9999      5.69       1.615      1.641      2.031      1.441      0.871      2.211      0.1902213  0.1902213  0.332975   9.343698   2.269298   1.737      0.2676546  0.4695117  61.577     0.4325869  0.4642926  0.4008811 
1047.6     0.373      0.46       -9999      -9999      5.625      1.508      1.67       2.071      1.507      0.891      2.257      0.1886133  0.1886133  0.327475   8.724366   2.494832   1.774      0.2694809  0.4679805  61.459     0.4207931  0.4466722  0.3949139 
1047.8     0.402      0.453      -9999      -9999      5.552      1.457      1.693      2.076      1.556      0.905      2.232      0.18586    0.18586    0.323625   7.75776    2.774952   1.808      0.2666272  0.4661285  61.696     0.4174697  0.4276792  0.4072602 
1048       0.424      0.452      -9999      -9999      5.451      1.498      1.697      2.129      1.503      0.903      2.303      0.1873318  0.1873318  0.324175   8.26032    3.215111   1.812      0.2724029  0.4689276  62.055     0.4146765  0.4027255  0.4266274 
1048.2     0.435      0.449      -9999      -9999      5.39       1.539      1.681      2.156      1.446      0.889      2.354      0.1903155  0.1903155  0.328025   9.38129    3.514095   1.827      0.285119   0.4781479  62.403     0.4173016  0.3883652  0.446238  
1048.4     0.419      0.443      -9999      -9999      5.325      1.58       1.653      2.14       1.462      0.872      2.278      0.1971695  0.1971695  0.3327     12.56651   3.863342   1.857      0.3120896  0.4939467  62.428     0.4106986  0.3736263  0.4477709 
1048.6     0.397      0.431      -9999      -9999      5.292      1.554      1.634      2.038      1.546      0.855      2.221      0.2056835  0.2056835  0.337375   18.0682    4.053729   1.92       0.3472572  0.5147418  62.143     0.3990652  0.3663589  0.4317715 
