~Version
 VERS              .         2.0                           : CWLS LOG ASCII STANDARD - VERSION 2.0
 WRAP              .         NO                            : ONE LINE PER DEPTH STEP
 DLM               .         SPACE                         : DELIMITING CHARACTER(SPACE TAB OR COMMA)
~Well Information
#_______________________________________________________________________________
#
#PARAMETER_NAME    .UNIT     VALUE                         : DESCRIPTION
#_______________________________________________________________________________
STRT               .M        900                           : First reference value
STOP               .M        1180                          : Last reference value
STEP               .M        0.2                           : Step increment
NULL               .         -9999                         : Missing value
COMP               .                                       : Company
WELL               .         1666                          : Well name
FLD                .         УЗЕНЬ                         : Field
LOC                .                                       : Location
CNTY               .                                       : County
STAT               .                                       : State
CTRY               .                                       : Country
SRVC               .                                       : Service Company
DATE               .         8.10.97                       : Date
UWI                .         1666                          : Unique Well ID
Block              .         6а                            : 
Category           .         Нефтяная                      : 
Condition          .         Ликвидированная               : 
Date               .         23.09.1999                    : 
EREF               .m        79.7                          : 100.8
Gorizont           .         13                            : 14
Interpretator      .         Ким С.В.                      : 
Kupol              .         основной                      : osnovnoi
Mud                .         0                             : 
Mud_density        .         0                             : 
Mud_resistivity    .         0                             : 
NGDU               .         НГДУ-2                        : 
ORIGINALWELLNAME   .         1666                          : 
Spud_date          .         1997                          : 1961
Viscosity          .         0                             : 
X                  .m        44303.6                       : 46154
Y                  .m        85296.03                      : 85761.93
YEAR               .         2019                          : 
~Parameter Information Block
#_______________________________________________________________________________
#
#PARAMETER_NAME    .UNIT     VALUE                         : DESCRIPTION
#_______________________________________________________________________________
SET                .         LQC_KAZNIPI_Petrel            : 
GSDD               .         CSAT                          : CSATкрив,0,DEPT,BOTTOM,,,,0
TLFamily_CALI      .         Caliper                       : 
TLFamily_CILD      .         Conductivity                  : 
TLFamily_COLL      .         Net Reservoir Flag            : 
TLFamily_CSAT      .         Fluid Code                    : 
TLFamily_DEPT      .         Measured Depth                : 
TLFamily_GR        .         Russian Gamma Ray             : 
TLFamily_GZ3       .         Gradient 225                  : 
TLFamily_LLS       .         Lateral Log Resistivity       : 
TLFamily_MINV      .         Micro Gradient Resistivity    : 
TLFamily_MNOR      .         Micro Resistivity             : 
TLFamily_NGLD      .         Neutron Gamma                 : 
TLFamily_OGZ       .         Gradient Inverted 225         : 
TLFamily_PHIE      .         Effective Porosity            : 
TLFamily_PHIEN     .         Effective Porosity            : 
TLFamily_PHIT      .         Porosity                      : 
TLFamily_PRMB      .         Permeability                  : 
TLFamily_PRMB_DGR  .         Permeability                  : 
TLFamily_RT        .         Formation Resistivity         : 
TLFamily_SOIL_ARCHIE .         Oil Saturation                : 
TLFamily_SOIL_DW   .         Oil Saturation                : 
TLFamily_SP        .         Spontaneous Potential         : 
TLFamily_VSH_FIN   .         Shale Volume                  : 
TLFamily_VSH_GR    .         Shale Volume                  : 
TLFamily_VSH_SP    .         Shale Volume                  : 
~Curve Information
#_______________________________________________________________________________
#
#LOGNAME           .UNIT     LOG_ID                        : DESCRIPTION
#_______________________________________________________________________________
DEPT               .M                                      : Колонка глубины 
CALI               .м                                      : Каверномер 
CILD               .мСм/м                                  : Индукционный каротаж зондом 6Ф1 
COLL               .unitless                               : Описание 
CSAT               .unitless                               : Описание 
GR                 .uR/h                                   : Гамма каротаж 
GZ3                .Ohmm                                   :  
LLS                .Ohmm                                   : Боковой каротаж 
MINV               .Ohmm                                   : Микро-градиент зонд 
MNOR               .Ohmm                                   : Микро-потенциал зонд 
NGLD               .у.е.                                   : Показания зонда НГК-60 аппаратуры ДРСТ-3-90 
OGZ                .Ohmm                                   : Обращенный градиент-зонд 
PHIE               .v/v                                    : Описание 
PHIEN              .v/v                                    :  
PHIT               .v/v                                    : Описание 
PRMB               .mD                                     :  
PRMB_DGR           .mD                                     :  
RT                 .ohmm                                   : Удельное электрическое сопротивление 
SOIL_ARCHIE        .v/v                                    :  
SOIL_DW            .v/v                                    :  
SP                 .мВ                                     : Потенциал самополяризации 
VSH_FIN            .v/v                                    : Описание 
VSH_GR             .v/v                                    : Shale volume 
VSH_SP             .v/v                                    : Shale Volume 
~Ascii
# ...
918.6      0.187      0.346      1          3          2.573      2.582      2.327      2.758      2.808      1.233      1.945      0.1999248  0.1999248  0.233425   14.13352   162.2598   2.49       0.4077509  0.464911   45.164     0.1015157  0.08121034 0.1218211 
918.8      0.187      0.345      1          3          2.493      2.167      2.306      2.707      2.83       1.237      1.945      0.1995527  0.1995527  0.232325   13.911     183.889    2.499      0.4077928  0.4639992  45.054     0.09930998 0.07716503 0.1214549 
919        0.187      0.339      1          3          2.45       2.035      2.382      2.726      2.855      1.229      2.124      0.2021494  0.2021494  0.234525   15.54017   196.6826   2.55       0.419949   0.475147   44.957     0.09810784 0.0750746  0.1211411 
919.2000000000001 0.187      0.331      1          3          2.402      2.086      2.492      2.756      2.849      1.214      2.436      0.2066829  0.2066829  0.23865    18.855     212.0181   2.621      0.4383312  0.4922794  44.891     0.09687004 0.0728079  0.1209322 
919.4      0.187      0.322      1          3          2.386      2.234      2.62       2.824      2.931      1.194      2.554      0.2122758  0.2122758  0.24415    23.93433   217.3912   2.706      0.4593996  0.5123879  44.947     0.09658842 0.07206764 0.1211092 
919.6      0.188      0.317      1          3          2.382      2.357      2.739      3          3.095      1.185      2.692      0.2147627  0.2147627  0.246625   26.61242   218.7556   2.755      0.4693436  0.5219117  44.982     0.09655247 0.07188376 0.1212212 
919.8      0.191      0.316      1          3          2.406      2.454      2.808      3.086      3.217      1.179      2.774      0.2161958  0.2161958  0.248275   28.28968   210.6958   2.765      0.4733047  0.525945   45.045     0.0972098  0.07299414 0.1214254 
920        0.192      0.325      1          3          2.407      2.495      2.78       3.109      3.242      1.179      2.774      0.2161805  0.2161805  0.248275   28.27126   210.3664   2.677      0.4652167  0.5182018  45.059     0.09725606 0.07304079 0.1214713 
920.2000000000001 0.19       0.339      1          3          2.364      2.469      2.657      3.047      3.254      1.181      2.493      0.2159855  0.2159855  0.247725   28.03712   225.0022   2.55       0.4524491  0.5055312  45.006     0.09618033 0.07106207 0.1212986 
920.4      0.188      0.355      1          3          2.317      2.469      2.486      3.014      3.228      1.185      2.211      0.2153164  0.2153164  0.246625   27.24833   242.1667   2.417      0.4369917  0.4901367  44.845     0.09487466 0.06896055 0.1207888 
920.6      0.188      0.366      1          3          2.289      2.367      2.303      2.912      3.106      1.187      2.099      0.215056   0.215056   0.246075   26.94744   253.0085   2.332      0.4268496  0.4799944  44.669     0.09399685 0.06773826 0.1202555 
920.8      0.188      0.376      1          3          2.247      2.219      2.146      2.757      2.874      1.188      1.971      0.2151304  0.2151304  0.2458     27.03307   270.188    2.26       0.4185275  0.4715153  44.558     0.09293815 0.0659453  0.119931  
921        0.187      0.383      1          3          2.171      1.973      2.041      2.588      2.7        1.188      1.919      0.2156678  0.2156678  0.2458     27.65974   304.2942   2.211      0.4137905  0.4662597  44.512     0.09130988 0.06282067 0.1197991 
921.2000000000001 0.186      0.388      1          3          2.08       1.891      2.001      2.51       2.625      1.186      1.894      0.2168091  0.2168091  0.24635    29.03951   350.8415   2.177      0.4122203  0.4640057  44.499     0.08951777 0.05927349 0.119762  
921.4      0.186      0.391      1          3          2.044      1.672      1.996      2.495      2.623      1.183      1.894      0.217848   0.217848   0.247175   30.35508   371.1643   2.158      0.4122495  0.4637773  44.517     0.08886974 0.05792614 0.1198133 
921.6      0.187      0.393      1          3          2.045      1.641      2.003      2.576      2.656      1.191      1.907      0.2155961  0.2155961  0.244975   27.57537   370.584    2.145      0.4052223  0.4569885  44.613     0.08902691 0.05796316 0.1200907 
921.8      0.187      0.394      1          3          2.069      1.707      2.016      2.661      2.684      1.204      1.919      0.2117418  0.2117418  0.2414     23.39535   356.9302   2.138      0.3948762  0.4472582  44.877     0.08987343 0.05885851 0.1208883 
922        0.187      0.393      1          3          2.083      1.774      2.032      2.707      2.711      1.215      1.96       0.2083802  0.2083802  0.238375   20.27054   349.199    2.145      0.3873235  0.4403484  45.331     0.09089322 0.05938717 0.1223993 
922.2000000000001 0.187      0.392      1          3          2.081      1.822      2.051      2.729      2.736      1.209      2.001      0.2097661  0.2097661  0.240025   21.50475   350.293    2.151      0.3916483  0.4449075  45.774     0.09169374 0.05931137 0.1240761 
922.4      0.187      0.39       1          3          2.089      1.871      2.072      2.751      2.757      1.194      2.063      0.213712   0.213712   0.24415    25.4462    345.9371   2.164      0.4031331  0.4562981  45.962     0.09223633 0.0596152  0.1248574 
922.6      0.187      0.389      1          3          2.114      1.989      2.093      2.772      2.77       1.183      2.086      0.2167183  0.2167183  0.247175   28.92717   332.6704   2.171      0.4112436  0.4641971  45.758     0.0922932  0.06057475 0.1240117 
922.8      0.187      0.387      1          3          2.154      1.989      2.11       2.796      2.792      1.182      2.109      0.2170372  0.2170372  0.24745    29.32329   312.4941   2.184      0.4136422  0.4664694  45.268     0.09216009 0.06214226 0.1221779 
923        0.187      0.385      1          3          2.194      1.989      2.121      2.792      2.825      1.176      2.129      0.2187015  0.2187015  0.2491     31.48047   293.5415   2.197      0.4191505  0.4717979  44.745     0.09211656 0.06375033 0.1204828 
923.2000000000001 0.187      0.383      1          3          2.222      1.963      2.13       2.785      2.846      1.169      2.15       0.2205956  0.2205956  0.251025   34.12901   280.9628   2.211      0.4252124  0.4777168  44.413     0.09221027 0.06490067 0.1195199 
923.4      0.187      0.38       1          3          2.21       1.925      2.143      2.79       2.861      1.168      2.17       0.2209445  0.2209445  0.2513     34.64072   286.2863   2.232      0.4285437  0.4808561  44.43      0.09198626 0.06440515 0.1195674 
923.6      0.187      0.377      1          3          2.183      1.886      2.168      2.811      2.856      1.183      2.191      0.2168437  0.2168437  0.247175   29.08234   298.6358   2.253      0.4216896  0.4741679  44.758     0.09191307 0.06330401 0.1205221 
923.8      0.187      0.373      1          3          2.14       1.779      2.211      2.822      2.85       1.201      2.214      0.2119354  0.2119354  0.242225   23.58931   319.4127   2.281      0.4134514  0.4661187  45.212     0.09178679 0.06158907 0.1219845 
924        0.188      0.369      1          3          2.137      1.751      2.277      2.842      2.831      1.212      2.237      0.2087241  0.2087241  0.2392     20.57003   320.9151   2.31       0.409113   0.462152   45.558     0.09235115 0.06147117 0.1232311 
924.2000000000001 0.188      0.364      1          3          2.133      1.723      2.341      2.883      2.862      1.217      2.288      0.2072309  0.2072309  0.237825   19.30089   322.9293   2.347      0.4098238  0.4629996  45.781     0.09270937 0.06131432 0.1241044 
924.4      0.188      0.359      1          3          2.133      1.697      2.386      2.96       2.966      1.218      2.339      0.2069297  0.2069297  0.23755    19.05451   322.9293   2.386      0.413628   0.4667221  45.82      0.09278878 0.06131432 0.1242632 
924.6      0.188      0.354      1          3          2.109      1.789      2.394      3.031      3.095      1.213      2.452      0.2085343  0.2085343  0.238925   20.4042    335.2825   2.425      0.4219742  0.4745097  45.706     0.09209292 0.06038161 0.1238042 
