~Version
 VERS              .         2.0                           : CWLS LOG ASCII STANDARD - VERSION 2.0
 WRAP              .         NO                            : ONE LINE PER DEPTH STEP
 DLM               .         SPACE                         : DELIMITING CHARACTER(SPACE TAB OR COMMA)
~Well Information
#_______________________________________________________________________________
#
#PARAMETER_NAME    .UNIT     VALUE                         : DESCRIPTION
#_______________________________________________________________________________
STRT               .M        900                           : First reference value
STOP               .M        1180                          : Last reference value
STEP               .M        0.2                           : Step increment
NULL               .         -9999                         : Missing value
COMP               .                                       : Company
WELL               .         1666                          : Well name
FLD                .         УЗЕНЬ                         : Field
LOC                .                                       : Location
CNTY               .                                       : County
STAT               .                                       : State
CTRY               .                                       : Country
SRVC               .                                       : Service Company
DATE               .         8.10.97                       : Date
UWI                .         1666                          : Unique Well ID
Block              .         6а                            : 
Category           .         Нефтяная                      : 
Condition          .         Ликвидированная               : 
Date               .         23.09.1999                    : 
EREF               .m        79.7                          : 100.8
Gorizont           .         13                            : 14
Interpretator      .         Ким С.В.                      : 
Kupol              .         основной                      : osnovnoi
Mud                .         0                             : 
Mud_density        .         0                             : 
Mud_resistivity    .         0                             : 
NGDU               .         НГДУ-2                        : 
ORIGINALWELLNAME   .         1666                          : 
Spud_date          .         1997                          : 1961
Viscosity          .         0                             : 
X                  .m        44303.6                       : 46154
Y                  .m        85296.03                      : 85761.93
YEAR               .         2019                          : 
~Parameter Information Block
#_______________________________________________________________________________
#
#PARAMETER_NAME    .UNIT     VALUE                         : DESCRIPTION
#_______________________________________________________________________________
SET                .         LQC_KAZNIPI_Petrel            : 
GSDD               .         CSAT                          : CSATкрив,0,DEPT,BOTTOM,,,,0
TLFamily_CALI      .         Caliper                       : 
TLFamily_CILD      .         Conductivity                  : 
TLFamily_COLL      .         Net Reservoir Flag            : 
TLFamily_CSAT      .         Fluid Code                    : 
TLFamily_DEPT      .         Measured Depth                : 
TLFamily_GR        .         Russian Gamma Ray             : 
TLFamily_GZ3       .         Gradient 225                  : 
TLFamily_LLS       .         Lateral Log Resistivity       : 
TLFamily_MINV      .         Micro Gradient Resistivity    : 
TLFamily_MNOR      .         Micro Resistivity             : 
TLFamily_NGLD      .         Neutron Gamma                 : 
TLFamily_OGZ       .         Gradient Inverted 225         : 
TLFamily_PHIE      .         Effective Porosity            : 
TLFamily_PHIEN     .         Effective Porosity            : 
TLFamily_PHIT      .         Porosity                      : 
TLFamily_PRMB      .         Permeability                  : 
TLFamily_PRMB_DGR  .         Permeability                  : 
TLFamily_RT        .         Formation Resistivity         : 
TLFamily_SOIL_ARCHIE .         Oil Saturation                : 
TLFamily_SOIL_DW   .         Oil Saturation                : 
TLFamily_SP        .         Spontaneous Potential         : 
TLFamily_VSH_FIN   .         Shale Volume                  : 
TLFamily_VSH_GR    .         Shale Volume                  : 
TLFamily_VSH_SP    .         Shale Volume                  : 
~Curve Information
#_______________________________________________________________________________
#
#LOGNAME           .UNIT     LOG_ID                        : DESCRIPTION
#_______________________________________________________________________________
DEPT               .M                                      : Колонка глубины 
CALI               .м                                      : Каверномер 
CILD               .мСм/м                                  : Индукционный каротаж зондом 6Ф1 
COLL               .unitless                               : Описание 
CSAT               .unitless                               : Описание 
GR                 .uR/h                                   : Гамма каротаж 
GZ3                .Ohmm                                   :  
LLS                .Ohmm                                   : Боковой каротаж 
MINV               .Ohmm                                   : Микро-градиент зонд 
MNOR               .Ohmm                                   : Микро-потенциал зонд 
NGLD               .у.е.                                   : Показания зонда НГК-60 аппаратуры ДРСТ-3-90 
OGZ                .Ohmm                                   : Обращенный градиент-зонд 
PHIE               .v/v                                    : Описание 
PHIEN              .v/v                                    :  
PHIT               .v/v                                    : Описание 
PRMB               .mD                                     :  
PRMB_DGR           .mD                                     :  
RT                 .ohmm                                   : Удельное электрическое сопротивление 
SOIL_ARCHIE        .v/v                                    :  
SOIL_DW            .v/v                                    :  
SP                 .мВ                                     : Потенциал самополяризации 
VSH_FIN            .v/v                                    : Описание 
VSH_GR             .v/v                                    : Shale volume 
VSH_SP             .v/v                                    : Shale Volume 
~Ascii
# ...
1148       -9999      0.187      1          2          4.819      9.41       4.574      2.457      2.56       1.251      7.098      0.199256   0.199256   0.228475   13.7361    383.1908   4.948      0.5696486  0.6151647  52.255     0.08854225 0.05717677 0.1199077 
1148.2     -9999      0.187      1          2          4.803      9.026001   4.546      2.349      2.457      1.277      7.303      0.1922942  0.1922942  0.221325   10.20735   407.6338   4.934      0.5555194  0.6015294  52.35      0.08797219 0.05575115 0.1201932 
1148.4     -9999      0.188      1          2          4.828      8.640999   4.597      2.306      2.434      1.292      7.508      0.187777   0.187777   0.2172     8.418656   370.0909   4.919      0.5455722  0.5924832  52.392     0.08916071 0.05799469 0.1203267 
1148.6     -9999      0.186      1          2          4.817      8.128      4.728      2.275      2.417      1.295      7.918001   0.1871309  0.1871309  0.216375   8.189841   386.164    4.976      0.5466635  0.5933412  52.36      0.08861867 0.05699661 0.1202407 
1148.8     -9999      0.186      1          2          4.789      7.872      4.84       2.249      2.414      1.297      7.994999   0.187013   0.187013   0.215825   8.148789   430.2973   4.976      0.5464147  0.5926374  52.304     0.08730896 0.0545329  0.120085  
1149       -9999      0.19       1          2          4.816      7.614999   4.796      2.262      2.394      1.305      7.047      0.1844807  0.1844807  0.213625   7.314563   387.6592   4.863      0.5360222  0.583087   52.176     0.08831607 0.05690673 0.1197254 
1149.2     -9999      0.199      1          2          4.876      7.717999   4.562      2.284      2.325      1.312      6.457      0.1816998  0.1816998  0.2117     6.496495   307.4273   4.625      0.5186413  0.5674788  52.006     0.09090965 0.06255845 0.1192609 
1149.4     -9999      0.204      1          2          4.913      7.821      4.332      2.266      2.345      1.325      5.96       0.1775584  0.1775584  0.208125   5.444657   266.4643   4.507      0.5028849  0.5531839  51.881     0.09262601 0.06632005 0.118932  
1149.6     -9999      0.211      1          2          4.881      7.691999   4.105      2.251      2.362      1.337      5.904      0.1748686  0.1748686  0.204825   4.854557   301.5434   4.339      0.4871709  0.5374205  51.713     0.09077685 0.06305404 0.1184997 
1149.8     -9999      0.223      1          2          4.845      7.18       4.56       2.67       2.713      1.364      5.971001   0.1680259  0.1680259  0.1974     3.625812   346.5573   4.084      0.4537208  0.5046335  51.692     0.08901249 0.05957161 0.1184534 
1150       -9999      0.229      6          6          4.826      5.974      7.414      4.516      3.534      1.406      6.688      0.1566907  0.1566907  0.18585    2.235889   372.9625   3.967      0.4114857  0.4639758  51.864     0.08836146 0.05781194 0.118911  
1150.2     -9999      0.227      6          6          4.805      5.922999   12.842     6.164      3.937      1.447      7.508      0.1456403  0.1456403  0.174575   1.395626   404.4953   4.005      0.3755795  0.4295246  52.054     0.087681   0.05592738 0.1194346 
1150.4     -9999      0.222      6          6          4.771      5.944      18.425     7.399      4.238      1.484      7.508      0.1359519  0.1359519  0.1644     0.9232461  461.2975   4.101      0.3443262  0.3991184  52.041     0.08620634 0.05300561 0.1194071 
1150.6     -9999      0.22       6          6          4.737      6.005      24.171     8.549      4.4        1.51       6.995999   0.1293358  0.1293358  0.15725    0.6962588  526.0764   4.137      0.3180113  0.3731001  51.866     0.08458852 0.05023648 0.1189405 
1150.8     -9999      0.218      6          6          4.724      7.846      27.31      9.752      4.57       1.523      6.482999   0.1261191  0.1261191  0.153675   0.6070005  553.183    4.187      0.3068051  0.3617679  51.413     0.08350284 0.04921635 0.1177893 
1151       -9999      0.208      6          6          4.728      8.769      25.626     8.824      4.31       1.537      5.96       0.1222777  0.1222777  0.149825   0.5152732  544.6965   4.408      0.3048595  0.3604889  51.261     0.08347673 0.04952803 0.1174254 
1151.2     -9999      0.21       6          6          4.749      9.539001   20.42      7.766      3.991      1.51       5.837      0.1294169  0.1294169  0.15725    0.6986714  502.2351   4.362      0.3351144  0.3896442  51.284     0.08434273 0.05119691 0.1174886 
1151.4     -9999      0.241      6          6          4.756      9.487      14.877     6.367      3.569      1.448      5.848      0.1463352  0.1463352  0.1743     1.437609   488.8299   3.749      0.358586   0.4110224  51.375     0.08474191 0.05176561 0.1177182 
1151.6     -9999      0.247      -9999      -9999      4.738      7.949      8.939      3.621      2.807      1.365      5.976      0.1693292  0.1693292  0.197125   3.833057   524.0472   3.666      0.4291823  0.4784518  51.543     0.08422973 0.05031582 0.1181436 
1151.8     -9999      0.253      -9999      -9999      4.71       5.985      4.85       3.201      2.522      1.259      8.327999   0.1987522  0.1987522  0.226275   13.44407   583.9385   3.566      0.4970407  0.5436716  51.743     0.08340255 0.0481409  0.1186642 
1152       -9999      0.276      -9999      -9999      4.682      4.892      3.286      2.657      2.153      1.225      8.559001   0.2083576  0.2083576  0.235625   20.25101   650.6747   3.223      0.4938363  0.5403691  51.94      0.08262843 0.04605999 0.1191969 
1152.2     -9999      0.305      -9999      -9999      4.623      4.308      2.793      2.201      1.963      1.233      9.635      0.2068012  0.2068012  0.233425   18.95038   817.3222   2.879      0.4628077  0.5094954  52.008     0.08067818 0.04196497 0.1193914 
1152.4     -9999      0.311      -9999      -9999      4.533      3.969      2.474      2.068      1.8        1.247      9.737      0.2039073  0.2039073  0.229575   16.75001   1157.325   2.815      0.4504061  0.496179   51.918     0.0777811  0.03640854 0.1191536 
1152.6     -9999      0.318      -9999      -9999      4.481      3.882      2.396      2.024      1.74       1.25       9.839999   0.2036102  0.2036102  0.22875    16.53917   1414.932   2.745      0.4431668  0.4884244  51.791     0.0761811  0.03354006 0.1188221 
1152.8     -9999      0.324      -9999      -9999      4.456      3.954      2.543      1.991      1.706      1.253      9.839999   0.2030369  0.2030369  0.227925   16.13965   1558.466   2.686      0.4360769  0.4811405  51.701     0.07541846 0.03224256 0.1185944 
1153       -9999      0.323      -9999      -9999      4.427      4.359      3.015      1.989      1.83       1.296      9.839999   0.1914678  0.1914678  0.2161     9.85386    1743.301   2.701      0.4080622  0.4530103  51.656     0.07464299 0.03080022 0.1184858 
1153.2     -9999      0.292      -9999      -9999      4.444      4.79       4.128      2.07       2.036      1.347      9.814001   0.1772582  0.1772582  0.202075   5.375392   1632.446   3.025      0.3997175  0.4448918  51.761     0.07520239 0.0316377  0.1187671 
1153.4     -9999      0.214      -9999      -9999      4.54       5.333001   6.352      2.164      2.176      1.405      -9999      0.1603635  0.1603635  0.186125   2.615039   1126.435   4.38       0.4494339  0.4953005  51.963     0.07806534 0.03681297 0.1193177 
1153.6     -9999      0.132      6          6          4.656      5.841001   9.911      2.392      2.51       1.481      -9999      0.1381273  0.1381273  0.165225   1.013001   719.4556   7.176      0.5026571  0.5500957  52.209     0.08211444 0.04420834 0.1200206 
1153.8     -9999      0.088      6          6          4.749      8          14.227     2.654      3.062      1.526      -9999      0.1244988  0.1244988  0.15285    0.5664709  502.2351   11.103     0.5563957  0.6046953  52.41      0.08591275 0.05119691 0.1206286 
1154       -9999      0.062      6          6          4.805      8.692      17.221     3.167      3.459      1.569      -9999      0.1118029  0.1118029  0.141025   0.329624   404.4953   15.746     0.5864972  0.6361002  52.582     0.08855185 0.05592738 0.1211763 
