~Version
 VERS              .         2.0                           : CWLS LOG ASCII STANDARD - VERSION 2.0
 WRAP              .         NO                            : ONE LINE PER DEPTH STEP
 DLM               .         SPACE                         : DELIMITING CHARACTER(SPACE TAB OR COMMA)
~Well Information
#_______________________________________________________________________________
#
#PARAMETER_NAME    .UNIT     VALUE                         : DESCRIPTION
#_______________________________________________________________________________
STRT               .M        900                           : First reference value
STOP               .M        1180                          : Last reference value
STEP               .M        0.2                           : Step increment
NULL               .         -9999                         : Missing value
COMP               .                                       : Company
WELL               .         1666                          : Well name
FLD                .         УЗЕНЬ                         : Field
LOC                .                                       : Location
CNTY               .                                       : County
STAT               .                                       : State
CTRY               .                                       : Country
SRVC               .                                       : Service Company
DATE               .         8.10.97                       : Date
UWI                .         1666                          : Unique Well ID
Block              .         6а                            : 
Category           .         Нефтяная                      : 
Condition          .         Ликвидированная               : 
Date               .         23.09.1999                    : 
EREF               .m        79.7                          : 100.8
Gorizont           .         13                            : 14
Interpretator      .         Ким С.В.                      : 
Kupol              .         основной                      : osnovnoi
Mud                .         0                             : 
Mud_density        .         0                             : 
Mud_resistivity    .         0                             : 
NGDU               .         НГДУ-2                        : 
ORIGINALWELLNAME   .         1666                          : 
Spud_date          .         1997                          : 1961
Viscosity          .         0                             : 
X                  .m        44303.6                       : 46154
Y                  .m        85296.03                      : 85761.93
YEAR               .         2019                          : 
~Parameter Information Block
#_______________________________________________________________________________
#
#PARAMETER_NAME    .UNIT     VALUE                         : DESCRIPTION
#_______________________________________________________________________________
SET                .         LQC_KAZNIPI_Petrel            : 
GSDD               .         CSAT                          : CSATкрив,0,DEPT,BOTTOM,,,,0
TLFamily_CALI      .         Caliper                       : 
TLFamily_CILD      .         Conductivity                  : 
TLFamily_COLL      .         Net Reservoir Flag            : 
TLFamily_CSAT      .         Fluid Code                    : 
TLFamily_DEPT      .         Measured Depth                : 
TLFamily_GR        .         Russian Gamma Ray             : 
TLFamily_GZ3       .         Gradient 225                  : 
TLFamily_LLS       .         Lateral Log Resistivity       : 
TLFamily_MINV      .         Micro Gradient Resistivity    : 
TLFamily_MNOR      .         Micro Resistivity             : 
TLFamily_NGLD      .         Neutron Gamma                 : 
TLFamily_OGZ       .         Gradient Inverted 225         : 
TLFamily_PHIE      .         Effective Porosity            : 
TLFamily_PHIEN     .         Effective Porosity            : 
TLFamily_PHIT      .         Porosity                      : 
TLFamily_PRMB      .         Permeability                  : 
TLFamily_PRMB_DGR  .         Permeability                  : 
TLFamily_RT        .         Formation Resistivity         : 
TLFamily_SOIL_ARCHIE .         Oil Saturation                : 
TLFamily_SOIL_DW   .         Oil Saturation                : 
TLFamily_SP        .         Spontaneous Potential         : 
TLFamily_VSH_FIN   .         Shale Volume                  : 
TLFamily_VSH_GR    .         Shale Volume                  : 
TLFamily_VSH_SP    .         Shale Volume                  : 
~Curve Information
#_______________________________________________________________________________
#
#LOGNAME           .UNIT     LOG_ID                        : DESCRIPTION
#_______________________________________________________________________________
DEPT               .M                                      : Колонка глубины 
CALI               .м                                      : Каверномер 
CILD               .мСм/м                                  : Индукционный каротаж зондом 6Ф1 
COLL               .unitless                               : Описание 
CSAT               .unitless                               : Описание 
GR                 .uR/h                                   : Гамма каротаж 
GZ3                .Ohmm                                   :  
LLS                .Ohmm                                   : Боковой каротаж 
MINV               .Ohmm                                   : Микро-градиент зонд 
MNOR               .Ohmm                                   : Микро-потенциал зонд 
NGLD               .у.е.                                   : Показания зонда НГК-60 аппаратуры ДРСТ-3-90 
OGZ                .Ohmm                                   : Обращенный градиент-зонд 
PHIE               .v/v                                    : Описание 
PHIEN              .v/v                                    :  
PHIT               .v/v                                    : Описание 
PRMB               .mD                                     :  
PRMB_DGR           .mD                                     :  
RT                 .ohmm                                   : Удельное электрическое сопротивление 
SOIL_ARCHIE        .v/v                                    :  
SOIL_DW            .v/v                                    :  
SP                 .мВ                                     : Потенциал самополяризации 
VSH_FIN            .v/v                                    : Описание 
VSH_GR             .v/v                                    : Shale volume 
VSH_SP             .v/v                                    : Shale Volume 
~Ascii
900.0      0.204      0.225      -9999      -9999      5.266      3.864      2.782      4.027      3.212      1.108      8.159      -9999      -9999      -9999      -9999      -9999      4.044      -9999      -9999      51.105     -9999      0.03659466 0.8       
900.2000000000001 0.193      0.217      -9999      -9999      5.102      3.839      2.909      4.543      3.66       1.161      7.493999   -9999      -9999      -9999      -9999      -9999      4.208      -9999      -9999      51.377     -9999      0.03279509 0.8       
900.4      0.194      0.203      -9999      -9999      4.867      3.245      3.462      4.879      3.81       1.232      7.237999   -9999      -9999      -9999      -9999      -9999      4.526      -9999      -9999      51.635     -9999      0.02802778 0.8       
900.6      0.196      0.187      -9999      -9999      4.633      2.703      4.564      5.26       3.954      1.302      7.570001   -9999      -9999      -9999      -9999      -9999      4.948      -9999      -9999      51.937     -9999      0.02396948 0.8       
900.8      0.197      0.167      -9999      -9999      4.399      2.354      6.072      6.27       4.117      1.372      8.312      -9999      -9999      -9999      -9999      -9999      5.598      -9999      -9999      52.151     -9999      0.02049882 0.8       
901        0.199      0.145      -9999      -9999      4.325      2.196      7.658      6.849      4.228      1.419      11.961     -9999      -9999      -9999      -9999      -9999      6.497      -9999      -9999      52.255     -9999      0.02       0.8       
901.2000000000001 0.2        0.13       -9999      -9999      4.36       3.116      9.063      7.064      4.263      1.443      15.61      -9999      -9999      -9999      -9999      -9999      7.292      -9999      -9999      52.231     -9999      0.02       0.8       
901.4      0.201      0.117      -9999      -9999      4.54       4.036      10.093     6.938      4.275      1.414      19.258     -9999      -9999      -9999      -9999      -9999      8.147      -9999      -9999      51.948     -9999      0.0225248  0.8       
901.6      0.201      0.102      -9999      -9999      4.654      4.956      10.541     6.676      4.301      1.38       18.184     -9999      -9999      -9999      -9999      -9999      9.368      -9999      -9999      51.573     -9999      0.02430832 0.8       
901.8      0.201      0.094      -9999      -9999      4.713      5.876      10.459     6.516      4.341      1.324      15.038     -9999      -9999      -9999      -9999      -9999      10.238     -9999      -9999      51.329     -9999      0.02528614 0.8       
902        0.201      0.097      -9999      -9999      4.711      6.833      9.924      6.332      4.386      1.27       12.072     -9999      -9999      -9999      -9999      -9999      9.909      -9999      -9999      51.265     -9999      0.02525236 0.8       
902.2000000000001 0.201      0.105      -9999      -9999      4.757      6.961      9.158      6.194      4.401      1.21       10.154     -9999      -9999      -9999      -9999      -9999      9.124      -9999      -9999      51.269     -9999      0.02604089 0.8       
902.4      0.201      0.122      -9999      -9999      4.923      7.166      8.288      6.104      4.411      1.157      8.977      -9999      -9999      -9999      -9999      -9999      7.817      -9999      -9999      51.448     -9999      0.0290968  0.8       
902.6      0.2        0.143      -9999      -9999      5.109      7.268      7.586      6.708      4.352      1.125      8.466      -9999      -9999      -9999      -9999      -9999      6.593      -9999      -9999      51.634     -9999      0.0329489  0.8       
902.8      0.199      0.155      -9999      -9999      5.183      7.344999   7.088      6.759      4.311      1.09       7.263      -9999      -9999      -9999      -9999      -9999      6.099      -9999      -9999      51.818     -9999      0.03461968 0.8       
903        0.198      0.163      -9999      -9999      5.256      7.344999   6.749      6.87       4.221      1.066      6.593      -9999      -9999      -9999      -9999      -9999      5.735      -9999      -9999      52.009     -9999      0.03635087 0.8       
903.2000000000001 0.198      0.182      -9999      -9999      5.31       7.344999   6.36       6.306      4.044      1.037      5.922999   -9999      -9999      -9999      -9999      -9999      5.095      -9999      -9999      52.243     -9999      0.03768694 0.8       
903.4      0.197      0.19       -9999      -9999      5.396      7.344999   5.79       5.572      3.7        1.002      4.732      -9999      -9999      -9999      -9999      -9999      4.873      -9999      -9999      52.527     -9999      0.03991688 0.8       
903.6      0.197      0.199      -9999      -9999      5.482      7.959      4.963      4.746      3.314      0.961      4.425      -9999      -9999      -9999      -9999      -9999      4.625      -9999      -9999      52.863     -9999      0.04227876 0.8       
903.8      0.199      0.21       -9999      -9999      5.579      10.006     4.005      3.255      2.497      0.946      4.143      -9999      -9999      -9999      -9999      -9999      4.362      -9999      -9999      53.252     -9999      0.04511088 0.8       
904        0.201      0.21       -9999      -9999      5.627      13.205     3.32       2.168      1.657      0.938      3.811      -9999      -9999      -9999      -9999      -9999      4.354      -9999      -9999      53.485     -9999      0.04658173 0.8       
904.2000000000001 0.204      0.211      -9999      -9999      5.655      13.359     3.226      1.808      1.597      0.946      3.57       -9999      -9999      -9999      -9999      -9999      4.339      -9999      -9999      53.435     -9999      0.04746178 0.8       
904.4      0.212      0.201      -9999      -9999      5.669      11.235     3.56       2.081      2.124      0.964      3.463      -9999      -9999      -9999      -9999      -9999      4.575      -9999      -9999      53.221     -9999      0.04790802 0.8       
904.6      0.216      0.188      -9999      -9999      5.672      8.957      4.003      3.138      2.795      0.983      3.448      -9999      -9999      -9999      -9999      -9999      4.919      -9999      -9999      52.98      -9999      0.04800418 0.8       
904.8      0.221      0.178      -9999      -9999      5.679      7.318999   4.27       3.894      2.955      0.973      4.259      -9999      -9999      -9999      -9999      -9999      5.218      -9999      -9999      52.769     -9999      0.04822932 0.8       
905        0.231      0.187      -9999      -9999      5.745      6.552      4.339      3.732      2.566      0.958      5.071      -9999      -9999      -9999      -9999      -9999      4.948      -9999      -9999      52.798     -9999      0.05040468 0.8       
905.2000000000001 0.229      0.198      -9999      -9999      5.87       7.422      4.093      2.893      2.215      0.951      5.881999   -9999      -9999      -9999      -9999      -9999      4.651      -9999      -9999      53.226     -9999      0.05479718 0.8       
905.4      0.225      0.209      -9999      -9999      6.006      9.034      3.661      2.389      2.282      0.944      7.212      -9999      -9999      -9999      -9999      -9999      4.385      -9999      -9999      53.7       -9999      0.0600121  0.8       
905.6      0.213      0.206      -9999      -9999      6.118      9.776      3.242      2.376      2.328      0.944      5.939      -9999      -9999      -9999      -9999      -9999      4.454      -9999      -9999      53.922     -9999      0.06467736 0.8       
905.8      0.206      0.205      -9999      -9999      6.106      8.317      3.084      2.253      2.145      0.947      4.895      -9999      -9999      -9999      -9999      -9999      4.478      -9999      -9999      53.875     -9999      0.06416064 0.8       
906        0.2        0.211      -9999      -9999      6.028      5.605      3.112      2.054      1.732      0.954      4.946      -9999      -9999      -9999      -9999      -9999      4.339      -9999      -9999      53.661     -9999      0.06090113 0.8       
