~Version
 VERS              .         2.0                           : CWLS LOG ASCII STANDARD - VERSION 2.0
 WRAP              .         NO                            : ONE LINE PER DEPTH STEP
 DLM               .         SPACE                         : DELIMITING CHARACTER(SPACE TAB OR COMMA)
~Well Information
#_______________________________________________________________________________
#
#PARAMETER_NAME    .UNIT     VALUE                         : DESCRIPTION
#_______________________________________________________________________________
STRT               .M        900                           : First reference value
STOP               .M        1180                          : Last reference value
STEP               .M        0.2                           : Step increment
NULL               .         -9999                         : Missing value
COMP               .                                       : Company
WELL               .         1666                          : Well name
FLD                .         УЗЕНЬ                         : Field
LOC                .                                       : Location
CNTY               .                                       : County
STAT               .                                       : State
CTRY               .                                       : Country
SRVC               .                                       : Service Company
DATE               .         8.10.97                       : Date
UWI                .         1666                          : Unique Well ID
Block              .         6а                            : 
Category           .         Нефтяная                      : 
Condition          .         Ликвидированная               : 
Date               .         23.09.1999                    : 
EREF               .m        79.7                          : 100.8
Gorizont           .         13                            : 14
Interpretator      .         Ким С.В.                      : 
Kupol              .         основной                      : osnovnoi
Mud                .         0                             : 
Mud_density        .         0                             : 
Mud_resistivity    .         0                             : 
NGDU               .         НГДУ-2                        : 
ORIGINALWELLNAME   .         1666                          : 
Spud_date          .         1997                          : 1961
Viscosity          .         0                             : 
X                  .m        44303.6                       : 46154
Y                  .m        85296.03                      : 85761.93
YEAR               .         2019                          : 
~Parameter Information Block
#_______________________________________________________________________________
#
#PARAMETER_NAME    .UNIT     VALUE                         : DESCRIPTION
#_______________________________________________________________________________
SET                .         LQC_KAZNIPI_Petrel            : 
GSDD               .         CSAT                          : CSATкрив,0,DEPT,BOTTOM,,,,0
TLFamily_CALI      .         Caliper                       : 
TLFamily_CILD      .         Conductivity                  : 
TLFamily_COLL      .         Net Reservoir Flag            : 
TLFamily_CSAT      .         Fluid Code                    : 
TLFamily_DEPT      .         Measured Depth                : 
TLFamily_GR        .         Russian Gamma Ray             : 
TLFamily_GZ3       .         Gradient 225                  : 
TLFamily_LLS       .         Lateral Log Resistivity       : 
TLFamily_MINV      .         Micro Gradient Resistivity    : 
TLFamily_MNOR      .         Micro Resistivity             : 
TLFamily_NGLD      .         Neutron Gamma                 : 
TLFamily_OGZ       .         Gradient Inverted 225         : 
TLFamily_PHIE      .         Effective Porosity            : 
TLFamily_PHIEN     .         Effective Porosity            : 
TLFamily_PHIT      .         Porosity                      : 
TLFamily_PRMB      .         Permeability                  : 
TLFamily_PRMB_DGR  .         Permeability                  : 
TLFamily_RT        .         Formation Resistivity         : 
TLFamily_SOIL_ARCHIE .         Oil Saturation                : 
TLFamily_SOIL_DW   .         Oil Saturation                : 
TLFamily_SP        .         Spontaneous Potential         : 
TLFamily_VSH_FIN   .         Shale Volume                  : 
TLFamily_VSH_GR    .         Shale Volume                  : 
TLFamily_VSH_SP    .         Shale Volume                  : 
~Curve Information
#_______________________________________________________________________________
#
#LOGNAME           .UNIT     LOG_ID                        : DESCRIPTION
#_______________________________________________________________________________
DEPT               .M                                      : Колонка глубины 
CALI               .м                                      : Каверномер 
CILD               .мСм/м                                  : Индукционный каротаж зондом 6Ф1 
COLL               .unitless                               : Описание 
CSAT               .unitless                               : Описание 
GR                 .uR/h                                   : Гамма каротаж 
GZ3                .Ohmm                                   :  
LLS                .Ohmm                                   : Боковой каротаж 
MINV               .Ohmm                                   : Микро-градиент зонд 
MNOR               .Ohmm                                   : Микро-потенциал зонд 
NGLD               .у.е.                                   : Показания зонда НГК-60 аппаратуры ДРСТ-3-90 
OGZ                .Ohmm                                   : Обращенный градиент-зонд 
PHIE               .v/v                                    : Описание 
PHIEN              .v/v                                    :  
PHIT               .v/v                                    : Описание 
PRMB               .mD                                     :  
PRMB_DGR           .mD                                     :  
RT                 .ohmm                                   : Удельное электрическое сопротивление 
SOIL_ARCHIE        .v/v                                    :  
SOIL_DW            .v/v                                    :  
SP                 .мВ                                     : Потенциал самополяризации 
VSH_FIN            .v/v                                    : Описание 
VSH_GR             .v/v                                    : Shale volume 
VSH_SP             .v/v                                    : Shale Volume 
~Ascii
# ...
1024       0.195      0.235      -9999      -9999      3.588      3.411      3.997      5.414      3.189      1.135      3.266      0.1681483  0.1681483  0.260375   3.644796   31.26128   3.855      0.4390818  0.5664495  61.759     0.2794747  0.1590937  0.3998558 
1024.2     0.196      0.251      -9999      -9999      3.642      3.785      3.785      3.399      2.127      1.114      3.46       0.1756546  0.1756546  0.26615    5.020044   28.70366   3.584      0.441227   0.5639817  61.438     0.2742285  0.1647365  0.3837205 
1024.4     0.205      0.281      -9999      -9999      3.766      4.16       3.358      2.687      1.691      1.097      3.568      0.1785147  0.1785147  0.270825   5.671315   23.5947    3.159      0.4154114  0.5433592  61.381     0.2797281  0.178463   0.3809933 
1024.6     0.243      0.32       -9999      -9999      4.05       4.534      2.76       1.971      1.254      1.094      3.521      0.1702423  0.1702423  0.27165    3.985276   15.06106   2.725      0.3469951  0.4997013  61.761     0.3072961  0.2143663  0.400226  
1024.8     0.286      0.358      -9999      -9999      4.289      4.391      2.191      1.714      1.215      1.091      2.861      0.1608036  0.1608036  0.272475   2.664596   10.32258   2.393      0.2705946  0.4547677  62.256     0.3383981  0.2501212  0.4266749 
1025       0.316      0.389      -9999      -9999      4.268      3.788      1.789      1.692      1.243      1.061      2.621      0.1671068  0.1671068  0.280725   3.486433   10.67098   2.171      0.2616413  0.4462986  62.526     0.3442976  0.2467539  0.4418412 
1025.2     0.34       0.41       -9999      -9999      4.16       3.098      1.646      1.689      1.202      1.018      2.81       0.1803637  0.1803637  0.29255    6.136646   12.65738   2.039      0.2885     0.4594008  62.663     0.3399585  0.2301391  0.4497779 
1025.4     0.353      0.412      -9999      -9999      4.1        2.75       1.667      1.668      1.129      0.969      3.035      0.1959661  0.1959661  0.306025   11.93781   13.91656   2.027      0.3362631  0.4895488  62.589     0.333512   0.2213971  0.4456269 
1025.6     0.358      0.402      -9999      -9999      3.792      2.362      1.802      1.689      1.273      0.948      3.399      0.2130319  0.2130319  0.3118     24.71866   22.64468   2.088      0.3913476  0.5192357  62.073     0.2992974  0.1814832  0.4171116 
1025.8     0.354      0.379      -9999      -9999      3.74       2.07       2.029      1.767      1.663      0.943      3.777      0.2210369  0.2210369  0.313175   34.77751   24.58457   2.239      0.4295906  0.5438991  61.408     0.2792062  0.1754932  0.3829193 
1026       0.321      0.358      -9999      -9999      3.681      1.968      2.301      1.801      1.87       0.962      4.09       0.2235416  0.2235416  0.30795    38.69826   26.98763   2.393      0.45252    0.556511   60.544     0.2557829  0.1689359  0.34263   
1026.2     0.269      0.339      -9999      -9999      3.548      1.84       2.531      1.835      2.078      0.989      4.642      0.2251283  0.2251283  0.300525   41.40767   33.30165   2.55       0.471868   0.5654835  59.554     0.2284748  0.1550389  0.3019106 
1026.4     0.241      0.322      -9999      -9999      3.401      1.84       2.719      1.8        2.111      1.035      5.195001   0.221099   0.221099   0.287875   34.86969   42.0124    2.706      0.478238   0.5642182  58.475     0.2023515  0.1410052  0.2636979 
1026.6     0.225      0.297      -9999      -9999      3.371      1.922      2.901      1.643      2.08       1.095      5.748      0.2100417  0.2100417  0.271375   21.75902   44.05262   2.967      0.4774682  0.5599464  57.469     0.1858586  0.1383011  0.233416  
1026.8     0.205      0.266      -9999      -9999      3.328      2.234      3.128      2.664      2.26       1.174      5.553      0.1927265  0.1927265  0.24965    10.39731   47.1509    3.359      0.4686689  0.5499417  56.575     0.1724953  0.1345155  0.2104751 
1027       0.201      0.238      -9999      -9999      3.17       2.52       3.39       3.828      2.843      1.23       4.975      0.1820694  0.1820694  0.23425    6.599719   60.52753   3.802      0.4732139  0.5504421  55.868     0.158123   0.121474   0.1947719 
1027.2     0.198      0.218      -9999      -9999      3.073      2.469      3.72       5.133      3.396      1.281      4.791      0.170733   0.170733   0.220225   4.069566   70.55716   4.187      0.4675326  0.5438406  55.419     0.1499757  0.114102   0.1858493 
1027.4     0.198      0.206      -9999      -9999      3.011      2.341      4.036      5.337      3.733      1.311      4.735      0.1640352  0.1640352  0.211975   3.058352   77.82201   4.454      0.4644103  0.5401573  55.152     0.1452722  0.1096261  0.1809183 
1027.6     0.2        0.195      -9999      -9999      2.871      2.106      4.323      5.542      4.082      1.347      4.499      0.1557435  0.1557435  0.202075   2.147367   97.09766   4.728      0.4551394  0.5310224  55.135     0.1403984  0.1001545  0.1806423 
1027.8     0.203      0.182      -9999      -9999      2.704      2.372      4.575      5.712      4.329      1.386      4.315      0.1467496  0.1467496  0.19135    1.463241   126.43     5.095      0.4459493  0.5219188  55.119     0.1351528  0.0899205  0.1803851 
1028       0.205      0.17       -9999      -9999      2.634      2.5        4.954      7.08       4.577      1.406      4.555      0.1419414  0.1419414  0.18585    1.191947   141.2223   5.482      0.4489004  0.5246396  55.105     0.1330564  0.08594824 0.1801646 
1028.2     0.207      0.164      -9999      -9999      2.578      2.587      5.33       9.646      4.644      1.425      4.837      0.1376952  0.1376952  0.180625   0.9945053  154.2928   5.698      0.4442975  0.5198771  54.94      0.1300903  0.08289716 0.1772835 
1028.4     0.208      0.166      -9999      -9999      2.509      2.674      5.602      10.103     4.602      1.457      5.026      0.1299588  0.1299588  0.171825   0.7150078  172.0729   5.624      0.4119982  0.490305   54.772     0.1268672  0.07928631 0.174448  
1028.6     0.212      0.18       -9999      -9999      2.53       3.65       5.566      9.567      4.412      1.461      5.221      0.1285085  0.1285085  0.170725   0.6721213  166.4549   5.156      0.3815139  0.4631724  54.832     0.1279288  0.08036829 0.1754892 
1028.8     0.217      0.202      -9999      -9999      2.663      4.625999   5.236      8.927      4.184      1.425      5.221      0.1361738  0.1361738  0.180625   0.9320248  134.8949   4.55       0.376413   0.4602147  55.19      0.1347006  0.08757215 0.1818291 
1029       0.221      0.23       -9999      -9999      2.797      5.603001   4.537      7.075      3.529      1.33       4.731      0.1591163  0.1591163  0.20675    2.479577   109.146    3.948      0.4179973  0.4980827  55.775     0.1443446  0.09548333 0.1932058 
1029.2     0.224      0.259      -9999      -9999      2.997      5.684      3.68       5.353      2.692      1.249      4.241      0.1765127  0.1765127  0.229025   5.207174   79.56336   3.461      0.4344005  0.5163608  56.518     0.1591281  0.10864    0.2096163 
1029.4     0.246      0.287      -9999      -9999      3.196      5.603001   2.907      3.134      1.479      1.158      3.752      0.1959336  0.1959336  0.25405    11.92128   58.09042   3.084      0.4548319  0.5382522  57.272     0.1761104  0.1235297  0.2286912 
1029.6     0.285      0.3        -9999      -9999      3.495      5.021      2.457      2.527      1.317      1.046      3.262      0.2194477  0.2194477  0.28485    32.49846   36.2117    2.933      0.4943021  0.5775186  57.899     0.1981886  0.1498249  0.2465523 
1029.8     0.313      0.297      -9999      -9999      3.765      4.439      2.321      1.862      1.139      0.961      2.772      0.2359207  0.2359207  0.308225   65.61165   23.63201   2.967      0.5277587  0.610748   58.327     0.2191041  0.1783479  0.2598603 
1030       0.339      0.278      -9999      -9999      3.878      3.857      2.376      1.591      1.353      0.961      2.283      0.2316541  0.2316541  0.308225   54.69572   19.76647   3.197      0.5367117  0.6221448  58.7       0.2320331  0.1918417  0.2722245 
