~Version
 VERS              .         2.0                           : CWLS LOG ASCII STANDARD - VERSION 2.0
 WRAP              .         NO                            : ONE LINE PER DEPTH STEP
 DLM               .         SPACE                         : DELIMITING CHARACTER(SPACE TAB OR COMMA)
~Well Information
#_______________________________________________________________________________
#
#PARAMETER_NAME    .UNIT     VALUE                         : DESCRIPTION
#_______________________________________________________________________________
STRT               .M        900                           : First reference value
STOP               .M        1180                          : Last reference value
STEP               .M        0.2                           : Step increment
NULL               .         -9999                         : Missing value
COMP               .                                       : Company
WELL               .         1666                          : Well name
FLD                .         УЗЕНЬ                         : Field
LOC                .                                       : Location
CNTY               .                                       : County
STAT               .                                       : State
CTRY               .                                       : Country
SRVC               .                                       : Service Company
DATE               .         8.10.97                       : Date
UWI                .         1666                          : Unique Well ID
Block              .         6а                            : 
Category           .         Нефтяная                      : 
Condition          .         Ликвидированная               : 
Date               .         23.09.1999                    : 
EREF               .m        79.7                          : 100.8
Gorizont           .         13                            : 14
Interpretator      .         Ким С.В.                      : 
Kupol              .         основной                      : osnovnoi
Mud                .         0                             : 
Mud_density        .         0                             : 
Mud_resistivity    .         0                             : 
NGDU               .         НГДУ-2                        : 
ORIGINALWELLNAME   .         1666                          : 
Spud_date          .         1997                          : 1961
Viscosity          .         0                             : 
X                  .m        44303.6                       : 46154
Y                  .m        85296.03                      : 85761.93
YEAR               .         2019                          : 
~Parameter Information Block
#_______________________________________________________________________________
#
#PARAMETER_NAME    .UNIT     VALUE                         : DESCRIPTION
#_______________________________________________________________________________
SET                .         LQC_KAZNIPI_Petrel            : 
GSDD               .         CSAT                          : CSATкрив,0,DEPT,BOTTOM,,,,0
TLFamily_CALI      .         Caliper                       : 
TLFamily_CILD      .         Conductivity                  : 
TLFamily_COLL      .         Net Reservoir Flag            : 
TLFamily_CSAT      .         Fluid Code                    : 
TLFamily_DEPT      .         Measured Depth                : 
TLFamily_GR        .         Russian Gamma Ray             : 
TLFamily_GZ3       .         Gradient 225                  : 
TLFamily_LLS       .         Lateral Log Resistivity       : 
TLFamily_MINV      .         Micro Gradient Resistivity    : 
TLFamily_MNOR      .         Micro Resistivity             : 
TLFamily_NGLD      .         Neutron Gamma                 : 
TLFamily_OGZ       .         Gradient Inverted 225         : 
TLFamily_PHIE      .         Effective Porosity            : 
TLFamily_PHIEN     .         Effective Porosity            : 
TLFamily_PHIT      .         Porosity                      : 
TLFamily_PRMB      .         Permeability                  : 
TLFamily_PRMB_DGR  .         Permeability                  : 
TLFamily_RT        .         Formation Resistivity         : 
TLFamily_SOIL_ARCHIE .         Oil Saturation                : 
TLFamily_SOIL_DW   .         Oil Saturation                : 
TLFamily_SP        .         Spontaneous Potential         : 
TLFamily_VSH_FIN   .         Shale Volume                  : 
TLFamily_VSH_GR    .         Shale Volume                  : 
TLFamily_VSH_SP    .         Shale Volume                  : 
~Curve Information
#_______________________________________________________________________________
#
#LOGNAME           .UNIT     LOG_ID                        : DESCRIPTION
#_______________________________________________________________________________
DEPT               .M                                      : Колонка глубины 
CALI               .м                                      : Каверномер 
CILD               .мСм/м                                  : Индукционный каротаж зондом 6Ф1 
COLL               .unitless                               : Описание 
CSAT               .unitless                               : Описание 
GR                 .uR/h                                   : Гамма каротаж 
GZ3                .Ohmm                                   :  
LLS                .Ohmm                                   : Боковой каротаж 
MINV               .Ohmm                                   : Микро-градиент зонд 
MNOR               .Ohmm                                   : Микро-потенциал зонд 
NGLD               .у.е.                                   : Показания зонда НГК-60 аппаратуры ДРСТ-3-90 
OGZ                .Ohmm                                   : Обращенный градиент-зонд 
PHIE               .v/v                                    : Описание 
PHIEN              .v/v                                    :  
PHIT               .v/v                                    : Описание 
PRMB               .mD                                     :  
PRMB_DGR           .mD                                     :  
RT                 .ohmm                                   : Удельное электрическое сопротивление 
SOIL_ARCHIE        .v/v                                    :  
SOIL_DW            .v/v                                    :  
SP                 .мВ                                     : Потенциал самополяризации 
VSH_FIN            .v/v                                    : Описание 
VSH_GR             .v/v                                    : Shale volume 
VSH_SP             .v/v                                    : Shale Volume 
~Ascii
# ...
1061.2     0.374      0.35       -9999      -9999      6.176      2.086      2.037      3.362      1.985      0.931      2.651      0.1171718  0.1171718  0.316475   0.4144428  1.117424   2.457      0.0508776  0.447486   64.467     0.603949   0.6200477  0.5878503 
1061.4     0.384      0.346      -9999      -9999      6.109      2.035      2.091      3.437      2.05       0.93       2.713      0.1223164  0.1223164  0.31675    0.5161252  1.232066   2.49       0.09144782 0.4598319  64.393     0.5891926  0.5958066  0.5825787 
1061.6     0.377      0.342      -9999      -9999      6.06       1.983      2.148      3.524      2.248      0.938      2.754      0.1217767  0.1217767  0.31455    0.5043795  1.323289   2.524      0.0937276  0.460225   64.488     0.5841616  0.57868    0.5896431 
1061.8     0.378      0.34       -9999      -9999      6.181      2.07       2.185      3.58       2.477      0.952      2.774      0.1087955  0.1087955  0.3107     0.2899445  1.109309   2.541      0.003386965 0.4356081  64.65      0.6118318  0.6218958  0.6017677 
1062       0.367      0.34       -9999      -9999      6.292      2.129      2.194      3.582      2.517      0.964      2.754      0.09572202 0.09572202 0.3074     0.1660206  0.9435864  2.541      0          0.4060877  64.87      0.6414484  0.6643724  0.6185245 
1062.2     0.356      0.339      -9999      -9999      6.401      2.188      2.184      3.57       2.441      0.973      2.703      0.08312112 0.08312112 0.304925   0.09699802 0.8049642  2.55       0          0.375519   65.086     0.672133   0.708906   0.63536   
1062.4     0.321      0.335      -9999      -9999      6.432      2.275      2.182      3.635      2.346      0.979      2.703      0.07767302 0.07767302 0.303275   0.07688662 0.7693984  2.585      0          0.3638721  65.209     0.6836424  0.7221083  0.6451765 
1062.6     0.297      0.329      -9999      -9999      6.392      2.219      2.197      3.774      2.602      0.989      2.703      0.07714043 0.07714043 0.300525   0.07515986 0.8155946  2.64       0          0.3652191  65.252     0.6769229  0.7051185  0.6487273 
1062.8     0.283      0.324      -9999      -9999      6.305      2.19       2.227      3.877      2.59       1.005      2.733      0.08099578 0.08099578 0.296125   0.0885924  0.9258739  2.686      0          0.374135   65.067     0.6519067  0.6695332  0.6342803 
1063       0.281      0.321      -9999      -9999      6.202      2.162      2.269      3.747      2.591      1.022      2.764      0.08802847 0.08802847 0.29145    0.1195801  1.075866   2.715      0          0.387757   64.658     0.6164289  0.6297182  0.6031396 
1063.2     0.275      0.32       -9999      -9999      6.145      2.183      2.322      3.705      2.491      1.033      2.795      0.09495331 0.09495331 0.288425   0.1606659  1.169078   2.725      0          0.4002214  64.116     0.5862778  0.6087114  0.5638443 
1063.4     0.271      0.319      -9999      -9999      6.118      2.247      2.362      3.686      2.649      1.031      2.825      0.1022704  0.1022704  0.288975   0.2195096  1.216008   2.735      0          0.4172705  63.66      0.5657716  0.5990068  0.5325363 
1063.6     0.266      0.317      -9999      -9999      6.16       2.311      2.384      3.786      2.855      1.023      2.825      0.1054788  0.1054788  0.291175   0.2516984  1.143793   2.755      0.01426936 0.428485   63.336     0.5627159  0.6141705  0.5112613 
1063.8     0.269      0.316      -9999      -9999      6.23       2.413      2.388      3.776      2.897      1.012      2.8        0.1038952  0.1038952  0.2942     0.2352603  1.032838   2.765      0.002893162 0.4303025  63.362     0.5766813  0.6403012  0.5130615 
1064       0.275      0.316      -9999      -9999      6.309      2.413      2.391      3.73       2.839      1.004      2.774      0.0969469  0.0969469  0.2964     0.1749242  0.9204909  2.765      0          0.4193043  63.731     0.6044034  0.6711293  0.5376775 
1064.2     0.281      0.319      -9999      -9999      6.379      2.413      2.377      3.693      2.699      0.992      2.723      0.08919881 0.08919881 0.2997     0.1257003  0.8311974  2.735      0          0.4038798  64.279     0.6378824  0.6996834  0.5760814 
1064.4     0.286      0.324      -9999      -9999      6.457      2.367      2.333      3.65       2.661      0.977      2.672      0.08117824 0.08117824 0.303825   0.08928449 0.7418647  2.686      0          0.3853901  64.822     0.6746871  0.7329339  0.6164404 
1064.6     0.299      0.336      -9999      -9999      6.493      2.367      2.248      3.394      2.786      0.962      2.518      0.07591391 0.07591391 0.30795    0.07132927 0.7039372  2.576      0          0.3648922  65.344     0.7031397  0.748809   0.6574703 
1064.8     0.317      0.351      -9999      -9999      6.497      2.367      2.133      2.929      2.593      0.954      2.488      0.07225147 0.07225147 0.31015    0.06101415 0.6998446  2.449      0          0.3419176  65.753     0.7209046  0.7505941  0.6912152 
1065       0.339      0.365      -9999      -9999      6.502      2.428      2.011      2.368      2.165      0.946      2.436      0.07072529 0.07072529 0.31235    0.05716919 0.6947626  2.34       0          0.325743   65.991     0.7321961  0.7528312  0.7115611 
1065.2     0.342      0.371      -9999      -9999      6.528      2.449      1.913      2.149      1.806      0.939      2.227      0.07010623 0.07010623 0.314275   0.05567953 0.6689236  2.295      0          0.3203012  66.032     0.7399054  0.7645726  0.7152382 
1065.4     0.325      0.371      -9999      -9999      6.54       2.469      1.859      2.273      1.81       0.939      2.201      0.06953266 0.06953266 0.314275   0.054334   0.6573241  2.295      0          0.3186345  66.007     0.7416434  0.7700533  0.7132335 
1065.6     0.312      0.373      -9999      -9999      6.519      2.418      1.85       2.569      1.993      0.945      2.216      0.07028609 0.07028609 0.312625   0.05610827 0.677757   2.281      0          0.3162225  65.947     0.7343603  0.7604877  0.7082329 
1065.8     0.324      0.377      -9999      -9999      6.495      2.213      1.875      2.864      2          0.952      2.416      0.07001753 0.07001753 0.3107     0.05546929 0.7018883  2.253      0          0.308211   65.954     0.7293408  0.7497009  0.7089807 
1066       0.347      0.379      -9999      -9999      6.446      2.106      1.904      3.003      1.88       0.958      2.534      0.0717435  0.0717435  0.30905    0.05970651 0.7538559  2.239      0          0.3085633  65.965     0.7191106  0.7281508  0.7100704 
1066.2     0.357      0.379      -9999      -9999      6.38       2.173      1.926      2.829      1.788      0.965      2.508      0.07278607 0.07278607 0.307125   0.06242128 0.8299866  2.239      0          0.3085978  66.08      0.710118   0.7001     0.720136  
1066.4     0.355      0.374      -9999      -9999      6.284      2.203      1.943      2.746      1.852      0.976      2.457      0.07398947 0.07398947 0.3041     0.06570866 0.9546548  2.274      0          0.3126933  66.23      0.6973046  0.6612163  0.7333929 
1066.6     0.357      0.367      -9999      -9999      6.225      2.234      1.976      2.728      2.034      0.987      2.477      0.07243583 0.07243583 0.301075   0.06149577 1.040393   2.325      0          0.3110639  66.385     0.692846   0.6383983  0.7472936 
1066.8     0.359      0.36       -9999      -9999      6.168      2.106      2.037      2.9        2.217      0.996      2.544      0.07198216 0.07198216 0.2986     0.06031736 1.130531   2.378      0          0.3135548  66.484     0.6867207  0.6171022  0.7563393 
1067       0.352      0.355      -9999      -9999      6.129      2.081      2.108      3.009      2.411      0.995      2.593      0.07313161 0.07313161 0.298875   0.06334799 1.196665   2.417      0          0.3228688  66.58      0.6840709  0.6029418  0.7652    
1067.2     0.336      0.352      -9999      -9999      6.098      2.147      2.166      3.235      2.595      0.988      2.641      0.07675931 0.07675931 0.3008     0.07394804 1.251981   2.441      0          0.3392349  66.586     0.6789112  0.5919182  0.7659042 
