~Version
 VERS              .         2.0                           : CWLS LOG ASCII STANDARD - VERSION 2.0
 WRAP              .         NO                            : ONE LINE PER DEPTH STEP
 DLM               .         SPACE                         : DELIMITING CHARACTER(SPACE TAB OR COMMA)
~Well Information
#_______________________________________________________________________________
#
#PARAMETER_NAME    .UNIT     VALUE                         : DESCRIPTION
#_______________________________________________________________________________
STRT               .M        900                           : First reference value
STOP               .M        1180                          : Last reference value
STEP               .M        0.2                           : Step increment
NULL               .         -9999                         : Missing value
COMP               .                                       : Company
WELL               .         1666                          : Well name
FLD                .         УЗЕНЬ                         : Field
LOC                .                                       : Location
CNTY               .                                       : County
STAT               .                                       : State
CTRY               .                                       : Country
SRVC               .                                       : Service Company
DATE               .         8.10.97                       : Date
UWI                .         1666                          : Unique Well ID
Block              .         6а                            : 
Category           .         Нефтяная                      : 
Condition          .         Ликвидированная               : 
Date               .         23.09.1999                    : 
EREF               .m        79.7                          : 100.8
Gorizont           .         13                            : 14
Interpretator      .         Ким С.В.                      : 
Kupol              .         основной                      : osnovnoi
Mud                .         0                             : 
Mud_density        .         0                             : 
Mud_resistivity    .         0                             : 
NGDU               .         НГДУ-2                        : 
ORIGINALWELLNAME   .         1666                          : 
Spud_date          .         1997                          : 1961
Viscosity          .         0                             : 
X                  .m        44303.6                       : 46154
Y                  .m        85296.03                      : 85761.93
YEAR               .         2019                          : 
~Parameter Information Block
#_______________________________________________________________________________
#
#PARAMETER_NAME    .UNIT     VALUE                         : DESCRIPTION
#_______________________________________________________________________________
SET                .         LQC_KAZNIPI_Petrel            : 
GSDD               .         CSAT                          : CSATкрив,0,DEPT,BOTTOM,,,,0
TLFamily_CALI      .         Caliper                       : 
TLFamily_CILD      .         Conductivity                  : 
TLFamily_COLL      .         Net Reservoir Flag            : 
TLFamily_CSAT      .         Fluid Code                    : 
TLFamily_DEPT      .         Measured Depth                : 
TLFamily_GR        .         Russian Gamma Ray             : 
TLFamily_GZ3       .         Gradient 225                  : 
TLFamily_LLS       .         Lateral Log Resistivity       : 
TLFamily_MINV      .         Micro Gradient Resistivity    : 
TLFamily_MNOR      .         Micro Resistivity             : 
TLFamily_NGLD      .         Neutron Gamma                 : 
TLFamily_OGZ       .         Gradient Inverted 225         : 
TLFamily_PHIE      .         Effective Porosity            : 
TLFamily_PHIEN     .         Effective Porosity            : 
TLFamily_PHIT      .         Porosity                      : 
TLFamily_PRMB      .         Permeability                  : 
TLFamily_PRMB_DGR  .         Permeability                  : 
TLFamily_RT        .         Formation Resistivity         : 
TLFamily_SOIL_ARCHIE .         Oil Saturation                : 
TLFamily_SOIL_DW   .         Oil Saturation                : 
TLFamily_SP        .         Spontaneous Potential         : 
TLFamily_VSH_FIN   .         Shale Volume                  : 
TLFamily_VSH_GR    .         Shale Volume                  : 
TLFamily_VSH_SP    .         Shale Volume                  : 
~Curve Information
#_______________________________________________________________________________
#
#LOGNAME           .UNIT     LOG_ID                        : DESCRIPTION
#_______________________________________________________________________________
DEPT               .M                                      : Колонка глубины 
CALI               .м                                      : Каверномер 
CILD               .мСм/м                                  : Индукционный каротаж зондом 6Ф1 
COLL               .unitless                               : Описание 
CSAT               .unitless                               : Описание 
GR                 .uR/h                                   : Гамма каротаж 
GZ3                .Ohmm                                   :  
LLS                .Ohmm                                   : Боковой каротаж 
MINV               .Ohmm                                   : Микро-градиент зонд 
MNOR               .Ohmm                                   : Микро-потенциал зонд 
NGLD               .у.е.                                   : Показания зонда НГК-60 аппаратуры ДРСТ-3-90 
OGZ                .Ohmm                                   : Обращенный градиент-зонд 
PHIE               .v/v                                    : Описание 
PHIEN              .v/v                                    :  
PHIT               .v/v                                    : Описание 
PRMB               .mD                                     :  
PRMB_DGR           .mD                                     :  
RT                 .ohmm                                   : Удельное электрическое сопротивление 
SOIL_ARCHIE        .v/v                                    :  
SOIL_DW            .v/v                                    :  
SP                 .мВ                                     : Потенциал самополяризации 
VSH_FIN            .v/v                                    : Описание 
VSH_GR             .v/v                                    : Shale volume 
VSH_SP             .v/v                                    : Shale Volume 
~Ascii
# ...
968.2000000000001 0.332      0.269      -9999      -9999      3.693      3.149      2.774      3.676      2.978      1.02       3.419      0.1469344  0.1469344  0.292      1.47482    26.48055   3.317      0.3230704  0.5400123  63.346     0.4395928  0.1702494  0.7089362 
968.4      0.332      0.274      -9999      -9999      3.716      3.272      2.667      3.62       2.973      1.008      3.419      0.1514415  0.1514415  0.2953     1.787405   25.53513   3.25       0.3343072  0.5438395  63.251     0.4359347  0.1727956  0.6990737 
968.6      0.333      0.276      -9999      -9999      3.726      3.497      2.548      3.613      2.959      1.012      3.394      0.1526327  0.1526327  0.2942     1.880557   25.13467   3.223      0.3362409  0.5422742  63.093     0.4289918  0.1739145  0.684069  
968.8      0.323      0.275      -9999      -9999      3.735      3.675      2.438      3.183      2.49       1.018      3.281      0.1540132  0.1540132  0.29255    1.994598   24.77965   3.236      0.3426684  0.5432196  62.878     0.4198086  0.1749277  0.6646895 
969        0.312      0.271      -9999      -9999      3.749      3.675      2.37       2.74       1.985      1.026      3.214      0.1531868  0.1531868  0.29035    1.925521   24.2373    3.29       0.3446899  0.543936   62.776     0.4156462  0.1765156  0.6547768 
969.2000000000001 0.299      0.269      -9999      -9999      3.769      3.338      2.375      2.861      2.049      1.057      3.388      0.1443342  0.1443342  0.281825   1.320012   23.48308   3.317      0.3124616  0.5266315  62.793     0.4166387  0.1788089  0.6544685 
969.4      0.285      0.268      -9999      -9999      3.784      3.2        2.44       3.201      2.384      1.08       3.593      0.1358149  0.1358149  0.2755     0.9178649  22.93284   3.331      0.2764794  0.5096386  62.957     0.4232883  0.1805485  0.6660281 
969.6      0.273      0.268      -9999      -9999      3.79       3.118      2.536      3.435      2.613      1.089      3.772      0.1299756  0.1299756  0.273025   0.7155205  22.71638   3.331      0.2482502  0.498557   63.217     0.4334829  0.181249   0.6857169 
969.8      0.278      0.267      -9999      -9999      3.769      3.159      2.632      3.621      2.661      1.094      3.854      0.1241617  0.1241617  0.27165    0.5583844  23.48308   3.345      0.2192207  0.4892735  63.584     0.4469344  0.1788089  0.7150598 
970        0.269      0.262      -9999      -9999      3.744      3.18       2.715      3.671      2.65       1.09       3.731      0.1209746  0.1209746  0.27275    0.4874167  24.42963   3.417      0.2092773  0.4910218  63.934     0.4599255  0.1759468  0.7439042 
970.2000000000001 0.258      0.256      -9999      -9999      3.735      3.128      2.757      3.428      2.67       1.082      3.711      0.1215522  0.1215522  0.27495    0.4995746  24.77965   3.506      0.2219956  0.5009355  64.076     0.4648417  0.1749277  0.7547557 
970.4      0.242      0.249      -9999      -9999      3.756      3.021      2.789      3.611      2.895      1.078      3.711      0.1231156  0.1231156  0.27605    0.534021   23.9706    3.616      0.2416806  0.5121468  64.039     0.4634375  0.1773149  0.7495601 
970.6      0.24       0.242      -9999      -9999      3.759      3.042      2.839      3.722      2.781      1.079      3.424      0.1258981  0.1258981  0.275775   0.6013061  23.8572    3.732      0.2672367  0.5234992  63.847     0.4541726  0.1776585  0.7306865 
970.8      0.244      0.236      -9999      -9999      3.761      3.062      2.896      4.057      2.794      1.083      3.399      0.1293478  0.1293478  0.274675   0.6966146  23.78192   3.837      0.2935456  0.5336767  63.546     0.4403856  0.177888   0.7028831 
971        0.242      0.232      -9999      -9999      3.782      3.062      2.953      3.942      2.708      1.083      3.46       0.1345272  0.1345272  0.274675   0.868818   23.00546   3.91       0.3233059  0.5449043  63.161     0.4246902  0.1803156  0.6690648 
971.2000000000001 0.234      0.231      -9999      -9999      3.846      3.062      3.025      3.959      2.953      1.08       3.501      0.137958   0.137958   0.2755     1.005717   20.79201   3.929      0.3394906  0.5512     62.891     0.4167937  0.18792    0.6456674 
971.4      0.238      0.232      -9999      -9999      3.901      3.144      3.113      4.001      3.11       1.075      3.475      0.1394598  0.1394598  0.276875   1.072241   19.06077   3.91       0.3441997  0.5533512  62.816     0.4164096  0.1947109  0.6381083 
971.6      0.245      0.234      -9999      -9999      3.925      3.144      3.137      4.095      3.199      1.078      3.45       0.1380018  0.1380018  0.27605    1.007594   18.35122   3.874      0.33529    0.5486349  62.847     0.4183281  0.1977505  0.6389056 
971.8      0.252      0.238      -9999      -9999      3.936      3.164      3.076      4.181      3.295      1.077      3.45       0.1362142  0.1362142  0.276325   0.9336314  18.0349    3.802      0.3217542  0.5423769  63.008     0.4245782  0.1991595  0.6499969 
972        0.276      0.246      -9999      -9999      3.979      3.313      2.942      4.24       3.17       1.076      3.424      0.1317998  0.1317998  0.2766     0.7734107  16.84982   3.665      0.2898869  0.5282966  63.311     0.4387885  0.2047644  0.6728126 
972.2000000000001 0.299      0.257      -9999      -9999      4.044      3.394      2.775      4.066      3.081      1.076      3.184      0.124446   0.124446   0.2766     0.5651961  15.20458   3.491      0.2362406  0.5060983  63.759     0.4610729  0.2135377  0.708608  
972.4      0.309      0.266      -9999      -9999      4.114      3.394      2.6        3.822      2.811      1.078      3.107      0.1167973  0.1167973  0.27605    0.407875   13.61199   3.359      0.1781264  0.4838266  64.16      0.482584   0.2234067  0.7417613 
972.6      0.305      0.271      -9999      -9999      4.153      3.338      2.467      3.486      2.613      1.08       3.081      0.1098143  0.1098143  0.2755     0.3028201  12.7982    3.29       0.124303   0.465867   64.549     0.5020779  0.2291017  0.7750542 
972.8      0.304      0.273      -9999      -9999      4.166      3.241      2.397      3.396      2.543      1.087      3.127      0.1045639  0.1045639  0.273575   0.2420671  12.5379    3.263      0.08258794 0.4516425  64.766     0.5121548  0.2310321  0.7932774 
973        0.311      0.276      -9999      -9999      4.127      3.134      2.383      3.49       2.53       1.098      3.24       0.1030247  0.1030247  0.27055    0.2266863  13.33513   3.223      0.06526692 0.4413382  64.752     0.5076524  0.2252891  0.7900156 
973.2000000000001 0.309      0.276      -9999      -9999      4.099      3.103      2.422      3.394      2.298      1.103      3.294      0.1073228  0.1073228  0.269175   0.2722935  13.93858   3.223      0.09795647 0.4477185  64.443     0.4904611  0.2212542  0.7596679 
973.4      0.284      0.27       -9999      -9999      4.079      3.077      2.518      3.335      1.928      1.106      3.347      0.11115    0.11115    0.26835    0.3205725  14.38626   3.304      0.1352007  0.4604095  64.18      0.4763636  0.2184165  0.7343107 
973.6      0.256      0.26       -9999      -9999      4.114      2.96       2.678      3.769      1.897      1.109      3.347      0.1122077  0.1122077  0.267525   0.3353642  13.61199   3.446      0.1590753  0.4724526  64.013     0.4706585  0.2234067  0.7179103 
973.8      0.24       0.25       -9999      -9999      4.166      2.909      2.838      4.35       2.275      1.102      3.368      0.1144903  0.1144903  0.26945    0.369655   12.5379    3.6        0.1904762  0.489991   63.92      0.4695748  0.2310321  0.7081174 
974        0.251      0.245      -9999      -9999      4.222      3.001      2.956      4.801      2.871      1.074      3.542      0.1219658  0.1219658  0.27715    0.5084643  11.47578   3.682      0.2419197  0.5160505  63.857     0.4702552  0.2395355  0.7009749 
974.2000000000001 0.278      0.247      -9999      -9999      4.286      3.164      2.98       4.706      3.262      1.03       3.798      0.1313994  0.1313994  0.28925    0.7603151  10.37165   3.649      0.2865393  0.5397064  63.949     0.4783352  0.2496373  0.7070331 
