~Version
 VERS              .         2.0                           : CWLS LOG ASCII STANDARD - VERSION 2.0
 WRAP              .         NO                            : ONE LINE PER DEPTH STEP
 DLM               .         SPACE                         : DELIMITING CHARACTER(SPACE TAB OR COMMA)
~Well Information
#_______________________________________________________________________________
#
#PARAMETER_NAME    .UNIT     VALUE                         : DESCRIPTION
#_______________________________________________________________________________
STRT               .M        900                           : First reference value
STOP               .M        1180                          : Last reference value
STEP               .M        0.2                           : Step increment
NULL               .         -9999                         : Missing value
COMP               .                                       : Company
WELL               .         1666                          : Well name
FLD                .         УЗЕНЬ                         : Field
LOC                .                                       : Location
CNTY               .                                       : County
STAT               .                                       : State
CTRY               .                                       : Country
SRVC               .                                       : Service Company
DATE               .         8.10.97                       : Date
UWI                .         1666                          : Unique Well ID
Block              .         6а                            : 
Category           .         Нефтяная                      : 
Condition          .         Ликвидированная               : 
Date               .         23.09.1999                    : 
EREF               .m        79.7                          : 100.8
Gorizont           .         13                            : 14
Interpretator      .         Ким С.В.                      : 
Kupol              .         основной                      : osnovnoi
Mud                .         0                             : 
Mud_density        .         0                             : 
Mud_resistivity    .         0                             : 
NGDU               .         НГДУ-2                        : 
ORIGINALWELLNAME   .         1666                          : 
Spud_date          .         1997                          : 1961
Viscosity          .         0                             : 
X                  .m        44303.6                       : 46154
Y                  .m        85296.03                      : 85761.93
YEAR               .         2019                          : 
~Parameter Information Block
#_______________________________________________________________________________
#
#PARAMETER_NAME    .UNIT     VALUE                         : DESCRIPTION
#_______________________________________________________________________________
SET                .         LQC_KAZNIPI_Petrel            : 
GSDD               .         CSAT                          : CSATкрив,0,DEPT,BOTTOM,,,,0
TLFamily_CALI      .         Caliper                       : 
TLFamily_CILD      .         Conductivity                  : 
TLFamily_COLL      .         Net Reservoir Flag            : 
TLFamily_CSAT      .         Fluid Code                    : 
TLFamily_DEPT      .         Measured Depth                : 
TLFamily_GR        .         Russian Gamma Ray             : 
TLFamily_GZ3       .         Gradient 225                  : 
TLFamily_LLS       .         Lateral Log Resistivity       : 
TLFamily_MINV      .         Micro Gradient Resistivity    : 
TLFamily_MNOR      .         Micro Resistivity             : 
TLFamily_NGLD      .         Neutron Gamma                 : 
TLFamily_OGZ       .         Gradient Inverted 225         : 
TLFamily_PHIE      .         Effective Porosity            : 
TLFamily_PHIEN     .         Effective Porosity            : 
TLFamily_PHIT      .         Porosity                      : 
TLFamily_PRMB      .         Permeability                  : 
TLFamily_PRMB_DGR  .         Permeability                  : 
TLFamily_RT        .         Formation Resistivity         : 
TLFamily_SOIL_ARCHIE .         Oil Saturation                : 
TLFamily_SOIL_DW   .         Oil Saturation                : 
TLFamily_SP        .         Spontaneous Potential         : 
TLFamily_VSH_FIN   .         Shale Volume                  : 
TLFamily_VSH_GR    .         Shale Volume                  : 
TLFamily_VSH_SP    .         Shale Volume                  : 
~Curve Information
#_______________________________________________________________________________
#
#LOGNAME           .UNIT     LOG_ID                        : DESCRIPTION
#_______________________________________________________________________________
DEPT               .M                                      : Колонка глубины 
CALI               .м                                      : Каверномер 
CILD               .мСм/м                                  : Индукционный каротаж зондом 6Ф1 
COLL               .unitless                               : Описание 
CSAT               .unitless                               : Описание 
GR                 .uR/h                                   : Гамма каротаж 
GZ3                .Ohmm                                   :  
LLS                .Ohmm                                   : Боковой каротаж 
MINV               .Ohmm                                   : Микро-градиент зонд 
MNOR               .Ohmm                                   : Микро-потенциал зонд 
NGLD               .у.е.                                   : Показания зонда НГК-60 аппаратуры ДРСТ-3-90 
OGZ                .Ohmm                                   : Обращенный градиент-зонд 
PHIE               .v/v                                    : Описание 
PHIEN              .v/v                                    :  
PHIT               .v/v                                    : Описание 
PRMB               .mD                                     :  
PRMB_DGR           .mD                                     :  
RT                 .ohmm                                   : Удельное электрическое сопротивление 
SOIL_ARCHIE        .v/v                                    :  
SOIL_DW            .v/v                                    :  
SP                 .мВ                                     : Потенциал самополяризации 
VSH_FIN            .v/v                                    : Описание 
VSH_GR             .v/v                                    : Shale volume 
VSH_SP             .v/v                                    : Shale Volume 
~Ascii
# ...
1098.4     0.315      0.581      -9999      -9999      6.139      3.097      2.189      2.902      2.005      0.989      2.711      0.1016381  0.1016381  0.300525   0.2136694  1.179348   1.321      0          0.1808876  67.993     0.6026875  0.6065413  0.5988337 
1098.6     0.336      0.584      -9999      -9999      6.085      3.041      2.201      2.822      2.15       1.001      2.788      0.1034437  0.1034437  0.297225   0.2307735  1.275932   1.312      0          0.1771922  67.857     0.5872161  0.5873556  0.5870765 
1098.8     0.356      0.59       -9999      -9999      6.025      2.985      2.194      2.632      1.897      1.024      2.844      0.1012572  0.1012572  0.2909     0.2102267  1.392554   1.295      0          0.1538453  67.819     0.574675   0.5667492  0.5826008 
1099       0.369      0.593      -9999      -9999      5.968      2.877      2.175      2.854      1.689      1.037      2.901      0.1016664  0.1016664  0.287325   0.2139274  1.513204   1.286      0          0.1452442  67.77      0.5626019  0.5478429  0.5773608 
1099.2     0.376      0.593      -9999      -9999      5.958      2.759      2.152      2.974      1.71       1.033      2.939      0.1032242  0.1032242  0.288425   0.2286233  1.535423   1.286      0          0.1519042  67.8       0.5612146  0.5445918  0.5778373 
1099.4     0.364      0.59       -9999      -9999      5.962      2.656      2.138      3.019      1.885      1.021      2.978      0.1063742  0.1063742  0.291725   0.2614968  1.526497   1.295      0          0.1699092  67.818     0.5616691  0.5458899  0.5774482 
1099.6     0.356      0.584      -9999      -9999      5.968      2.58       2.142      3.168      2.029      1.007      2.991      0.1083492  0.1083492  0.295575   0.2844777  1.513204   1.312      0          0.1875692  67.971     0.5673509  0.5478429  0.5868589 
1099.8     0.349      0.578      -9999      -9999      5.969      2.477      2.163      3.373      2.134      1.002      3.005      0.108791   0.108791   0.29695    0.289889   1.511      1.33       0          0.1966591  68.067     0.5701787  0.5481691  0.5921884 
1100       0.353      0.572      -9999      -9999      5.97       2.449      2.197      3.466      2.158      1.013      3.019      0.1041256  0.1041256  0.293925   0.2375843  1.508798   1.348      0          0.18422    68.22      0.5751495  0.5484955  0.6018037 
1100.2     0.353      0.565      -9999      -9999      5.974      2.421      2.239      3.445      2.098      1.018      3.229      0.100889   0.100889   0.29255    0.2069507  1.500026   1.37       0          0.179316   68.376     0.5807909  0.549803   0.6117789 
1100.4     0.35       0.557      -9999      -9999      6.03       2.313      2.285      3.469      2.026      1.014      3.341      0.09770058 0.09770058 0.29365    0.1806383  1.382441   1.395      0          0.1796252  68.496     0.5937861  0.5684384  0.6191337 
1100.6     0.36       0.548      -9999      -9999      6.09       2.256      2.328      3.509      2.043      1.007      3.431      0.09254251 0.09254251 0.295575   0.1449673  1.266666   1.425      0          0.1767055  68.806     0.61525    0.5891063  0.6413937 
1100.8     0.372      0.538      -9999      -9999      6.135      2.231      2.36       3.446      2.182      1.005      3.521      0.09017239 0.09017239 0.296125   0.1310296  1.186244   1.48       0          0.1860757  68.851     0.6240988  0.605099   0.6430987 
1101       0.37       0.526      -9999      -9999      6.149      2.331      2.377      3.376      2.377      1.01       3.531      0.08709078 0.08709078 0.29475    0.1148922  1.162281   1.542      0          0.190812   68.941     0.6292704  0.6101624  0.6483783 
1101.2     0.367      0.515      -9999      -9999      6.122      2.431      2.383      3.367      2.463      1.02       3.541      0.08729561 0.08729561 0.292      0.1159003  1.208937   1.58       0          0.1962075  68.861     0.6203163  0.6004348  0.6401979 
1101.4     0.372      0.505      -9999      -9999      6.119      2.472      2.385      3.443      2.488      1.029      3.516      0.08626863 0.08626863 0.289525   0.1109334  1.214237   1.612      0          0.1965361  68.786     0.6159284  0.5993635  0.6324933 
1101.6     0.366      0.497      -9999      -9999      6.113      2.446      2.388      3.359      2.452      1.033      3.49       0.08907354 0.08907354 0.288425   0.1250305  1.224903   1.637      0          0.2091744  68.529     0.6040953  0.5972267  0.6109639 
1101.8     0.357      0.491      -9999      -9999      6.143      2.446      2.406      3.295      2.555      1.032      3.5        0.1133497  0.1133497  0.2887     0.3521032  2.29683    1.679      0          0.2825785  68.416     0.5313645  0.4620119  0.6007171 
1102       0.344      0.481      -9999      -9999      6.157      2.446      2.445      3.41       2.717      1.032      3.511      0.1164237  0.1164237  0.2887     0.4014282  2.175858   1.728      0          0.2996558  68.043     0.5220494  0.4723331  0.5717657 
1102.2     0.349      0.47       -9999      -9999      6.146      2.456      2.507      3.8        2.917      1.035      3.613      0.1183977  0.1183977  0.287875   0.4366877  2.270356   1.774      0          0.3117763  67.942     0.5135676  0.4642043  0.5629309 
1102.4     0.357      0.46       -9999      -9999      6.103      2.467      2.576      3.853      2.741      1.04       3.695      0.1236811  0.1236811  0.2865     0.547056   2.680819   1.812      0          0.3278677  67.824     0.4933907  0.4337488  0.5530325 
1102.6     0.367      0.452      -9999      -9999      6.028      2.513      2.636      3.598      2.447      1.058      3.798      0.1276827  0.1276827  0.28155    0.6488594  3.582224   1.837      0          0.3330944  67.763     0.4662647  0.3853321  0.5471973 
1102.8     0.374      0.447      -9999      -9999      5.975      2.559      2.663      3.197      2.359      1.068      3.905      0.130684   0.130684   0.2788     0.7374688  4.396541   1.837      0.01075082 0.3348554  67.729     0.4488362  0.3544136  0.5432588 
1103       0.369      0.447      -9999      -9999      5.955      2.667      2.646      2.888      2.289      1.061      3.946      0.1333869  0.1333869  0.280725   0.8275726  4.749854   1.779      0.01349138 0.3321843  67.844     0.4464792  0.3434021  0.5495564 
1103.2     0.341      0.459      -9999      -9999      5.983      2.769      2.578      2.748      2.194      1.052      3.787      0.1324366  0.1324366  0.2832     0.7947047  4.262689   1.701      0          0.3189138  67.943     0.4568587  0.3589164  0.5548009 
1103.4     0.311      0.476      -9999      -9999      6.008      2.81       2.478      2.85       2.114      1.045      3.628      0.130618   0.130618   0.285125   0.735395   3.870097   1.637      0          0.3050333  68.084     0.468203   0.3733599  0.5630461 
1103.6     0.281      0.491      -9999      -9999      5.999      2.81       2.365      2.944      2.085      1.041      3.306      0.1314092  0.1314092  0.286225   0.7606331  4.007077   1.596      0          0.2994457  68.208     0.4691388  0.3680946  0.5701829 
1103.8     0.252      0.499      -9999      -9999      5.947      2.759      2.286      3.238      2.199      1.05       2.952      0.1354287  0.1354287  0.28375    0.9028712  4.899006   1.616      0          0.3079605  68.085     0.4494586  0.339094   0.5598232 
1104       0.225      0.503      -9999      -9999      5.882      2.733      2.264      3.485      2.401      1.065      2.773      0.1397887  0.1397887  0.279625   1.087384   6.298079   1.648      0.01834796 0.3168103  67.843     0.4237464  0.3060348  0.5414581 
1104.2     0.208      0.496      -9999      -9999      5.808      2.682      2.408      3.767      2.631      1.085      2.696      0.1451714  0.1451714  0.274125   1.367997   8.383286   1.692      0.06179864 0.3273934  67.381     0.3907683  0.2723036  0.5092331 
1104.4     0.207      0.478      1          2          5.676      2.656      2.912      4.34       2.904      1.131      2.598      0.1476608  0.1476608  0.261475   1.521226   13.96276   1.832      0.1094391  0.339191   66.753     0.3448916  0.2210977  0.4686855 
