~Version
 VERS              .         2.0                           : CWLS LOG ASCII STANDARD - VERSION 2.0
 WRAP              .         NO                            : ONE LINE PER DEPTH STEP
 DLM               .         SPACE                         : DELIMITING CHARACTER(SPACE TAB OR COMMA)
~Well Information
#_______________________________________________________________________________
#
#PARAMETER_NAME    .UNIT     VALUE                         : DESCRIPTION
#_______________________________________________________________________________
STRT               .M        900                           : First reference value
STOP               .M        1180                          : Last reference value
STEP               .M        0.2                           : Step increment
NULL               .         -9999                         : Missing value
COMP               .                                       : Company
WELL               .         1666                          : Well name
FLD                .         УЗЕНЬ                         : Field
LOC                .                                       : Location
CNTY               .                                       : County
STAT               .                                       : State
CTRY               .                                       : Country
SRVC               .                                       : Service Company
DATE               .         8.10.97                       : Date
UWI                .         1666                          : Unique Well ID
Block              .         6а                            : 
Category           .         Нефтяная                      : 
Condition          .         Ликвидированная               : 
Date               .         23.09.1999                    : 
EREF               .m        79.7                          : 100.8
Gorizont           .         13                            : 14
Interpretator      .         Ким С.В.                      : 
Kupol              .         основной                      : osnovnoi
Mud                .         0                             : 
Mud_density        .         0                             : 
Mud_resistivity    .         0                             : 
NGDU               .         НГДУ-2                        : 
ORIGINALWELLNAME   .         1666                          : 
Spud_date          .         1997                          : 1961
Viscosity          .         0                             : 
X                  .m        44303.6                       : 46154
Y                  .m        85296.03                      : 85761.93
YEAR               .         2019                          : 
~Parameter Information Block
#_______________________________________________________________________________
#
#PARAMETER_NAME    .UNIT     VALUE                         : DESCRIPTION
#_______________________________________________________________________________
SET                .         LQC_KAZNIPI_Petrel            : 
GSDD               .         CSAT                          : CSATкрив,0,DEPT,BOTTOM,,,,0
TLFamily_CALI      .         Caliper                       : 
TLFamily_CILD      .         Conductivity                  : 
TLFamily_COLL      .         Net Reservoir Flag            : 
TLFamily_CSAT      .         Fluid Code                    : 
TLFamily_DEPT      .         Measured Depth                : 
TLFamily_GR        .         Russian Gamma Ray             : 
TLFamily_GZ3       .         Gradient 225                  : 
TLFamily_LLS       .         Lateral Log Resistivity       : 
TLFamily_MINV      .         Micro Gradient Resistivity    : 
TLFamily_MNOR      .         Micro Resistivity             : 
TLFamily_NGLD      .         Neutron Gamma                 : 
TLFamily_OGZ       .         Gradient Inverted 225         : 
TLFamily_PHIE      .         Effective Porosity            : 
TLFamily_PHIEN     .         Effective Porosity            : 
TLFamily_PHIT      .         Porosity                      : 
TLFamily_PRMB      .         Permeability                  : 
TLFamily_PRMB_DGR  .         Permeability                  : 
TLFamily_RT        .         Formation Resistivity         : 
TLFamily_SOIL_ARCHIE .         Oil Saturation                : 
TLFamily_SOIL_DW   .         Oil Saturation                : 
TLFamily_SP        .         Spontaneous Potential         : 
TLFamily_VSH_FIN   .         Shale Volume                  : 
TLFamily_VSH_GR    .         Shale Volume                  : 
TLFamily_VSH_SP    .         Shale Volume                  : 
~Curve Information
#_______________________________________________________________________________
#
#LOGNAME           .UNIT     LOG_ID                        : DESCRIPTION
#_______________________________________________________________________________
DEPT               .M                                      : Колонка глубины 
CALI               .м                                      : Каверномер 
CILD               .мСм/м                                  : Индукционный каротаж зондом 6Ф1 
COLL               .unitless                               : Описание 
CSAT               .unitless                               : Описание 
GR                 .uR/h                                   : Гамма каротаж 
GZ3                .Ohmm                                   :  
LLS                .Ohmm                                   : Боковой каротаж 
MINV               .Ohmm                                   : Микро-градиент зонд 
MNOR               .Ohmm                                   : Микро-потенциал зонд 
NGLD               .у.е.                                   : Показания зонда НГК-60 аппаратуры ДРСТ-3-90 
OGZ                .Ohmm                                   : Обращенный градиент-зонд 
PHIE               .v/v                                    : Описание 
PHIEN              .v/v                                    :  
PHIT               .v/v                                    : Описание 
PRMB               .mD                                     :  
PRMB_DGR           .mD                                     :  
RT                 .ohmm                                   : Удельное электрическое сопротивление 
SOIL_ARCHIE        .v/v                                    :  
SOIL_DW            .v/v                                    :  
SP                 .мВ                                     : Потенциал самополяризации 
VSH_FIN            .v/v                                    : Описание 
VSH_GR             .v/v                                    : Shale volume 
VSH_SP             .v/v                                    : Shale Volume 
~Ascii
# ...
986.8      0.24       0.255      -9999      -9999      4.15       3.144      2.807      4.055      2.984      0.998      3.225      0.1673481  0.1673481  0.29805    3.522506   12.85903   3.585      0.4172233  0.5846418  63.092     0.3960662  0.2286585  0.5634739 
987        0.203      0.247      -9999      -9999      4.121      2.955      3.074      4.693      3.487      1.016      3.281      0.1670353  0.1670353  0.2931     3.475818   13.46221   3.767      0.4296811  0.5903705  62.763     0.3820142  0.2244183  0.5396101 
987.2000000000001 0.197      0.24       -9999      -9999      4.076      2.955      3.311      5.025      3.706      1.032      3.301      0.1659625  0.1659625  0.2887     3.320374   14.45464   3.837      0.4314057  0.5893525  62.574     0.3719317  0.217994   0.5258694 
987.4      0.196      0.236      -9999      -9999      4.1        3.072      3.423      5.044      3.649      1.037      3.276      0.164795   0.164795   0.287325   3.159082   13.91656   3.749      0.4216358  0.5821946  62.519     0.3713031  0.2213971  0.5212092 
987.6      0.211      0.241      -9999      -9999      4.172      3.256      3.363      4.736      3.325      1.031      3.199      0.1635843  0.1635843  0.288975   3.000104   12.41955   3.553      0.4030556  0.5710588  62.637     0.3799718  0.2319286  0.5280151 
987.8      0.24       0.253      -9999      -9999      4.264      3.405      3.157      4.118      2.705      0.996      3.117      0.1684551  0.1684551  0.2986     3.692792   10.73866   3.345      0.4014092  0.5715946  62.869     0.3943786  0.2461177  0.5426394 
988        0.28       0.267      -9999      -9999      4.328      3.67       2.894      3.411      2.161      0.972      2.81       0.1706748  0.1706748  0.3052     4.059468   9.705451   3.298      0.4042524  0.5764202  63.118     0.4076521  0.2564972  0.5588071 
988.2000000000001 0.32       0.275      -9999      -9999      4.355      3.798      2.637      3.128      2.05       0.938      2.677      0.177818   0.177818   0.31455    5.505283   9.299961   3.236      0.4200088  0.5868605  63.259     0.4143392  0.2610063  0.5676722 
988.4      0.337      0.278      -9999      -9999      4.351      3.716      2.453      3.08       2.189      0.919      2.457      0.1817664  0.1817664  0.319775   6.514968   9.358948   3.197      0.4277503  0.5920252  63.392     0.4182079  0.2603333  0.5760825 
988.6      0.34       0.281      -9999      -9999      4.324      3.328      2.361      3.167      2.342      0.908      2.319      0.183634   0.183634   0.3228     7.055133   9.767015   3.159      0.4296311  0.5935546  63.566     0.4217152  0.2558358  0.5875945 
988.8      0.335      0.291      -9999      -9999      4.249      3.093      2.339      3.1        2.179      0.907      2.401      0.1833192  0.1833192  0.323075   6.961048   10.99632   3.036      0.4180327  0.5853353  63.793     0.4235024  0.2437464  0.6032584 
989        0.346      0.306      -9999      -9999      4.188      3.149      2.333      3.138      2.009      0.906      2.513      0.1820232  0.1820232  0.32335    6.58673    12.10939   2.868      0.3985721  0.5723864  64.058     0.4282629  0.2343361  0.6221898 
989.2000000000001 0.353      0.32       -9999      -9999      4.18       3.205      2.319      3.059      1.957      0.903      2.557      0.1798286  0.1798286  0.324175   5.998191   12.26349   2.725      0.3774197  0.5598888  64.324     0.4374133  0.2331292  0.6416974 
989.4      0.36       0.327      -9999      -9999      4.224      3.251      2.288      2.986      1.91       0.889      2.6        0.1794944  0.1794944  0.328025   5.913298   11.43956   2.693      0.3729439  0.5601231  64.573     0.4500927  0.2398448  0.6603407 
989.6      0.368      0.332      -9999      -9999      4.24       3.22       2.241      2.821      1.802      0.87       2.626      0.1817033  0.1817033  0.33325    6.497453   11.15388   2.658      0.3757679  0.5635678  64.782     0.4592326  0.2423345  0.6761307 
989.8      0.366      0.348      -9999      -9999      4.208      3.103      2.175      2.655      1.811      0.853      2.544      0.1867108  0.1867108  0.337925   8.044433   11.73256   2.612      0.38536    0.5680848  64.833     0.4582248  0.2373807  0.6790689 
990        0.358      0.368      -9999      -9999      4.206      3.001      2.091      2.415      1.768      0.848      2.518      0.1910687  0.1910687  0.3393     9.687566   11.76971   2.474      0.3820463  0.5612973  64.631     0.4491856  0.2370744  0.6612968 
990.2000000000001 0.351      0.386      -9999      -9999      4.24       3.006      1.984      2.38       1.684      0.857      2.467      0.1932027  0.1932027  0.336825   10.61063   11.15388   2.317      0.3688735  0.5466614  64.227     0.435219   0.2423345  0.6281036 
990.4      0.348      0.398      -9999      -9999      4.292      2.873      1.864      2.15       1.477      0.873      2.354      0.1931944  0.1931944  0.332425   10.60688   10.27375   2.191      0.35207    0.5300871  63.781     0.4219108  0.250606   0.5932156 
990.6      0.358      0.403      -9999      -9999      4.316      2.704      1.765      1.921      1.299      0.893      2.342      0.1924607  0.1924607  0.326925   10.28011   9.891308   2.113      0.3387665  0.515928   63.341     0.4074675  0.2545182  0.5604167 
990.8      0.372      0.396      -9999      -9999      4.324      2.5        1.731      1.772      1.198      0.915      2.329      0.1889895  0.1889895  0.320875   8.865479   9.767015   2.081      0.3233731  0.5031181  63.112     0.399653   0.2558358  0.5434702 
991        0.393      0.376      -9999      -9999      4.288      2.316      1.797      1.706      1.17       0.94       2.575      0.1835839  0.1835839  0.314      7.04008    10.33891   2.192      0.3227713  0.5038107  63.083     0.3952003  0.2499599  0.5404407 
991.2000000000001 0.404      0.354      -9999      -9999      4.24       2.173      1.988      1.685      1.199      0.98       2.743      0.1725692  0.1725692  0.303      4.401065   11.15388   2.425      0.3183649  0.5060148  63.211     0.3952449  0.2423345  0.5481554 
991.4      0.404      0.336      -9999      -9999      4.24       1.983      2.274      1.699      1.269      1.014      2.938      0.1616883  0.1616883  0.29365    2.767052   11.15388   2.576      0.2987452  0.498822   63.36      0.3998839  0.2423345  0.5574334 
991.6      0.373      0.323      -9999      -9999      4.283      1.958      2.6        1.755      1.52       1.029      3.086      0.1546268  0.1546268  0.289525   2.047492   10.42095   2.761      0.2942801  0.5031083  63.531     0.4087823  0.2491545  0.5684102 
991.8      0.325      0.31       -9999      -9999      4.335      2.219      2.849      1.89       1.963      1.034      3.214      0.14972    0.14972    0.28815    1.660867   9.598661   2.9        0.2907161  0.5076134  63.726     0.419485   0.2576587  0.5813112 
992        0.295      0.303      -9999      -9999      4.337      2.326      2.96       2.108      2.457      1.038      3.25       0.1457099  0.1457099  0.28705    1.399779   9.568364   2.933      0.2775911  0.5040619  63.977     0.4283032  0.2579915  0.598615  
992.2000000000001 0.304      0.3        -9999      -9999      4.362      2.582      2.895      2.235      2.388      1.04       3.03       0.1393831  0.1393831  0.2865     1.068737   9.197627   2.922      0.2477884  0.4939935  64.398     0.4458089  0.2621882  0.6294296 
992.4      0.347      0.301      -9999      -9999      4.407      2.561      2.701      2.187      2.014      1.033      2.841      0.1351304  0.1351304  0.288425   0.8914577  8.566125   2.826      0.215002   0.4815298  64.789     0.4645291  0.2699151  0.6591431 
992.6      0.393      0.31       -9999      -9999      4.481      2.423      2.445      2.024      1.53       1.021      2.59       0.1315031  0.1315031  0.291725   0.7636856  7.620534   2.706      0.1796417  0.4684824  65.155     0.4855209  0.2831197  0.687922  
992.8      0.411      0.322      -9999      -9999      4.477      2.28       2.228      1.91       1.363      0.995      2.477      0.1362475  0.1362475  0.298875   0.9349597  7.668864   2.576      0.1859874  0.470505   65.352     0.4928105  0.2823898  0.7032312 
