~Version
 VERS              .         2.0                           : CWLS LOG ASCII STANDARD - VERSION 2.0
 WRAP              .         NO                            : ONE LINE PER DEPTH STEP
 DLM               .         SPACE                         : DELIMITING CHARACTER(SPACE TAB OR COMMA)
~Well Information
#_______________________________________________________________________________
#
#PARAMETER_NAME    .UNIT     VALUE                         : DESCRIPTION
#_______________________________________________________________________________
STRT               .M        900                           : First reference value
STOP               .M        1180                          : Last reference value
STEP               .M        0.2                           : Step increment
NULL               .         -9999                         : Missing value
COMP               .                                       : Company
WELL               .         1666                          : Well name
FLD                .         УЗЕНЬ                         : Field
LOC                .                                       : Location
CNTY               .                                       : County
STAT               .                                       : State
CTRY               .                                       : Country
SRVC               .                                       : Service Company
DATE               .         8.10.97                       : Date
UWI                .         1666                          : Unique Well ID
Block              .         6а                            : 
Category           .         Нефтяная                      : 
Condition          .         Ликвидированная               : 
Date               .         23.09.1999                    : 
EREF               .m        79.7                          : 100.8
Gorizont           .         13                            : 14
Interpretator      .         Ким С.В.                      : 
Kupol              .         основной                      : osnovnoi
Mud                .         0                             : 
Mud_density        .         0                             : 
Mud_resistivity    .         0                             : 
NGDU               .         НГДУ-2                        : 
ORIGINALWELLNAME   .         1666                          : 
Spud_date          .         1997                          : 1961
Viscosity          .         0                             : 
X                  .m        44303.6                       : 46154
Y                  .m        85296.03                      : 85761.93
YEAR               .         2019                          : 
~Parameter Information Block
#_______________________________________________________________________________
#
#PARAMETER_NAME    .UNIT     VALUE                         : DESCRIPTION
#_______________________________________________________________________________
SET                .         LQC_KAZNIPI_Petrel            : 
GSDD               .         CSAT                          : CSATкрив,0,DEPT,BOTTOM,,,,0
TLFamily_CALI      .         Caliper                       : 
TLFamily_CILD      .         Conductivity                  : 
TLFamily_COLL      .         Net Reservoir Flag            : 
TLFamily_CSAT      .         Fluid Code                    : 
TLFamily_DEPT      .         Measured Depth                : 
TLFamily_GR        .         Russian Gamma Ray             : 
TLFamily_GZ3       .         Gradient 225                  : 
TLFamily_LLS       .         Lateral Log Resistivity       : 
TLFamily_MINV      .         Micro Gradient Resistivity    : 
TLFamily_MNOR      .         Micro Resistivity             : 
TLFamily_NGLD      .         Neutron Gamma                 : 
TLFamily_OGZ       .         Gradient Inverted 225         : 
TLFamily_PHIE      .         Effective Porosity            : 
TLFamily_PHIEN     .         Effective Porosity            : 
TLFamily_PHIT      .         Porosity                      : 
TLFamily_PRMB      .         Permeability                  : 
TLFamily_PRMB_DGR  .         Permeability                  : 
TLFamily_RT        .         Formation Resistivity         : 
TLFamily_SOIL_ARCHIE .         Oil Saturation                : 
TLFamily_SOIL_DW   .         Oil Saturation                : 
TLFamily_SP        .         Spontaneous Potential         : 
TLFamily_VSH_FIN   .         Shale Volume                  : 
TLFamily_VSH_GR    .         Shale Volume                  : 
TLFamily_VSH_SP    .         Shale Volume                  : 
~Curve Information
#_______________________________________________________________________________
#
#LOGNAME           .UNIT     LOG_ID                        : DESCRIPTION
#_______________________________________________________________________________
DEPT               .M                                      : Колонка глубины 
CALI               .м                                      : Каверномер 
CILD               .мСм/м                                  : Индукционный каротаж зондом 6Ф1 
COLL               .unitless                               : Описание 
CSAT               .unitless                               : Описание 
GR                 .uR/h                                   : Гамма каротаж 
GZ3                .Ohmm                                   :  
LLS                .Ohmm                                   : Боковой каротаж 
MINV               .Ohmm                                   : Микро-градиент зонд 
MNOR               .Ohmm                                   : Микро-потенциал зонд 
NGLD               .у.е.                                   : Показания зонда НГК-60 аппаратуры ДРСТ-3-90 
OGZ                .Ohmm                                   : Обращенный градиент-зонд 
PHIE               .v/v                                    : Описание 
PHIEN              .v/v                                    :  
PHIT               .v/v                                    : Описание 
PRMB               .mD                                     :  
PRMB_DGR           .mD                                     :  
RT                 .ohmm                                   : Удельное электрическое сопротивление 
SOIL_ARCHIE        .v/v                                    :  
SOIL_DW            .v/v                                    :  
SP                 .мВ                                     : Потенциал самополяризации 
VSH_FIN            .v/v                                    : Описание 
VSH_GR             .v/v                                    : Shale volume 
VSH_SP             .v/v                                    : Shale Volume 
~Ascii
# ...
937.2000000000001 0.188      0.337      1          3          1.826      1.948      2.353      3.03       3.033      1.198      2.569      0.2137881  0.2137881  0.24305    25.52892   521.9822   2.567      0.4492706  0.49958    46.418     0.08867243 0.050397   0.1269479 
937.4      0.186      0.339      1          3          1.777      1.971      2.344      2.972      2.991      1.19       2.697      0.2159802  0.2159802  0.24525    28.03078   563.5623   2.55       0.4524374  0.5026715  46.729     0.08869635 0.04884418 0.1285485 
937.6      0.187      0.343      1          3          1.782      1.994      2.325      2.981      2.933      1.183      2.718      0.2178391  0.2178391  0.247175   30.34362   559.1719   2.515      0.4529731  0.5032825  46.774     0.08889659 0.04900042 0.1287928 
937.8      0.189      0.349      1          3          1.821      1.963      2.279      2.926      2.823      1.181      2.692      0.2182661  0.2182661  0.247725   30.90129   526.0805   2.465      0.448735   0.4993275  46.683     0.08926925 0.05023632 0.1283022 
938        0.192      0.356      1          3          1.848      1.856      2.221      2.927      2.735      1.182      2.667      0.2178914  0.2178914  0.24745    30.41129   504.3254   2.409      0.4419234  0.4928471  46.632     0.0895716  0.05111016 0.1280331 
938.2000000000001 0.193      0.362      1          3          1.855      1.817      2.163      2.777      2.607      1.19       2.667      0.2159421  0.2159421  0.24525    27.98526   498.8336   2.362      0.4323138  0.4832194  46.28      0.08881181 0.05133918 0.1262845 
938.4      0.193      0.366      1          3          1.855      1.779      2.123      2.67       2.531      1.202      2.687      0.2127862  0.2127862  0.24195    24.46106   498.8336   2.332      0.4215284  0.4725477  46.089     0.08837505 0.05133918 0.1254109 
938.6      0.193      0.367      1          3          1.881      1.677      2.103      2.597      2.537      1.213      2.718      0.2097262  0.2097262  0.238925   21.46818   478.9538   2.325      0.4133571  0.4646312  45.94      0.08848128 0.05219885 0.1247637 
938.8      0.194      0.366      1          3          1.926      1.626      2.111      2.65       2.599      1.215      2.749      0.2091151  0.2091151  0.238375   20.91594   446.4005   2.332      0.4126936  0.4640617  45.657     0.08866629 0.05372089 0.1236117 
939        0.197      0.364      1          3          1.993      1.574      2.139      2.739      2.673      1.221      2.503      0.2071146  0.2071146  0.236725   19.20539   401.9859   2.347      0.4095351  0.461441   45.599     0.08972852 0.05606968 0.1233874 
939.2000000000001 0.202      0.363      1          3          2.053      1.615      2.17       2.822      2.789      1.229      2.308      0.2045914  0.2045914  0.234525   17.24597   365.9758   2.355      0.4041501  0.4566367  45.538     0.09070783 0.05826009 0.1231556 
939.4      0.208      0.362      1          3          2.111      1.753      2.188      2.894      2.892      1.24       2.18       0.2011129  0.2011129  0.2315     14.86813   334.2352   2.362      0.3960256  0.4493757  45.681     0.09208221 0.06045879 0.1237056 
939.6      0.21       0.358      1          3          2.157      1.753      2.19       2.9        2.948      1.243      2.155      0.1998664  0.1998664  0.230675   14.09838   311.0312   2.393      0.3964507  0.4503777  45.867     0.09335928 0.06226144 0.1244571 
939.8      0.207      0.351      1          3          2.232      1.702      2.187      2.867      2.905      1.243      2.196      0.1991628  0.1991628  0.230675   13.6816    276.6022   2.449      0.4011302  0.4558814  46.146     0.09549142 0.06531653 0.1256663 
940        0.201      0.343      1          3          2.341      1.651      2.19       2.865      2.879      1.241      2.303      0.1983589  0.1983589  0.231225   13.22044   233.2442   2.515      0.40647    0.4628785  46.841     0.09959423 0.07002579 0.1291627 
940.2000000000001 0.194      0.332      1          3          2.494      1.738      2.202      2.901      2.898      1.239      3.011      0.1975146  0.1975146  0.231775   12.75285   183.6016   2.612      0.4147469  0.4727101  47.06      0.1038195  0.07721433 0.1304246 
940.4      0.192      0.317      1          3          2.662      1.871      2.252      2.925      2.94       1.241      3.718      0.1950355  0.1950355  0.231225   11.47332   141.1732   2.755      0.4228901  0.4831098  47.522     0.109665   0.08596043 0.1333696 
940.6      0.192      0.298      1          3          2.815      2.111      2.38       2.865      2.912      1.248      4.425      0.1913073  0.1913073  0.2293     9.78665    111.1265   2.956      0.432184   0.494464   47.818     0.1151293  0.09478477 0.1354738 
940.8      0.192      0.281      1          3          2.89       2.773      2.598      2.937      2.865      1.26       6.795      0.1869935  0.1869935  0.226      8.142018   98.82559   3.159      0.4385664  0.5020874  48.014     0.1182014  0.09943572 0.1369671 
941        0.192      0.266      1          3          2.961      3.434      2.855      3.324      3.165      1.273      8.615      0.1824904  0.1824904  0.222425   6.719291   88.43792   3.359      0.4428039  0.5076251  48.141     0.1210139  0.1040487  0.137979  
941.2000000000001 0.193      0.25       1          3          3.063      4.096      3.149      3.925      3.516      1.283      14.615     0.1787102  0.1787102  0.219675   5.71879    75.39611   3.6        0.4507066  0.5167078  48.046     0.1241358  0.1110529  0.1372187 
941.4      0.194      0.23       6          6          3.143      4.757      3.532      4.366      3.856      1.29       16.59      0.1759366  0.1759366  0.21775    5.080786   66.52795   3.948      0.4667692  0.5330743  47.959     0.1267073  0.1168748  0.1365397 
941.6      0.195      0.208      6          6          3.165      5.419      4.027      4.578      3.826      1.298      16.539     0.1735669  0.1735669  0.21555    4.592376   64.27756   4.408      0.4876301  0.5529573  47.877     0.1272217  0.1185286  0.1359147 
941.8      0.195      0.192      6          6          3.181      4.391      4.466      5.56       3.948      1.297      10.769     0.1733084  0.1733084  0.215825   4.542023   62.68883   4.808      0.5074555  0.572004   48.135     0.1288383  0.1197461  0.1379304 
942        0.197      0.18       6          6          3.237      3.364      4.802      6.485      4.062      1.297      9          0.1721365  0.1721365  0.215825   4.320588   57.43134   5.156      0.5205201  0.5855179  48.459     0.1323895  0.1241066  0.1406723 
942.2000000000001 0.198      0.172      6          6          3.334      2.336      5.015      6.913      4.186      1.299      7.41       0.1677904  0.1677904  0.215275   3.589582   49.34642   5.414      0.5208273  0.5905424  49.874     0.1438926  0.1320387  0.1557465 
942.4      0.2        0.162      6          6          3.37       1.968      5.138      6.28       4.117      1.313      6.667      0.1616783  0.1616783  0.211425   2.765876   46.64454   5.773      0.5197767  0.5930241  50.645     0.1507476  0.1351099  0.1663853 
942.6      0.202      0.153      6          6          3.401      1.917      5.084      5.596      4.014      1.326      5.922999   0.1537878  0.1537878  0.20785    1.975521   44.43672   6.136      0.5125378  0.5929     51.994     0.1638248  0.1378117  0.1898379 
942.8      0.204      0.145      6          6          3.422      1.84       5.05       5.015      3.705      1.331      5.426      0.1460972  0.1460972  0.206475   1.423089   43.0008    6.497      0.503756   0.5943055  53.57      0.1829632  0.1396726  0.2262537 
943        0.207      0.14       6          6          3.435      1.994      5.211      4.825      3.603      1.312      5.467      0.146482   0.146482   0.2117     1.446639   39.81414   6.743      0.5134515  0.6080128  54.441     0.1976303  0.1441337  0.2511269 
943.2000000000001 0.209      0.136      6          6          3.441      2.948      5.408      5.741      3.786      1.272      5.662      0.1430349  0.1430349  0.2227     1.248854   39.43832   6.953      0.5103524  0.6217264  56.801     0.2414094  0.144693   0.3381259 
