~Version
 VERS              .         2.0                           : CWLS LOG ASCII STANDARD - VERSION 2.0
 WRAP              .         NO                            : ONE LINE PER DEPTH STEP
 DLM               .         SPACE                         : DELIMITING CHARACTER(SPACE TAB OR COMMA)
~Well Information
#_______________________________________________________________________________
#
#PARAMETER_NAME    .UNIT     VALUE                         : DESCRIPTION
#_______________________________________________________________________________
STRT               .M        900                           : First reference value
STOP               .M        1180                          : Last reference value
STEP               .M        0.2                           : Step increment
NULL               .         -9999                         : Missing value
COMP               .                                       : Company
WELL               .         1666                          : Well name
FLD                .         УЗЕНЬ                         : Field
LOC                .                                       : Location
CNTY               .                                       : County
STAT               .                                       : State
CTRY               .                                       : Country
SRVC               .                                       : Service Company
DATE               .         8.10.97                       : Date
UWI                .         1666                          : Unique Well ID
Block              .         6а                            : 
Category           .         Нефтяная                      : 
Condition          .         Ликвидированная               : 
Date               .         23.09.1999                    : 
EREF               .m        79.7                          : 100.8
Gorizont           .         13                            : 14
Interpretator      .         Ким С.В.                      : 
Kupol              .         основной                      : osnovnoi
Mud                .         0                             : 
Mud_density        .         0                             : 
Mud_resistivity    .         0                             : 
NGDU               .         НГДУ-2                        : 
ORIGINALWELLNAME   .         1666                          : 
Spud_date          .         1997                          : 1961
Viscosity          .         0                             : 
X                  .m        44303.6                       : 46154
Y                  .m        85296.03                      : 85761.93
YEAR               .         2019                          : 
~Parameter Information Block
#_______________________________________________________________________________
#
#PARAMETER_NAME    .UNIT     VALUE                         : DESCRIPTION
#_______________________________________________________________________________
SET                .         LQC_KAZNIPI_Petrel            : 
GSDD               .         CSAT                          : CSATкрив,0,DEPT,BOTTOM,,,,0
TLFamily_CALI      .         Caliper                       : 
TLFamily_CILD      .         Conductivity                  : 
TLFamily_COLL      .         Net Reservoir Flag            : 
TLFamily_CSAT      .         Fluid Code                    : 
TLFamily_DEPT      .         Measured Depth                : 
TLFamily_GR        .         Russian Gamma Ray             : 
TLFamily_GZ3       .         Gradient 225                  : 
TLFamily_LLS       .         Lateral Log Resistivity       : 
TLFamily_MINV      .         Micro Gradient Resistivity    : 
TLFamily_MNOR      .         Micro Resistivity             : 
TLFamily_NGLD      .         Neutron Gamma                 : 
TLFamily_OGZ       .         Gradient Inverted 225         : 
TLFamily_PHIE      .         Effective Porosity            : 
TLFamily_PHIEN     .         Effective Porosity            : 
TLFamily_PHIT      .         Porosity                      : 
TLFamily_PRMB      .         Permeability                  : 
TLFamily_PRMB_DGR  .         Permeability                  : 
TLFamily_RT        .         Formation Resistivity         : 
TLFamily_SOIL_ARCHIE .         Oil Saturation                : 
TLFamily_SOIL_DW   .         Oil Saturation                : 
TLFamily_SP        .         Spontaneous Potential         : 
TLFamily_VSH_FIN   .         Shale Volume                  : 
TLFamily_VSH_GR    .         Shale Volume                  : 
TLFamily_VSH_SP    .         Shale Volume                  : 
~Curve Information
#_______________________________________________________________________________
#
#LOGNAME           .UNIT     LOG_ID                        : DESCRIPTION
#_______________________________________________________________________________
DEPT               .M                                      : Колонка глубины 
CALI               .м                                      : Каверномер 
CILD               .мСм/м                                  : Индукционный каротаж зондом 6Ф1 
COLL               .unitless                               : Описание 
CSAT               .unitless                               : Описание 
GR                 .uR/h                                   : Гамма каротаж 
GZ3                .Ohmm                                   :  
LLS                .Ohmm                                   : Боковой каротаж 
MINV               .Ohmm                                   : Микро-градиент зонд 
MNOR               .Ohmm                                   : Микро-потенциал зонд 
NGLD               .у.е.                                   : Показания зонда НГК-60 аппаратуры ДРСТ-3-90 
OGZ                .Ohmm                                   : Обращенный градиент-зонд 
PHIE               .v/v                                    : Описание 
PHIEN              .v/v                                    :  
PHIT               .v/v                                    : Описание 
PRMB               .mD                                     :  
PRMB_DGR           .mD                                     :  
RT                 .ohmm                                   : Удельное электрическое сопротивление 
SOIL_ARCHIE        .v/v                                    :  
SOIL_DW            .v/v                                    :  
SP                 .мВ                                     : Потенциал самополяризации 
VSH_FIN            .v/v                                    : Описание 
VSH_GR             .v/v                                    : Shale volume 
VSH_SP             .v/v                                    : Shale Volume 
~Ascii
# ...
1079.8     0.227      0.323      -9999      -9999      4.643      3.808      3.3        2.653      2.242      1.015      3.588      0.1568022  0.1568022  0.293375   2.246545   10.44044   2.696      0.2949769  0.5039002  66.099     0.413857   0.2489644  0.5787495 
1080       0.23       0.324      -9999      -9999      4.729      3.941      3.19       2.455      2.277      0.991      3.342      0.1677365  0.1677365  0.299975   3.581338   9.210317   2.686      0.3340171  0.5224447  65.552     0.4007227  0.2620407  0.5394047 
1080.2     0.24       0.332      -9999      -9999      4.782      4.084001   3.113      2.27       2.31       0.971      3.266      0.1769042  0.1769042  0.305475   5.294843   8.525536   2.612      0.3557886  0.5309914  65.104     0.3896085  0.2704391  0.5087779 
1080.4     0.247      0.348      -9999      -9999      4.827      4.176      3.038      1.985      2.219      0.959      3.214      0.1818586  0.1818586  0.308775   6.54064    7.984237   2.474      0.3548764  0.5264268  64.845     0.3845952  0.2777808  0.4914097 
1080.6     0.257      0.364      -9999      -9999      4.904      4.279      2.961      1.933      2.183      0.965      3.214      0.1794753  0.1794753  0.307125   5.908474   7.136528   2.347      0.3310824  0.5096442  64.721     0.3868174  0.2908084  0.4828264 
1080.8     0.264      0.373      -9999      -9999      4.996      4.34       2.89       2.001      2.137      0.982      3.217      0.1709673  0.1709673  0.30245    4.110432   6.240859   2.281      0.2927784  0.488218   64.846     0.3984324  0.3071775  0.4896873 
1081       0.264      0.38       -9999      -9999      5.064      4.36       2.839      2.163      2.206      1.001      3.219      0.1596874  0.1596874  0.297225   2.540714   5.651909   2.232      0.2417746  0.4629201  65.237     0.4167806  0.3198658  0.5136954 
1081.2     0.266      0.397      -9999      -9999      5.085      4.258      2.8        2.221      2.198      1.008      3.245      0.1517029  0.1517029  0.2953     1.807443   5.481516   2.119      0.1875656  0.4354476  65.74      0.4351426  0.3238891  0.546396  
1081.4     0.28       0.434      -9999      -9999      5.124      4.233      2.737      2.167      2.002      0.995      3.266      0.1489735  0.1489735  0.298875   1.608827   5.17858    1.904      0.1321204  0.4046625  66.189     0.4542468  0.3314958  0.5769978 
1081.6     0.3        0.471      -9999      -9999      5.19       4.233      2.629      1.999      1.85       0.969      3.286      0.1492006  0.1492006  0.306025   1.624483   4.703573   1.723      0.0916759  0.3835942  66.593     0.4752255  0.3447779  0.6056731 
1081.8     0.334      0.503      -9999      -9999      5.391      4.233      2.467      1.954      1.663      0.945      3.307      0.1458161  0.1458161  0.312625   1.40613    3.508976   1.588      0.03717297 0.3608143  66.827     0.5054816  0.3885964  0.6223668 
1082       0.361      0.52       -9999      -9999      5.594      3.957      2.293      1.937      1.59       0.941      3.102      0.1372048  0.1372048  0.313725   0.9739211  2.610157   1.523      0          0.3337087  66.957     0.5349097  0.4385057  0.6313137 
1082.2     0.37       0.544      -9999      -9999      5.809      3.226      2.125      1.914      1.496      0.949      2.738      0.1250149  0.1250149  0.311525   0.5790794  1.907901   1.438      0          0.2872595  66.98      0.565182   0.4983722  0.6319917 
1082.4     0.378      0.568      -9999      -9999      5.872      2.878      2.007      1.791      1.33       0.965      2.354      0.1190337  0.1190337  0.307125   0.4486945  1.740492   1.361      0          0.2474595  66.872     0.5699737  0.5174158  0.6225316 
1082.6     0.372      0.592      -9999      -9999      5.917      2.771      1.938      1.736      1.259      0.982      2.16       0.1145054  0.1145054  0.30245    0.3698933  1.629987   1.289      0          0.208138   66.69      0.569529   0.5314621  0.6075959 
1082.8     0.364      0.603      -9999      -9999      5.871      2.525      1.931      1.843      1.3        0.999      2.134      0.1150381  0.1150381  0.297775   0.3783933  1.743032   1.258      0          0.1917421  66.473     0.5537481  0.5171078  0.5903884 
1083       0.334      0.602      -9999      -9999      5.842      2.444      1.981      1.946      1.359      1.018      2.191      0.1149155  0.1149155  0.29255    0.3764188  1.818295   1.261      0          0.1832016  66.182     0.5382864  0.5082583  0.5683146 
1083.2     0.304      0.586      -9999      -9999      5.785      2.392      2.092      2.119      1.562      1.035      2.349      0.1161413  0.1161413  0.287875   0.3966212  1.97583    1.306      0          0.1922327  65.928     0.5204053  0.4913033  0.5495073 
1083.4     0.278      0.563      -9999      -9999      5.749      2.367      2.22       3.056      1.965      1.05       2.539      0.1164378  0.1164378  0.28375    0.4016686  2.082285   1.376      0          0.2065412  65.702     0.5070068  0.4808876  0.5331261 
1083.6     0.244      0.545      -9999      -9999      5.723      2.5        2.358      3.981      2.394      1.062      2.692      0.1176988  0.1176988  0.28045    0.423862   2.162719   1.435      0          0.2203366  65.41      0.4931856  0.4735027  0.5128685 
1083.8     0.238      0.536      -9999      -9999      5.722      3.036      2.5        4.388      2.614      1.059      2.82       0.123044   0.123044   0.281275   0.5323909  2.165874   1.466      0          0.2426013  64.997     0.479488   0.4732209  0.4857551 
1084       0.235      0.53       -9999      -9999      5.772      3.164      2.636      3.874      2.771      1.055      3.172      0.126354   0.126354   0.282375   0.613113   2.01363    1.487      0          0.2572001  64.552     0.472791   0.4875163  0.4580657 
1084.2     0.231      0.517      -9999      -9999      5.798      3.4        2.713      3.459      2.99       1.047      3.521      0.1309081  0.1309081  0.284575   0.7445492  1.938741   1.534      0          0.2818162  64.185     0.4656573  0.4951197  0.4361948 
1084.4     0.233      0.502      -9999      -9999      5.792      3.323      2.739      3.453      3.157      1.039      3.531      0.1345129  0.1345129  0.286775   0.8682876  1.955772   1.592      0          0.305552   64.078     0.4614002  0.4933546  0.4294459 
1084.6     0.239      0.492      -9999      -9999      5.799      3.133      2.721      3.447      3.322      1.019      3.521      0.1390533  0.1390533  0.292275   1.05381    1.935917   1.633      0.009587619 0.3308413  64.16      0.4643081  0.4954145  0.4332018 
1084.8     0.269      0.493      -9999      -9999      5.863      3.021      2.663      3.601      3.475      0.999      3.014      0.1399816  0.1399816  0.297775   1.096369   1.763477   1.628      0.01389238 0.3391946  64.325     0.4781619  0.5146513  0.4416724 
1085       0.288      0.5        -9999      -9999      5.955      2.677      2.55       3.618      3.277      0.983      2.778      0.1382356  0.1382356  0.302175   1.017693   1.542152   1.6        0          0.3363588  64.484     0.4967861  0.54362    0.449952  
1085.2     0.297      0.514      -9999      -9999      6.022      2.333      2.42       3.706      3.061      0.976      2.691      0.1363232  0.1363232  0.3041     0.9379824  1.398658   1.546      0          0.3240159  64.518     0.5084145  0.5657379  0.4510911 
1085.4     0.297      0.531      -9999      -9999      6.084      2.195      2.3        3.63       2.73       0.968      2.691      0.13589    0.13589    0.3063     0.9208096  1.277794   1.483      0          0.3120968  64.44      0.5163941  0.5870062  0.4457821 
1085.6     0.301      0.555      -9999      -9999      6.161      2.169      2.2        3.666      2.662      0.976      2.678      0.1298081  0.1298081  0.3041     0.7104275  1.142127   1.402      0          0.2770975  64.384     0.5281571  0.6145362  0.441778  
1085.8     0.307      0.572      -9999      -9999      6.27       2.169      2.116      3.604      2.449      0.995      2.665      0.1178265  0.1178265  0.298875   0.4261778  0.9743372  1.348      0          0.2277315  64.394     0.5486318  0.6557292  0.4415344 
