~Version
 VERS              .         2.0                           : CWLS LOG ASCII STANDARD - VERSION 2.0
 WRAP              .         NO                            : ONE LINE PER DEPTH STEP
 DLM               .         SPACE                         : DELIMITING CHARACTER(SPACE TAB OR COMMA)
~Well Information
#_______________________________________________________________________________
#
#PARAMETER_NAME    .UNIT     VALUE                         : DESCRIPTION
#_______________________________________________________________________________
STRT               .M        900                           : First reference value
STOP               .M        1180                          : Last reference value
STEP               .M        0.2                           : Step increment
NULL               .         -9999                         : Missing value
COMP               .                                       : Company
WELL               .         1666                          : Well name
FLD                .         УЗЕНЬ                         : Field
LOC                .                                       : Location
CNTY               .                                       : County
STAT               .                                       : State
CTRY               .                                       : Country
SRVC               .                                       : Service Company
DATE               .         8.10.97                       : Date
UWI                .         1666                          : Unique Well ID
Block              .         6а                            : 
Category           .         Нефтяная                      : 
Condition          .         Ликвидированная               : 
Date               .         23.09.1999                    : 
EREF               .m        79.7                          : 100.8
Gorizont           .         13                            : 14
Interpretator      .         Ким С.В.                      : 
Kupol              .         основной                      : osnovnoi
Mud                .         0                             : 
Mud_density        .         0                             : 
Mud_resistivity    .         0                             : 
NGDU               .         НГДУ-2                        : 
ORIGINALWELLNAME   .         1666                          : 
Spud_date          .         1997                          : 1961
Viscosity          .         0                             : 
X                  .m        44303.6                       : 46154
Y                  .m        85296.03                      : 85761.93
YEAR               .         2019                          : 
~Parameter Information Block
#_______________________________________________________________________________
#
#PARAMETER_NAME    .UNIT     VALUE                         : DESCRIPTION
#_______________________________________________________________________________
SET                .         LQC_KAZNIPI_Petrel            : 
GSDD               .         CSAT                          : CSATкрив,0,DEPT,BOTTOM,,,,0
TLFamily_CALI      .         Caliper                       : 
TLFamily_CILD      .         Conductivity                  : 
TLFamily_COLL      .         Net Reservoir Flag            : 
TLFamily_CSAT      .         Fluid Code                    : 
TLFamily_DEPT      .         Measured Depth                : 
TLFamily_GR        .         Russian Gamma Ray             : 
TLFamily_GZ3       .         Gradient 225                  : 
TLFamily_LLS       .         Lateral Log Resistivity       : 
TLFamily_MINV      .         Micro Gradient Resistivity    : 
TLFamily_MNOR      .         Micro Resistivity             : 
TLFamily_NGLD      .         Neutron Gamma                 : 
TLFamily_OGZ       .         Gradient Inverted 225         : 
TLFamily_PHIE      .         Effective Porosity            : 
TLFamily_PHIEN     .         Effective Porosity            : 
TLFamily_PHIT      .         Porosity                      : 
TLFamily_PRMB      .         Permeability                  : 
TLFamily_PRMB_DGR  .         Permeability                  : 
TLFamily_RT        .         Formation Resistivity         : 
TLFamily_SOIL_ARCHIE .         Oil Saturation                : 
TLFamily_SOIL_DW   .         Oil Saturation                : 
TLFamily_SP        .         Spontaneous Potential         : 
TLFamily_VSH_FIN   .         Shale Volume                  : 
TLFamily_VSH_GR    .         Shale Volume                  : 
TLFamily_VSH_SP    .         Shale Volume                  : 
~Curve Information
#_______________________________________________________________________________
#
#LOGNAME           .UNIT     LOG_ID                        : DESCRIPTION
#_______________________________________________________________________________
DEPT               .M                                      : Колонка глубины 
CALI               .м                                      : Каверномер 
CILD               .мСм/м                                  : Индукционный каротаж зондом 6Ф1 
COLL               .unitless                               : Описание 
CSAT               .unitless                               : Описание 
GR                 .uR/h                                   : Гамма каротаж 
GZ3                .Ohmm                                   :  
LLS                .Ohmm                                   : Боковой каротаж 
MINV               .Ohmm                                   : Микро-градиент зонд 
MNOR               .Ohmm                                   : Микро-потенциал зонд 
NGLD               .у.е.                                   : Показания зонда НГК-60 аппаратуры ДРСТ-3-90 
OGZ                .Ohmm                                   : Обращенный градиент-зонд 
PHIE               .v/v                                    : Описание 
PHIEN              .v/v                                    :  
PHIT               .v/v                                    : Описание 
PRMB               .mD                                     :  
PRMB_DGR           .mD                                     :  
RT                 .ohmm                                   : Удельное электрическое сопротивление 
SOIL_ARCHIE        .v/v                                    :  
SOIL_DW            .v/v                                    :  
SP                 .мВ                                     : Потенциал самополяризации 
VSH_FIN            .v/v                                    : Описание 
VSH_GR             .v/v                                    : Shale volume 
VSH_SP             .v/v                                    : Shale Volume 
~Ascii
# ...
1005.4     0.333      0.348      -9999      -9999      4.472      2.326      2.175      1.833      1.649      0.94       2.559      0.1667035  0.1667035  0.314      3.426981   7.729714   2.474      0.3040863  0.5148693  64.782     0.446353   0.2814799  0.6112261 
1005.6     0.338      0.351      -9999      -9999      4.465      2.346      2.142      1.754      1.478      0.945      2.534      0.1662202  0.1662202  0.312625   3.357069   7.815716   2.449      0.2989913  0.5105382  64.731     0.4436508  0.280211   0.6070905 
1005.8     0.337      0.349      -9999      -9999      4.438      2.219      2.107      1.714      1.453      0.942      2.457      0.1656736  0.1656736  0.31345    3.279711   8.156496   2.465      0.2991224  0.5122884  64.908     0.4478072  0.2753701  0.6202443 
1006       0.336      0.347      -9999      -9999      4.429      2.178      2.086      1.699      1.464      0.939      2.431      0.1634788  0.1634788  0.314275   2.986631   8.273365   2.482      0.2932171  0.5122212  65.168     0.4569583  0.2737751  0.6401414 
1006.2     0.334      0.348      -9999      -9999      4.416      2.137      2.078      1.697      1.501      0.935      2.442      0.1592457  0.1592457  0.315375   2.493298   8.44513    2.474      0.2757851  0.5075103  65.602     0.4731192  0.2714876  0.6747508 
1006.4     0.337      0.351      -9999      -9999      4.444      2.086      2.084      1.702      1.471      0.932      2.452      0.1537147  0.1537147  0.3162     1.969367   8.07951    2.449      0.249573   0.4990535  66.006     0.4923798  0.2764385  0.7083211 
1006.6     0.336      0.352      -9999      -9999      4.457      2.111      2.092      1.715      1.462      0.928      2.493      0.1502015  0.1502015  0.3173     1.69533    7.915181   2.441      0.2331321  0.4948858  66.305     0.5063591  0.2787678  0.7339504 
1006.8     0.333      0.353      -9999      -9999      4.505      2.132      2.098      1.742      1.47       0.925      2.493      0.1478074  0.1478074  0.318125   1.530766   7.336856   2.433      0.2211259  0.4917899  66.43      0.5161141  0.2875396  0.7446885 
1007       0.33       0.352      -9999      -9999      4.53       2.132      2.102      1.778      1.515      0.925      2.39       0.1478538  0.1478538  0.318125   1.533803   7.052581   2.441      0.2225377  0.4926836  66.378     0.5159733  0.2922169  0.7397296 
1007.2     0.331      0.353      -9999      -9999      4.589      2.132      2.107      1.765      1.514      0.925      2.385      0.1488189  0.1488189  0.318125   1.598248   6.424599   2.433      0.2257386  0.4930984  66.186     0.5130489  0.3035594  0.7225385 
1007.4     0.321      0.355      -9999      -9999      4.623      2.142      2.112      1.733      1.487      0.929      2.429      0.1503998  0.1503998  0.317025   1.709729   6.088437   2.417      0.230453   0.4923652  65.922     0.5049248  0.3102946  0.699555  
1007.6     0.311      0.356      -9999      -9999      4.667      2.152      2.116      1.688      1.477      0.933      2.472      0.1513409  0.1513409  0.315925   1.779748   5.679386   2.409      0.2334307  0.4916328  65.671     0.4987397  0.319233   0.6782464 
1007.8     0.3        0.356      -9999      -9999      4.716      2.162      2.115      1.684      1.489      0.937      2.498      0.1499146  0.1499146  0.314825   1.674713   5.256102   2.409      0.2270826  0.4886951  65.574     0.4997285  0.3294906  0.6699663 
1008       0.305      0.357      -9999      -9999      4.731      2.173      2.114      1.686      1.53       0.929      2.447      0.1498865  0.1498865  0.317025   1.672703   5.132948   2.401      0.2257486  0.4900154  65.703     0.5064804  0.3326961  0.6802647 
1008.2     0.313      0.359      -9999      -9999      4.745      2.173      2.107      1.691      1.54       0.922      2.434      0.1473481  0.1473481  0.31895    1.501075   5.020607   2.386      0.2118302  0.4870335  65.993     0.5200058  0.335716   0.7042955 
1008.4     0.32       0.362      -9999      -9999      4.759      2.173      2.089      1.699      1.505      0.913      2.421      0.144749   0.144749   0.321425   1.34357    4.910725   2.362      0.1957117  0.4834701  66.317     0.5353819  0.3387633  0.7320005 
1008.6     0.325      0.365      -9999      -9999      4.744      2.173      2.061      1.71       1.463      0.911      2.462      0.1415991  0.1415991  0.321975   1.174674   5.02855    2.34       0.1765433  0.4773236  66.609     0.5465935  0.3354994  0.7576877 
1008.8     0.326      0.365      -9999      -9999      4.738      2.173      2.034      1.721      1.463      0.912      2.482      0.1389186  0.1389186  0.3217     1.047775   5.076467   2.34       0.1627219  0.4733149  66.787     0.553883   0.3342026  0.7735633 
1009       0.326      0.364      -9999      -9999      4.744      2.173      2.015      1.725      1.481      0.92       2.503      0.1369406  0.1369406  0.3195     0.9630104  5.02855    2.347      0.1533861  0.4690106  66.762     0.5532101  0.3354994  0.7709209 
1009.2     0.328      0.362      -9999      -9999      4.79       2.127      2.009      1.708      1.472      0.935      2.529      0.1345251  0.1345251  0.315375   0.8687375  4.675896   2.362      0.1427278  0.462823   66.54      0.5480301  0.3456098  0.7504505 
1009.4     0.33       0.358      -9999      -9999      4.837      2.114      2.018      1.689      1.41       0.951      2.503      0.1323954  0.1323954  0.310975   0.793309   4.341109   2.393      0.1360326  0.4583809  66.268     0.5411503  0.3562547  0.7260459 
1009.6     0.333      0.355      -9999      -9999      4.877      2.101      2.04       1.672      1.378      0.965      2.503      0.1301122  0.1301122  0.307125   0.7197003  4.075132   2.417      0.1269411  0.4533252  66.054     0.5364025  0.365572   0.7072329 
1009.8     0.339      0.351      -9999      -9999      4.873      2.088      2.068      1.681      1.379      0.968      2.503      0.1313028  0.1313028  0.3063     0.7571894  4.100977   2.449      0.1391696  0.4578149  65.925     0.5302945  0.3646295  0.6959596 
1010       0.348      0.348      -9999      -9999      4.851      2.075      2.095      1.704      1.441      0.964      2.564      0.1342191  0.1342191  0.3074     0.8574736  4.246099   2.474      0.1594982  0.4661447  65.859     0.5247907  0.3594884  0.690093  
1010.2     0.354      0.345      -9999      -9999      4.831      2.075      2.122      1.719      1.496      0.961      2.587      0.1355253  0.1355253  0.308225   0.9065977  4.382476   2.499      0.170481   0.4716229  65.883     0.5233325  0.3548777  0.6917874 
1010.4     0.351      0.343      -9999      -9999      4.846      2.075      2.145      1.725      1.507      0.962      2.61       0.1342202  0.1342202  0.30795    0.857514   4.279787   2.515      0.1659621  0.47111    65.92      0.526454   0.3583302  0.6945779 
1010.6     0.339      0.342      -9999      -9999      4.876      2.075      2.166      1.72       1.483      0.963      2.61       0.1327723  0.1327723  0.307675   0.806165   4.081578   2.524      0.1594566  0.4696261  65.925     0.5300081  0.3653362  0.69468   
1010.8     0.325      0.341      -9999      -9999      4.914      2.096      2.179      1.722      1.448      0.962      2.61       0.1315756  0.1315756  0.30795    0.76605    3.843634   2.533      0.1542158  0.46909    65.927     0.5344679  0.3744075  0.6945285 
1011       0.317      0.342      -9999      -9999      4.945      2.116      2.182      1.72       1.45       0.963      2.61       0.1294505  0.1294505  0.307675   0.6996747  3.659833   2.524      0.1407019  0.464637   65.974     0.5400741  0.3819743  0.6981739 
1011.2     0.317      0.343      -9999      -9999      4.933      2.127      2.171      1.711      1.459      0.965      2.631      0.1295513  0.1295513  0.307125   0.7026871  3.729916   2.515      0.1398432  0.4632274  65.966     0.5381022  0.3790272  0.6971772 
1011.4     0.322      0.345      -9999      -9999      4.885      2.137      2.152      1.705      1.43       0.959      2.651      0.1346859  0.1346859  0.308775   0.874719   4.023922   2.499      0.1659807  0.4709924  65.856     0.5275426  0.3674646  0.6876206 
