~Version
 VERS              .         2.0                           : CWLS LOG ASCII STANDARD - VERSION 2.0
 WRAP              .         NO                            : ONE LINE PER DEPTH STEP
 DLM               .         SPACE                         : DELIMITING CHARACTER(SPACE TAB OR COMMA)
~Well Information
#_______________________________________________________________________________
#
#PARAMETER_NAME    .UNIT     VALUE                         : DESCRIPTION
#_______________________________________________________________________________
STRT               .M        900                           : First reference value
STOP               .M        1180                          : Last reference value
STEP               .M        0.2                           : Step increment
NULL               .         -9999                         : Missing value
COMP               .                                       : Company
WELL               .         1666                          : Well name
FLD                .         УЗЕНЬ                         : Field
LOC                .                                       : Location
CNTY               .                                       : County
STAT               .                                       : State
CTRY               .                                       : Country
SRVC               .                                       : Service Company
DATE               .         8.10.97                       : Date
UWI                .         1666                          : Unique Well ID
Block              .         6а                            : 
Category           .         Нефтяная                      : 
Condition          .         Ликвидированная               : 
Date               .         23.09.1999                    : 
EREF               .m        79.7                          : 100.8
Gorizont           .         13                            : 14
Interpretator      .         Ким С.В.                      : 
Kupol              .         основной                      : osnovnoi
Mud                .         0                             : 
Mud_density        .         0                             : 
Mud_resistivity    .         0                             : 
NGDU               .         НГДУ-2                        : 
ORIGINALWELLNAME   .         1666                          : 
Spud_date          .         1997                          : 1961
Viscosity          .         0                             : 
X                  .m        44303.6                       : 46154
Y                  .m        85296.03                      : 85761.93
YEAR               .         2019                          : 
~Parameter Information Block
#_______________________________________________________________________________
#
#PARAMETER_NAME    .UNIT     VALUE                         : DESCRIPTION
#_______________________________________________________________________________
SET                .         LQC_KAZNIPI_Petrel            : 
GSDD               .         CSAT                          : CSATкрив,0,DEPT,BOTTOM,,,,0
TLFamily_CALI      .         Caliper                       : 
TLFamily_CILD      .         Conductivity                  : 
TLFamily_COLL      .         Net Reservoir Flag            : 
TLFamily_CSAT      .         Fluid Code                    : 
TLFamily_DEPT      .         Measured Depth                : 
TLFamily_GR        .         Russian Gamma Ray             : 
TLFamily_GZ3       .         Gradient 225                  : 
TLFamily_LLS       .         Lateral Log Resistivity       : 
TLFamily_MINV      .         Micro Gradient Resistivity    : 
TLFamily_MNOR      .         Micro Resistivity             : 
TLFamily_NGLD      .         Neutron Gamma                 : 
TLFamily_OGZ       .         Gradient Inverted 225         : 
TLFamily_PHIE      .         Effective Porosity            : 
TLFamily_PHIEN     .         Effective Porosity            : 
TLFamily_PHIT      .         Porosity                      : 
TLFamily_PRMB      .         Permeability                  : 
TLFamily_PRMB_DGR  .         Permeability                  : 
TLFamily_RT        .         Formation Resistivity         : 
TLFamily_SOIL_ARCHIE .         Oil Saturation                : 
TLFamily_SOIL_DW   .         Oil Saturation                : 
TLFamily_SP        .         Spontaneous Potential         : 
TLFamily_VSH_FIN   .         Shale Volume                  : 
TLFamily_VSH_GR    .         Shale Volume                  : 
TLFamily_VSH_SP    .         Shale Volume                  : 
~Curve Information
#_______________________________________________________________________________
#
#LOGNAME           .UNIT     LOG_ID                        : DESCRIPTION
#_______________________________________________________________________________
DEPT               .M                                      : Колонка глубины 
CALI               .м                                      : Каверномер 
CILD               .мСм/м                                  : Индукционный каротаж зондом 6Ф1 
COLL               .unitless                               : Описание 
CSAT               .unitless                               : Описание 
GR                 .uR/h                                   : Гамма каротаж 
GZ3                .Ohmm                                   :  
LLS                .Ohmm                                   : Боковой каротаж 
MINV               .Ohmm                                   : Микро-градиент зонд 
MNOR               .Ohmm                                   : Микро-потенциал зонд 
NGLD               .у.е.                                   : Показания зонда НГК-60 аппаратуры ДРСТ-3-90 
OGZ                .Ohmm                                   : Обращенный градиент-зонд 
PHIE               .v/v                                    : Описание 
PHIEN              .v/v                                    :  
PHIT               .v/v                                    : Описание 
PRMB               .mD                                     :  
PRMB_DGR           .mD                                     :  
RT                 .ohmm                                   : Удельное электрическое сопротивление 
SOIL_ARCHIE        .v/v                                    :  
SOIL_DW            .v/v                                    :  
SP                 .мВ                                     : Потенциал самополяризации 
VSH_FIN            .v/v                                    : Описание 
VSH_GR             .v/v                                    : Shale volume 
VSH_SP             .v/v                                    : Shale Volume 
~Ascii
# ...
1166.6     -9999      0.676      -9999      -9999      5.627      -9999      1.797      -9999      -9999      0.946      -9999      0.1563772  0.1563772  0.31235    2.206187   16.87394   1.08       0          0.2449111  66.826     0.472645   0.2046448  0.4726451 
1166.8     -9999      0.678      -9999      -9999      5.781      -9999      1.835      -9999      -9999      0.96       -9999      0.1482896  0.1482896  0.3085     1.562578   9.305347   1.075      0          0.2216842  67.033     0.485486   0.2609446  0.4854859 
1167       -9999      0.668      -9999      -9999      5.914      -9999      1.858      -9999      -9999      0.984      -9999      0.1374316  0.1374316  0.3019     0.9833885  5.565411   1.097      0          0.1963086  67.236     0.498389   0.3218865  0.4983887 
1167.2     -9999      0.662      -9999      -9999      5.946      -9999      1.89       -9999      -9999      1.004      -9999      0.128661   0.128661   0.2964     0.6765066  4.917975   1.111      0          0.1719883  67.388     0.5083     0.3385593  0.5082999 
1167.4     -9999      0.665      -9999      -9999      5.72       -9999      1.938      -9999      -9999      1.021      -9999      0.1224894  0.1224894  0.291725   0.5199476  11.7793    1.104      0          0.1456151  67.455     0.512835   0.2369956  0.5128348 
1167.6     -9999      0.679      -9999      -9999      5.576      -9999      2          -9999      -9999      1.032      -9999      0.1222955  0.1222955  0.2887     0.5156654  20.55027   1.072      0          0.1267214  67.319     0.504256   0.1888196  0.5042561 
1167.8     -9999      0.696      -9999      -9999      5.592      -9999      2.054      -9999      -9999      1.035      -9999      0.1243214  0.1243214  0.287875   0.5622015  19.31802   1.037      0          0.1158933  67.18      0.495617   0.1936479  0.4956169 
1168       -9999      0.709      -9999      -9999      5.76       -9999      2.097      -9999      -9999      1.034      -9999      0.1261081  0.1261081  0.28815    0.6067171  10.09207   1.01       0          0.1094245  67.104     0.491036   0.2524385  0.4910356 
1168.2     -9999      0.714      -9999      -9999      5.907      -9999      2.112      -9999      -9999      1.036      -9999      0.1248338  0.1248338  0.2876     0.5746221  5.718029   1.001      0          0.1009678  67.136     0.493231   0.3183503  0.4932309 
1168.4     -9999      0.703      -9999      -9999      5.979      -9999      2.102      -9999      -9999      1.029      -9999      0.1251559  0.1251559  0.289525   0.5825722  4.329092   1.023      0          0.1152572  67.21      0.498088   0.3566581  0.4980881 
1168.6     -9999      0.682      -9999      -9999      6.01       -9999      2.078      -9999      -9999      1.022      -9999      0.1219739  0.1219739  0.29145    0.50864    3.840292   1.066      0          0.1286506  67.448     0.513564   0.3745404  0.5135643 
1168.8     -9999      0.666      -9999      -9999      6.079      -9999      2.051      -9999      -9999      1.028      -9999      0.1122313  0.1122313  0.2898     0.3357019  2.941377   1.102      0          0.1134422  67.814     0.538087   0.4176276  0.5380874 
1169       -9999      0.651      -9999      -9999      6.133      -9999      2.025      -9999      -9999      1.039      -9999      0.1012658  0.1012658  0.286775   0.2103036  2.387338   1.136      0          0.08816759 68.159     0.562149   0.4547778  0.5621493 
1169.2     -9999      0.645      -9999      -9999      6.201      -9999      2.004      -9999      -9999      1.033      -9999      0.09963498 0.09963498 0.288425   0.1961731  1.835599   1.15       0          0.0919735  68.296     0.572091   0.5062964  0.5720915 
1169.4     -9999      0.643      -9999      -9999      6.259      -9999      1.993      -9999      -9999      1.026      -9999      0.1018421  0.1018421  0.29035    0.2155365  1.466992   1.156      0          0.1051172  68.281     0.571236   0.5548252  0.5712363 
1169.6     -9999      0.64       -9999      -9999      6.31       -9999      1.994      -9999      -9999      1.028      -9999      0.1026778  0.1026778  0.2898     0.2233572  1.204552   1.163      0          0.1092695  68.219     0.567037   0.6013264  0.5670374 
1169.8     -9999      0.633      -9999      -9999      6.288      -9999      2.006      -9999      -9999      1.034      -9999      0.102428   0.102428   0.28815    0.2209899  1.31145    1.18       0          0.1116672  68.156     0.562794   0.5808074  0.5627942 
1170       -9999      0.612      -9999      -9999      6.256      -9999      2.03       -9999      -9999      1.039      -9999      0.1016796  0.1016796  0.286775   0.2140482  1.484098   1.235      0          0.1267283  68.126     0.560895   0.5522048  0.5608953 
1170.2     -9999      0.576      -9999      -9999      6.236      -9999      2.065      -9999      -9999      1.042      -9999      0.09795658 0.09795658 0.28595    0.1826213  1.603363   1.336      0          0.1477801  68.247     0.569677   0.5350481  0.569677  
1170.4     -9999      0.562      -9999      -9999      6.253      -9999      2.099      -9999      -9999      1.045      -9999      0.08920567 0.08920567 0.285125   0.1257371  1.501408   1.382      0          0.1331422  68.575     0.593695   0.5495964  0.5936949 
1170.6     -9999      0.548      -9999      -9999      6.257      -9999      2.124      -9999      -9999      1.053      -9999      0.07648921 0.07648921 0.282925   0.07310108 1.478374   1.425      0          0.09726896 68.994     0.625563   0.5530769  0.6255629 
1170.8     -9999      0.527      -9999      -9999      6.254      -9999      2.138      -9999      -9999      1.059      -9999      0.06390499 0.06390499 0.281275   0.04273989 1.495613   1.498      0          0.06514154 69.411     0.658697   0.5504648  0.6586967 
1171       -9999      0.513      -9999      -9999      6.25       -9999      2.134      -9999      -9999      1.06       -9999      0.05093985 0.05093985 0.281      0.02458599 1.518915   1.549      0          0.01813447 69.874     0.697152   0.5470008  0.697152  
1171.2     -9999      0.508      -9999      -9999      6.247      -9999      2.115      -9999      -9999      1.053      -9999      0.03884249 0.03884249 0.282925   0.01467625 1.536627   1.568      0          0          70.362     0.739644   0.5444174  0.7396438 
1171.4     -9999      0.505      -9999      -9999      6.247      -9999      2.084      -9999      -9999      1.046      -9999      0.03029426 0.03029426 0.28485    0.01019251 2.866436   1.58       0          0          70.711     0.771381   0.422052   0.7713811 
1171.6     -9999      0.501      -9999      -9999      6.248      -9999      2.049      -9999      -9999      1.038      -9999      0.0288415  0.0288415  0.28705    0.009580155 2.856173   1.596      0          0          70.828     0.78245    0.4226707  0.7824504 
1171.8     -9999      0.499      -9999      -9999      6.248      -9999      2.016      -9999      -9999      1.034      -9999      0.03194459 0.03194459 0.28815    0.01093577 2.856173   1.604      0          0          70.746     0.77638    0.4226707  0.7763795 
1172       -9999      0.498      -9999      -9999      6.248      -9999      1.997      -9999      -9999      1.03       -9999      0.03796392 0.03796392 0.28925    0.0141365  2.856173   1.608      0          0          70.583     0.761473   0.4226707  0.7614731 
1172.2     -9999      0.498      -9999      -9999      6.248      -9999      2.003      -9999      -9999      1.025      -9999      0.04427011 0.04427011 0.290625   0.01849898 2.856173   1.608      0          0.02469674 70.417     0.74653    0.4226707  0.7465302 
1172.4     -9999      0.498      -9999      -9999      6.248      -9999      2.06       -9999      -9999      1.02       -9999      0.05119274 0.05119274 0.292      0.0248526  2.856173   1.608      0          0.0641697  70.227     0.729719   0.4226707  0.7297189 
1172.6     -9999      0.499      -9999      -9999      6.248      -9999      2.187      -9999      -9999      1.015      -9999      0.05993762 0.05993762 0.293375   0.03608678 2.856173   1.604      0          0.1063083  69.969     0.707386   0.4226707  0.7073855 
