~Version
 VERS              .         2.0                           : CWLS LOG ASCII STANDARD - VERSION 2.0
 WRAP              .         NO                            : ONE LINE PER DEPTH STEP
 DLM               .         SPACE                         : DELIMITING CHARACTER(SPACE TAB OR COMMA)
~Well Information
#_______________________________________________________________________________
#
#PARAMETER_NAME    .UNIT     VALUE                         : DESCRIPTION
#_______________________________________________________________________________
STRT               .M        900                           : First reference value
STOP               .M        1180                          : Last reference value
STEP               .M        0.2                           : Step increment
NULL               .         -9999                         : Missing value
COMP               .                                       : Company
WELL               .         1666                          : Well name
FLD                .         УЗЕНЬ                         : Field
LOC                .                                       : Location
CNTY               .                                       : County
STAT               .                                       : State
CTRY               .                                       : Country
SRVC               .                                       : Service Company
DATE               .         8.10.97                       : Date
UWI                .         1666                          : Unique Well ID
Block              .         6а                            : 
Category           .         Нефтяная                      : 
Condition          .         Ликвидированная               : 
Date               .         23.09.1999                    : 
EREF               .m        79.7                          : 100.8
Gorizont           .         13                            : 14
Interpretator      .         Ким С.В.                      : 
Kupol              .         основной                      : osnovnoi
Mud                .         0                             : 
Mud_density        .         0                             : 
Mud_resistivity    .         0                             : 
NGDU               .         НГДУ-2                        : 
ORIGINALWELLNAME   .         1666                          : 
Spud_date          .         1997                          : 1961
Viscosity          .         0                             : 
X                  .m        44303.6                       : 46154
Y                  .m        85296.03                      : 85761.93
YEAR               .         2019                          : 
~Parameter Information Block
#_______________________________________________________________________________
#
#PARAMETER_NAME    .UNIT     VALUE                         : DESCRIPTION
#_______________________________________________________________________________
SET                .         LQC_KAZNIPI_Petrel            : 
GSDD               .         CSAT                          : CSATкрив,0,DEPT,BOTTOM,,,,0
TLFamily_CALI      .         Caliper                       : 
TLFamily_CILD      .         Conductivity                  : 
TLFamily_COLL      .         Net Reservoir Flag            : 
TLFamily_CSAT      .         Fluid Code                    : 
TLFamily_DEPT      .         Measured Depth                : 
TLFamily_GR        .         Russian Gamma Ray             : 
TLFamily_GZ3       .         Gradient 225                  : 
TLFamily_LLS       .         Lateral Log Resistivity       : 
TLFamily_MINV      .         Micro Gradient Resistivity    : 
TLFamily_MNOR      .         Micro Resistivity             : 
TLFamily_NGLD      .         Neutron Gamma                 : 
TLFamily_OGZ       .         Gradient Inverted 225         : 
TLFamily_PHIE      .         Effective Porosity            : 
TLFamily_PHIEN     .         Effective Porosity            : 
TLFamily_PHIT      .         Porosity                      : 
TLFamily_PRMB      .         Permeability                  : 
TLFamily_PRMB_DGR  .         Permeability                  : 
TLFamily_RT        .         Formation Resistivity         : 
TLFamily_SOIL_ARCHIE .         Oil Saturation                : 
TLFamily_SOIL_DW   .         Oil Saturation                : 
TLFamily_SP        .         Spontaneous Potential         : 
TLFamily_VSH_FIN   .         Shale Volume                  : 
TLFamily_VSH_GR    .         Shale Volume                  : 
TLFamily_VSH_SP    .         Shale Volume                  : 
~Curve Information
#_______________________________________________________________________________
#
#LOGNAME           .UNIT     LOG_ID                        : DESCRIPTION
#_______________________________________________________________________________
DEPT               .M                                      : Колонка глубины 
CALI               .м                                      : Каверномер 
CILD               .мСм/м                                  : Индукционный каротаж зондом 6Ф1 
COLL               .unitless                               : Описание 
CSAT               .unitless                               : Описание 
GR                 .uR/h                                   : Гамма каротаж 
GZ3                .Ohmm                                   :  
LLS                .Ohmm                                   : Боковой каротаж 
MINV               .Ohmm                                   : Микро-градиент зонд 
MNOR               .Ohmm                                   : Микро-потенциал зонд 
NGLD               .у.е.                                   : Показания зонда НГК-60 аппаратуры ДРСТ-3-90 
OGZ                .Ohmm                                   : Обращенный градиент-зонд 
PHIE               .v/v                                    : Описание 
PHIEN              .v/v                                    :  
PHIT               .v/v                                    : Описание 
PRMB               .mD                                     :  
PRMB_DGR           .mD                                     :  
RT                 .ohmm                                   : Удельное электрическое сопротивление 
SOIL_ARCHIE        .v/v                                    :  
SOIL_DW            .v/v                                    :  
SP                 .мВ                                     : Потенциал самополяризации 
VSH_FIN            .v/v                                    : Описание 
VSH_GR             .v/v                                    : Shale volume 
VSH_SP             .v/v                                    : Shale Volume 
~Ascii
# ...
1110.8     0.222      0.42       -9999      -9999      6.33       2.949      3.04       4.118      3.556      1.133      3.398      0.033027   0.033027   0.260925   0.01145245 1.114953   1.981      0          0          71.407     0.6906     0.6206085  0.7605915 
1111       0.23       0.445      -9999      -9999      6.306      2.687      2.822      4.08       3.403      1.131      3.111      0.03403264 0.03403264 0.261475   0.01195433 1.223318   1.847      0          0          71.652     0.6892192  0.5975428  0.7808957 
1111.2     0.235      0.456      -9999      -9999      6.325      2.897      2.638      3.497      2.784      1.13       2.967      0.03209001 0.03209001 0.26175    0.01100381 1.136708   1.796      0          0          71.624     0.6959394  0.6157306  0.7761481 
1111.4     0.235      0.461      -9999      -9999      6.384      3.169      2.496      3.204      2.444      1.124      2.706      0.02957842 0.02957842 0.2634     0.009886036 0.9049401  1.769      0          0          71.262     0.7085503  0.6758149  0.7412857 
1111.6     0.236      0.472      -9999      -9999      6.42       3.282      2.458      3.159      2.388      1.114      2.332      0.03262915 0.03262915 0.26615    0.01125976 0.7873986  1.719      0          0          70.809     0.707639   0.7153216  0.6999564 
1111.8     0.232      0.48       -9999      -9999      6.417      3.113      2.476      3.112      2.33       1.109      2.132      0.04221492 0.04221492 0.267525   0.01694653 0.7965817  1.684      0          0          70.243     0.6827579  0.7119427  0.653573  
1112       0.226      0.484      -9999      -9999      6.27       3.087      2.528      3.163      2.374      1.108      2.024      0.07702765 0.07702765 0.2678     0.0747992  1.405932   1.666      0          0.1355294  69.434     0.578098   0.5645409  0.5916551 
1112.2     0.22       0.491      -9999      -9999      6.104      3.339      2.582      3.22       2.423      1.105      2.096      0.1125515  0.1125515  0.268625   0.3403181  2.670477   1.636      0          0.2371972  68.272     0.47295    0.4344338  0.5114661 
1112.4     0.216      0.505      1          2          6.006      3.728      2.638      3.287      2.484      1.101      2.204      0.1365708  0.1365708  0.269725   0.9479375  3.900125   1.58       0          0.2801971  66.998     0.4034978  0.3721835  0.434812  
1112.6     0.212      0.533      1          2          5.934      3.98       2.673      3.316      2.509      1.101      2.265      0.1550206  0.1550206  0.269725   2.082167   5.151433   1.476      0.05528539 0.2912629  65.594     0.3475892  0.3322081  0.3629702 
1112.8     0.21       0.538      1          2          5.85       4.082      2.654      3.343      2.534      1.095      2.214      0.1731314  0.1731314  0.271375   4.507871   7.127201   1.459      0.1372845  0.3204907  64.221     0.2977079  0.2909637  0.304452  
1113       0.211      0.547      1          2          5.83       3.708      2.577      3.313      2.563      1.086      2.235      0.1827383  0.1827383  0.27385    6.790708   7.699955   1.431      0.1694044  0.3323747  63.273     0.276096   0.2819236  0.2702684 
1113.2     0.21       0.569      1          2          5.832      3.385      2.489      3.108      2.342      1.079      2.511      0.1858994  0.1858994  0.275775   7.770802   7.640672   1.357      0.1610741  0.3220134  63.016     0.2723503  0.2828147  0.2618859 
1113.4     0.209      0.583      1          2          5.833      3.523      2.387      2.821      2.13       1.081      2.721      0.1839532  0.1839532  0.275225   7.151827   7.611189   1.316      0.1410717  0.3077502  63.256     0.2765813  0.2832616  0.269901  
1113.6     0.209      0.604      1          2          5.835      3.631      2.288      2.756      2.064      1.098      3.039      0.1754645  0.1754645  0.27055    4.979499   7.552589   1.256      0.08517638 0.2702754  63.883     0.2881379  0.284157   0.2921189 
1113.8     0.208      0.621      1          2          5.837      3.513      2.203      2.668      1.976      1.12       3.218      0.1644691  0.1644691  0.2645     3.115482   7.494437   1.212      0.01580123 0.227115   64.625     0.3031239  0.2850552  0.3211925 
1114       0.207      0.63       1          2          5.838      2.697      2.139      2.63       1.939      1.145      3.183      0.1526359  0.1526359  0.257625   1.880815   7.465531   1.187      0          0.1824982  65.308     0.3181486  0.2855054  0.3507919 
1114.2     0.204      0.643      -9999      -9999      5.835      2.364      2.063      2.485      1.818      1.167      3.593      0.1428256  0.1428256  0.251575   1.237758   7.552589   1.155      0          0.1368221  65.821     0.3295434  0.284157   0.3749299 
1114.4     0.205      0.689      -9999      -9999      5.833      2.056      1.972      2.401      1.746      1.184      4.028      0.1357235  0.1357235  0.2469     0.9142938  7.611189   1.051      0          0.06620169 66.134     0.3368986  0.2832616  0.3905356 
1114.6     0.21       0.698      -9999      -9999      5.831      2.072      1.897      2.334      1.688      1.195      4.606999   0.1307165  0.1307165  0.243875   0.7384913  7.670256   1.033      0          0.03694072 66.383     0.3429044  0.2823688  0.40344   
1114.8     0.216      0.71       -9999      -9999      5.829      2.015      1.884      2.233      1.613      1.199      4.93       0.1272729  0.1272729  0.242775   0.6376178  7.729773   1.01       0          0.01313696 66.665     0.3500065  0.2814791  0.4185339 
1115       0.217      0.73       -9999      -9999      5.809      1.8        1.917      2.273      1.686      1.192      4.797      0.1287669  0.1287669  0.2447     0.6795695  8.350951   0.97       0          0.002380633 66.87      0.3513123  0.2727336  0.4298911 
1115.2     0.214      0.737      -9999      -9999      5.786      1.713      1.996      2.354      1.812      1.178      4.771      0.1370659  0.1370659  0.24855    0.96817    9.127274   0.957      0          0.02912552 66.549     0.3378305  0.2630116  0.4126494 
1115.4     0.21       0.612      -9999      -9999      5.763      1.662      2.194      2.39       1.887      1.166      4.914999   0.1489358  0.1489358  0.25185    1.606236   9.97574    1.241      0          0.1815392  65.702     0.3118613  0.2536364  0.3700863 
1115.6     0.208      0.496      -9999      -9999      5.74       1.61       2.478      2.431      1.972      1.158      5.248      0.1632296  0.1632296  0.25405    2.95506    10.90311   1.621      0.1356581  0.3133464  64.214     0.2752133  0.2445951  0.3058315 
1115.8     0.207      0.417      1          2          5.713      1.703      2.761      2.476      2.165      1.152      5.448      0.1773529  0.1773529  0.2557     5.397139   12.10232   1.999      0.2712474  0.4045391  62.276     0.2374156  0.234392   0.2404391 
1116       0.207      0.369      1          2          5.646      1.795      3.054      2.276      2.4        1.144      5.561      0.1922191  0.1922191  0.2579     10.17473   15.67926   2.31       0.3651609  0.4668896  60.05      0.1990329  0.2108739  0.1871918 
1116.2     0.207      0.34       1          2          5.582      1.918      3.349      2.249      2.416      1.135      5.873      0.2031267  0.2031267  0.260375   16.20155   20.07925   2.541      0.4214211  0.5060364  58.109     0.1734799  0.1906158  0.1563439 
1116.4     0.208      0.318      1          2          5.49       2.077      3.581      2.254      2.457      1.127      7.406      0.2123348  0.2123348  0.262575   23.99465   28.65274   2.745      0.4631475  0.5357904  56.524     0.1522429  0.164856   0.1396299 
1116.6     0.209      0.297      1          2          5.487      2.364      3.75       2.274      2.486      1.119      7.712999   0.2160406  0.2160406  0.264775   28.10309   28.98685   2.967      0.4901281  0.5588751  55.383     0.14768    0.1640774  0.1312827 
1116.8     0.21       0.268      1          2          5.485      2.595      3.928      2.291      2.502      1.112      8.251      0.2188046  0.2188046  0.2667     31.6191    29.21177   3.331      0.5223952  0.587633   54.549     0.1451377  0.1635603  0.126715  
