~Version
 VERS              .         2.0                           : CWLS LOG ASCII STANDARD - VERSION 2.0
 WRAP              .         NO                            : ONE LINE PER DEPTH STEP
 DLM               .         SPACE                         : DELIMITING CHARACTER(SPACE TAB OR COMMA)
~Well Information
#_______________________________________________________________________________
#
#PARAMETER_NAME    .UNIT     VALUE                         : DESCRIPTION
#_______________________________________________________________________________
STRT               .M        890                           : First reference value
STOP               .M        1196                          : Last reference value
STEP               .M        0.2                           : Step increment
NULL               .         -9999                         : Missing value
COMP               .                                       : Company
WELL               .         1683                          : Well name
FLD                .         Узень                         : Field
LOC                .                                       : Location
CNTY               .                                       : County
STAT               .                                       : State
CTRY               .                                       : Country
SRVC               .                                       : Service Company
DATE               .         31.01.1984                    : Date
UWI                .                                       : Unique Well ID
Block              .         6а                            : 
Cartographic_reference_system .         GCS_WGS_1984                  : ESRI,PE_10_3_1- <?xml version="1.0" encoding="utf-16"?><ILateBoundCoordinateReferenceSystem name="GCS_WGS_1984"><AuthorityCode>EPSG,4326</AuthorityCode></ILateBoundCoordinateReferenceSystem>
Category           .         Нефтяная                      : 
Condition          .         Ликвидированная               : 
Date               .         20.02.1984                    : 
EREF               .m        81                            : 100.8
Gorizont           .         15                            : 14
HZCS               .GCS_WGS_1984 WGS_1984_EASE-Grid_2.0_Global : ESRI,PE_10_3_1- <?xml version="1.0" encoding="utf-16"?><ILateBoundCoordinateReferenceSystem name="WGS_1984_EASE-Grid_2.0_Global"><AuthorityCode>EPSG,6933</AuthorityCode></ILateBoundCoordinateReferenceSystem>
Interpretator      .         Кушербаева А.С                : 
Kupol              .         основной                      : osnovnoi
LATI               .dega     0.6655357802                  : GCS_WGS_1984
LONG               .dega     0.4591046508                  : GCS_WGS_1984
Mud                .                                       : 
Mud_density        .                                       : 
Mud_resistivity    .                                       : 
NGDU               .         НГДУ-2                        : 
ORIGINALWELLNAME   .         1683                          : 
Spud_date          .         1984                          : 1961
Viscosity          .                                       : 
X                  .m        44297.3                       : 46154
Y                  .m        84902.73                      : 85761.93
YEAR               .         2018г                         : 
~Parameter Information Block
#_______________________________________________________________________________
#
#PARAMETER_NAME    .UNIT     VALUE                         : DESCRIPTION
#_______________________________________________________________________________
SET                .         LQC_KAZNIPI_Petrel            : 
TLFamily_CALI      .         Caliper                       : 
TLFamily_CILD      .         Conductivity                  : 
TLFamily_COLL      .         Net Reservoir Flag            : 
TLFamily_CSAT      .         Fluid Code                    : 
TLFamily_DEPT      .         Measured Depth                : 
TLFamily_GR        .         Russian Gamma Ray             : 
TLFamily_GZ1       .         Gradient 045                  : 
TLFamily_GZ2       .         Gradient 105                  : 
TLFamily_GZ3       .         Gradient 225                  : 
TLFamily_GZ4       .         Gradient 425                  : 
TLFamily_GZ5       .         Gradient 850                  : 
TLFamily_LLS       .         Lateral Log Resistivity       : 
TLFamily_MINV      .         Micro Gradient Resistivity    : 
TLFamily_MNOR      .         Micro Resistivity             : 
TLFamily_OGZ       .         Gradient Inverted 225         : 
TLFamily_RT        .         Formation Resistivity         : 
TLFamily_SP        .         Spontaneous Potential         : 
TLFamily_VSH_FIN   .         Shale Volume                  : 
TLFamily_VSH_GR    .         Shale Volume                  : 
TLFamily_VSH_SP    .         Shale Volume                  : 
~Curve Information
#_______________________________________________________________________________
#
#LOGNAME           .UNIT     LOG_ID                        : DESCRIPTION
#_______________________________________________________________________________
DEPT               .M                                      : Колонка глубины 
CALI               .м                                      : Каверномер 
CILD               .мСм/м                                  : Индукционный каротаж 
COLL               .unitless                               :  
CSAT               .unitless                               :  
GR                 .uR/h                                   : Гамма каротаж 
GZ1                .Ohmm                                   : Градиент-зонд  длиной 0.45м 
GZ2                .Ohmm                                   : Градиент-зонд  длиной 1.05м 
GZ3                .Ohmm                                   : Градиент-зонд  длиной 2.25м 
GZ4                .Ohmm                                   : Градиент-зонд  длиной 4.5м 
GZ5                .Ohmm                                   : Градиент-зонд  длиной 8.5м 
LLS                .Ohmm                                   : Боковой каротаж 
MINV               .Ohmm                                   : Микро-градиент зонд 
MNOR               .Ohmm                                   : Микро-потенциал зонд 
OGZ                .Ohmm                                   : Обращенный градиент-зонд 
RT                 .Ohmm                                   : УЭС пласта 
SP                 .мВ                                     : Потенциал самополяризации 
VSH_FIN            .v/v                                    : Описание 
VSH_GR             .v/v                                    : Shale volume 
VSH_SP             .v/v                                    : Shale Volume 
~Ascii
# ...
1126.8     0.215      372.109    8          2          8.424      2.188      3.321      2.725      1.763      1.8        2.128      2.694      1.975      2.26       2.688      51.041     0.2856593  0.3479692  0.2233494 
1127       0.214      377.342    8          2          8.339      2.163      3.233      2.625      1.8        1.738      2.089      2.445      1.699      2.197      2.651      51.125     0.2781287  0.3312644  0.224993  
1127.2     0.214      384.877    8          2          8.065      1.987      3.044      2.512      1.825      1.663      2.056      2.108      1.438      2.134      2.599      51.188     0.2545156  0.2826837  0.2263476 
1127.4     0.214      393.04     8          2          7.976      1.823      2.969      2.411      1.788      1.6        2.046      1.977      1.549      2.084      2.545      51.209     0.2477939  0.2684908  0.2270971 
1127.6     0.214      399.529    8          2          8.05       1.748      2.918      2.323      1.75       1.525      1.99       1.73       1.683      2.021      2.503      51.125     0.2532754  0.2802402  0.2263105 
1127.8     0.214      404.343    8          2          8.151      1.66       2.767      2.21       1.712      1.425      1.949      1.44       1.957      1.958      2.473      50.957     0.2607121  0.2971107  0.2243134 
1128       0.214      407.483    8          2          8.238      1.597      2.616      2.16       1.675      1.363      1.937      1.356      1.846      2.034      2.454      50.726     0.2669521  0.3124547  0.2214496 
1128.2     0.214      408.948    8          2          8.32       1.571      2.465      2.085      1.65       1.325      1.964      1.494      1.84       2.21       2.445      50.431     0.2726988  0.3276415  0.2177561 
1128.4     0.214      407.692    8          2          8.521      1.546      2.352      2.047      1.638      1.288      2.017      1.96       1.748      2.285      2.453      50.179     0.2913993  0.3680639  0.2147346 
1128.6     0.214      403.925    8          2          8.571      1.483      2.314      2.06       1.688      1.275      2.053      1.776      1.704      2.436      2.476      49.989     0.2957346  0.3788711  0.212598  
1128.8     0.215      397.855    8          2          8.443      1.534      2.327      2.11       1.688      1.263      2.058      1.649      1.779      2.549      2.514      49.863     0.2815752  0.351817   0.2113334 
1129       0.215      390.319    8          2          8.234      1.584      2.277      2.16       1.725      1.3        2.048      1.609      1.625      2.712      2.563      49.569     0.259822   0.3117322  0.2079118 
1129.2     0.215      381.528    8          2          8.152      1.647      2.314      2.21       1.738      1.325      2.083      2.119      1.823      2.925      2.622      49.336     0.2513125  0.2972828  0.2053421 
1129.4     0.215      374.412    8          2          8.312      1.622      2.403      2.261      1.775      1.35       2.081      2.284      1.762      3.189      2.671      49.106     0.2644948  0.326128   0.2028616 
1129.6     0.215      366.667    8          2          8.356      1.71       2.553      2.323      1.813      1.375      2.088      2.347      2.086      3.403      2.728      48.538     0.2654854  0.33454    0.1964308 
1129.8     0.215      365.202    8          2          8.495      1.748      2.541      2.411      1.9        1.413      2.142      2.23       2.222      3.528      2.739      48.076     0.2770446  0.3625666  0.1915227 
1130       0.215      371.9      8          2          8.466      1.697      2.553      2.499      2          1.462      2.261      2.173      2.287      3.365      2.692      47.971     0.2736135  0.3565317  0.1906953 
1130.2     0.215      382.156    8          2          8.405      1.785      2.692      2.537      2.125      1.5        2.284      2.137      2.164      3.478      2.619      48.307     0.2694874  0.3441636  0.1948113 
1130.4     0.215      385.505    8          2          8.012      1.961      2.893      2.487      2.2        1.55       2.192      2.315      1.921      3.767      2.595      48.959     0.2385283  0.2741439  0.2029126 
1130.6     0.215      379.226    8          2          7.854      2.175      3.044      2.386      2.188      1.525      2.134      2.491      1.798      4.169      2.638      49.989     0.2334275  0.250186   0.2166691 
1130.8     0.214      372.318    8          2          7.858      2.1        2.868      2.235      2.075      1.525      2.161      2.581      1.725      4.659      2.686      51.272     0.2432779  0.2507658  0.2357899 
1131       0.215      366.039    8          2          7.964      1.899      2.792      2.047      1.962      1.475      2.127      2.253      1.85       5.136001   2.733      52.471     0.2612706  0.2666325  0.2559086 
1131.2     0.216      360.387    8          2          7.858      1.936      3.031      1.884      1.813      1.462      2.008      1.964      1.662      5.613      2.776      53.144     0.2596012  0.2507658  0.2684366 
1131.4     0.217      349.712    8          2          7.786      1.81       2.843      1.758      1.738      1.45       1.941      1.68       1.568      6.216001   2.862      53.501     0.2580968  0.2405305  0.2756632 
1131.6     0.217      337.991    8          2          7.704      1.483      2.403      1.695      1.65       1.45       2.048      2.048      1.531      6.794      2.963      54.09      0.2585488  0.2293814  0.2877162 
1131.8     0.215      323.339    8          2          7.597      1.446      2.365      1.708      1.55       1.5        2.23       2.231      1.963      7.343      3.096      54.995     0.2613596  0.2156067  0.3071125 
1132       0.214      307.221    8          2          7.386      1.584      2.516      1.746      1.55       1.538      2.397      2.374      2.057      9.729      3.262      56.067     0.2613529  0.1908202  0.3318855 
1132.2     0.214      287.336    8          2          7.154      1.584      2.541      1.821      1.575      1.587      2.55       2.238      1.901      12.178     3.495      55.962     0.2484903  0.1668428  0.3301378 
1132.4     0.215      261.8      8          2          6.909      1.798      2.491      1.984      1.65       1.638      2.684      2.32       1.756      14.752     3.849      54.658     0.2233236  0.1447849  0.3018624 
1132.6     0.216      234.171    8          2          6.766      1.848      2.44       2.21       1.65       1.725      2.787      2.261      1.614      17.453     4.315      52.135     0.1937862  0.133284   0.2542885 
1132.8     0.216      205.704    8          2          6.496      1.848      2.465      2.436      1.6        1.813      3.031      2.104      1.789      22.539     4.919      49.59      0.1648825  0.1140012  0.2157638 
1133       0.216      179.121    1          2          6.162      1.697      2.516      2.65       1.6        1.975      3.76       2.468      2.245      27.311     5.663      46.667     0.1378513  0.09396233 0.1817403 
1133.2     0.216      156.933    1          2          5.702      1.861      2.931      2.801      1.8        2.213      5.179      2.955      2.954      28.253     6.44       43.091     0.1123124  0.07199892 0.1526259 
1133.4     0.215      140.607    1          2          5.616      2.037      3.698      3.228      2.112      2.487      6.942      3.425      3.437      25.616     7.146      40.105     0.1026542  0.06850284 0.1368057 
1133.6     0.215      129.304    1          2          5.685      2.641      4.868      3.981      2.425      2.925      8.473      3.435      3.439      22.979     7.763      38.086     0.1003928  0.07129395 0.1294917 
1133.8     0.215      119.466    1          2          5.867      3.735      6.113      4.911      2.788      3.362      9.676      3.479      3.386      20.404     8.41       37.287     0.1032262  0.07921385 0.1272385 
1134       0.215      109.419    1          2          5.991      4.502      7.27       5.84       3.15       3.725      10.474     3.584      3.459      17.704     9.191      36.425     0.105106   0.085108   0.1251041 
