~Version
 VERS              .         2.0                           : CWLS LOG ASCII STANDARD - VERSION 2.0
 WRAP              .         NO                            : ONE LINE PER DEPTH STEP
 DLM               .         SPACE                         : DELIMITING CHARACTER(SPACE TAB OR COMMA)
~Well Information
#_______________________________________________________________________________
#
#PARAMETER_NAME    .UNIT     VALUE                         : DESCRIPTION
#_______________________________________________________________________________
STRT               .M        890                           : First reference value
STOP               .M        1196                          : Last reference value
STEP               .M        0.2                           : Step increment
NULL               .         -9999                         : Missing value
COMP               .                                       : Company
WELL               .         1683                          : Well name
FLD                .         Узень                         : Field
LOC                .                                       : Location
CNTY               .                                       : County
STAT               .                                       : State
CTRY               .                                       : Country
SRVC               .                                       : Service Company
DATE               .         31.01.1984                    : Date
UWI                .                                       : Unique Well ID
Block              .         6а                            : 
Cartographic_reference_system .         GCS_WGS_1984                  : ESRI,PE_10_3_1- <?xml version="1.0" encoding="utf-16"?><ILateBoundCoordinateReferenceSystem name="GCS_WGS_1984"><AuthorityCode>EPSG,4326</AuthorityCode></ILateBoundCoordinateReferenceSystem>
Category           .         Нефтяная                      : 
Condition          .         Ликвидированная               : 
Date               .         20.02.1984                    : 
EREF               .m        81                            : 100.8
Gorizont           .         15                            : 14
HZCS               .GCS_WGS_1984 WGS_1984_EASE-Grid_2.0_Global : ESRI,PE_10_3_1- <?xml version="1.0" encoding="utf-16"?><ILateBoundCoordinateReferenceSystem name="WGS_1984_EASE-Grid_2.0_Global"><AuthorityCode>EPSG,6933</AuthorityCode></ILateBoundCoordinateReferenceSystem>
Interpretator      .         Кушербаева А.С                : 
Kupol              .         основной                      : osnovnoi
LATI               .dega     0.6655357802                  : GCS_WGS_1984
LONG               .dega     0.4591046508                  : GCS_WGS_1984
Mud                .                                       : 
Mud_density        .                                       : 
Mud_resistivity    .                                       : 
NGDU               .         НГДУ-2                        : 
ORIGINALWELLNAME   .         1683                          : 
Spud_date          .         1984                          : 1961
Viscosity          .                                       : 
X                  .m        44297.3                       : 46154
Y                  .m        84902.73                      : 85761.93
YEAR               .         2018г                         : 
~Parameter Information Block
#_______________________________________________________________________________
#
#PARAMETER_NAME    .UNIT     VALUE                         : DESCRIPTION
#_______________________________________________________________________________
SET                .         LQC_KAZNIPI_Petrel            : 
TLFamily_CALI      .         Caliper                       : 
TLFamily_CILD      .         Conductivity                  : 
TLFamily_COLL      .         Net Reservoir Flag            : 
TLFamily_CSAT      .         Fluid Code                    : 
TLFamily_DEPT      .         Measured Depth                : 
TLFamily_GR        .         Russian Gamma Ray             : 
TLFamily_GZ1       .         Gradient 045                  : 
TLFamily_GZ2       .         Gradient 105                  : 
TLFamily_GZ3       .         Gradient 225                  : 
TLFamily_GZ4       .         Gradient 425                  : 
TLFamily_GZ5       .         Gradient 850                  : 
TLFamily_LLS       .         Lateral Log Resistivity       : 
TLFamily_MINV      .         Micro Gradient Resistivity    : 
TLFamily_MNOR      .         Micro Resistivity             : 
TLFamily_OGZ       .         Gradient Inverted 225         : 
TLFamily_RT        .         Formation Resistivity         : 
TLFamily_SP        .         Spontaneous Potential         : 
TLFamily_VSH_FIN   .         Shale Volume                  : 
TLFamily_VSH_GR    .         Shale Volume                  : 
TLFamily_VSH_SP    .         Shale Volume                  : 
~Curve Information
#_______________________________________________________________________________
#
#LOGNAME           .UNIT     LOG_ID                        : DESCRIPTION
#_______________________________________________________________________________
DEPT               .M                                      : Колонка глубины 
CALI               .м                                      : Каверномер 
CILD               .мСм/м                                  : Индукционный каротаж 
COLL               .unitless                               :  
CSAT               .unitless                               :  
GR                 .uR/h                                   : Гамма каротаж 
GZ1                .Ohmm                                   : Градиент-зонд  длиной 0.45м 
GZ2                .Ohmm                                   : Градиент-зонд  длиной 1.05м 
GZ3                .Ohmm                                   : Градиент-зонд  длиной 2.25м 
GZ4                .Ohmm                                   : Градиент-зонд  длиной 4.5м 
GZ5                .Ohmm                                   : Градиент-зонд  длиной 8.5м 
LLS                .Ohmm                                   : Боковой каротаж 
MINV               .Ohmm                                   : Микро-градиент зонд 
MNOR               .Ohmm                                   : Микро-потенциал зонд 
OGZ                .Ohmm                                   : Обращенный градиент-зонд 
RT                 .Ohmm                                   : УЭС пласта 
SP                 .мВ                                     : Потенциал самополяризации 
VSH_FIN            .v/v                                    : Описание 
VSH_GR             .v/v                                    : Shale volume 
VSH_SP             .v/v                                    : Shale Volume 
~Ascii
# ...
912.2000000000001 0.214      424.437    1          3          3.272      1.647      11.321     3.491      2.425      1.45       1.961      1.153      1.065      2.222      2.357      51.651     0.1745305  0.08020855 0.2688524 
912.4      0.214      412.506    1          3          3.284      1.496      10.629     3.089      2.4        1.313      2.214      1.254      1.232      2.599      2.426      51.651     0.1747711  0.08068976 0.2688524 
912.6      0.214      404.134    1          3          3.16       1.295      10.629     2.7        2.612      1.212      2.471      1.561      1.372      2.41       2.475      51.651     0.1723529  0.07585339 0.2688524 
912.8      0.214      406.436    1          3          3.086      1.924      13.648     2.374      2.875      1.2        2.582      1.722      1.633      2.222      2.461      51.672     0.171134   0.07310642 0.2691616 
913        0.214      417.321    1          3          3.103      2.527      15.849     2.06       3.15       1.275      2.451      1.739      1.556      2.034      2.398      51.672     0.1714451  0.07372854 0.2691616 
913.2000000000001 0.214      430.717    1          3          3.208      2.427      14.465     2.009      3          1.363      2.191      1.651      1.436      1.845      2.323      51.672     0.1734259  0.07769015 0.2691616 
913.4      0.214      441.183    1          3          3.185      2.075      12.893     2.248      2.563      1.425      1.969      1.463      1.221      2.134      2.267      51.651     0.1728285  0.07680455 0.2688524 
913.6      0.215      447.462    1          3          3.101      1.722      11.761     2.512      2.163      1.363      1.843      1.377      1.123      2.084      2.235      51.63      0.1710993  0.07365508 0.2685436 
913.8      0.216      450.811    1          3          2.953      1.383      11.258     2.411      1.888      1.25       1.813      1.25       1.129      2.235      2.218      51.609     0.1683261  0.06841695 0.2682352 
914        0.216      455.416    1          3          2.947      1.27       11.321     2.311      1.8        1.125      1.831      1.291      1.131      2.26       2.196      51.63      0.1683781  0.06821264 0.2685436 
914.2000000000001 0.216      462.114    1          3          3.029      1.282      10.629     2.198      1.675      1.087      1.825      1.339      1.136      2.147      2.164      51.651     0.1699554  0.07105852 0.2688524 
914.4      0.214      468.184    1          3          3.151      1.244      9.811      2.085      1.6        1.075      1.778      1.287      1.167      2.034      2.136      51.651     0.1721831  0.07551386 0.2688524 
914.6      0.213      464.207    1          3          3.122      1.182      8.931      1.972      1.525      1.1        1.695      1.417      1.148      1.908      2.155      51.63      0.1714869  0.07443012 0.2685436 
914.8      0.212      443.066    1          3          2.978      1.169      7.798999   1.871      1.438      1.15       1.657      1.339      1.119      1.783      2.266      51.609     0.1687551  0.06927487 0.2682352 
915        0.211      412.297    1          3          2.753      1.068      7.673      1.758      1.4        1.15       1.741      1.5        1.092      1.669      2.437      51.609     0.1650802  0.06192525 0.2682352 
915.2000000000001 0.211      387.389    1          3          2.576      1.043      8.239      1.658      1.513      1.288      1.927      1.408      1.144      1.896      2.585      51.63      0.1626197  0.0566958  0.2685436 
915.4      0.211      373.783    1          3          2.548      1.194      9.686001   1.545      1.587      1.587      2.196      1.254      1.29       2.184      2.676      51.651     0.1623812  0.05591    0.2688524 
915.6      0.212      361.224    1          3          2.588      1.609      11.824     1.444      2.063      2.1        2.485      1.078      1.518      2.561      2.773      51.672     0.1630988  0.05703595 0.2691616 
915.8      0.211      341.549    1          3          2.622      2.15       12.83      1.344      2.463      2.55       2.622      1.078      1.608      3.151      2.938      51.672     0.1635862  0.05801082 0.2691616 
916        0.211      320.618    1          3          2.592      2.465      13.333     1.683      2.838      3          2.575      1.199      1.696      3.691      3.127      51.672     0.1631557  0.05714979 0.2691616 
916.2000000000001 0.21       307.222    1          3          2.5        2.565      13.836     2.11       2.838      3.588      2.479      1.149      1.497      3.968      3.257      51.672     0.1618749  0.05458817 0.2691616 
916.4      0.212      303.872    1          3          2.441      2.314      14.151     2.411      3.35       4.15       2.664      1.078      1.603      3.717      3.291      51.672     0.1610839  0.05300614 0.2691616 
916.6      0.214      308.686    1          3          2.405      2.779      20         2.612      3.975      5.15       3.112      1.028      1.712      3.352      3.241      51.672     0.1606125  0.05206345 0.2691616 
916.8      0.216      321.454    1          3          2.43       3.295      22.39      2.863      4.6        6.125      3.554      1.168      1.823      3.139      3.117      51.693     0.1610938  0.0527163  0.2694713 
917        0.215      337.781    1          3          2.504      4.49       31.635     3.303      5.425      7.025      3.636      1.268      1.896      2.674      2.967      51.714     0.1622393  0.05469711 0.2697814 
917.2000000000001 0.212      353.48     1          3          2.622      4.037      29.119     3.768      5.013      7.438001   3.194      1.266      1.675      2.26       2.831      51.735     0.1640514  0.05801082 0.270092  
917.4      0.211      366.039    1          3          2.685      3.332      24.843     4.144001   3.95       7.013      2.61       1.122      1.56       1.858      2.734      51.735     0.1649767  0.05986144 0.270092  
917.6      0.212      379.225    1          3          2.651      2.628      21.635     4.32       2.875      6.037      2.168      0.955      1.269      1.582      2.64       51.735     0.1644737  0.05885548 0.270092  
917.8      0.212      394.715    1          3          2.533      2.2        20.189     3.956      2.275      4.838      2.046      0.877      1.263      1.418      2.537      51.735     0.1627927  0.05549353 0.270092  
918        0.213      410.413    1          3          2.504      1.873      18.491     3.516      1.725      3.888      1.979      0.888      1.265      1.255      2.439      51.756     0.16255    0.05469711 0.2704029 
918.2000000000001 0.214      423.81     1          3          2.491      1.66       16.038     3.077      1.425      3.063      1.918      0.832      1.24       1.255      2.361      51.798     0.162685   0.05434382 0.2710263 
918.4      0.216      434.275    1          3          2.455      1.496      14.34      2.713      1.275      2.438      1.856      0.89       1.209      1.33       2.303      51.84      0.1625143  0.05337733 0.2716514 
918.6      0.217      441.392    1          3          2.4        1.433      12.956     2.374      1.15       2.075      1.818      0.875      1.184      1.406      2.266      51.861     0.1619492  0.05193385 0.2719646 
918.8      0.216      444.741    1          3          2.447      1.408      11.698     2.085      1.063      1.813      1.796      0.911      1.167      1.481      2.249      51.861     0.1625647  0.05316491 0.2719646 
919        0.215      445.369    1          3          2.62       1.358      10.943     1.796      1.038      1.7        1.814      0.838      1.148      1.569      2.245      51.861     0.1649588  0.05795301 0.2719646 
919.2000000000001 0.215      443.904    1          3          2.694      1.27       10.629     1.608      1.025      1.663      1.863      0.769      1.152      1.519      2.253      51.861     0.1660476  0.0601306  0.2719646 
919.4      0.216      441.183    1          3          2.614      1.358      10.44      1.608      1.038      1.65       1.919      0.775      1.2        1.481      2.267      51.819     0.1645593  0.05777995 0.2713386 
