~Version
 VERS              .         2.0                           : CWLS LOG ASCII STANDARD - VERSION 2.0
 WRAP              .         NO                            : ONE LINE PER DEPTH STEP
 DLM               .         SPACE                         : DELIMITING CHARACTER(SPACE TAB OR COMMA)
~Well Information
#_______________________________________________________________________________
#
#PARAMETER_NAME    .UNIT     VALUE                         : DESCRIPTION
#_______________________________________________________________________________
STRT               .M        890                           : First reference value
STOP               .M        1196                          : Last reference value
STEP               .M        0.2                           : Step increment
NULL               .         -9999                         : Missing value
COMP               .                                       : Company
WELL               .         1683                          : Well name
FLD                .         Узень                         : Field
LOC                .                                       : Location
CNTY               .                                       : County
STAT               .                                       : State
CTRY               .                                       : Country
SRVC               .                                       : Service Company
DATE               .         31.01.1984                    : Date
UWI                .                                       : Unique Well ID
Block              .         6а                            : 
Cartographic_reference_system .         GCS_WGS_1984                  : ESRI,PE_10_3_1- <?xml version="1.0" encoding="utf-16"?><ILateBoundCoordinateReferenceSystem name="GCS_WGS_1984"><AuthorityCode>EPSG,4326</AuthorityCode></ILateBoundCoordinateReferenceSystem>
Category           .         Нефтяная                      : 
Condition          .         Ликвидированная               : 
Date               .         20.02.1984                    : 
EREF               .m        81                            : 100.8
Gorizont           .         15                            : 14
HZCS               .GCS_WGS_1984 WGS_1984_EASE-Grid_2.0_Global : ESRI,PE_10_3_1- <?xml version="1.0" encoding="utf-16"?><ILateBoundCoordinateReferenceSystem name="WGS_1984_EASE-Grid_2.0_Global"><AuthorityCode>EPSG,6933</AuthorityCode></ILateBoundCoordinateReferenceSystem>
Interpretator      .         Кушербаева А.С                : 
Kupol              .         основной                      : osnovnoi
LATI               .dega     0.6655357802                  : GCS_WGS_1984
LONG               .dega     0.4591046508                  : GCS_WGS_1984
Mud                .                                       : 
Mud_density        .                                       : 
Mud_resistivity    .                                       : 
NGDU               .         НГДУ-2                        : 
ORIGINALWELLNAME   .         1683                          : 
Spud_date          .         1984                          : 1961
Viscosity          .                                       : 
X                  .m        44297.3                       : 46154
Y                  .m        84902.73                      : 85761.93
YEAR               .         2018г                         : 
~Parameter Information Block
#_______________________________________________________________________________
#
#PARAMETER_NAME    .UNIT     VALUE                         : DESCRIPTION
#_______________________________________________________________________________
SET                .         LQC_KAZNIPI_Petrel            : 
TLFamily_CALI      .         Caliper                       : 
TLFamily_CILD      .         Conductivity                  : 
TLFamily_COLL      .         Net Reservoir Flag            : 
TLFamily_CSAT      .         Fluid Code                    : 
TLFamily_DEPT      .         Measured Depth                : 
TLFamily_GR        .         Russian Gamma Ray             : 
TLFamily_GZ1       .         Gradient 045                  : 
TLFamily_GZ2       .         Gradient 105                  : 
TLFamily_GZ3       .         Gradient 225                  : 
TLFamily_GZ4       .         Gradient 425                  : 
TLFamily_GZ5       .         Gradient 850                  : 
TLFamily_LLS       .         Lateral Log Resistivity       : 
TLFamily_MINV      .         Micro Gradient Resistivity    : 
TLFamily_MNOR      .         Micro Resistivity             : 
TLFamily_OGZ       .         Gradient Inverted 225         : 
TLFamily_RT        .         Formation Resistivity         : 
TLFamily_SP        .         Spontaneous Potential         : 
TLFamily_VSH_FIN   .         Shale Volume                  : 
TLFamily_VSH_GR    .         Shale Volume                  : 
TLFamily_VSH_SP    .         Shale Volume                  : 
~Curve Information
#_______________________________________________________________________________
#
#LOGNAME           .UNIT     LOG_ID                        : DESCRIPTION
#_______________________________________________________________________________
DEPT               .M                                      : Колонка глубины 
CALI               .м                                      : Каверномер 
CILD               .мСм/м                                  : Индукционный каротаж 
COLL               .unitless                               :  
CSAT               .unitless                               :  
GR                 .uR/h                                   : Гамма каротаж 
GZ1                .Ohmm                                   : Градиент-зонд  длиной 0.45м 
GZ2                .Ohmm                                   : Градиент-зонд  длиной 1.05м 
GZ3                .Ohmm                                   : Градиент-зонд  длиной 2.25м 
GZ4                .Ohmm                                   : Градиент-зонд  длиной 4.5м 
GZ5                .Ohmm                                   : Градиент-зонд  длиной 8.5м 
LLS                .Ohmm                                   : Боковой каротаж 
MINV               .Ohmm                                   : Микро-градиент зонд 
MNOR               .Ohmm                                   : Микро-потенциал зонд 
OGZ                .Ohmm                                   : Обращенный градиент-зонд 
RT                 .Ohmm                                   : УЭС пласта 
SP                 .мВ                                     : Потенциал самополяризации 
VSH_FIN            .v/v                                    : Описание 
VSH_GR             .v/v                                    : Shale volume 
VSH_SP             .v/v                                    : Shale Volume 
~Ascii
# ...
1104.6     0.216      343.014    -9999      -9999      7.236      2.263      3.459      2.462      1.712      2.15       2.465      0.767      1.209      2.775      2.915      64.585     0.3347759  0.1749522  0.4945996 
1104.8     0.217      343.851    -9999      -9999      7.289      2.314      3.497      2.524      1.725      2.15       2.444      0.685      1.194      2.611      2.908      64.479     0.3357479  0.1804022  0.4910937 
1105       0.219      347.2      -9999      -9999      7.28       2.213      3.472      2.625      1.738      2.15       2.368      0.629      1.085      2.448      2.881      64.353     0.3331963  0.1794649  0.4869276 
1105.2     0.222      352.643    -9999      -9999      7.293      2.112      3.497      2.788      1.738      2.138      2.232      0.633      1.196      2.297      2.837      64.227     0.3318069  0.1808204  0.4827935 
1105.4     0.223      359.131    -9999      -9999      7.187      2.087      3.472      2.813      1.725      2.063      2.088      0.702      1.184      2.36       2.785      64.059     0.323671   0.1700602  0.4772819 
1105.6     0.221      361.853    -9999      -9999      6.841      1.987      3.283      2.65       1.725      2          2.004      0.67       1.11       2.837      2.764      63.87      0.3051643  0.1391972  0.4711315 
1105.8     0.216      356.62     -9999      -9999      6.398      1.71       2.994      2.386      1.725      1.975      1.985      0.539      1.092      3.315      2.806      63.407     0.2819407  0.1077149  0.4561665 
1106       0.213      340.712    -9999      -9999      6.172      1.483      2.704      2.323      1.725      2.025      1.994      0.474      1.069      4.092999   2.943      62.671     0.2638559  0.09450773 0.4332041 
1106.2     0.213      320.617    -9999      -9999      6.061      1.471      2.767      2.6        1.9        2.15       1.992      0.449      1.267      4.131      3.129      61.661     0.2460253  0.08862696 0.4034237 
1106.4     0.216      308.268    -9999      -9999      6.059      1.949      3.547      3.592      2.237      2.388      1.985      1.015      1.593      3.754      3.246      60.589     0.231258   0.08852443 0.3739917 
1106.6     0.219      309.314    -9999      -9999      6.4        2.93       4.403      4.119      2.65       2.65       1.975      1.356      1.844      3.365      3.235      59.642     0.2288236  0.1078397  0.3498074 
1106.8     0.221      321.455    -9999      -9999      6.947      3.861      4.654      3.755      3.063      2.975      1.966      1.64       1.932      2.963      3.115      58.885     0.2398369  0.1480046  0.3316693 
1107       0.22       337.153    -9999      -9999      7.696      4.075      5.182001   3.378      3.175      3          1.956      1.174      1.679      2.335      2.971      58.486     0.2754426  0.2283218  0.3225634 
1107.2     0.215      353.48     -9999      -9999      7.979      3.32       4.34       3.014      2.775      2.675      1.949      0.817      1.413      1.808      2.833      58.318     0.2939128  0.2689574  0.3188682 
1107.4     0.211      365.411    -9999      -9999      7.934      2.2        3.686      2.65       2.275      2.35       1.942      0.464      1.146      2.549      2.738      58.234     0.2895649  0.2620427  0.3170871 
1107.6     0.213      368.76     -9999      -9999      7.548      1.748      3.597      2.273      1.825      2.025      1.935      0.372      0.922      3.151      2.712      58.065     0.2615083  0.2095778  0.3134389 
1107.8     0.215      362.899    -9999      -9999      7.065      1.471      3.447      1.909      1.563      1.7        1.928      0.311      1          2.875      2.757      57.771     0.2327996  0.158466   0.3071332 
1108       0.217      355.782    -9999      -9999      6.936      1.295      3.044      2.399      1.375      1.563      1.919      1.155      1.524      2.611      2.812      57.666     0.2260207  0.1470652  0.3049762 
1108.2     0.219      356.201    -9999      -9999      7.086      1.37       3.132      3.542      1.55       1.538      1.91       1.525      1.591      2.36       2.808      57.939     0.2356846  0.1604038  0.3109653 
1108.4     0.223      358.922    -9999      -9999      7.284      2.15       4.101      3.466      1.813      1.663      1.901      1.638      1.468      2.096      2.787      58.717     0.2542268  0.1798809  0.3285728 
1108.6     0.227      359.131    -9999      -9999      7.282      2.339      3.61       3.529      2.2        1.813      1.894      0.94       0.889      1.845      2.785      59.706     0.2660828  0.1796728  0.3524928 
1108.8     0.228      352.643    -9999      -9999      7.154      2.138      3.132      3.265      2.163      1.938      1.887      0.729      1.021      1.582      2.836      60.736     0.2730865  0.1668428  0.3793302 
1109       0.226      352.015    -9999      -9999      7.052      2.012      2.767      2.989      1.95       1.988      1.88       0.76       1.202      1.933      2.841      61.598     0.2803295  0.1572782  0.4033808 
1109.2     0.221      360.178    -9999      -9999      6.978      2.364      3.384      2.713      1.975      1.988      1.873      0.622      1.211      2.787      2.78       62.313     0.2875797  0.1506841  0.4244753 
1109.4     0.217      368.969    -9999      -9999      6.845      2.087      3.535      2.562      2          1.988      1.858      0.439      0.956      3.641      2.711      62.881     0.2907634  0.1395198  0.442007  
1109.6     0.216      364.992    -9999      -9999      6.677      1.911      3.069      3.203      2          2.138      1.937      0.278      0.69       4.269      2.744      63.449     0.2934042  0.1265921  0.4602163 
1109.8     0.216      342.386    -9999      -9999      6.297      1.81       2.893      3.956      1.888      2.813      2.331      0.384      0.832      4.784      2.938      64.017     0.2903574  0.1015987  0.479116  
1110       0.216      317.896    -9999      -9999      6.128      1.521      3.094      4.597      2.75       4.037      2.848      0.482      1.198      4.558      3.158      64.564     0.2950597  0.09213131 0.497988  
1110.2     0.218      302.826    -9999      -9999      6.152      1.66       4.629      5.162      4.388      5.662      3.136      0.574      1.534      5.098      3.303      65.005     0.3035686  0.09342004 0.5137171 
1110.4     0.22       292.569    -9999      -9999      6.382      2.15       4.604001   5.513      5.85       6.125      3.212      0.434      1.384      5.349      3.423      65.426     0.3179367  0.106722   0.5291514 
1110.6     0.22       281.057    -9999      -9999      6.586      2.678      4.189      4.998      6.213      8.125      3.579      0.641      1.275      4.784      3.568      65.805     0.3317537  0.1200971  0.5434102 
1110.8     0.219      269.754    -9999      -9999      6.829      3.182      4.491      4.484      5.65       8.625      3.902      0.76       1.541      4.056      3.709      66.204     0.3485041  0.1382337  0.5587744 
1111       0.216      266.405    -9999      -9999      7.042      4.062      5.912      3.969      6.175      8.438      3.815      0.85       1.595      2.436      3.754      66.541     0.3642204  0.1563704  0.5720702 
1111.2     0.215      267.661    -9999      -9999      7.058      3.836      6.038      3.454      6.400001   7.688001   3.408      0.796      1.646      2.561      3.736      66.814     0.3704495  0.1578253  0.5830737 
1111.4     0.216      271.01     -9999      -9999      6.947      3.433      5.710999   3.027      5.199999   6.563      3.33       0.723      1.246      2.712      3.691      66.835     0.3660472  0.1480046  0.5840899 
1111.6     0.219      281.894    -9999      -9999      6.97       3.156      5.761      2.662      3.987      5.438001   3.628      1.074      1.562      2.486      3.555      66.604     0.3625309  0.149988   0.5750738 
1111.8     0.221      303.872    -9999      -9999      7.147      3.194      6.667      2.411      2.763      4.125      3.52       0.947      1.409      2.235      3.31       66.183     0.3624898  0.1661682  0.5588114 
