~Version
 VERS              .         2.0                           : CWLS LOG ASCII STANDARD - VERSION 2.0
 WRAP              .         NO                            : ONE LINE PER DEPTH STEP
 DLM               .         SPACE                         : DELIMITING CHARACTER(SPACE TAB OR COMMA)
~Well Information
#_______________________________________________________________________________
#
#PARAMETER_NAME    .UNIT     VALUE                         : DESCRIPTION
#_______________________________________________________________________________
STRT               .M        890                           : First reference value
STOP               .M        1196                          : Last reference value
STEP               .M        0.2                           : Step increment
NULL               .         -9999                         : Missing value
COMP               .                                       : Company
WELL               .         1683                          : Well name
FLD                .         Узень                         : Field
LOC                .                                       : Location
CNTY               .                                       : County
STAT               .                                       : State
CTRY               .                                       : Country
SRVC               .                                       : Service Company
DATE               .         31.01.1984                    : Date
UWI                .                                       : Unique Well ID
Block              .         6а                            : 
Cartographic_reference_system .         GCS_WGS_1984                  : ESRI,PE_10_3_1- <?xml version="1.0" encoding="utf-16"?><ILateBoundCoordinateReferenceSystem name="GCS_WGS_1984"><AuthorityCode>EPSG,4326</AuthorityCode></ILateBoundCoordinateReferenceSystem>
Category           .         Нефтяная                      : 
Condition          .         Ликвидированная               : 
Date               .         20.02.1984                    : 
EREF               .m        81                            : 100.8
Gorizont           .         15                            : 14
HZCS               .GCS_WGS_1984 WGS_1984_EASE-Grid_2.0_Global : ESRI,PE_10_3_1- <?xml version="1.0" encoding="utf-16"?><ILateBoundCoordinateReferenceSystem name="WGS_1984_EASE-Grid_2.0_Global"><AuthorityCode>EPSG,6933</AuthorityCode></ILateBoundCoordinateReferenceSystem>
Interpretator      .         Кушербаева А.С                : 
Kupol              .         основной                      : osnovnoi
LATI               .dega     0.6655357802                  : GCS_WGS_1984
LONG               .dega     0.4591046508                  : GCS_WGS_1984
Mud                .                                       : 
Mud_density        .                                       : 
Mud_resistivity    .                                       : 
NGDU               .         НГДУ-2                        : 
ORIGINALWELLNAME   .         1683                          : 
Spud_date          .         1984                          : 1961
Viscosity          .                                       : 
X                  .m        44297.3                       : 46154
Y                  .m        84902.73                      : 85761.93
YEAR               .         2018г                         : 
~Parameter Information Block
#_______________________________________________________________________________
#
#PARAMETER_NAME    .UNIT     VALUE                         : DESCRIPTION
#_______________________________________________________________________________
SET                .         LQC_KAZNIPI_Petrel            : 
TLFamily_CALI      .         Caliper                       : 
TLFamily_CILD      .         Conductivity                  : 
TLFamily_COLL      .         Net Reservoir Flag            : 
TLFamily_CSAT      .         Fluid Code                    : 
TLFamily_DEPT      .         Measured Depth                : 
TLFamily_GR        .         Russian Gamma Ray             : 
TLFamily_GZ1       .         Gradient 045                  : 
TLFamily_GZ2       .         Gradient 105                  : 
TLFamily_GZ3       .         Gradient 225                  : 
TLFamily_GZ4       .         Gradient 425                  : 
TLFamily_GZ5       .         Gradient 850                  : 
TLFamily_LLS       .         Lateral Log Resistivity       : 
TLFamily_MINV      .         Micro Gradient Resistivity    : 
TLFamily_MNOR      .         Micro Resistivity             : 
TLFamily_OGZ       .         Gradient Inverted 225         : 
TLFamily_RT        .         Formation Resistivity         : 
TLFamily_SP        .         Spontaneous Potential         : 
TLFamily_VSH_FIN   .         Shale Volume                  : 
TLFamily_VSH_GR    .         Shale Volume                  : 
TLFamily_VSH_SP    .         Shale Volume                  : 
~Curve Information
#_______________________________________________________________________________
#
#LOGNAME           .UNIT     LOG_ID                        : DESCRIPTION
#_______________________________________________________________________________
DEPT               .M                                      : Колонка глубины 
CALI               .м                                      : Каверномер 
CILD               .мСм/м                                  : Индукционный каротаж 
COLL               .unitless                               :  
CSAT               .unitless                               :  
GR                 .uR/h                                   : Гамма каротаж 
GZ1                .Ohmm                                   : Градиент-зонд  длиной 0.45м 
GZ2                .Ohmm                                   : Градиент-зонд  длиной 1.05м 
GZ3                .Ohmm                                   : Градиент-зонд  длиной 2.25м 
GZ4                .Ohmm                                   : Градиент-зонд  длиной 4.5м 
GZ5                .Ohmm                                   : Градиент-зонд  длиной 8.5м 
LLS                .Ohmm                                   : Боковой каротаж 
MINV               .Ohmm                                   : Микро-градиент зонд 
MNOR               .Ohmm                                   : Микро-потенциал зонд 
OGZ                .Ohmm                                   : Обращенный градиент-зонд 
RT                 .Ohmm                                   : УЭС пласта 
SP                 .мВ                                     : Потенциал самополяризации 
VSH_FIN            .v/v                                    : Описание 
VSH_GR             .v/v                                    : Shale volume 
VSH_SP             .v/v                                    : Shale Volume 
~Ascii
# ...
1067.6     0.221      420.879    -9999      -9999      8.609      1.483      2.352      1.821      1.8        1.65       1.873      1.155      1.064      1.833      2.379      65.342     0.5989896  0.4959165  0.7020627 
1067.8     0.223      411.041    -9999      -9999      8.491      1.584      2.415      1.896      1.825      1.625      1.806      1.107      0.868      1.858      2.435      65.384     0.588396   0.4729938  0.7037982 
1068       0.224      409.995    -9999      -9999      8.432      1.496      2.34       1.909      1.738      1.613      1.773      1.176      0.935      1.908      2.441      65.384     0.5829478  0.4619328  0.7039628 
1068.2     0.222      421.926    -9999      -9999      8.354      1.421      2.34       1.871      1.663      1.625      1.762      1.41       0.998      1.983      2.373      65.384     0.5759166  0.4477059  0.7041274 
1068.4     0.217      431.764    -9999      -9999      8.236      1.37       2.34       1.821      1.65       1.625      1.756      1.546      1.186      2.134      2.316      65.321     0.564473   0.4270116  0.7019344 
1068.6     0.211      431.345    -9999      -9999      7.915      1.37       2.314      1.771      1.7        1.625      1.749      1.793      1.33       2.247      2.319      65.237     0.5371969  0.3754293  0.6989645 
1068.8     0.207      425.903    -9999      -9999      7.771      1.32       2.226      1.708      1.7        1.65       1.771      1.895      1.319      2.335      2.348      65.089     0.5239973  0.3543613  0.6936332 
1069       0.208      422.344    -9999      -9999      7.814      1.207      2.075      1.808      1.7        1.65       1.819      1.849      1.386      2.26       2.368      64.942     0.524449   0.3605256  0.6883725 
1069.2     0.212      422.763    -9999      -9999      8.082      1.295      2.075      1.947      1.688      1.65       1.853      1.73       1.357      2.184      2.365      64.837     0.5430582  0.4014357  0.6846806 
1069.4     0.217      425.903    -9999      -9999      8.175      1.408      2.189      2.072      1.7        1.65       1.83       1.67       1.399      2.096      2.348      64.795     0.5499982  0.4166916  0.6833047 
1069.6     0.218      431.763    -9999      -9999      8.227      1.509      2.314      2.185      1.65       1.65       1.751      1.741      1.332      1.983      2.317      64.795     0.5544692  0.4254731  0.6834653 
1069.8     0.215      438.461    -9999      -9999      8.156      1.546      2.34       2.223      1.613      1.613      1.668      1.787      1.307      2.009      2.281      64.795     0.5485772  0.4135284  0.683626  
1070       0.211      442.857    -9999      -9999      8.014      1.483      2.34       2.11       1.5        1.587      1.631      1.726      1.282      2.285      2.258      64.774     0.5368274  0.3906356  0.6830191 
1070.2     0.21       440.555    -9999      -9999      7.795      1.383      2.277      1.922      1.425      1.563      1.66       1.667      1.24       2.561      2.27       64.732     0.5197173  0.3577887  0.6816459 
1070.4     0.211      428.414    -9999      -9999      7.474      1.257      2.164      1.808      1.375      1.538      1.819      1.701      1.263      2.837      2.337      64.69      0.4974218  0.3145684  0.6802752 
1070.6     0.212      407.064    -9999      -9999      7.268      1.056      2.013      1.708      1.375      1.55       2.13       1.747      1.583      3.114      2.464      64.669     0.4846471  0.2896238  0.6796705 
1070.8     0.21       383.83     -9999      -9999      7.211      0.943      1.874      1.582      1.388      1.587      2.5        2.039      1.98       3.239      2.611      64.606     0.4803091  0.2830779  0.6775403 
1071       0.208      369.388    -9999      -9999      7.375      1.119      1.748      1.808      1.5        1.688      2.629      2.127      2.038      3.026      2.708      64.479     0.4877124  0.3023231  0.6731018 
1071.2     0.208      366.876    -9999      -9999      7.711      1.27       1.862      2.11       1.65       1.8        2.521      2.205      1.859      2.812      2.726      64.29      0.5062002  0.3459359  0.6664646 
1071.4     0.211      369.179    -9999      -9999      7.877      1.408      2.113      2.386      1.813      1.9        2.278      2.019      1.656      2.586      2.709      64.122     0.5151893  0.3697509  0.6606277 
1071.6     0.214      370.644    -9999      -9999      7.732      1.559      2.377      2.449      1.975      1.962      2.081      1.849      1.675      2.373      2.698      63.975     0.502218   0.3488617  0.6555743 
1071.8     0.217      369.388    -9999      -9999      7.358      1.685      2.629      2.286      1.825      1.988      1.937      1.738      1.501      2.096      2.707      63.87      0.4761489  0.3002689  0.6520289 
1072       0.22       365.411    -9999      -9999      6.892      1.722      2.893      2.148      1.738      1.913      1.91       1.686      1.42       2.385      2.737      63.785     0.4491411  0.2490823  0.6491999 
1072.2     0.221      356.201    -9999      -9999      6.533      1.571      2.918      1.934      1.65       1.825      2.083      1.92       1.499      2.662      2.81       63.701     0.4310486  0.2156813  0.646416  
1072.4     0.218      341.758    -9999      -9999      6.225      1.534      2.717      1.834      1.6        1.738      2.409      2.144      1.806      2.8        2.931      63.554     0.4160361  0.1906186  0.6414536 
1072.6     0.212      325.222    -9999      -9999      6.063      1.559      2.717      1.922      1.65       1.8        2.718      2.411      2.028      2.637      3.08       63.344     0.4064914  0.1786275  0.6343553 
1072.8     0.207      312.454    -9999      -9999      5.983      1.773      2.855      2.135      1.75       1.85       2.865      2.365      2.26       2.473      3.203      63.07      0.3990673  0.1729872  0.6251474 
1073       0.205      306.593    -9999      -9999      6.181      2.062      3.006      2.474      1.813      1.913      2.903      2.273      2.266      2.31       3.262      62.797     0.4016851  0.1872843  0.6160859 
1073.2     0.207      308.896    -9999      -9999      6.662      2.477      3.409      2.826      1.913      2          2.921      1.991      2.149      2.147      3.238      62.545     0.4174823  0.2271337  0.607831  
1073.4     0.212      317.268    -9999      -9999      7.481      2.704      4.088      3.152      2.038      2.075      2.788      1.914      2.026      1.996      3.155      62.355     0.4585789  0.3154528  0.601705  
1073.6     0.219      331.083    -9999      -9999      8.175      3.232      4.83       3.378      2.15       2.075      2.545      1.882      1.894      1.82       3.025      62.208     0.5068628  0.4166916  0.5970339 
1073.8     0.223      348.666    -9999      -9999      8.719      2.829      4.579      3.466      2.2        2.088      2.213      2.041      2.013      1.657      2.874      62.124     0.5563622  0.5182845  0.5944399 
1074       0.223      362.899    -9999      -9999      8.799      2.59       4.553      3.341      2.2        2          1.979      2.037      1.792      1.544      2.758      62.124     0.5648829  0.5351833  0.5945826 
1074.2     0.218      382.156    -9999      -9999      8.717      2.1        3.937      3.203      2.075      1.85       1.834      1.893      1.643      1.494      2.622      62.229     0.5580097  0.5178689  0.5981506 
1074.4     0.214      398.901    -9999      -9999      8.46       1.71       3.472      3.039      1.8        1.725      1.771      1.801      1.386      1.845      2.513      62.46      0.5365196  0.4671494  0.6058899 
1074.6     0.214      418.995    -9999      -9999      8.291      1.496      3.233      2.889      1.663      1.587      1.769      1.764      1.34       2.147      2.388      62.776     0.5265477  0.4365355  0.6165599 
1074.8     0.217      431.135    -9999      -9999      8.132      1.408      3.057      2.713      1.575      1.5        1.775      1.778      1.311      2.461      2.321      63.176     0.5199104  0.4095671  0.6302537 
