~Version
 VERS              .         2.0                           : CWLS LOG ASCII STANDARD - VERSION 2.0
 WRAP              .         NO                            : ONE LINE PER DEPTH STEP
 DLM               .         SPACE                         : DELIMITING CHARACTER(SPACE TAB OR COMMA)
~Well Information
#_______________________________________________________________________________
#
#PARAMETER_NAME    .UNIT     VALUE                         : DESCRIPTION
#_______________________________________________________________________________
STRT               .M        890                           : First reference value
STOP               .M        1196                          : Last reference value
STEP               .M        0.2                           : Step increment
NULL               .         -9999                         : Missing value
COMP               .                                       : Company
WELL               .         1683                          : Well name
FLD                .         Узень                         : Field
LOC                .                                       : Location
CNTY               .                                       : County
STAT               .                                       : State
CTRY               .                                       : Country
SRVC               .                                       : Service Company
DATE               .         31.01.1984                    : Date
UWI                .                                       : Unique Well ID
Block              .         6а                            : 
Cartographic_reference_system .         GCS_WGS_1984                  : ESRI,PE_10_3_1- <?xml version="1.0" encoding="utf-16"?><ILateBoundCoordinateReferenceSystem name="GCS_WGS_1984"><AuthorityCode>EPSG,4326</AuthorityCode></ILateBoundCoordinateReferenceSystem>
Category           .         Нефтяная                      : 
Condition          .         Ликвидированная               : 
Date               .         20.02.1984                    : 
EREF               .m        81                            : 100.8
Gorizont           .         15                            : 14
HZCS               .GCS_WGS_1984 WGS_1984_EASE-Grid_2.0_Global : ESRI,PE_10_3_1- <?xml version="1.0" encoding="utf-16"?><ILateBoundCoordinateReferenceSystem name="WGS_1984_EASE-Grid_2.0_Global"><AuthorityCode>EPSG,6933</AuthorityCode></ILateBoundCoordinateReferenceSystem>
Interpretator      .         Кушербаева А.С                : 
Kupol              .         основной                      : osnovnoi
LATI               .dega     0.6655357802                  : GCS_WGS_1984
LONG               .dega     0.4591046508                  : GCS_WGS_1984
Mud                .                                       : 
Mud_density        .                                       : 
Mud_resistivity    .                                       : 
NGDU               .         НГДУ-2                        : 
ORIGINALWELLNAME   .         1683                          : 
Spud_date          .         1984                          : 1961
Viscosity          .                                       : 
X                  .m        44297.3                       : 46154
Y                  .m        84902.73                      : 85761.93
YEAR               .         2018г                         : 
~Parameter Information Block
#_______________________________________________________________________________
#
#PARAMETER_NAME    .UNIT     VALUE                         : DESCRIPTION
#_______________________________________________________________________________
SET                .         LQC_KAZNIPI_Petrel            : 
TLFamily_CALI      .         Caliper                       : 
TLFamily_CILD      .         Conductivity                  : 
TLFamily_COLL      .         Net Reservoir Flag            : 
TLFamily_CSAT      .         Fluid Code                    : 
TLFamily_DEPT      .         Measured Depth                : 
TLFamily_GR        .         Russian Gamma Ray             : 
TLFamily_GZ1       .         Gradient 045                  : 
TLFamily_GZ2       .         Gradient 105                  : 
TLFamily_GZ3       .         Gradient 225                  : 
TLFamily_GZ4       .         Gradient 425                  : 
TLFamily_GZ5       .         Gradient 850                  : 
TLFamily_LLS       .         Lateral Log Resistivity       : 
TLFamily_MINV      .         Micro Gradient Resistivity    : 
TLFamily_MNOR      .         Micro Resistivity             : 
TLFamily_OGZ       .         Gradient Inverted 225         : 
TLFamily_RT        .         Formation Resistivity         : 
TLFamily_SP        .         Spontaneous Potential         : 
TLFamily_VSH_FIN   .         Shale Volume                  : 
TLFamily_VSH_GR    .         Shale Volume                  : 
TLFamily_VSH_SP    .         Shale Volume                  : 
~Curve Information
#_______________________________________________________________________________
#
#LOGNAME           .UNIT     LOG_ID                        : DESCRIPTION
#_______________________________________________________________________________
DEPT               .M                                      : Колонка глубины 
CALI               .м                                      : Каверномер 
CILD               .мСм/м                                  : Индукционный каротаж 
COLL               .unitless                               :  
CSAT               .unitless                               :  
GR                 .uR/h                                   : Гамма каротаж 
GZ1                .Ohmm                                   : Градиент-зонд  длиной 0.45м 
GZ2                .Ohmm                                   : Градиент-зонд  длиной 1.05м 
GZ3                .Ohmm                                   : Градиент-зонд  длиной 2.25м 
GZ4                .Ohmm                                   : Градиент-зонд  длиной 4.5м 
GZ5                .Ohmm                                   : Градиент-зонд  длиной 8.5м 
LLS                .Ohmm                                   : Боковой каротаж 
MINV               .Ohmm                                   : Микро-градиент зонд 
MNOR               .Ohmm                                   : Микро-потенциал зонд 
OGZ                .Ohmm                                   : Обращенный градиент-зонд 
RT                 .Ohmm                                   : УЭС пласта 
SP                 .мВ                                     : Потенциал самополяризации 
VSH_FIN            .v/v                                    : Описание 
VSH_GR             .v/v                                    : Shale volume 
VSH_SP             .v/v                                    : Shale Volume 
~Ascii
# ...
1089.8     0.216      327.106    -9999      -9999      6.852      1.458      2.365      1.997      1.625      1.675      2.494      0.861      1.823      3.503      3.063      59.453     0.3840586  0.2451183  0.5229989 
1090       0.214      310.989    -9999      -9999      6.624      1.446      2.868      2.286      1.825      1.738      2.766      1.093      2.078      3.817      3.221      59.579     0.3752522  0.2236984  0.5268061 
1090.2     0.211      299.058    -9999      -9999      6.514      1.924      3.308      2.562      1.938      1.788      2.845      1.085      2.187      3.604      3.346      59.706     0.3723557  0.214044   0.5306674 
1090.4     0.211      294.453    -9999      -9999      6.717      2.565      3.497      2.662      2.075      1.95       2.855      1.03       2.022      3.327      3.396      59.832     0.3833615  0.2321996  0.5345235 
1090.6     0.213      296.128    -9999      -9999      6.964      2.678      3.937      2.813      2.213      2.1        2.824      0.869      1.79       3.051      3.378      59.958     0.3973922  0.2563798  0.5384045 
1090.8     0.216      299.058    -9999      -9999      7.042      2.892      4.717      2.976      2.3        2.237      2.742      0.662      1.426      2.787      3.344      60.063     0.4031031  0.2645268  0.5416795 
1091       0.218      299.477    -9999      -9999      6.784      2.829      4.453      3.14       2.3        2.288      2.533      0.443      1.137      2.561      3.339      60.189     0.3920648  0.2385236  0.545606  
1091.2     0.22       298.011    -9999      -9999      6.674      2.653      4.327      3.064      2.175      2.213      2.338      0.405      1.24       2.837      3.356      60.294     0.3885742  0.2282295  0.548919  
1091.4     0.223      298.011    -9999      -9999      6.679      2.54       4.075      2.901      2.075      2.125      2.303      0.493      1.286      3.076      3.356      60.4       0.390484   0.2286876  0.5522804 
1091.6     0.223      299.895    -9999      -9999      6.867      2.226      3.836      2.725      1.825      2          2.378      0.487      1.384      3.315      3.335      60.547     0.4017582  0.2465973  0.5569192 
1091.8     0.221      302.826    -9999      -9999      6.981      1.974      3.849      2.562      1.8        1.913      2.45       0.485      1.556      3.516      3.302      60.757     0.4108399  0.2581337  0.5635461 
1092       0.218      305.337    -9999      -9999      7.012      1.999      3.723      2.7        1.863      1.85       2.507      0.535      1.524      3.428      3.275      60.988     0.4161317  0.2613631  0.5709003 
1092.2     0.218      307.012    -9999      -9999      6.881      2.112      3.56       2.964      1.938      1.85       2.495      0.566      1.514      3.767      3.257      61.178     0.412511   0.2479858  0.5770362 
1092.4     0.219      307.849    -9999      -9999      6.81       2.314      3.736      3.303      2          1.863      2.513      0.773      1.472      3.805      3.248      61.304     0.4111038  0.2410239  0.5811836 
1092.6     0.221      308.268    -9999      -9999      6.858      2.377      3.648      3.466      2.075      1.863      2.509      0.811      1.445      3.616      3.244      61.388     0.4148592  0.2457088  0.5840096 
1092.8     0.224      309.314    -9999      -9999      6.877      2.389      3.723      3.316      2.125      1.9        2.472      0.807      1.296      3.415      3.233      61.472     0.4172178  0.2475883  0.5868472 
1093       0.226      310.989    -9999      -9999      6.825      2.251      3.723      3.215      2.1        1.938      2.417      0.641      1.192      3.277      3.216      61.577     0.4164269  0.2424782  0.5903755 
1093.2     0.227      313.71     -9999      -9999      6.725      2.087      3.585      3.102      2.075      1.962      2.408      0.624      1.094      3.114      3.188      61.682     0.4134339  0.2329458  0.593922  
1093.4     0.225      316.222    -9999      -9999      6.784      2.087      3.711      3.002      2.05       1.962      2.402      0.629      1.278      3.428      3.162      61.746     0.4173359  0.2385236  0.5961482 
1093.6     0.221      317.687    -9999      -9999      6.807      2.125      3.61       2.889      2.05       1.962      2.364      0.587      1.106      4.031001   3.148      61.767     0.4188554  0.2407341  0.5969766 
1093.8     0.217      316.012    -9999      -9999      6.858      2.049      3.409      2.826      2.025      1.988      2.291      0.435      1.064      4.445      3.165      61.767     0.4214145  0.2457088  0.5971201 
1094       0.214      307.64     -9999      -9999      6.869      1.899      3.308      2.7        2.025      2          2.286      0.343      0.904      4.822      3.254      61.746     0.4216867  0.2467952  0.5965782 
1094.2     0.212      291.104    -9999      -9999      6.831      1.798      3.119      2.512      2.013      2.125      2.406      0.295      1.046      5.249      3.448      61.724     0.4195331  0.2430624  0.5960038 
1094.4     0.209      269.545    -9999      -9999      6.651      1.773      3.094      2.637      2          2.25       2.803      0.322      1.09       5.676      3.728      61.64      0.4097737  0.2261339  0.5934136 
1094.6     0.209      248.823    -9999      -9999      6.352      1.773      3.157      3.102      2.425      2.338      4.007      1.41       1.424      5.965      4.034      61.556     0.3957061  0.2005793  0.5908329 
1094.8     0.211      234.799    -9999      -9999      6.061      2.112      3.899      3.755      2.963      2.75       4.943      2.405      2.066      4.269      4.265      61.472     0.3833731  0.1784842  0.588262  
1095       0.215      228.101    -9999      -9999      5.997      2.993      5.421      4.396      3.688      3.125      4.995      3.287      2.617      3.767      4.384      61.451     0.3808439  0.1739612  0.5877266 
1095.2     0.217      227.473    -9999      -9999      6.027      3.785      5.22       4.785      4.338      3.625      4.456      2.57       2.552      3.252      4.396      61.472     0.382306   0.1760669  0.5885451 
1095.4     0.22       230.822    -9999      -9999      6.082      3.836      6.478      5.049      4.25       3.975      4.243      2.292      2.044      2.75       4.334      61.514     0.3850184  0.1799938  0.5900429 
1095.6     0.222      236.892    -9999      -9999      6.141      4.691      7.925      4.81       4.037      3.925      4.183      1.553      1.708      2.461      4.224      61.577     0.3882642  0.1843038  0.5922246 
1095.8     0.224      244.218    -9999      -9999      6.244      4.288      8.302      4.496      3.938      3.675      3.672      1.41       1.729      2.436      4.097      61.661     0.3935865  0.1920767  0.5950962 
1096       0.223      251.753    -9999      -9999      6.516      3.798      7.547      4.144001   3.775      3.4        2.948      0.798      1.409      2.41       3.974      61.788     0.4068014  0.2142157  0.599387  
1096.2     0.219      258.242    -9999      -9999      6.73       3.106      6.063001   3.692      3.3        3.112      2.683      1.057      1.275      2.31       3.874      61.935     0.4188885  0.2334134  0.6043637 
1096.4     0.218      265.358    -9999      -9999      6.766      2.641      5.937      3.228      2.85       2.737      2.683      1.074      1.125      2.21       3.77       62.061     0.422743   0.2368079  0.608678  
1096.6     0.22       273.731    -9999      -9999      6.523      2.641      6          3.592      2.675      2.663      2.695      1.062      1.161      2.122      3.656      62.166     0.4135677  0.214818   0.6123174 
1096.8     0.223      286.08     -9999      -9999      6.333      2.578      5.396      3.818      2.513      2.5        2.742      0.786      1.269      2.034      3.502      62.271     0.407516   0.1990566  0.6159754 
1097       0.225      303.035    -9999      -9999      6.373      2.741      5.057      3.793      2.375      2.375      2.668      0.756      1.271      1.933      3.309      62.376     0.4109638  0.2022758  0.6196519 
