~Version
 VERS              .         2.0                           : CWLS LOG ASCII STANDARD - VERSION 2.0
 WRAP              .         NO                            : ONE LINE PER DEPTH STEP
 DLM               .         SPACE                         : DELIMITING CHARACTER(SPACE TAB OR COMMA)
~Well Information
#_______________________________________________________________________________
#
#PARAMETER_NAME    .UNIT     VALUE                         : DESCRIPTION
#_______________________________________________________________________________
STRT               .M        890                           : First reference value
STOP               .M        1196                          : Last reference value
STEP               .M        0.2                           : Step increment
NULL               .         -9999                         : Missing value
COMP               .                                       : Company
WELL               .         1683                          : Well name
FLD                .         Узень                         : Field
LOC                .                                       : Location
CNTY               .                                       : County
STAT               .                                       : State
CTRY               .                                       : Country
SRVC               .                                       : Service Company
DATE               .         31.01.1984                    : Date
UWI                .                                       : Unique Well ID
Block              .         6а                            : 
Cartographic_reference_system .         GCS_WGS_1984                  : ESRI,PE_10_3_1- <?xml version="1.0" encoding="utf-16"?><ILateBoundCoordinateReferenceSystem name="GCS_WGS_1984"><AuthorityCode>EPSG,4326</AuthorityCode></ILateBoundCoordinateReferenceSystem>
Category           .         Нефтяная                      : 
Condition          .         Ликвидированная               : 
Date               .         20.02.1984                    : 
EREF               .m        81                            : 100.8
Gorizont           .         15                            : 14
HZCS               .GCS_WGS_1984 WGS_1984_EASE-Grid_2.0_Global : ESRI,PE_10_3_1- <?xml version="1.0" encoding="utf-16"?><ILateBoundCoordinateReferenceSystem name="WGS_1984_EASE-Grid_2.0_Global"><AuthorityCode>EPSG,6933</AuthorityCode></ILateBoundCoordinateReferenceSystem>
Interpretator      .         Кушербаева А.С                : 
Kupol              .         основной                      : osnovnoi
LATI               .dega     0.6655357802                  : GCS_WGS_1984
LONG               .dega     0.4591046508                  : GCS_WGS_1984
Mud                .                                       : 
Mud_density        .                                       : 
Mud_resistivity    .                                       : 
NGDU               .         НГДУ-2                        : 
ORIGINALWELLNAME   .         1683                          : 
Spud_date          .         1984                          : 1961
Viscosity          .                                       : 
X                  .m        44297.3                       : 46154
Y                  .m        84902.73                      : 85761.93
YEAR               .         2018г                         : 
~Parameter Information Block
#_______________________________________________________________________________
#
#PARAMETER_NAME    .UNIT     VALUE                         : DESCRIPTION
#_______________________________________________________________________________
SET                .         LQC_KAZNIPI_Petrel            : 
TLFamily_CALI      .         Caliper                       : 
TLFamily_CILD      .         Conductivity                  : 
TLFamily_COLL      .         Net Reservoir Flag            : 
TLFamily_CSAT      .         Fluid Code                    : 
TLFamily_DEPT      .         Measured Depth                : 
TLFamily_GR        .         Russian Gamma Ray             : 
TLFamily_GZ1       .         Gradient 045                  : 
TLFamily_GZ2       .         Gradient 105                  : 
TLFamily_GZ3       .         Gradient 225                  : 
TLFamily_GZ4       .         Gradient 425                  : 
TLFamily_GZ5       .         Gradient 850                  : 
TLFamily_LLS       .         Lateral Log Resistivity       : 
TLFamily_MINV      .         Micro Gradient Resistivity    : 
TLFamily_MNOR      .         Micro Resistivity             : 
TLFamily_OGZ       .         Gradient Inverted 225         : 
TLFamily_RT        .         Formation Resistivity         : 
TLFamily_SP        .         Spontaneous Potential         : 
TLFamily_VSH_FIN   .         Shale Volume                  : 
TLFamily_VSH_GR    .         Shale Volume                  : 
TLFamily_VSH_SP    .         Shale Volume                  : 
~Curve Information
#_______________________________________________________________________________
#
#LOGNAME           .UNIT     LOG_ID                        : DESCRIPTION
#_______________________________________________________________________________
DEPT               .M                                      : Колонка глубины 
CALI               .м                                      : Каверномер 
CILD               .мСм/м                                  : Индукционный каротаж 
COLL               .unitless                               :  
CSAT               .unitless                               :  
GR                 .uR/h                                   : Гамма каротаж 
GZ1                .Ohmm                                   : Градиент-зонд  длиной 0.45м 
GZ2                .Ohmm                                   : Градиент-зонд  длиной 1.05м 
GZ3                .Ohmm                                   : Градиент-зонд  длиной 2.25м 
GZ4                .Ohmm                                   : Градиент-зонд  длиной 4.5м 
GZ5                .Ohmm                                   : Градиент-зонд  длиной 8.5м 
LLS                .Ohmm                                   : Боковой каротаж 
MINV               .Ohmm                                   : Микро-градиент зонд 
MNOR               .Ohmm                                   : Микро-потенциал зонд 
OGZ                .Ohmm                                   : Обращенный градиент-зонд 
RT                 .Ohmm                                   : УЭС пласта 
SP                 .мВ                                     : Потенциал самополяризации 
VSH_FIN            .v/v                                    : Описание 
VSH_GR             .v/v                                    : Shale volume 
VSH_SP             .v/v                                    : Shale Volume 
~Ascii
# ...
1186       -9999      446.416    8          2          8.405      1.244      1.887      1.507      1.95       1.212      1.823      2.246      1.886      1.456      2.241      45.3       0.2663348  0.2882412  0.2444283 
1186.2     -9999      451.858    8          2          8.466      1.383      2          1.608      2.05       1.288      1.801      2.104      1.76       1.368      2.213      45.174     0.2717547  0.3006315  0.2428779 
1186.4     -9999      453.532    8          2          8.47       1.395      2          1.783      2.112      1.325      1.826      2.031      1.856      1.28       2.205      45.026     0.271226   0.3014625  0.2409895 
1186.6     -9999      452.695    8          2          8.578      1.383      1.887      2.009      2.15       1.325      1.867      2.035      1.817      1.192      2.209      44.753     0.2809722  0.3247843  0.23716   
1186.8     -9999      450.183    8          2          8.483      1.421      2.025      2.185      2.15       1.4        1.88       2.286      1.833      1.117      2.221      44.879     0.2718966  0.3041785  0.2396148 
1187       -9999      445.787    8          2          8.365      1.496      2.138      2.16       2.125      1.488      1.849      2.39       1.882      1.406      2.243      45.867     0.2684409  0.280395   0.2564868 
1187.2     -9999      439.299    8          2          8.164      1.559      2.138      1.984      2.125      1.587      1.836      2.15       1.817      1.644      2.277      47.34      0.263779   0.2440851  0.2834729 
1187.4     -9999      432.182    8          2          8.065      1.534      2.151      1.808      2.138      1.725      1.812      1.364      1.453      1.883      2.314      48.896     0.2719848  0.2279693  0.3160003 
1187.6     -9999      426.321    -9999      -9999      7.972      1.496      2.189      1.645      2.325      1.925      1.805      0.729      1.052      2.122      2.346      50.116     0.2791093  0.2138009  0.3444178 
1187.8     -9999      423.391    -9999      -9999      7.991      1.571      2.415      2.022      2.487      2.125      1.842      0.309      0.724      2.36       2.362      51.335     0.2960668  0.2166221  0.3755115 
1188       -9999      423.391    -9999      -9999      8.128      1.697      2.881      2.801      2.725      2.237      1.892      0.449      0.883      2.624      2.362      52.555     0.3237796  0.2380972  0.409462  
1188.2     -9999      425.066    -9999      -9999      8.192      1.622      2.717      2.537      2.838      2.163      1.928      0.727      0.732      2.436      2.353      53.754     0.3472799  0.2488466  0.4457133 
1188.4     -9999      427.996    -9999      -9999      7.901      1.345      2.151      2.235      2.213      2          1.898      1.086      0.87       2.147      2.337      54.511     0.3368546  0.2035797  0.4701296 
1188.6     -9999      431.764    -9999      -9999      7.514      1.458      2.101      1.959      1.975      1.837      1.856      1.509      0.924      1.933      2.316      54.553     0.3136966  0.1558732  0.4715199 
1188.8     -9999      435.531    -9999      -9999      7.164      1.685      2.113      1.771      2          1.775      1.793      1.726      1.2        1.808      2.296      53.838     0.2853977  0.1224321  0.4483634 
1189       -9999      438.671    -9999      -9999      6.803      1.571      2.277      1.721      -9999      1.75       1.75       1.952      1.42       1.745      2.28       52.808     0.2561537  0.09543838 0.416869  
1189.2     -9999      439.718    -9999      -9999      6.29       1.521      2.377      1.658      -9999      1.775      1.739      2.215      1.718      1.657      2.274      51.777     0.2272334  0.06698917 0.3874776 
1189.4     -9999      437.834    -9999      -9999      5.738      1.521      2.365      1.507      -9999      1.775      1.723      2.079      1.798      1.494      2.284      50.768     0.2032384  0.045772   0.3607049 
1189.6     -9999      430.508    -9999      -9999      5.25       1.446      2.264      1.331      -9999      1.763      1.744      2.165      1.794      1.33       2.324      49.779     0.1844951  0.03268681 0.3363033 
1189.8     -9999      420.879    -9999      -9999      4.784      1.446      2.075      1.168      -9999      1.75       1.912      1.826      1.767      1.23       2.377      48.749     0.1682259  0.0236994  0.3127525 
1190       -9999      413.762    -9999      -9999      4.312      1.32       1.862      1.256      -9999      1.738      2.205      2.014      1.932      1.469      2.417      47.718     0.1555022  0.02       0.2910043 
1190.2     -9999      415.646    -9999      -9999      3.978      1.156      1.761      1.608      -9999      1.788      2.409      2.121      1.986      1.745      2.406      46.793     0.1464912  0.02       0.2729824 
1190.4     -9999      424.647    -9999      -9999      3.839      1.207      2.126      1.947      -9999      1.913      2.327      2.407      1.879      1.971      2.356      46.793     0.1464912  0.02       0.2729824 
1190.6     -9999      436.997    -9999      -9999      3.729      1.622      2.704      2.035      -9999      2.025      2.05       2.495      1.909      2.21       2.29       -9999      -4999.49   0.02       -9999     
1190.8     -9999      446.625    -9999      -9999      3.685      2.075      3.006      2.549      -9999      2.075      1.787      2.556      1.775      2.297      2.24       -9999      -4999.49   0.02       -9999     
1191       -9999      452.276    -9999      -9999      3.79       1.974      2.541      2.323      -9999      1.875      1.652      2.539      1.798      2.26       2.211      -9999      -4999.49   0.02       -9999     
1191.2     -9999      452.067    -9999      -9999      3.991      1.584      2.113      2.035      -9999      1.65       1.618      2.332      1.453      1.933      2.212      -9999      -4999.49   0.02       -9999     
1191.4     -9999      445.788    -9999      -9999      3.991      -9999      1.975      1.758      -9999      1.5        1.642      1.613      1.115      1.607      2.244      -9999      -4999.49   0.02       -9999     
1191.6     -9999      433.229    -9999      -9999      -9999      -9999      1.937      1.469      -9999      1.4        1.723      1.107      0.92       1.418      2.31       -9999      -9999      -9999      -9999     
1191.8     -9999      415.437    -9999      -9999      -9999      -9999      1.887      1.231      -9999      1.6        1.856      0.986      0.92       1.481      2.411      -9999      -9999      -9999      -9999     
1192       -9999      395.343    -9999      -9999      -9999      -9999      1.811      2.16       -9999      2.1        1.925      1.801      1.25       1.657      2.534      -9999      -9999      -9999      -9999     
1192.2     -9999      376.504    -9999      -9999      -9999      -9999      -9999      2.688      -9999      2.6        2.029      2.326      1.338      -9999      2.66       -9999      -9999      -9999      -9999     
1192.4     -9999      364.364    -9999      -9999      -9999      -9999      -9999      3.027      -9999      3.075      2.188      2.804      1.622      -9999      2.746      -9999      -9999      -9999      -9999     
1192.6     -9999      360.806    -9999      -9999      -9999      -9999      -9999      3.177      -9999      -9999      2.4        2.744      1.704      -9999      2.772      -9999      -9999      -9999      -9999     
1192.8     -9999      365.62     -9999      -9999      -9999      -9999      -9999      3.203      -9999      -9999      2.424      2.733      1.737      -9999      2.736      -9999      -9999      -9999      -9999     
1193       -9999      374.83     -9999      -9999      -9999      -9999      -9999      3.215      -9999      -9999      2.25       2.568      1.633      -9999      2.669      -9999      -9999      -9999      -9999     
1193.2     -9999      385.714    -9999      -9999      -9999      -9999      -9999      -9999      -9999      -9999      2.005      2.32       1.485      -9999      2.594      -9999      -9999      -9999      -9999     
