~Version
 VERS              .         2.0                           : CWLS LOG ASCII STANDARD - VERSION 2.0
 WRAP              .         NO                            : ONE LINE PER DEPTH STEP
 DLM               .         SPACE                         : DELIMITING CHARACTER(SPACE TAB OR COMMA)
~Well Information
#_______________________________________________________________________________
#
#PARAMETER_NAME    .UNIT     VALUE                         : DESCRIPTION
#_______________________________________________________________________________
STRT               .M        890                           : First reference value
STOP               .M        1196                          : Last reference value
STEP               .M        0.2                           : Step increment
NULL               .         -9999                         : Missing value
COMP               .                                       : Company
WELL               .         1683                          : Well name
FLD                .         Узень                         : Field
LOC                .                                       : Location
CNTY               .                                       : County
STAT               .                                       : State
CTRY               .                                       : Country
SRVC               .                                       : Service Company
DATE               .         31.01.1984                    : Date
UWI                .                                       : Unique Well ID
Block              .         6а                            : 
Cartographic_reference_system .         GCS_WGS_1984                  : ESRI,PE_10_3_1- <?xml version="1.0" encoding="utf-16"?><ILateBoundCoordinateReferenceSystem name="GCS_WGS_1984"><AuthorityCode>EPSG,4326</AuthorityCode></ILateBoundCoordinateReferenceSystem>
Category           .         Нефтяная                      : 
Condition          .         Ликвидированная               : 
Date               .         20.02.1984                    : 
EREF               .m        81                            : 100.8
Gorizont           .         15                            : 14
HZCS               .GCS_WGS_1984 WGS_1984_EASE-Grid_2.0_Global : ESRI,PE_10_3_1- <?xml version="1.0" encoding="utf-16"?><ILateBoundCoordinateReferenceSystem name="WGS_1984_EASE-Grid_2.0_Global"><AuthorityCode>EPSG,6933</AuthorityCode></ILateBoundCoordinateReferenceSystem>
Interpretator      .         Кушербаева А.С                : 
Kupol              .         основной                      : osnovnoi
LATI               .dega     0.6655357802                  : GCS_WGS_1984
LONG               .dega     0.4591046508                  : GCS_WGS_1984
Mud                .                                       : 
Mud_density        .                                       : 
Mud_resistivity    .                                       : 
NGDU               .         НГДУ-2                        : 
ORIGINALWELLNAME   .         1683                          : 
Spud_date          .         1984                          : 1961
Viscosity          .                                       : 
X                  .m        44297.3                       : 46154
Y                  .m        84902.73                      : 85761.93
YEAR               .         2018г                         : 
~Parameter Information Block
#_______________________________________________________________________________
#
#PARAMETER_NAME    .UNIT     VALUE                         : DESCRIPTION
#_______________________________________________________________________________
SET                .         LQC_KAZNIPI_Petrel            : 
TLFamily_CALI      .         Caliper                       : 
TLFamily_CILD      .         Conductivity                  : 
TLFamily_COLL      .         Net Reservoir Flag            : 
TLFamily_CSAT      .         Fluid Code                    : 
TLFamily_DEPT      .         Measured Depth                : 
TLFamily_GR        .         Russian Gamma Ray             : 
TLFamily_GZ1       .         Gradient 045                  : 
TLFamily_GZ2       .         Gradient 105                  : 
TLFamily_GZ3       .         Gradient 225                  : 
TLFamily_GZ4       .         Gradient 425                  : 
TLFamily_GZ5       .         Gradient 850                  : 
TLFamily_LLS       .         Lateral Log Resistivity       : 
TLFamily_MINV      .         Micro Gradient Resistivity    : 
TLFamily_MNOR      .         Micro Resistivity             : 
TLFamily_OGZ       .         Gradient Inverted 225         : 
TLFamily_RT        .         Formation Resistivity         : 
TLFamily_SP        .         Spontaneous Potential         : 
TLFamily_VSH_FIN   .         Shale Volume                  : 
TLFamily_VSH_GR    .         Shale Volume                  : 
TLFamily_VSH_SP    .         Shale Volume                  : 
~Curve Information
#_______________________________________________________________________________
#
#LOGNAME           .UNIT     LOG_ID                        : DESCRIPTION
#_______________________________________________________________________________
DEPT               .M                                      : Колонка глубины 
CALI               .м                                      : Каверномер 
CILD               .мСм/м                                  : Индукционный каротаж 
COLL               .unitless                               :  
CSAT               .unitless                               :  
GR                 .uR/h                                   : Гамма каротаж 
GZ1                .Ohmm                                   : Градиент-зонд  длиной 0.45м 
GZ2                .Ohmm                                   : Градиент-зонд  длиной 1.05м 
GZ3                .Ohmm                                   : Градиент-зонд  длиной 2.25м 
GZ4                .Ohmm                                   : Градиент-зонд  длиной 4.5м 
GZ5                .Ohmm                                   : Градиент-зонд  длиной 8.5м 
LLS                .Ohmm                                   : Боковой каротаж 
MINV               .Ohmm                                   : Микро-градиент зонд 
MNOR               .Ohmm                                   : Микро-потенциал зонд 
OGZ                .Ohmm                                   : Обращенный градиент-зонд 
RT                 .Ohmm                                   : УЭС пласта 
SP                 .мВ                                     : Потенциал самополяризации 
VSH_FIN            .v/v                                    : Описание 
VSH_GR             .v/v                                    : Shale volume 
VSH_SP             .v/v                                    : Shale Volume 
~Ascii
# ...
971.4      0.21       331.292    -9999      -9999      6.322      2.075      16.855     2.512      2.4        2.425      2.525      1.049      1.165      2.662      3.019      69.716     0.5426435  0.3668455  0.7184415 
971.6      0.211      329.618    -9999      -9999      6.369      2.112      16.415     2.562      2.388      2.425      2.51       1.07       1.23       2.523      3.034      69.716     0.5470751  0.3755414  0.7186089 
971.8      0.211      327.316    -9999      -9999      6.47       2.075      16.164     2.675      2.35       2.425      2.432      0.926      1.219      2.373      3.055      69.695     0.5564541  0.3949319  0.7179764 
972        0.213      326.269    -9999      -9999      6.514      2.251      15.975     2.662      2.35       2.425      2.46       0.88       1.428      2.235      3.065      69.674     0.560517   0.4036894  0.7173446 
972.2000000000001 0.216      327.525    -9999      -9999      6.495      2.075      17.17      2.713      2.375      2.425      2.466      0.796      1.48       2.235      3.053      69.653     0.5582985  0.3998842  0.7167128 
972.4      0.217      329.618    -9999      -9999      6.339      2.339      18.679     2.901      2.45       2.425      2.408      1.053      1.512      2.134      3.034      69.653     0.5434236  0.3699674  0.7168798 
972.6      0.219      331.502    -9999      -9999      6.101      2.238      18.176     3.089      2.413      2.425      2.28       0.997      1.365      2.021      3.017      69.632     0.5224145  0.3285801  0.7162489 
972.8      0.222      331.711    -9999      -9999      5.82       2.263      17.296     3.152      2.275      2.45       2.265      0.999      1.1        1.996      3.015      69.59      0.5002277  0.2856344  0.7148211 
973        0.222      330.455    -9999      -9999      5.685      2.175      16.038     3.002      2.163      2.45       2.309      1.181      1.175      2.147      3.026      69.548     0.4902207  0.2670458  0.7133956 
973.2000000000001 0.219      328.571    -9999      -9999      5.835      1.936      16.164     2.826      2.188      2.45       2.361      1.187      1.093      2.31       3.044      69.506     0.4998754  0.2877781  0.7119727 
973.4      0.212      329.199    -9999      -9999      6.242      2.037      16.792     2.675      2.237      2.45       2.427      1.089      1.227      2.159      3.038      69.485     0.531925   0.3525047  0.7113453 
973.6      0.209      335.27     -9999      -9999      6.706      2.138      17.233     2.537      2.362      2.5        2.51       0.903      1.175      2.046      2.984      69.464     0.5774758  0.4442336  0.710718  
973.8      0.21       349.712    -9999      -9999      7.08       2.15       18.742     2.6        2.538      2.563      2.461      0.995      1.443      1.908      2.865      69.464     0.623078   0.5352722  0.7108837 
974        0.215      368.132    -9999      -9999      7.04       2.389      20.063     2.838      2.65       2.575      2.215      1.053      1.257      1.795      2.722      69.464     0.6178775  0.5247054  0.7110496 
974.2000000000001 0.218      385.505    -9999      -9999      6.658      2.653      19.686     3.089      2.75       2.563      1.945      0.742      1.194      1.833      2.596      69.464     0.5724732  0.4337309  0.7112156 
974.4      0.219      397.645    -9999      -9999      6.08       2.351      17.799     3.253      2.55       2.525      1.836      0.497      0.832      1.971      2.516      69.464     0.51827    0.3251586  0.7113813 
974.6      0.217      407.901    -9999      -9999      5.799      1.987      16.101     3.165      2.375      2.475      1.9        0.43       0.858      2.109      2.453      69.443     0.4967072  0.28266    0.7107543 
974.8      0.218      420.46     -9999      -9999      5.801      1.685      15.157     3.052      2.2        2.4        1.98       0.606      0.786      2.096      2.38       69.422     0.4965348  0.282942   0.7101275 
975        0.22       436.578    -9999      -9999      5.974      1.458      14.843     2.901      2.225      2.313      1.945      0.603      0.889      1.946      2.293      69.401     0.5089628  0.3084241  0.7095014 
975.2000000000001 0.224      450.811    -9999      -9999      6.145      1.496      14.465     2.738      2.288      2.237      1.788      0.56       0.908      1.921      2.22       69.401     0.5227665  0.3358663  0.7096668 
975.4      0.228      454.788    -9999      -9999      6.361      1.559      13.459     2.575      2.163      2.175      1.647      0.428      0.764      2.021      2.199      69.401     0.5419397  0.3740468  0.7098325 
975.6      0.229      441.811    -9999      -9999      6.576      1.483      11.761     2.399      2.038      2.138      1.654      0.355      0.686      2.235      2.268      69.401     0.5631792  0.4163601  0.7099983 
975.8      0.226      424.019    -9999      -9999      6.706      1.295      10.314     2.248      1.913      2.088      1.814      0.344      0.628      2.398      2.362      69.422     0.5775951  0.4442336  0.7109566 
976        0.221      410.204    -9999      -9999      6.736      1.156      9.937001   2.047      1.8        2.075      1.969      0.507      0.793      2.574      2.438      69.485     0.5822158  0.4509265  0.7135051 
976.2000000000001 0.219      405.39     -9999      -9999      6.698      1.144      10.692     1.934      1.938      2.1        2.043      0.599      1.058      2.762      2.467      69.569     0.5796624  0.4424656  0.7168592 
976.4      0.217      399.738    -9999      -9999      6.637      1.433      11.321     2.085      2.038      2.15       2.043      0.62       1.38       2.825      2.502      69.674     0.5751213  0.4292144  0.7210282 
976.6      0.214      392.622    -9999      -9999      6.599      1.647      11.698     2.223      2.075      2.175      2.105      0.499      1.583      2.95       2.548      69.779     0.5731887  0.4211609  0.7252166 
976.8      0.212      387.389    -9999      -9999      6.548      1.773      11.572     2.311      2.075      2.213      2.182      0.462      1.643      3.064      2.582      69.863     0.5696023  0.4105893  0.7286152 
977        0.214      386.761    -9999      -9999      6.514      1.861      11.761     2.21       2.088      2.225      2.172      0.422      1.581      2.875      2.586      69.905     0.5670468  0.4036894  0.7304043 
977.2000000000001 0.218      388.017    -9999      -9999      6.394      1.886      12.767     2.135      2.013      2.188      2.048      0.478      1.518      2.712      2.577      69.905     0.5554122  0.3802505  0.730574  
977.4      0.222      386.133    -9999      -9999      6.236      1.936      14.088     2.072      1.938      2.175      1.95       0.382      1.455      2.536      2.59       69.905     0.5410976  0.351452   0.7307433 
977.6      0.221      379.016    -9999      -9999      6.054      1.848      13.899     1.984      1.9        2.138      2.015      0.464      1.393      2.699      2.64       69.884     0.5255371  0.3209717  0.7301025 
977.8      0.219      367.923    -9999      -9999      5.871      1.647      13.27      1.896      1.9        2.112      2.254      0.516      1.332      2.863      2.72       69.842     0.5108206  0.2929887  0.7286525 
978        0.217      355.782    -9999      -9999      5.647      1.647      13.208     1.834      1.913      2.1        2.443      0.631      1.24       3.064      2.813      69.863     0.4958332  0.2620351  0.7296312 
978.2000000000001 0.215      342.805    -9999      -9999      5.46       1.584      13.333     1.871      1.925      2.112      2.528      0.746      1.223      3.126      2.92       69.947     0.4858803  0.238714   0.7330467 
978.4      0.212      328.571    -9999      -9999      5.299      1.76       13.836     1.997      1.975      2.125      2.534      0.748      1.152      3.189      3.048      70.074     0.4792265  0.2203051  0.7381479 
978.6      0.209      314.129    -9999      -9999      5.107      1.987      13.711     2.148      1.962      2.163      2.516      1.057      1.328      3.34       3.188      70.137     0.4704871  0.2001984  0.7407757 
