~Version
 VERS              .         2.0                           : CWLS LOG ASCII STANDARD - VERSION 2.0
 WRAP              .         NO                            : ONE LINE PER DEPTH STEP
 DLM               .         SPACE                         : DELIMITING CHARACTER(SPACE TAB OR COMMA)
~Well Information
#_______________________________________________________________________________
#
#PARAMETER_NAME    .UNIT     VALUE                         : DESCRIPTION
#_______________________________________________________________________________
STRT               .M        890                           : First reference value
STOP               .M        1196                          : Last reference value
STEP               .M        0.2                           : Step increment
NULL               .         -9999                         : Missing value
COMP               .                                       : Company
WELL               .         1683                          : Well name
FLD                .         Узень                         : Field
LOC                .                                       : Location
CNTY               .                                       : County
STAT               .                                       : State
CTRY               .                                       : Country
SRVC               .                                       : Service Company
DATE               .         31.01.1984                    : Date
UWI                .                                       : Unique Well ID
Block              .         6а                            : 
Cartographic_reference_system .         GCS_WGS_1984                  : ESRI,PE_10_3_1- <?xml version="1.0" encoding="utf-16"?><ILateBoundCoordinateReferenceSystem name="GCS_WGS_1984"><AuthorityCode>EPSG,4326</AuthorityCode></ILateBoundCoordinateReferenceSystem>
Category           .         Нефтяная                      : 
Condition          .         Ликвидированная               : 
Date               .         20.02.1984                    : 
EREF               .m        81                            : 100.8
Gorizont           .         15                            : 14
HZCS               .GCS_WGS_1984 WGS_1984_EASE-Grid_2.0_Global : ESRI,PE_10_3_1- <?xml version="1.0" encoding="utf-16"?><ILateBoundCoordinateReferenceSystem name="WGS_1984_EASE-Grid_2.0_Global"><AuthorityCode>EPSG,6933</AuthorityCode></ILateBoundCoordinateReferenceSystem>
Interpretator      .         Кушербаева А.С                : 
Kupol              .         основной                      : osnovnoi
LATI               .dega     0.6655357802                  : GCS_WGS_1984
LONG               .dega     0.4591046508                  : GCS_WGS_1984
Mud                .                                       : 
Mud_density        .                                       : 
Mud_resistivity    .                                       : 
NGDU               .         НГДУ-2                        : 
ORIGINALWELLNAME   .         1683                          : 
Spud_date          .         1984                          : 1961
Viscosity          .                                       : 
X                  .m        44297.3                       : 46154
Y                  .m        84902.73                      : 85761.93
YEAR               .         2018г                         : 
~Parameter Information Block
#_______________________________________________________________________________
#
#PARAMETER_NAME    .UNIT     VALUE                         : DESCRIPTION
#_______________________________________________________________________________
SET                .         LQC_KAZNIPI_Petrel            : 
TLFamily_CALI      .         Caliper                       : 
TLFamily_CILD      .         Conductivity                  : 
TLFamily_COLL      .         Net Reservoir Flag            : 
TLFamily_CSAT      .         Fluid Code                    : 
TLFamily_DEPT      .         Measured Depth                : 
TLFamily_GR        .         Russian Gamma Ray             : 
TLFamily_GZ1       .         Gradient 045                  : 
TLFamily_GZ2       .         Gradient 105                  : 
TLFamily_GZ3       .         Gradient 225                  : 
TLFamily_GZ4       .         Gradient 425                  : 
TLFamily_GZ5       .         Gradient 850                  : 
TLFamily_LLS       .         Lateral Log Resistivity       : 
TLFamily_MINV      .         Micro Gradient Resistivity    : 
TLFamily_MNOR      .         Micro Resistivity             : 
TLFamily_OGZ       .         Gradient Inverted 225         : 
TLFamily_RT        .         Formation Resistivity         : 
TLFamily_SP        .         Spontaneous Potential         : 
TLFamily_VSH_FIN   .         Shale Volume                  : 
TLFamily_VSH_GR    .         Shale Volume                  : 
TLFamily_VSH_SP    .         Shale Volume                  : 
~Curve Information
#_______________________________________________________________________________
#
#LOGNAME           .UNIT     LOG_ID                        : DESCRIPTION
#_______________________________________________________________________________
DEPT               .M                                      : Колонка глубины 
CALI               .м                                      : Каверномер 
CILD               .мСм/м                                  : Индукционный каротаж 
COLL               .unitless                               :  
CSAT               .unitless                               :  
GR                 .uR/h                                   : Гамма каротаж 
GZ1                .Ohmm                                   : Градиент-зонд  длиной 0.45м 
GZ2                .Ohmm                                   : Градиент-зонд  длиной 1.05м 
GZ3                .Ohmm                                   : Градиент-зонд  длиной 2.25м 
GZ4                .Ohmm                                   : Градиент-зонд  длиной 4.5м 
GZ5                .Ohmm                                   : Градиент-зонд  длиной 8.5м 
LLS                .Ohmm                                   : Боковой каротаж 
MINV               .Ohmm                                   : Микро-градиент зонд 
MNOR               .Ohmm                                   : Микро-потенциал зонд 
OGZ                .Ohmm                                   : Обращенный градиент-зонд 
RT                 .Ohmm                                   : УЭС пласта 
SP                 .мВ                                     : Потенциал самополяризации 
VSH_FIN            .v/v                                    : Описание 
VSH_GR             .v/v                                    : Shale volume 
VSH_SP             .v/v                                    : Shale Volume 
~Ascii
# ...
927        0.209      358.294    1          3          2.769      1.848      13.396     1.733      1.85       2.275      2.162      0.955      1.568      2.122      2.791      52.261     0.1702185  0.06242111 0.2780158 
927.2000000000001 0.209      356.62     1          3          2.767      2.1        14.214     1.67       1.975      2.35       2.275      1.028      1.549      2.034      2.804      52.282     0.1703485  0.06235891 0.278338  
927.4      0.209      357.457    1          3          2.719      2.49       15.409     1.783      2.112      2.463      2.402      1.049      1.556      1.933      2.798      52.303     0.1697726  0.06088461 0.2786607 
927.6      0.209      360.387    1          3          2.662      2.678      16.981     1.959      2.25       2.525      2.432      0.99       1.564      1.833      2.775      52.324     0.1690814  0.05917907 0.2789837 
927.8      0.21       366.667    1          3          2.624      2.704      17.547     2.11       2.288      2.538      2.281      0.963      1.508      1.757      2.728      52.345     0.168688   0.05806868 0.2793073 
928        0.212      377.132    1          3          2.561      2.465      17.358     2.223      2.2        2.525      2.144      0.982      1.518      1.77       2.653      52.366     0.1679524  0.05627348 0.2796313 
928.2000000000001 0.213      390.528    1          3          2.571      2.414      18.239     2.386      2.112      2.45       2.12       0.99       1.434      1.783      2.563      52.366     0.168093   0.05655468 0.2796313 
928.4      0.213      404.762    1          3          2.677      2.439      18.365     2.612      2.025      2.362      2.12       1.003      1.371      1.757      2.473      52.366     0.1696272  0.05962321 0.2796313 
928.6      0.213      416.902    1          3          2.879      2.339      16.981     2.838      1.938      2.275      2.052      0.946      1.325      1.72       2.4        52.345     0.1726233  0.06593928 0.2793073 
928.8      0.215      424.647    1          3          2.928      2.138      15.786     2.75       1.837      2.175      1.943      0.967      1.267      1.695      2.355      52.303     0.1731152  0.06756966 0.2786607 
929        0.216      429.252    1          3          2.968      1.961      14.465     2.625      1.712      2.013      1.848      0.949      1.225      1.669      2.33       52.261     0.1734731  0.06893042 0.2780158 
929.2000000000001 0.216      433.229    1          3          2.993      1.597      12.956     2.499      1.6        1.9        1.783      0.944      1.236      1.619      2.308      52.24      0.1737444  0.06979477 0.2776941 
929.4      0.215      440.136    1          3          3.09       1.471      12.075     2.361      1.488      1.813      1.783      0.898      1.213      1.607      2.273      52.24      0.1754732  0.07325232 0.2776941 
929.6      0.213      448.718    1          3          3.156      1.421      11.761     2.248      1.425      1.7        1.819      0.898      1.211      1.582      2.229      52.24      0.1766982  0.07570229 0.2776941 
929.8      0.212      456.881    1          3          3.179      1.446      11.321     2.135      1.425      1.613      1.832      0.957      1.152      1.569      2.189      52.24      0.1771346  0.07657519 0.2776941 
930        0.211      461.695    1          3          3.139      1.496      11.069     2.009      1.425      1.563      1.769      1.086      1.171      1.531      2.166      52.261     0.1765397  0.07506351 0.2780158 
930.2000000000001 0.21       465.463    1          3          3.004      1.433      10.314     1.846      1.425      1.525      1.71       1.126      1.125      1.506      2.148      52.282     0.1742583  0.07017852 0.278338  
930.4      0.21       470.487    1          3          2.808      1.358      9.434      1.708      1.425      1.5        1.698      1.013      1.085      1.745      2.126      52.303     0.1711536  0.06364645 0.2786607 
930.6      0.211      475.72     1          3          2.7        1.282      9.56       1.846      1.425      1.488      1.725      0.848      1.039      1.845      2.102      52.303     0.1694857  0.06031071 0.2786607 
930.8      0.211      479.069    1          3          2.601      1.295      9.874001   2.009      1.413      1.462      1.727      0.756      1.035      1.971      2.087      52.303     0.1680337  0.05740675 0.2786607 
931        0.211      479.069    1          3          2.572      1.232      9.56       1.896      1.388      1.413      1.679      0.871      0.989      1.896      2.087      52.303     0.1676218  0.05658288 0.2786607 
931.2000000000001 0.211      478.65     1          3          2.616      1.257      8.742001   1.771      1.35       1.375      1.624      0.94       0.956      1.82       2.089      52.282     0.1680878  0.05783758 0.278338  
931.4      0.211      479.697    1          3          2.749      1.119      7.987      1.633      1.313      1.363      1.653      0.984      0.985      1.757      2.085      52.219     0.1695874  0.06180191 0.2773728 
931.6      0.211      482.836    1          3          2.759      1.056      8.679001   1.495      1.388      1.363      1.746      0.898      1.117      1.845      2.071      52.156     0.1692612  0.06211074 0.2764116 
931.8      0.21       486.185    1          3          2.7        1.219      9.747999   1.331      1.462      1.363      1.816      0.926      1.121      2.021      2.057      52.114     0.1680419  0.06031071 0.275773  
932        0.209      488.069    1          3          2.645      1.433      10.063     1.57       1.538      1.363      1.804      0.976      1.077      2.172      2.049      52.093     0.1670671  0.05867972 0.2754545 
932.2000000000001 0.208      487.232    1          3          2.645      1.571      9.308      1.821      1.525      1.35       1.728      1.026      0.972      2.335      2.052      52.05      0.1667416  0.05867972 0.2748035 
932.4      0.209      482.417    1          3          2.637      1.433      8.616      1.695      1.45       1.337      1.658      0.965      1.016      2.335      2.073      51.987     0.1661497  0.05844619 0.2738532 
932.6      0.21       474.045    1          3          2.649      1.232      8.428      1.57       1.375      1.325      1.666      0.986      1.098      2.147      2.11       51.945     0.1660094  0.05879683 0.2732219 
932.8      0.211      464.835    1          3          2.721      1.144      8.428      1.469      1.375      1.275      1.783      0.984      1.131      1.971      2.152      51.924     0.1669261  0.06094533 0.2729069 
933        0.212      458.137    1          3          2.829      1.32       8.679001   1.344      1.425      1.263      1.919      1.045      1.209      1.783      2.183      51.924     0.1686115  0.06431618 0.2729069 
933.2000000000001 0.213      453.742    1          3          2.913      1.408      9.497001   1.231      1.525      1.275      1.987      0.928      1.115      1.582      2.204      51.924     0.1699866  0.06706633 0.2729069 
933.4      0.212      449.346    1          3          2.922      1.559      9.623001   1.495      1.513      1.275      1.943      1.001      1.202      1.393      2.226      51.924     0.1701374  0.06736787 0.2729069 
933.6      0.211      442.229    1          3          2.804      1.597      9.56       1.758      1.425      1.288      1.896      0.947      1.158      1.255      2.262      51.924     0.1682133  0.06351967 0.2729069 
933.8      0.209      432.391    1          3          2.546      1.458      9.371      1.608      1.3        1.337      1.918      1.047      1.277      1.443      2.314      51.924     0.1643806  0.05585429 0.2729069 
934        0.209      421.507    1          3          2.413      1.534      9.686001   1.482      1.288      1.35       1.964      0.993      1.282      1.808      2.373      51.924     0.1625892  0.05227148 0.2729069 
934.2000000000001 0.21       414.181    1          3          2.377      1.622      10.755     1.369      1.413      1.325      2.034      1.057      1.186      2.574      2.415      51.924     0.1621244  0.05134185 0.2729069 
