~Version
 VERS              .         2.0                           : CWLS LOG ASCII STANDARD - VERSION 2.0
 WRAP              .         NO                            : ONE LINE PER DEPTH STEP
 DLM               .         SPACE                         : DELIMITING CHARACTER(SPACE TAB OR COMMA)
~Well Information
#_______________________________________________________________________________
#
#PARAMETER_NAME    .UNIT     VALUE                         : DESCRIPTION
#_______________________________________________________________________________
STRT               .M        890                           : First reference value
STOP               .M        1196                          : Last reference value
STEP               .M        0.2                           : Step increment
NULL               .         -9999                         : Missing value
COMP               .                                       : Company
WELL               .         1683                          : Well name
FLD                .         Узень                         : Field
LOC                .                                       : Location
CNTY               .                                       : County
STAT               .                                       : State
CTRY               .                                       : Country
SRVC               .                                       : Service Company
DATE               .         31.01.1984                    : Date
UWI                .                                       : Unique Well ID
Block              .         6а                            : 
Cartographic_reference_system .         GCS_WGS_1984                  : ESRI,PE_10_3_1- <?xml version="1.0" encoding="utf-16"?><ILateBoundCoordinateReferenceSystem name="GCS_WGS_1984"><AuthorityCode>EPSG,4326</AuthorityCode></ILateBoundCoordinateReferenceSystem>
Category           .         Нефтяная                      : 
Condition          .         Ликвидированная               : 
Date               .         20.02.1984                    : 
EREF               .m        81                            : 100.8
Gorizont           .         15                            : 14
HZCS               .GCS_WGS_1984 WGS_1984_EASE-Grid_2.0_Global : ESRI,PE_10_3_1- <?xml version="1.0" encoding="utf-16"?><ILateBoundCoordinateReferenceSystem name="WGS_1984_EASE-Grid_2.0_Global"><AuthorityCode>EPSG,6933</AuthorityCode></ILateBoundCoordinateReferenceSystem>
Interpretator      .         Кушербаева А.С                : 
Kupol              .         основной                      : osnovnoi
LATI               .dega     0.6655357802                  : GCS_WGS_1984
LONG               .dega     0.4591046508                  : GCS_WGS_1984
Mud                .                                       : 
Mud_density        .                                       : 
Mud_resistivity    .                                       : 
NGDU               .         НГДУ-2                        : 
ORIGINALWELLNAME   .         1683                          : 
Spud_date          .         1984                          : 1961
Viscosity          .                                       : 
X                  .m        44297.3                       : 46154
Y                  .m        84902.73                      : 85761.93
YEAR               .         2018г                         : 
~Parameter Information Block
#_______________________________________________________________________________
#
#PARAMETER_NAME    .UNIT     VALUE                         : DESCRIPTION
#_______________________________________________________________________________
SET                .         LQC_KAZNIPI_Petrel            : 
TLFamily_CALI      .         Caliper                       : 
TLFamily_CILD      .         Conductivity                  : 
TLFamily_COLL      .         Net Reservoir Flag            : 
TLFamily_CSAT      .         Fluid Code                    : 
TLFamily_DEPT      .         Measured Depth                : 
TLFamily_GR        .         Russian Gamma Ray             : 
TLFamily_GZ1       .         Gradient 045                  : 
TLFamily_GZ2       .         Gradient 105                  : 
TLFamily_GZ3       .         Gradient 225                  : 
TLFamily_GZ4       .         Gradient 425                  : 
TLFamily_GZ5       .         Gradient 850                  : 
TLFamily_LLS       .         Lateral Log Resistivity       : 
TLFamily_MINV      .         Micro Gradient Resistivity    : 
TLFamily_MNOR      .         Micro Resistivity             : 
TLFamily_OGZ       .         Gradient Inverted 225         : 
TLFamily_RT        .         Formation Resistivity         : 
TLFamily_SP        .         Spontaneous Potential         : 
TLFamily_VSH_FIN   .         Shale Volume                  : 
TLFamily_VSH_GR    .         Shale Volume                  : 
TLFamily_VSH_SP    .         Shale Volume                  : 
~Curve Information
#_______________________________________________________________________________
#
#LOGNAME           .UNIT     LOG_ID                        : DESCRIPTION
#_______________________________________________________________________________
DEPT               .M                                      : Колонка глубины 
CALI               .м                                      : Каверномер 
CILD               .мСм/м                                  : Индукционный каротаж 
COLL               .unitless                               :  
CSAT               .unitless                               :  
GR                 .uR/h                                   : Гамма каротаж 
GZ1                .Ohmm                                   : Градиент-зонд  длиной 0.45м 
GZ2                .Ohmm                                   : Градиент-зонд  длиной 1.05м 
GZ3                .Ohmm                                   : Градиент-зонд  длиной 2.25м 
GZ4                .Ohmm                                   : Градиент-зонд  длиной 4.5м 
GZ5                .Ohmm                                   : Градиент-зонд  длиной 8.5м 
LLS                .Ohmm                                   : Боковой каротаж 
MINV               .Ohmm                                   : Микро-градиент зонд 
MNOR               .Ohmm                                   : Микро-потенциал зонд 
OGZ                .Ohmm                                   : Обращенный градиент-зонд 
RT                 .Ohmm                                   : УЭС пласта 
SP                 .мВ                                     : Потенциал самополяризации 
VSH_FIN            .v/v                                    : Описание 
VSH_GR             .v/v                                    : Shale volume 
VSH_SP             .v/v                                    : Shale Volume 
~Ascii
890.0      0.21       353.271    -9999      -9999      8.04       1.748      13.774     1.972      1.488      1.525      2.22       1.007      1.257      2.184      2.831      56.088     -9999      0.2337256  0.8       
890.2000000000001 0.21       345.735    -9999      -9999      7.972      1.697      13.522     1.771      1.525      1.538      2.25       1.074      1.33       3.214      2.894      55.983     -9999      0.2233398  0.8       
890.4      0.21       338.409    -9999      -9999      7.955      1.722      13.208     1.708      1.538      1.55       2.334      1.034      1.292      3.993      2.956      55.92      -9999      0.2208162  0.8       
890.6      0.21       330.665    -9999      -9999      7.806      1.823      13.208     1.821      1.675      1.638      2.419      1.005      1.313      4.52       3.025      55.878     -9999      0.1998833  0.8       
890.8      0.21       318.106    -9999      -9999      7.738      1.974      14.277     2.035      1.8        1.8        2.392      0.99       1.238      5.123001   3.15       55.836     -9999      0.1910012  0.8       
891        0.21       298.43     -9999      -9999      7.626      1.873      13.711     2.336      1.837      2          2.383      0.988      1.221      5.877      3.366      55.815     -9999      0.1772241  0.8       
891.2000000000001 0.21       276.661    -9999      -9999      7.525      1.773      12.579     2.675      1.875      2.225      2.668      0.996      1.233      6.530001   3.629      55.794     -9999      0.1656542  0.8       
891.4      0.21       262.219    -9999      -9999      7.441      1.773      12.579     2.951      1.975      2.55       3.662      1.038      1.401      6.932      3.817      55.794     -9999      0.1566093  0.8       
891.6      0.21       258.87     -9999      -9999      7.628      1.836      16.226     3.14       2.275      3          5.178      1.139      1.787      6.517001   3.864      55.752     -9999      0.1774611  0.8       
891.8      0.21       265.777    -9999      -9999      7.803      2.653      24.151     3.391      3.275      3.338      5.346      1.21       2.059      5.073      3.767      55.752     -9999      0.1994829  0.8       
892        0.21       278.545    -9999      -9999      7.814      4.578001   30.566     3.717      3.9        3.9        4.673      1.306      2.109      4.043      3.598      55.752     -9999      0.200955   0.8       
892.2000000000001 0.21       294.453    -9999      -9999      7.801      4.867      30.189     4.37       3.675      3.85       3.169      1.134      1.768      3.867      3.403      55.773     -9999      0.1992164  0.8       
892.4      0.21       310.57     -9999      -9999      7.799      3.936      25.723     4.986      3.225      3.175      2.623      1.03       1.417      4.797      3.225      55.773     -9999      0.1989502  0.8       
892.6      0.21       326.688    -9999      -9999      7.74       2.867      23.459     4.571      2.775      2.612      2.281      0.871      1.282      5.688      3.066      55.794     -9999      0.1912567  0.8       
892.8      0.21       340.921    -9999      -9999      7.468      2.213      22.453     4.157      2.338      2.188      2.157      0.915      1.319      8.787      2.937      55.836     -9999      0.1594614  0.8       
893        0.211      349.921    -9999      -9999      7.265      1.848      20         3.743      1.875      1.837      2.108      0.878      1.365      9.98       2.858      55.899     -9999      0.1392274  0.8       
893.2000000000001 0.211      349.293    -9999      -9999      7.029      1.697      17.107     3.316      1.613      1.575      2.068      0.852      1.351      12.304     2.864      55.983     -9999      0.1189089  0.8       
893.4      0.211      334.013    -9999      -9999      6.82       1.647      14.465     2.901      1.45       1.475      2.046      0.892      1.292      16.134     3.004      56.13      -9999      0.1034051  0.8       
893.6      0.211      306.384    -9999      -9999      6.609      1.597      12.201     2.487      1.425      1.563      2.053      1.082      1.265      21.597     3.294      56.362     -9999      0.08980262 0.8       
893.8      0.211      271.01     -9999      -9999      6.62       1.496      10.881     2.135      1.375      2.25       2.257      1.168      1.376      23.858     3.735      56.656     -9999      0.09046534 0.8       
894        0.211      237.31     -9999      -9999      6.575      1.345      11.258     1.884      2.362      3.275      3.387      1.385      1.656      21.597     4.264      56.993     -9999      0.08778468 0.8       
894.2000000000001 0.211      207.169    -9999      -9999      6.472      1.244      15.66      1.796      3.362      4.775      7.063      1.369      2.157      18.96      4.885      57.35      -9999      0.08194417 0.8       
894.4      0.211      180.586    -9999      -9999      6.23       2.163      21.321     3.278      4.625      6.1        9.394      1.525      2.417      16.574     5.614      57.708     -9999      0.06970529 0.8       
894.6      0.211      156.934    -9999      -9999      6.036      3.571      25.535     4.546      4.975      6.9        10.797     1.55       2.563      14.564     6.456      58.044     -9999      0.06122767 0.8       
894.8      0.211      137.049    -9999      -9999      6.008      4.98       32.704     5.953      4.838      6.9        10.011     1.544      2.36       12.492     7.377      58.381     -9999      0.06009238 0.8       
895        0.211      122.187    -9999      -9999      5.966      5.495999   53.459     6.279      4.6        6.738      11.149     1.32       2.446      10.859     8.242      58.717     -9999      0.05842879 0.8       
895.2000000000001 0.211      112.559    -9999      -9999      6.295      6.590001   73.58501   5.915      4.725      6.525      12.351     1.21       2.582      9.478      8.905      59.012     -9999      0.07280064 0.8       
895.4      0.21       107.744    -9999      -9999      6.7        6.222      96.54099   5.551      4.675      6.213      12.187     1.241      2.803      7.445001   9.285      59.264     -9999      0.09543464 0.8       
895.6      0.21       107.326    -9999      -9999      7.014      7.606      106.289    5.187      5.075      5.9        10.626     1.427      2.711      6.002      9.319      59.474     -9999      0.1177226  0.8       
895.8      0.21       111.093    -9999      -9999      6.943      7.229      105.031    5.149      5.025      5.488      8.734      1.431      2.525      5.312      9.021      59.643     -9999      0.1122661  0.8       
896        0.211      119.675    -9999      -9999      6.759      6.6        103.459    6.38       4.775      5.075      7.541      1.431      2.41       4.822      8.403      59.811     -9999      0.09927358 0.8       
896.2000000000001 0.214      130.978    -9999      -9999      6.976      6.348      103.145    7.171      4.425      4.588      6.695      1.452      2.394      4.37       7.682      60         -9999      0.11477    0.8       
896.4      0.219      141.026    -9999      -9999      7.107      6.54       95.59701   7.598      4.063      4.188      5.722      1.321      2.3        3.993      7.109      60.273     -9999      0.125273   0.8       
896.6      0.224      149.189    -9999      -9999      7.544      5.66       83.64799   6.97       3.725      3.625      5.231      1.354      2.17       3.792      6.711      60.547     -9999      0.1677715  0.8       
896.8      0.23       158.818    -9999      -9999      8.01       4.892      71.698     10.173     3.375      3.375      5.347      1.358      2.262      3.616      6.321      60.82      -9999      0.2290854  0.8       
897        0.232      173.26     -9999      -9999      8.833      4.54       69.81099   11.491     3          3.038      5.613      1.452      2.245      3.428      5.813      61.073     -9999      0.3971123  0.8       
897.2000000000001 0.228      195.866    -9999      -9999      9.287      5.119      67.296     13.689     2.913      2.888      5.317      1.335      2.107      3.214      5.165      61.304     -9999      0.5379089  0.8       
