~Version
 VERS              .         2.0                           : CWLS LOG ASCII STANDARD - VERSION 2.0
 WRAP              .         NO                            : ONE LINE PER DEPTH STEP
 DLM               .         SPACE                         : DELIMITING CHARACTER(SPACE TAB OR COMMA)
~Well Information
#_______________________________________________________________________________
#
#PARAMETER_NAME    .UNIT     VALUE                         : DESCRIPTION
#_______________________________________________________________________________
STRT               .M        890                           : First reference value
STOP               .M        1196                          : Last reference value
STEP               .M        0.2                           : Step increment
NULL               .         -9999                         : Missing value
COMP               .                                       : Company
WELL               .         1683                          : Well name
FLD                .         Узень                         : Field
LOC                .                                       : Location
CNTY               .                                       : County
STAT               .                                       : State
CTRY               .                                       : Country
SRVC               .                                       : Service Company
DATE               .         31.01.1984                    : Date
UWI                .                                       : Unique Well ID
Block              .         6а                            : 
Cartographic_reference_system .         GCS_WGS_1984                  : ESRI,PE_10_3_1- <?xml version="1.0" encoding="utf-16"?><ILateBoundCoordinateReferenceSystem name="GCS_WGS_1984"><AuthorityCode>EPSG,4326</AuthorityCode></ILateBoundCoordinateReferenceSystem>
Category           .         Нефтяная                      : 
Condition          .         Ликвидированная               : 
Date               .         20.02.1984                    : 
EREF               .m        81                            : 100.8
Gorizont           .         15                            : 14
HZCS               .GCS_WGS_1984 WGS_1984_EASE-Grid_2.0_Global : ESRI,PE_10_3_1- <?xml version="1.0" encoding="utf-16"?><ILateBoundCoordinateReferenceSystem name="WGS_1984_EASE-Grid_2.0_Global"><AuthorityCode>EPSG,6933</AuthorityCode></ILateBoundCoordinateReferenceSystem>
Interpretator      .         Кушербаева А.С                : 
Kupol              .         основной                      : osnovnoi
LATI               .dega     0.6655357802                  : GCS_WGS_1984
LONG               .dega     0.4591046508                  : GCS_WGS_1984
Mud                .                                       : 
Mud_density        .                                       : 
Mud_resistivity    .                                       : 
NGDU               .         НГДУ-2                        : 
ORIGINALWELLNAME   .         1683                          : 
Spud_date          .         1984                          : 1961
Viscosity          .                                       : 
X                  .m        44297.3                       : 46154
Y                  .m        84902.73                      : 85761.93
YEAR               .         2018г                         : 
~Parameter Information Block
#_______________________________________________________________________________
#
#PARAMETER_NAME    .UNIT     VALUE                         : DESCRIPTION
#_______________________________________________________________________________
SET                .         LQC_KAZNIPI_Petrel            : 
TLFamily_CALI      .         Caliper                       : 
TLFamily_CILD      .         Conductivity                  : 
TLFamily_COLL      .         Net Reservoir Flag            : 
TLFamily_CSAT      .         Fluid Code                    : 
TLFamily_DEPT      .         Measured Depth                : 
TLFamily_GR        .         Russian Gamma Ray             : 
TLFamily_GZ1       .         Gradient 045                  : 
TLFamily_GZ2       .         Gradient 105                  : 
TLFamily_GZ3       .         Gradient 225                  : 
TLFamily_GZ4       .         Gradient 425                  : 
TLFamily_GZ5       .         Gradient 850                  : 
TLFamily_LLS       .         Lateral Log Resistivity       : 
TLFamily_MINV      .         Micro Gradient Resistivity    : 
TLFamily_MNOR      .         Micro Resistivity             : 
TLFamily_OGZ       .         Gradient Inverted 225         : 
TLFamily_RT        .         Formation Resistivity         : 
TLFamily_SP        .         Spontaneous Potential         : 
TLFamily_VSH_FIN   .         Shale Volume                  : 
TLFamily_VSH_GR    .         Shale Volume                  : 
TLFamily_VSH_SP    .         Shale Volume                  : 
~Curve Information
#_______________________________________________________________________________
#
#LOGNAME           .UNIT     LOG_ID                        : DESCRIPTION
#_______________________________________________________________________________
DEPT               .M                                      : Колонка глубины 
CALI               .м                                      : Каверномер 
CILD               .мСм/м                                  : Индукционный каротаж 
COLL               .unitless                               :  
CSAT               .unitless                               :  
GR                 .uR/h                                   : Гамма каротаж 
GZ1                .Ohmm                                   : Градиент-зонд  длиной 0.45м 
GZ2                .Ohmm                                   : Градиент-зонд  длиной 1.05м 
GZ3                .Ohmm                                   : Градиент-зонд  длиной 2.25м 
GZ4                .Ohmm                                   : Градиент-зонд  длиной 4.5м 
GZ5                .Ohmm                                   : Градиент-зонд  длиной 8.5м 
LLS                .Ohmm                                   : Боковой каротаж 
MINV               .Ohmm                                   : Микро-градиент зонд 
MNOR               .Ohmm                                   : Микро-потенциал зонд 
OGZ                .Ohmm                                   : Обращенный градиент-зонд 
RT                 .Ohmm                                   : УЭС пласта 
SP                 .мВ                                     : Потенциал самополяризации 
VSH_FIN            .v/v                                    : Описание 
VSH_GR             .v/v                                    : Shale volume 
VSH_SP             .v/v                                    : Shale Volume 
~Ascii
# ...
1163.8     0.215      500        -9999      -9999      7.474      1.194      1.761      1.808      2.288      0.988      1.731      1.5        0.979      2.159      2          56.215     0.2829448  0.1516302  0.4142594 
1164       0.215      497.07     -9999      -9999      7.694      1.232      1.786      1.733      2.112      0.988      1.737      1.419      1.002      2.41       2.012      56.446     0.2992403  0.176485   0.4219956 
1164.2     0.215      493.721    -9999      -9999      7.923      1.27       1.786      1.658      2          1          1.756      1.636      1.002      2.687      2.025      56.656     0.3179626  0.2066934  0.4292317 
1164.4     0.215      489.953    -9999      -9999      8.107      1.219      1.761      1.582      1.85       1          1.779      1.756      1.033      2.976      2.041      56.929     0.3366028  0.2346722  0.4385334 
1164.6     0.215      480.638    -9999      -9999      8.016      1.232      1.774      1.52       1.7        0.975      1.775      2.065      1.008      3.277      2.081      57.308     0.3358891  0.220391   0.4513873 
1164.8     0.215      462.951    -9999      -9999      7.905      1.295      1.836      1.444      1.538      0.975      1.743      1.987      1.073      3.528      2.162      57.539     0.3319587  0.2041424  0.459775  
1165       0.215      441.601    -9999      -9999      7.746      1.295      1.836      1.369      1.4        0.975      1.714      2.102      1.219      3.704      2.27       57.476     0.3208234  0.1829319  0.458715  
1165.2     0.215      415.437    -9999      -9999      7.824      1.27       1.774      1.306      1.3        0.988      1.703      2.125      1.51       4.131      2.415      57.035     0.3193322  0.1930464  0.445618  
1165.4     0.215      382.575    -9999      -9999      7.913      1.282      1.736      1.256      1.188      1.025      1.724      2.336      1.923      4.709      2.629      56.404     0.3161823  0.2052723  0.4270924 
1165.6     0.215      349.294    -9999      -9999      7.959      1.32       1.736      1.193      1.1        1.1        1.839      2.244      2.072      5.224      2.884      55.437     0.3057778  0.2118917  0.3996639 
1165.8     0.216      313.92     -9999      -9999      7.896      1.244      1.761      1.155      1.025      1.212      2.006      2.436      2.536      5.082      3.208      54.196     0.2848191  0.2028786  0.3667596 
1166       0.217      281.267    1          2          7.25       1.194      1.761      1.118      1          1.25       2.389      2.528      2.998      7.343      3.59       52.744     0.2307726  0.1299167  0.3316285 
1166.2     0.217      231.031    1          2          6.649      1.156      1.673      1.068      1          1.263      3.757      2.396      2.999      8.661      4.407      51.293     0.1929649  0.08581784 0.300112  
1166.4     0.218      188.959    1          2          6.04       1.119      1.535      1.181      1          1.325      6.302      2.2        2.667      9.352      5.337      49.842     0.1641776  0.05637584 0.2719793 
1166.6     0.218      169.074    1          2          5.922      1.194      1.522      2.035      1.438      1.6        9.353      2.783      3.112      9.352      5.959      48.454     0.1500178  0.05196785 0.2480678 
1166.8     0.218      156.515    1          2          5.822      1.219      1.698      2.889      1.837      2.088      10.451     3.354      3.524      8.347      6.407      47.192     0.1386202  0.04850318 0.2287373 
1167       0.217      152.119    1          2          5.728      1.332      2.189      3.491      2.625      2.775      9.328      3.805      3.554      7.343      6.575      46.036     0.1291878  0.04545728 0.2129183 
1167.2     0.216      159.027    1          2          5.81       2.238      2.855      4.283      3.425      3.8        7.399      3.358      3.288      6.275      6.311      44.984     0.1240519  0.04810325 0.2000005 
1167.4     0.217      165.089    1          2          5.878      3.848      4.327      4.848      3.925      5.537      6.957      3.076      3.242      5.271      6.088      44.143     0.1205433  0.0504139  0.1906728 
1167.6     0.219      169.911    1          2          6.057      5.043      6.44       5.287      3.95       6.575      7.412      2.808      2.952      5.208      5.911      43.996     0.1232175  0.05704099 0.1893941 
1167.8     0.222      182.68     1          2          6.179      4.968      6.829999   5.651      4.075      7.113      6.826      2.57       2.437      4.58       5.487      44.479     0.1285925  0.06205029 0.1951348 
1168       0.224      199.425    1          2          6.447      5.433      8.428      6.217      4.363      7.513      5.427      2.297      1.871      3.763      5.049      45.384     0.1405367  0.07465331 0.2064202 
1168.2     0.226      225.798    1          2          6.609      6.527      13.396     6.531      4.650001   7.563      4.344      1.86       1.819      3.136      4.496      46.246     0.1508531  0.08348179 0.2182245 
1168.4     0.227      242.477    1          2          6.609      6.565001   16.792     6.493      4.838      7.363      4.682      1.816      1.984      3.327      4.2        47.087     0.15713    0.08348179 0.2307783 
1168.6     0.228      258.451    1          2          6.443      5.647      15.912     5.991      4.5        6.912      4.221      1.517      1.854      2.511      3.917      47.865     0.1589104  0.07444755 0.2433733 
1168.8     0.23       289.011    1          2          6.407      5.018      13.648     7.309      3.788      6.287001   3.443      1.359      1.743      1.983      3.48       48.601     0.1644068  0.07262116 0.2561925 
1169       0.232      312.664    1          2          6.51       5.345      13.711     7.685999   3.125      5.625      2.325      1.068      1.537      1.82       3.208      49.274     0.173354   0.07796987 0.2687382 
1169.2     0.234      330.665    -9999      -9999      6.772      5.446001   14.403     7.887001   2.862      4.763      2.184      0.93       1.459      1.443      3.029      49.905     0.1873289  0.09341873 0.2812391 
1169.4     0.235      336.986    -9999      -9999      7.029      4.012      12.013     7.874      2.438      3.688      2.141      0.711      1.335      1.092      2.972      50.452     0.2021348  0.1115432  0.2927265 
1169.6     0.235      344.27     -9999      -9999      7.145      2.917      9.245      6.292      1.863      2.913      2.113      0.735      1.34       1.418      2.907      50.852     0.2112415  0.1208376  0.3016455 
1169.8     0.233      351.596    -9999      -9999      7.156      2.238      6.918      5.475999   1.175      2.35       2.095      0.769      1.347      1.745      2.845      51.125     0.2149383  0.1217582  0.3081183 
1170       0.231      349.503    -9999      -9999      7.025      1.924      5.208      4.885      0.95       1.888      2.177      0.802      1.386      2.059      2.862      51.335     0.2122966  0.1112358  0.3133575 
1170.2     0.231      339.665    -9999      -9999      7.052      1.76       4.289      4.295      0.9        1.462      2.452      0.844      1.435      2.385      2.948      51.609     0.2167312  0.1133274  0.320135  
1170.4     0.23       337.037    -9999      -9999      7          1.622      3.585      3.818      0.988      1.087      2.714      0.884      1.405      2.699      2.97       51.945     0.2189206  0.1093335  0.3285078 
1170.6     0.23       333.386    -9999      -9999      7.038      1.509      3.069      5.061      1.038      0.975      2.7        0.927      1.374      2.825      3          52.282     0.2246898  0.112238   0.3371416 
1170.8     0.23       338.409    -9999      -9999      7.103      1.433      2.843      6.078001   1.375      0.963      2.4        0.8        1.18       2.624      2.959      52.555     0.2309195  0.1173862  0.3444528 
1171       0.231      354.736    -9999      -9999      7.316      1.848      3.346      5.626      1.9        1.013      2.107      0.997      1.09       2.41       2.825      52.829     0.2439628  0.1359695  0.351956  
