~Version
 VERS              .         2.0                           : CWLS LOG ASCII STANDARD - VERSION 2.0
 WRAP              .         NO                            : ONE LINE PER DEPTH STEP
 DLM               .         SPACE                         : DELIMITING CHARACTER(SPACE TAB OR COMMA)
~Well Information
#_______________________________________________________________________________
#
#PARAMETER_NAME    .UNIT     VALUE                         : DESCRIPTION
#_______________________________________________________________________________
STRT               .M        890                           : First reference value
STOP               .M        1196                          : Last reference value
STEP               .M        0.2                           : Step increment
NULL               .         -9999                         : Missing value
COMP               .                                       : Company
WELL               .         1683                          : Well name
FLD                .         Узень                         : Field
LOC                .                                       : Location
CNTY               .                                       : County
STAT               .                                       : State
CTRY               .                                       : Country
SRVC               .                                       : Service Company
DATE               .         31.01.1984                    : Date
UWI                .                                       : Unique Well ID
Block              .         6а                            : 
Cartographic_reference_system .         GCS_WGS_1984                  : ESRI,PE_10_3_1- <?xml version="1.0" encoding="utf-16"?><ILateBoundCoordinateReferenceSystem name="GCS_WGS_1984"><AuthorityCode>EPSG,4326</AuthorityCode></ILateBoundCoordinateReferenceSystem>
Category           .         Нефтяная                      : 
Condition          .         Ликвидированная               : 
Date               .         20.02.1984                    : 
EREF               .m        81                            : 100.8
Gorizont           .         15                            : 14
HZCS               .GCS_WGS_1984 WGS_1984_EASE-Grid_2.0_Global : ESRI,PE_10_3_1- <?xml version="1.0" encoding="utf-16"?><ILateBoundCoordinateReferenceSystem name="WGS_1984_EASE-Grid_2.0_Global"><AuthorityCode>EPSG,6933</AuthorityCode></ILateBoundCoordinateReferenceSystem>
Interpretator      .         Кушербаева А.С                : 
Kupol              .         основной                      : osnovnoi
LATI               .dega     0.6655357802                  : GCS_WGS_1984
LONG               .dega     0.4591046508                  : GCS_WGS_1984
Mud                .                                       : 
Mud_density        .                                       : 
Mud_resistivity    .                                       : 
NGDU               .         НГДУ-2                        : 
ORIGINALWELLNAME   .         1683                          : 
Spud_date          .         1984                          : 1961
Viscosity          .                                       : 
X                  .m        44297.3                       : 46154
Y                  .m        84902.73                      : 85761.93
YEAR               .         2018г                         : 
~Parameter Information Block
#_______________________________________________________________________________
#
#PARAMETER_NAME    .UNIT     VALUE                         : DESCRIPTION
#_______________________________________________________________________________
SET                .         LQC_KAZNIPI_Petrel            : 
TLFamily_CALI      .         Caliper                       : 
TLFamily_CILD      .         Conductivity                  : 
TLFamily_COLL      .         Net Reservoir Flag            : 
TLFamily_CSAT      .         Fluid Code                    : 
TLFamily_DEPT      .         Measured Depth                : 
TLFamily_GR        .         Russian Gamma Ray             : 
TLFamily_GZ1       .         Gradient 045                  : 
TLFamily_GZ2       .         Gradient 105                  : 
TLFamily_GZ3       .         Gradient 225                  : 
TLFamily_GZ4       .         Gradient 425                  : 
TLFamily_GZ5       .         Gradient 850                  : 
TLFamily_LLS       .         Lateral Log Resistivity       : 
TLFamily_MINV      .         Micro Gradient Resistivity    : 
TLFamily_MNOR      .         Micro Resistivity             : 
TLFamily_OGZ       .         Gradient Inverted 225         : 
TLFamily_RT        .         Formation Resistivity         : 
TLFamily_SP        .         Spontaneous Potential         : 
TLFamily_VSH_FIN   .         Shale Volume                  : 
TLFamily_VSH_GR    .         Shale Volume                  : 
TLFamily_VSH_SP    .         Shale Volume                  : 
~Curve Information
#_______________________________________________________________________________
#
#LOGNAME           .UNIT     LOG_ID                        : DESCRIPTION
#_______________________________________________________________________________
DEPT               .M                                      : Колонка глубины 
CALI               .м                                      : Каверномер 
CILD               .мСм/м                                  : Индукционный каротаж 
COLL               .unitless                               :  
CSAT               .unitless                               :  
GR                 .uR/h                                   : Гамма каротаж 
GZ1                .Ohmm                                   : Градиент-зонд  длиной 0.45м 
GZ2                .Ohmm                                   : Градиент-зонд  длиной 1.05м 
GZ3                .Ohmm                                   : Градиент-зонд  длиной 2.25м 
GZ4                .Ohmm                                   : Градиент-зонд  длиной 4.5м 
GZ5                .Ohmm                                   : Градиент-зонд  длиной 8.5м 
LLS                .Ohmm                                   : Боковой каротаж 
MINV               .Ohmm                                   : Микро-градиент зонд 
MNOR               .Ohmm                                   : Микро-потенциал зонд 
OGZ                .Ohmm                                   : Обращенный градиент-зонд 
RT                 .Ohmm                                   : УЭС пласта 
SP                 .мВ                                     : Потенциал самополяризации 
VSH_FIN            .v/v                                    : Описание 
VSH_GR             .v/v                                    : Shale volume 
VSH_SP             .v/v                                    : Shale Volume 
~Ascii
# ...
949.2000000000001 0.21       259.289    -9999      -9999      4.333      2.829      24.34      3.717      3.638      3.575      2.997      1.216      1.815      3.352      3.857      62.797     0.3075669  0.1361149  0.479019  
949.4      0.21       260.126    -9999      -9999      4.736      2.553      23.459     4.797      3.425      3.538      3.016      1.224      1.712      3.189      3.844      62.166     0.3144149  0.1663975  0.4624324 
949.6      0.21       262.847    -9999      -9999      5.156      2.565      25.157     4.571      3.5        3.513      3.003      1.349      1.871      3.013      3.805      61.745     0.3284236  0.2051484  0.4516988 
949.8      0.21       268.708    -9999      -9999      5.472      2.98       28.239     4.295      3.763      3.55       2.791      1.303      1.879      2.863      3.724      61.682     0.3451769  0.2401462  0.4502075 
950        0.21       273.103    -9999      -9999      5.538      2.905      24.34      4.006      3.612      3.638      2.673      1.145      1.689      3.717      3.662      61.977     0.353026   0.248178   0.457874  
950.2000000000001 0.21       269.963    -9999      -9999      5.341      2.402      19.623     3.717      3.4        3.713      2.954      1.088      1.468      3.465      3.708      62.545     0.3489168  0.224966   0.4728676 
950.4      0.211      263.684    -9999      -9999      5.036      2.15       20.126     3.504      3.55       3.763      3.29       1.18       1.683      3.202      3.795      63.176     0.3416365  0.1932371  0.490036  
950.6      0.211      262.428    -9999      -9999      4.892      2.565      23.208     4.257      3.75       3.763      3.351      1.327      1.79       2.95       3.812      63.764     0.3432005  0.1798529  0.506548  
950.8      0.211      269.754    -9999      -9999      4.928      3.056      24.34      4.848      3.85       3.763      3.159      1.185      1.888      2.699      3.711      64.311     0.3527358  0.1831095  0.5223621 
951        0.211      281.267    -9999      -9999      4.976      3.081      23.522     4.597      3.7        3.737      2.89       1.143      1.66       2.674      3.56       64.732     0.3612016  0.1875434  0.5348598 
951.2000000000001 0.21       292.151    -9999      -9999      5.023      3.232      24.151     4.37       3.5        3.563      2.66       1.109      1.635      2.31       3.426      65.068     0.3685187  0.191989   0.5450485 
951.4      0.211      300.733    -9999      -9999      5.149      2.829      23.145     4.132      3.263      3.35       2.499      1.243      1.514      2.26       3.326      65.3       0.3783289  0.2044338  0.5522239 
951.6      0.211      304.291    -9999      -9999      5.194      2.616      23.333     3.906      3.025      3.213      2.396      1.218      1.497      2.398      3.286      65.552     0.3845851  0.2090712  0.560099  
951.8      0.212      303.663    -9999      -9999      5.227      2.351      21.887     3.68       2.8        3.163      2.481      1.227      1.487      2.75       3.293      65.762     0.3896486  0.2125388  0.5667584 
952        0.212      304.082    -9999      -9999      5.249      1.899      19.623     3.454      2.8        3.188      2.646      1.2        1.51       3.239      3.289      65.931     0.3935384  0.2148823  0.5721944 
952.2000000000001 0.211      308.268    -9999      -9999      5.306      2.024      19.182     3.228      2.95       3.225      2.755      1.21       1.558      3.026      3.245      66.036     0.3983612  0.2210752  0.5756472 
952.4      0.21       312.454    -9999      -9999      5.341      2.351      19.623     3.592      3.088      3.25       2.727      1.22       1.56       2.8        3.201      66.099     0.4013745  0.224966   0.577783  
952.6      0.21       313.92     -9999      -9999      5.341      2.276      17.862     3.868      3.075      3.288      2.674      1.203      1.555      2.561      3.186      66.141     0.4021116  0.224966   0.5792572 
952.8      0.21       313.71     -9999      -9999      5.335      2.414      17.799     3.931      3.112      3.275      2.693      1.176      1.583      2.36       3.188      66.183     0.4025145  0.2242942  0.5807347 
953        0.21       316.222    -9999      -9999      5.411      2.402      18.113     3.743      3.163      3.275      2.715      1.197      1.614      2.712      3.163      66.246     0.4079206  0.2329541  0.5828871 
953.2000000000001 0.21       319.152    -9999      -9999      5.62       2.452      19.119     3.491      3.112      3.25       2.545      1.17       1.673      2.825      3.133      66.351     0.4224635  0.2585322  0.5863948 
953.4      0.211      318.734    -9999      -9999      5.951      2.377      17.547     3.253      3.013      3.25       2.427      1.164      1.553      2.812      3.138      66.498     0.4480938  0.3049084  0.5912793 
953.6      0.212      312.454    -9999      -9999      6.057      2.15       16.918     3.014      2.925      3.3        2.431      1.118      1.518      2.787      3.203      66.709     0.4598703  0.3214521  0.5982885 
953.8      0.213      304.71     -9999      -9999      5.863      1.974      18.302     2.838      2.963      3.325      2.615      1.091      1.495      3.189      3.284      66.961     0.4492733  0.2918227  0.606724  
954        0.214      301.361    -9999      -9999      5.732      2.226      18.805     2.813      3.063      3.375      2.738      1.063      1.564      3.026      3.319      67.214     0.4443348  0.273376   0.6152936 
954.2000000000001 0.213      302.407    -9999      -9999      5.62       2.578      18.679     2.951      3.075      3.438      2.735      1.124      1.677      2.863      3.307      67.466     0.4412318  0.2585322  0.6239313 
954.4      0.211      304.082    -9999      -9999      5.474      2.678      18.742     3.127      3.05       3.45       2.735      1.132      1.583      2.699      3.289      67.655     0.4354498  0.2403857  0.630514  
954.6      0.21       305.128    -9999      -9999      5.407      2.729      21.258     3.253      3.1        3.475      2.738      1.122      1.593      2.536      3.277      67.97      0.4370016  0.2324901  0.6415132 
954.8      0.212      309.524    -9999      -9999      5.478      2.829      21.195     3.215      3.138      3.438      2.732      1.151      1.553      2.385      3.232      68.349     0.4478965  0.2408655  0.6549274 
955        0.214      317.478    -9999      -9999      5.803      2.616      20.503     3.152      3.063      3.388      2.609      1.143      1.591      2.26       3.152      68.77      0.476654   0.2832242  0.6700838 
955.2000000000001 0.215      324.594    -9999      -9999      5.976      2.465      20.44      3.115      2.875      3.325      2.465      1.168      1.543      2.21       3.081      69.106     0.4955759  0.3087318  0.6824201 
955.4      0.213      327.316    -9999      -9999      6.221      2.402      18.994     2.989      2.675      3.237      2.393      1.17       1.323      2.662      3.055      69.359     0.520353   0.348834   0.6918719 
955.6      0.212      326.269    -9999      -9999      6.407      2.238      17.61      2.851      2.55       3.138      2.415      1.088      1.2        2.8        3.065      69.59      0.541666   0.3827225  0.7006095 
955.8      0.214      325.223    -9999      -9999      6.445      2.037      17.484     2.7        2.525      3.063      2.53       0.978      1.033      2.611      3.075      69.779     0.5489485  0.390041   0.7078561 
956        0.217      326.688    -9999      -9999      6.301      2.087      16.73      2.625      2.575      3.05       2.556      0.888      1.056      2.423      3.061      69.926     0.5382985  0.3630256  0.7135715 
956.2000000000001 0.218      330.874    -9999      -9999      6.141      2.276      16.918     2.763      2.563      3.025      2.488      0.965      1.054      2.498      3.023      70.032     0.52648    0.3351972  0.7177626 
956.4      0.216      334.642    -9999      -9999      6.392      2.226      15.912     2.876      2.525      3.025      2.401      1.287      1.041      2.699      2.989      70.095     0.5501013  0.3798716  0.7203311 
