~Version
 VERS              .         2.0                           : CWLS LOG ASCII STANDARD - VERSION 2.0
 WRAP              .         NO                            : ONE LINE PER DEPTH STEP
 DLM               .         SPACE                         : DELIMITING CHARACTER(SPACE TAB OR COMMA)
~Well Information
#_______________________________________________________________________________
#
#PARAMETER_NAME    .UNIT     VALUE                         : DESCRIPTION
#_______________________________________________________________________________
STRT               .M        890                           : First reference value
STOP               .M        1196                          : Last reference value
STEP               .M        0.2                           : Step increment
NULL               .         -9999                         : Missing value
COMP               .                                       : Company
WELL               .         1683                          : Well name
FLD                .         Узень                         : Field
LOC                .                                       : Location
CNTY               .                                       : County
STAT               .                                       : State
CTRY               .                                       : Country
SRVC               .                                       : Service Company
DATE               .         31.01.1984                    : Date
UWI                .                                       : Unique Well ID
Block              .         6а                            : 
Cartographic_reference_system .         GCS_WGS_1984                  : ESRI,PE_10_3_1- <?xml version="1.0" encoding="utf-16"?><ILateBoundCoordinateReferenceSystem name="GCS_WGS_1984"><AuthorityCode>EPSG,4326</AuthorityCode></ILateBoundCoordinateReferenceSystem>
Category           .         Нефтяная                      : 
Condition          .         Ликвидированная               : 
Date               .         20.02.1984                    : 
EREF               .m        81                            : 100.8
Gorizont           .         15                            : 14
HZCS               .GCS_WGS_1984 WGS_1984_EASE-Grid_2.0_Global : ESRI,PE_10_3_1- <?xml version="1.0" encoding="utf-16"?><ILateBoundCoordinateReferenceSystem name="WGS_1984_EASE-Grid_2.0_Global"><AuthorityCode>EPSG,6933</AuthorityCode></ILateBoundCoordinateReferenceSystem>
Interpretator      .         Кушербаева А.С                : 
Kupol              .         основной                      : osnovnoi
LATI               .dega     0.6655357802                  : GCS_WGS_1984
LONG               .dega     0.4591046508                  : GCS_WGS_1984
Mud                .                                       : 
Mud_density        .                                       : 
Mud_resistivity    .                                       : 
NGDU               .         НГДУ-2                        : 
ORIGINALWELLNAME   .         1683                          : 
Spud_date          .         1984                          : 1961
Viscosity          .                                       : 
X                  .m        44297.3                       : 46154
Y                  .m        84902.73                      : 85761.93
YEAR               .         2018г                         : 
~Parameter Information Block
#_______________________________________________________________________________
#
#PARAMETER_NAME    .UNIT     VALUE                         : DESCRIPTION
#_______________________________________________________________________________
SET                .         LQC_KAZNIPI_Petrel            : 
TLFamily_CALI      .         Caliper                       : 
TLFamily_CILD      .         Conductivity                  : 
TLFamily_COLL      .         Net Reservoir Flag            : 
TLFamily_CSAT      .         Fluid Code                    : 
TLFamily_DEPT      .         Measured Depth                : 
TLFamily_GR        .         Russian Gamma Ray             : 
TLFamily_GZ1       .         Gradient 045                  : 
TLFamily_GZ2       .         Gradient 105                  : 
TLFamily_GZ3       .         Gradient 225                  : 
TLFamily_GZ4       .         Gradient 425                  : 
TLFamily_GZ5       .         Gradient 850                  : 
TLFamily_LLS       .         Lateral Log Resistivity       : 
TLFamily_MINV      .         Micro Gradient Resistivity    : 
TLFamily_MNOR      .         Micro Resistivity             : 
TLFamily_OGZ       .         Gradient Inverted 225         : 
TLFamily_RT        .         Formation Resistivity         : 
TLFamily_SP        .         Spontaneous Potential         : 
TLFamily_VSH_FIN   .         Shale Volume                  : 
TLFamily_VSH_GR    .         Shale Volume                  : 
TLFamily_VSH_SP    .         Shale Volume                  : 
~Curve Information
#_______________________________________________________________________________
#
#LOGNAME           .UNIT     LOG_ID                        : DESCRIPTION
#_______________________________________________________________________________
DEPT               .M                                      : Колонка глубины 
CALI               .м                                      : Каверномер 
CILD               .мСм/м                                  : Индукционный каротаж 
COLL               .unitless                               :  
CSAT               .unitless                               :  
GR                 .uR/h                                   : Гамма каротаж 
GZ1                .Ohmm                                   : Градиент-зонд  длиной 0.45м 
GZ2                .Ohmm                                   : Градиент-зонд  длиной 1.05м 
GZ3                .Ohmm                                   : Градиент-зонд  длиной 2.25м 
GZ4                .Ohmm                                   : Градиент-зонд  длиной 4.5м 
GZ5                .Ohmm                                   : Градиент-зонд  длиной 8.5м 
LLS                .Ohmm                                   : Боковой каротаж 
MINV               .Ohmm                                   : Микро-градиент зонд 
MNOR               .Ohmm                                   : Микро-потенциал зонд 
OGZ                .Ohmm                                   : Обращенный градиент-зонд 
RT                 .Ohmm                                   : УЭС пласта 
SP                 .мВ                                     : Потенциал самополяризации 
VSH_FIN            .v/v                                    : Описание 
VSH_GR             .v/v                                    : Shale volume 
VSH_SP             .v/v                                    : Shale Volume 
~Ascii
# ...
1008.4     0.207      288.592    -9999      -9999      4.751      2.012      15.22      2.801      2.05       1.938      2.837      1.182      1.796      2.448      3.465      62.208     0.3330726  0.1676463  0.498499  
1008.6     0.207      281.894    -9999      -9999      4.584      2.377      17.358     2.951      2.1        1.962      2.765      1.176      1.833      2.473      3.55       61.493     0.3166452  0.1542559  0.4790345 
1008.8     0.207      273.94     -9999      -9999      4.417      2.754      18.616     3.064      2.163      1.975      2.695      1.176      1.883      2.75       3.655      60.778     0.3010997  0.1419351  0.4602643 
1009       0.207      264.521    -9999      -9999      4.276      2.892      19.371     3.152      2.2        2.038      2.772      1.247      1.913      2.611      3.782      59.937     0.28567    0.1323019  0.4390381 
1009.2     0.207      259.707    -9999      -9999      4.114      2.678      19.937     3.353      2.2        2.1        3.079      1.298      1.961      2.461      3.851      58.97      0.2688969  0.1220384  0.4157555 
1009.4     0.209      257.405    -9999      -9999      4.188      2.565      21.006     3.743      2.225      2.188      3.553      1.377      2.093      2.31       3.885      58.065     0.260837   0.126624   0.39505   
1009.6     0.209      260.126    -9999      -9999      4.428      2.502      21.887     4.195      2.325      2.275      3.848      1.429      2.249      2.159      3.845      57.287     0.2603953  0.1427155  0.3780752 
1009.8     0.21       271.219    -9999      -9999      4.73       2.527      22.39      4.647      2.425      2.362      3.73       1.439      2.218      2.009      3.696      57.014     0.2691269  0.1659006  0.3723532 
1010       0.212      294.872    -9999      -9999      5.052      2.616      24.717     4.998      2.612      2.463      3.237      1.356      1.997      1.783      3.417      57.35      0.2872019  0.1947844  0.3796192 
1010.2     0.217      329.199    -9999      -9999      5.42       3.005      28.05      5.111      2.925      2.575      2.632      1.166      1.733      1.531      3.068      58.296     0.317332   0.2340015  0.4006624 
1010.4     0.223      369.597    -9999      -9999      5.797      3.458      29.874     4.935999   3.237      2.688      2.065      0.876      1.397      1.707      2.728      59.39      0.35439    0.2823784  0.4264016 
1010.6     0.229      400.994    -9999      -9999      5.941      3.785      30.377     4.672      3.375      2.75       1.686      0.572      0.958      1.845      2.502      60.358     0.3769438  0.3033923  0.4504953 
1010.8     0.232      415.018    -9999      -9999      6.029      3.534      30.692     4.37       3.25       2.675      1.525      0.315      0.588      1.845      2.41       61.115     0.3936186  0.3169967  0.4702406 
1011       0.232      413.135    -9999      -9999      6.134      3.119      28.113     4.069      3          2.575      1.664      0.462      0.481      1.845      2.421      62.061     0.4150138  0.3340297  0.4959979 
1011.2     0.229      412.925    -9999      -9999      6.189      2.288      23.774     3.793      2.675      2.475      1.822      0.685      0.64       1.971      2.422      63.008     0.4331805  0.343314   0.5230469 
1011.4     0.224      423.391    -9999      -9999      6.259      1.685      19.057     3.516      2.425      2.288      1.868      1.007      0.845      2.172      2.365      63.933     0.4531132  0.3555044  0.5507221 
1011.6     0.219      436.787    -9999      -9999      6.436      1.345      14.906     3.253      2.3        2.225      1.813      0.827      0.864      2.247      2.291      64.522     0.478674   0.3882951  0.569053  
1011.8     0.218      443.485    -9999      -9999      6.607      1.295      14.654     3.039      2.45       2.163      1.773      0.641      0.81       2.071      2.255      65.026     0.5040091  0.4228437  0.5851744 
1012       0.218      441.392    -9999      -9999      6.553      1.37       13.962     2.901      2.6        2.15       1.796      0.411      0.751      1.958      2.266      65.447     0.5052885  0.4116139  0.598963  
1012.2     0.221      436.159    -9999      -9999      6.329      1.433      12.264     2.813      2.463      2.125      1.809      0.357      0.908      1.971      2.293      65.783     0.4891611  0.3681278  0.6101944 
1012.4     0.223      430.089    -9999      -9999      6.242      1.37       11.006     2.788      2.313      2.138      1.833      0.426      0.954      2.046      2.325      66.015     0.485302   0.3525047  0.6180992 
1012.6     0.224      423.391    -9999      -9999      6.2        1.433      10.943     2.738      2.15       2.138      1.876      0.351      0.893      2.134      2.362      66.246     0.4856289  0.3452015  0.6260563 
1012.8     0.225      417.53     -9999      -9999      6.137      1.446      10.818     2.662      2.2        2.138      1.905      0.547      0.826      2.285      2.395      66.477     0.4843142  0.3345296  0.6340988 
1013       0.224      413.972    -9999      -9999      6.012      1.509      10.943     2.562      2.2        2.163      1.94       0.681      0.864      2.36       2.416      66.751     0.4790223  0.3143219  0.6437227 
1013.2     0.221      414.809    -9999      -9999      5.962      1.546      11.132     2.424      2.225      2.188      1.955      1.036      1.002      2.373      2.411      67.024     0.480009   0.3065848  0.6534331 
1013.4     0.217      417.949    -9999      -9999      6.08       1.66       11.572     2.273      2.25       2.188      1.93       1.045      1.019      2.26       2.393      67.298     0.4942296  0.3251586  0.6633006 
1013.6     0.215      418.786    -9999      -9999      6.158      1.798      12.327     2.122      2.225      2.2        1.85       0.886      0.935      2.134      2.388      67.571     0.5056525  0.3380497  0.6732553 
1013.8     0.218      413.972    -9999      -9999      6.158      1.861      12.956     2.009      2.088      2.2        1.817      0.572      0.741      2.448      2.416      67.76      0.5091591  0.3380497  0.6802686 
1014       0.223      405.809    -9999      -9999      6.023      1.685      13.145     1.922      2          2.2        1.872      0.382      0.611      2.348      2.465      67.886     0.5005406  0.31605    0.6850311 
1014.2     0.226      398.901    -9999      -9999      5.928      1.496      12.201     1.984      2.063      2.2        1.987      0.572      0.672      2.222      2.507      67.95      0.4944863  0.3014327  0.6875399 
1014.4     0.224      396.18     -9999      -9999      5.86       1.559      11.698     2.06       2.125      2.2        2          0.591      0.914      2.096      2.524      67.992     0.4903163  0.2913867  0.6892459 
1014.6     0.219      397.645    -9999      -9999      5.877      1.609      12.956     2.122      2.112      2.163      1.957      0.84       1.014      1.971      2.515      67.971     0.4912506  0.2938663  0.6886349 
1014.8     0.216      399.738    -9999      -9999      6.033      1.773      14.277     2.148      2.025      2.15       1.913      0.681      0.88       1.958      2.502      67.886     0.5016522  0.3176294  0.685675  
1015       0.217      401.413    -9999      -9999      6.248      1.71       13.774     2.097      1.913      2.175      1.936      0.819      0.824      2.071      2.491      67.802     0.5181612  0.3535606  0.682762  
1015.2     0.22       402.878    -9999      -9999      6.43       1.71       12.579     2.11       1.837      2.15       1.954      0.886      0.826      2.172      2.482      67.76      0.5342623  0.3871355  0.6813891 
1015.4     0.222      405.808    -9999      -9999      6.613      1.81       12.893     2.198      1.788      2.125      1.947      0.831      0.837      2.272      2.464      67.781     0.5532129  0.4241103  0.6823156 
1015.6     0.22       410.623    -9999      -9999      6.848      1.785      13.962     2.323      1.763      2.1        1.91       0.953      0.985      2.31       2.436      67.802     0.5800301  0.4768167  0.6832434 
