~Version
 VERS              .         2.0                           : CWLS LOG ASCII STANDARD - VERSION 2.0
 WRAP              .         NO                            : ONE LINE PER DEPTH STEP
 DLM               .         SPACE                         : DELIMITING CHARACTER(SPACE TAB OR COMMA)
~Well Information
#_______________________________________________________________________________
#
#PARAMETER_NAME    .UNIT     VALUE                         : DESCRIPTION
#_______________________________________________________________________________
STRT               .M        890                           : First reference value
STOP               .M        1196                          : Last reference value
STEP               .M        0.2                           : Step increment
NULL               .         -9999                         : Missing value
COMP               .                                       : Company
WELL               .         1683                          : Well name
FLD                .         Узень                         : Field
LOC                .                                       : Location
CNTY               .                                       : County
STAT               .                                       : State
CTRY               .                                       : Country
SRVC               .                                       : Service Company
DATE               .         31.01.1984                    : Date
UWI                .                                       : Unique Well ID
Block              .         6а                            : 
Cartographic_reference_system .         GCS_WGS_1984                  : ESRI,PE_10_3_1- <?xml version="1.0" encoding="utf-16"?><ILateBoundCoordinateReferenceSystem name="GCS_WGS_1984"><AuthorityCode>EPSG,4326</AuthorityCode></ILateBoundCoordinateReferenceSystem>
Category           .         Нефтяная                      : 
Condition          .         Ликвидированная               : 
Date               .         20.02.1984                    : 
EREF               .m        81                            : 100.8
Gorizont           .         15                            : 14
HZCS               .GCS_WGS_1984 WGS_1984_EASE-Grid_2.0_Global : ESRI,PE_10_3_1- <?xml version="1.0" encoding="utf-16"?><ILateBoundCoordinateReferenceSystem name="WGS_1984_EASE-Grid_2.0_Global"><AuthorityCode>EPSG,6933</AuthorityCode></ILateBoundCoordinateReferenceSystem>
Interpretator      .         Кушербаева А.С                : 
Kupol              .         основной                      : osnovnoi
LATI               .dega     0.6655357802                  : GCS_WGS_1984
LONG               .dega     0.4591046508                  : GCS_WGS_1984
Mud                .                                       : 
Mud_density        .                                       : 
Mud_resistivity    .                                       : 
NGDU               .         НГДУ-2                        : 
ORIGINALWELLNAME   .         1683                          : 
Spud_date          .         1984                          : 1961
Viscosity          .                                       : 
X                  .m        44297.3                       : 46154
Y                  .m        84902.73                      : 85761.93
YEAR               .         2018г                         : 
~Parameter Information Block
#_______________________________________________________________________________
#
#PARAMETER_NAME    .UNIT     VALUE                         : DESCRIPTION
#_______________________________________________________________________________
SET                .         LQC_KAZNIPI_Petrel            : 
TLFamily_CALI      .         Caliper                       : 
TLFamily_CILD      .         Conductivity                  : 
TLFamily_COLL      .         Net Reservoir Flag            : 
TLFamily_CSAT      .         Fluid Code                    : 
TLFamily_DEPT      .         Measured Depth                : 
TLFamily_GR        .         Russian Gamma Ray             : 
TLFamily_GZ1       .         Gradient 045                  : 
TLFamily_GZ2       .         Gradient 105                  : 
TLFamily_GZ3       .         Gradient 225                  : 
TLFamily_GZ4       .         Gradient 425                  : 
TLFamily_GZ5       .         Gradient 850                  : 
TLFamily_LLS       .         Lateral Log Resistivity       : 
TLFamily_MINV      .         Micro Gradient Resistivity    : 
TLFamily_MNOR      .         Micro Resistivity             : 
TLFamily_OGZ       .         Gradient Inverted 225         : 
TLFamily_RT        .         Formation Resistivity         : 
TLFamily_SP        .         Spontaneous Potential         : 
TLFamily_VSH_FIN   .         Shale Volume                  : 
TLFamily_VSH_GR    .         Shale Volume                  : 
TLFamily_VSH_SP    .         Shale Volume                  : 
~Curve Information
#_______________________________________________________________________________
#
#LOGNAME           .UNIT     LOG_ID                        : DESCRIPTION
#_______________________________________________________________________________
DEPT               .M                                      : Колонка глубины 
CALI               .м                                      : Каверномер 
CILD               .мСм/м                                  : Индукционный каротаж 
COLL               .unitless                               :  
CSAT               .unitless                               :  
GR                 .uR/h                                   : Гамма каротаж 
GZ1                .Ohmm                                   : Градиент-зонд  длиной 0.45м 
GZ2                .Ohmm                                   : Градиент-зонд  длиной 1.05м 
GZ3                .Ohmm                                   : Градиент-зонд  длиной 2.25м 
GZ4                .Ohmm                                   : Градиент-зонд  длиной 4.5м 
GZ5                .Ohmm                                   : Градиент-зонд  длиной 8.5м 
LLS                .Ohmm                                   : Боковой каротаж 
MINV               .Ohmm                                   : Микро-градиент зонд 
MNOR               .Ohmm                                   : Микро-потенциал зонд 
OGZ                .Ohmm                                   : Обращенный градиент-зонд 
RT                 .Ohmm                                   : УЭС пласта 
SP                 .мВ                                     : Потенциал самополяризации 
VSH_FIN            .v/v                                    : Описание 
VSH_GR             .v/v                                    : Shale volume 
VSH_SP             .v/v                                    : Shale Volume 
~Ascii
# ...
1030.6     0.206      275.615    -9999      -9999      5.175      4.314      5.723      3.931      4.063      2.888      3.227      1.166      1.827      3.541      3.629      61.514     0.3499364  0.2071006  0.4927723 
1030.8     0.207      268.289    -9999      -9999      4.979      3.886      5.710999   3.856      3.438      2.763      2.636      0.89       1.582      3.566      3.733      61.914     0.3459356  0.1878241  0.5040471 
1031       0.208      259.288    -9999      -9999      4.592      3.119      4.843      3.554      2.825      2.575      2.744      1.145      1.927      3.817      3.86       62.292     0.3348961  0.1548723  0.5149201 
1031.2     0.208      256.358    -9999      -9999      4.4        2.515      4.527999   3.215      2.663      2.425      3.102      1.201      2.007      3.855      3.901      62.692     0.3336913  0.1407374  0.5266452 
1031.4     0.208      261.382    -9999      -9999      4.516      2.301      5.044      2.926      2.65       2.3        3.225      1.477      2.091      3.566      3.828      63.092     0.3438601  0.149115   0.5386052 
1031.6     0.208      267.452    -9999      -9999      4.839      2.829      6.164      3.115      2.725      2.25       3.17       1.368      1.827      3.277      3.74       63.491     0.362968   0.1751637  0.5507724 
1031.8     0.208      270.173    -9999      -9999      5.185      2.88       5.384      3.253      2.688      2.25       2.92       1.377      1.721      3.239      3.701      63.806     0.3843551  0.2081354  0.5605747 
1032       0.207      268.08     -9999      -9999      5.373      3.509      5.283      3.366      2.612      2.275      2.748      1.164      1.518      3.39       3.731      64.08      0.3989126  0.2285832  0.5692421 
1032.2     0.207      263.475    -9999      -9999      5.375      3.119      5.057      3.479      2.463      2.288      2.706      1.203      1.656      3.654      3.796      64.311     0.4027358  0.2288111  0.5766605 
1032.4     0.207      261.381    -9999      -9999      5.097      2.716      4.704      3.391      2.35       2.25       3.087      1.241      1.829      3.955      3.826      64.479     0.3906744  0.199203   0.5821459 
1032.6     0.207      264.521    -9999      -9999      4.921      2.414      4.403      3.328      2.325      2.25       3.344      1.26       1.94       3.98       3.782      64.585     0.3840769  0.1824717  0.5856822 
1032.8     0.207      273.312    -9999      -9999      4.894      2.741      4.654      3.868      2.538      2.25       3.287      1.17       1.72       3.767      3.663      64.669     0.3842796  0.1800323  0.588527  
1033       0.208      283.987    -9999      -9999      5.088      3.232      5.635      4.27       2.575      2.25       2.917      1.116      1.543      3.516      3.525      64.711     0.394168   0.1983113  0.5900248 
1033.2     0.212      295.29     -9999      -9999      5.153      3.031      5.358      4.659      2.475      2.25       2.659      1.028      1.597      3.779      3.39       64.711     0.3975042  0.2048418  0.5901666 
1033.4     0.217      304.5      -9999      -9999      5.183      2.804      4.817999   4.408      2.325      2.2        2.509      1.028      1.606      4.169      3.286      64.585     0.3970874  0.2079281  0.5862467 
1033.6     0.216      307.849    -9999      -9999      5.227      2.754      4.616      4.157      2.2        2.138      2.329      0.786      1.361      4.759      3.249      64.29      0.3947542  0.2125388  0.5769696 
1033.8     0.212      300.523    -9999      -9999      5.233      2.414      4.83       3.881      2.1        2.025      2.277      0.604      1.15       4.533      3.333      63.87      0.3885483  0.2131754  0.5639213 
1034       0.209      287.755    -9999      -9999      5.181      2.188      4.403      3.63       2.013      1.95       2.509      0.741      1.311      4.219      3.482      63.428     0.3790899  0.2077209  0.5504588 
1034.2     0.207      276.871    -9999      -9999      4.955      1.873      3.849      3.341      2.025      1.938      2.82       0.875      1.664      3.918      3.613      63.028     0.3620604  0.1855905  0.5385303 
1034.4     0.207      271.219    -9999      -9999      4.784      1.873      3.497      3.14       2.15       2.05       3.047      1.143      1.844      3.616      3.687      62.65      0.3489504  0.1704267  0.527474  
1034.6     0.207      264.312    -9999      -9999      4.622      2.175      3.748      3.14       2.45       2.138      3.083      1.233      2.007      3.302      3.787      62.166     0.3353901  0.1572056  0.5135745 
1034.8     0.206      253.637    -9999      -9999      4.453      2.414      3.748      3.655      2.7        2.237      3.168      1.352      2.026      3.001      3.95       61.619     0.3213739  0.1445051  0.4982428 
1035       0.206      242.334    -9999      -9999      4.19       2.653      3.761      4.132      2.8        2.388      3.329      1.459      2.228      2.825      4.131      61.093     0.3053219  0.1267503  0.4838936 
1035.2     0.206      236.264    -9999      -9999      4.036      2.691      4.025      4.634      2.875      2.588      3.698      1.436      2.237      2.762      4.233      60.757     0.2961758  0.1173846  0.474967  
1035.4     0.206      231.031    -9999      -9999      4.078      2.817      4.39       5.149      3.05       2.888      3.799      1.319      2.352      2.561      4.33       60.61      0.2955212  0.119868   0.4711744 
1035.6     0.207      225.379    -9999      -9999      4.289      3.458      5.396      6.166      3.25       3.188      3.607      1.202      2.059      3.93       4.442      60.589     0.3019483  0.133162   0.4707346 
1035.8     0.207      221.821    -9999      -9999      4.478      3.458      5.937      6.932      3.737      3.688      3.727      1.189      2.08       3.729      4.509      60.631     0.3091407  0.1463171  0.4719643 
1036       0.209      227.472    -9999      -9999      4.601      3.018      5.862      7.598      4.313      4.188      4.905      1.373      2.318      3.478      4.405      60.715     0.314942   0.1555686  0.4743154 
1036.2     0.212      247.985    -9999      -9999      4.94       3.005      7.145      7.510001   6.25       4.912      5.954      1.45       2.471      3.214      4.065      60.841     0.3310055  0.184208   0.4778029 
1036.4     0.215      277.917    -9999      -9999      5.476      5.169      7.170001   6.568      8.375      5.688      5.365      1.145      1.95       2.837      3.64       61.009     0.3377075  0.1411578  0.5342573 
1036.6     0.22       304.5      -9999      -9999      6.2        6.350999   11.447     6.304999   8.5        5.763      3.622      0.786      1.163      2.473      3.297      61.199     0.3643833  0.1887169  0.5400497 
1036.8     0.222      322.711    -9999      -9999      6.514      4.553      8.742001   5.187      6.25       5.338      2.202      0.434      0.73       2.109      3.101      61.388     0.3799554  0.214044   0.5458668 
1037       0.22       334.223    -9999      -9999      6.529      3.094      6.541      4.484      4.5        4.787      1.978      0.539      0.811      1.757      2.995      61.598     0.3838573  0.2153355  0.5523791 
1037.2     0.216      349.712    -9999      -9999      6.449      2.364      5.157001   4.019      3.838      3.938      2.017      0.484      0.811      1.607      2.864      61.893     0.3850615  0.2085362  0.5615869 
1037.4     0.214      370.225    -9999      -9999      6.542      1.911      5.131999   3.743      3.25       3.225      2.08       0.794      0.991      1.657      2.708      62.187     0.3936784  0.2164612  0.5708957 
1037.6     0.215      394.505    -9999      -9999      6.827      1.71       4.465      3.542      2.75       2.638      2.143      0.99       1.088      1.682      2.543      62.44      0.4108524  0.2426728  0.579032  
1037.8     0.217      416.902    -9999      -9999      7.13       1.773      3.811      3.353      2.475      2.4        2.095      1.235      1.186      1.632      2.403      62.545     0.4282747  0.2740296  0.5825198 
