~Version
 VERS              .         2.0                           : CWLS LOG ASCII STANDARD - VERSION 2.0
 WRAP              .         NO                            : ONE LINE PER DEPTH STEP
 DLM               .         SPACE                         : DELIMITING CHARACTER(SPACE TAB OR COMMA)
~Well Information
#_______________________________________________________________________________
#
#PARAMETER_NAME    .UNIT     VALUE                         : DESCRIPTION
#_______________________________________________________________________________
STRT               .M        890                           : First reference value
STOP               .M        1196                          : Last reference value
STEP               .M        0.2                           : Step increment
NULL               .         -9999                         : Missing value
COMP               .                                       : Company
WELL               .         1683                          : Well name
FLD                .         Узень                         : Field
LOC                .                                       : Location
CNTY               .                                       : County
STAT               .                                       : State
CTRY               .                                       : Country
SRVC               .                                       : Service Company
DATE               .         31.01.1984                    : Date
UWI                .                                       : Unique Well ID
Block              .         6а                            : 
Cartographic_reference_system .         GCS_WGS_1984                  : ESRI,PE_10_3_1- <?xml version="1.0" encoding="utf-16"?><ILateBoundCoordinateReferenceSystem name="GCS_WGS_1984"><AuthorityCode>EPSG,4326</AuthorityCode></ILateBoundCoordinateReferenceSystem>
Category           .         Нефтяная                      : 
Condition          .         Ликвидированная               : 
Date               .         20.02.1984                    : 
EREF               .m        81                            : 100.8
Gorizont           .         15                            : 14
HZCS               .GCS_WGS_1984 WGS_1984_EASE-Grid_2.0_Global : ESRI,PE_10_3_1- <?xml version="1.0" encoding="utf-16"?><ILateBoundCoordinateReferenceSystem name="WGS_1984_EASE-Grid_2.0_Global"><AuthorityCode>EPSG,6933</AuthorityCode></ILateBoundCoordinateReferenceSystem>
Interpretator      .         Кушербаева А.С                : 
Kupol              .         основной                      : osnovnoi
LATI               .dega     0.6655357802                  : GCS_WGS_1984
LONG               .dega     0.4591046508                  : GCS_WGS_1984
Mud                .                                       : 
Mud_density        .                                       : 
Mud_resistivity    .                                       : 
NGDU               .         НГДУ-2                        : 
ORIGINALWELLNAME   .         1683                          : 
Spud_date          .         1984                          : 1961
Viscosity          .                                       : 
X                  .m        44297.3                       : 46154
Y                  .m        84902.73                      : 85761.93
YEAR               .         2018г                         : 
~Parameter Information Block
#_______________________________________________________________________________
#
#PARAMETER_NAME    .UNIT     VALUE                         : DESCRIPTION
#_______________________________________________________________________________
SET                .         LQC_KAZNIPI_Petrel            : 
TLFamily_CALI      .         Caliper                       : 
TLFamily_CILD      .         Conductivity                  : 
TLFamily_COLL      .         Net Reservoir Flag            : 
TLFamily_CSAT      .         Fluid Code                    : 
TLFamily_DEPT      .         Measured Depth                : 
TLFamily_GR        .         Russian Gamma Ray             : 
TLFamily_GZ1       .         Gradient 045                  : 
TLFamily_GZ2       .         Gradient 105                  : 
TLFamily_GZ3       .         Gradient 225                  : 
TLFamily_GZ4       .         Gradient 425                  : 
TLFamily_GZ5       .         Gradient 850                  : 
TLFamily_LLS       .         Lateral Log Resistivity       : 
TLFamily_MINV      .         Micro Gradient Resistivity    : 
TLFamily_MNOR      .         Micro Resistivity             : 
TLFamily_OGZ       .         Gradient Inverted 225         : 
TLFamily_RT        .         Formation Resistivity         : 
TLFamily_SP        .         Spontaneous Potential         : 
TLFamily_VSH_FIN   .         Shale Volume                  : 
TLFamily_VSH_GR    .         Shale Volume                  : 
TLFamily_VSH_SP    .         Shale Volume                  : 
~Curve Information
#_______________________________________________________________________________
#
#LOGNAME           .UNIT     LOG_ID                        : DESCRIPTION
#_______________________________________________________________________________
DEPT               .M                                      : Колонка глубины 
CALI               .м                                      : Каверномер 
CILD               .мСм/м                                  : Индукционный каротаж 
COLL               .unitless                               :  
CSAT               .unitless                               :  
GR                 .uR/h                                   : Гамма каротаж 
GZ1                .Ohmm                                   : Градиент-зонд  длиной 0.45м 
GZ2                .Ohmm                                   : Градиент-зонд  длиной 1.05м 
GZ3                .Ohmm                                   : Градиент-зонд  длиной 2.25м 
GZ4                .Ohmm                                   : Градиент-зонд  длиной 4.5м 
GZ5                .Ohmm                                   : Градиент-зонд  длиной 8.5м 
LLS                .Ohmm                                   : Боковой каротаж 
MINV               .Ohmm                                   : Микро-градиент зонд 
MNOR               .Ohmm                                   : Микро-потенциал зонд 
OGZ                .Ohmm                                   : Обращенный градиент-зонд 
RT                 .Ohmm                                   : УЭС пласта 
SP                 .мВ                                     : Потенциал самополяризации 
VSH_FIN            .v/v                                    : Описание 
VSH_GR             .v/v                                    : Shale volume 
VSH_SP             .v/v                                    : Shale Volume 
~Ascii
# ...
1149       0.219      461.277    1          2          7.263      0.641      1.157      2.06       1.075      1.488      2.201      2.275      1.712      1.983      2.17       47.445     0.1988283  0.1777077  0.2199488 
1149.2     0.218      448.718    1          2          7.084      0.729      1.396      2.122      1.2        1.388      2.26       2.386      1.957      2.071      2.229      47.508     0.1907384  0.1602183  0.2212584 
1149.4     0.217      444.532    1          2          7.04       0.943      1.723      2.148      1.325      1.45       2.114      2.532      2.038      1.883      2.25       48.1       0.1932462  0.1561896  0.2303028 
1149.6     0.215      448.927    1          2          7.187      1.421      2.025      2.185      1.425      1.675      1.935      2.326      2.091      1.644      2.228      48.77      0.2055945  0.1700602  0.2411289 
1149.8     0.217      459.602    1          2          7.46       1.899      2.252      2.223      1.525      1.85       1.795      1.856      1.886      1.381      2.177      51.041     0.2405046  0.1991706  0.2818387 
1150       0.22       473.626    -9999      -9999      7.806      2.075      2.365      2.16       1.6        1.913      1.681      1.271      1.47       1.242      2.113      53.228     0.2862287  0.243331   0.3291264 
1150.2     0.223      486.604    -9999      -9999      8.053      2.012      2.528      2.022      1.587      1.9        1.57       0.859      1          1.242      2.056      55.184     0.3297906  0.2807273  0.3788539 
1150.4     0.226      495.186    -9999      -9999      8.192      1.76       2.465      1.758      1.513      1.837      1.522      0.771      0.803      1.406      2.02       56.32      0.3578881  0.3042456  0.4115306 
1150.6     0.229      499.581    -9999      -9999      8.202      1.458      2.289      1.658      1.375      1.712      1.552      0.994      0.805      1.644      2.002      57.245     0.3731615  0.3060116  0.4403115 
1150.8     0.231      502.512    -9999      -9999      8.21       1.207      2.088      1.57       1.438      1.65       1.618      1.298      0.97       1.607      1.99       57.687     0.3813316  0.3074318  0.4552314 
1151       0.231      506.698    -9999      -9999      8.248      1.043      1.975      1.796      1.513      1.6        1.667      1.613      1.117      1.494      1.974      58.023     0.390696   0.3142684  0.4671237 
1151.2     0.228      510.466    -9999      -9999      8.352      1.068      1.962      1.758      1.6        1.65       1.697      1.599      1.142      1.343      1.959      58.065     0.4016345  0.3337665  0.4695026 
1151.4     0.225      512.559    -9999      -9999      8.434      1.043      1.937      1.733      1.725      1.675      1.716      1.515      1.204      1.217      1.951      58.107     0.4109409  0.3499891  0.4718927 
1151.6     0.223      511.931    -9999      -9999      8.388      1.068      1.887      1.695      1.775      1.725      1.73       1.542      1.238      1.268      1.953      58.023     0.4054531  0.3407938  0.4701125 
1151.8     0.222      509.419    -9999      -9999      8.244      1.144      1.836      1.859      1.775      1.75       1.737      1.67       1.311      1.381      1.963      57.855     0.3895604  0.3135417  0.4655791 
1152       0.222      505.233    -9999      -9999      8.061      1.144      1.522      1.947      1.763      1.75       1.737      1.78       1.307      1.506      1.979      57.75      0.3725829  0.2820301  0.4631357 
1152.2     0.221      500        -9999      -9999      8.151      1.169      1.635      1.808      1.763      1.75       1.745      1.822      1.267      1.632      2          57.75      0.3806164  0.2971107  0.4641221 
1152.4     0.22       494.558    -9999      -9999      8.231      1.219      1.736      1.683      1.763      1.75       1.755      1.812      1.267      1.745      2.022      57.855     0.3898751  0.3111913  0.4685588 
1152.6     0.22       490.372    -9999      -9999      8.149      1.257      1.836      1.532      1.75       1.725      1.745      1.931      1.248      1.745      2.039      57.939     0.3845519  0.296767   0.4723369 
1152.8     0.222      488.278    -9999      -9999      7.879      1.27       1.912      1.432      1.75       1.712      1.747      2.123      1.24       1.795      2.048      57.96      0.3639364  0.2538324  0.4740403 
1153       0.226      489.116    -9999      -9999      7.594      1.27       1.836      1.532      1.712      1.75       1.776      1.995      1.447      1.971      2.045      57.949     0.344957   0.2152326  0.4746813 
1153.2     0.231      494.139    -9999      -9999      7.559      1.244      1.824      1.733      1.663      1.8        1.733      1.532      1.47       2.147      2.024      57.939     0.3431364  0.2109164  0.4753563 
1153.4     0.233      507.536    -9999      -9999      7.597      1.295      2          2.035      1.675      1.825      1.594      0.779      1.274      2.272      1.972      57.939     0.3459866  0.2156067  0.4763666 
1153.6     0.231      523.653    -9999      -9999      7.628      1.433      2.327      1.771      1.837      1.813      1.448      0.733      0.952      1.795      1.911      58.023     0.3498561  0.2195101  0.4802021 
1153.8     0.228      531.607    -9999      -9999      7.67       1.697      2.465      1.495      1.888      1.775      1.481      1.243      0.933      2.009      1.881      58.233     0.3566359  0.2249116  0.4883602 
1154       0.228      521.978    -9999      -9999      7.822      1.521      2.164      1.381      1.738      1.738      1.634      1.655      1.269      2.498      1.918      58.57      0.3733338  0.2455949  0.5010728 
1154.2     0.229      506.07     -9999      -9999      7.879      1.27       1.799      1.419      1.563      1.688      1.732      1.506      1.256      2.498      1.978      58.928     0.3843336  0.2538324  0.5148347 
1154.4     0.229      493.511    -9999      -9999      7.734      1.068      1.66       1.52       1.3        1.613      1.728      1.417      1.277      2.197      2.026      59.012     0.3761732  0.2333991  0.5189473 
1154.6     0.225      483.674    -9999      -9999      7.609      0.93       1.623      1.608      1.35       1.538      1.732      1.567      1.236      1.946      2.068      58.528     0.359945   0.2171094  0.5027806 
1154.8     0.221      467.556    -9999      -9999      7.597      1.182      2.025      1.495      1.413      1.5        1.893      2.317      1.522      2.41       2.142      56.803     0.3309775  0.2156067  0.4463484 
1155       0.219      446.834    -9999      -9999      7.613      1.232      1.887      1.369      1.363      1.525      2.204      2.495      1.927      2.812      2.241      54.532     0.2992246  0.2176126  0.3808366 
1155.2     0.218      433.229    -9999      -9999      7.51       1.144      1.635      1.281      1.263      1.575      2.31       2.531      2.04       2.95       2.309      52.176     0.264014   0.2050187  0.3230093 
1155.4     0.217      433.019    -9999      -9999      7.582      1.395      1.723      1.457      1.225      1.625      2.178      2.213      1.842      2.699      2.31       51.377     0.2598824  0.2137429  0.3060219 
1155.6     0.219      439.508    -9999      -9999      7.841      1.571      2.126      1.67       1.275      1.6        1.883      1.845      1.324      3.377      2.276      51.672     0.2806974  0.2483106  0.3130843 
1155.8     0.221      435.531    -9999      -9999      8.057      2.678      2.893      1.495      1.3        1.563      1.707      1.442      0.972      4.169      2.298      52.85      0.3111556  0.2813779  0.3409333 
1156       0.225      421.926    -9999      -9999      8.078      2.075      2.503      1.281      1.3        1.525      1.761      1.676      1.434      5.249      2.374      53.922     0.326727   0.2848188  0.3686352 
1156.2     0.226      408.948    -9999      -9999      7.837      1.609      2.038      1.922      1.15       1.563      1.901      1.584      1.572      8.347      2.446      54.742     0.3196495  0.2477363  0.3915627 
