~Version
 VERS              .         2.0                           : CWLS LOG ASCII STANDARD - VERSION 2.0
 WRAP              .         NO                            : ONE LINE PER DEPTH STEP
 DLM               .         SPACE                         : DELIMITING CHARACTER(SPACE TAB OR COMMA)
~Well Information
#_______________________________________________________________________________
#
#PARAMETER_NAME    .UNIT     VALUE                         : DESCRIPTION
#_______________________________________________________________________________
STRT               .M        890                           : First reference value
STOP               .M        1196                          : Last reference value
STEP               .M        0.2                           : Step increment
NULL               .         -9999                         : Missing value
COMP               .                                       : Company
WELL               .         1683                          : Well name
FLD                .         Узень                         : Field
LOC                .                                       : Location
CNTY               .                                       : County
STAT               .                                       : State
CTRY               .                                       : Country
SRVC               .                                       : Service Company
DATE               .         31.01.1984                    : Date
UWI                .                                       : Unique Well ID
Block              .         6а                            : 
Cartographic_reference_system .         GCS_WGS_1984                  : ESRI,PE_10_3_1- <?xml version="1.0" encoding="utf-16"?><ILateBoundCoordinateReferenceSystem name="GCS_WGS_1984"><AuthorityCode>EPSG,4326</AuthorityCode></ILateBoundCoordinateReferenceSystem>
Category           .         Нефтяная                      : 
Condition          .         Ликвидированная               : 
Date               .         20.02.1984                    : 
EREF               .m        81                            : 100.8
Gorizont           .         15                            : 14
HZCS               .GCS_WGS_1984 WGS_1984_EASE-Grid_2.0_Global : ESRI,PE_10_3_1- <?xml version="1.0" encoding="utf-16"?><ILateBoundCoordinateReferenceSystem name="WGS_1984_EASE-Grid_2.0_Global"><AuthorityCode>EPSG,6933</AuthorityCode></ILateBoundCoordinateReferenceSystem>
Interpretator      .         Кушербаева А.С                : 
Kupol              .         основной                      : osnovnoi
LATI               .dega     0.6655357802                  : GCS_WGS_1984
LONG               .dega     0.4591046508                  : GCS_WGS_1984
Mud                .                                       : 
Mud_density        .                                       : 
Mud_resistivity    .                                       : 
NGDU               .         НГДУ-2                        : 
ORIGINALWELLNAME   .         1683                          : 
Spud_date          .         1984                          : 1961
Viscosity          .                                       : 
X                  .m        44297.3                       : 46154
Y                  .m        84902.73                      : 85761.93
YEAR               .         2018г                         : 
~Parameter Information Block
#_______________________________________________________________________________
#
#PARAMETER_NAME    .UNIT     VALUE                         : DESCRIPTION
#_______________________________________________________________________________
SET                .         LQC_KAZNIPI_Petrel            : 
TLFamily_CALI      .         Caliper                       : 
TLFamily_CILD      .         Conductivity                  : 
TLFamily_COLL      .         Net Reservoir Flag            : 
TLFamily_CSAT      .         Fluid Code                    : 
TLFamily_DEPT      .         Measured Depth                : 
TLFamily_GR        .         Russian Gamma Ray             : 
TLFamily_GZ1       .         Gradient 045                  : 
TLFamily_GZ2       .         Gradient 105                  : 
TLFamily_GZ3       .         Gradient 225                  : 
TLFamily_GZ4       .         Gradient 425                  : 
TLFamily_GZ5       .         Gradient 850                  : 
TLFamily_LLS       .         Lateral Log Resistivity       : 
TLFamily_MINV      .         Micro Gradient Resistivity    : 
TLFamily_MNOR      .         Micro Resistivity             : 
TLFamily_OGZ       .         Gradient Inverted 225         : 
TLFamily_RT        .         Formation Resistivity         : 
TLFamily_SP        .         Spontaneous Potential         : 
TLFamily_VSH_FIN   .         Shale Volume                  : 
TLFamily_VSH_GR    .         Shale Volume                  : 
TLFamily_VSH_SP    .         Shale Volume                  : 
~Curve Information
#_______________________________________________________________________________
#
#LOGNAME           .UNIT     LOG_ID                        : DESCRIPTION
#_______________________________________________________________________________
DEPT               .M                                      : Колонка глубины 
CALI               .м                                      : Каверномер 
CILD               .мСм/м                                  : Индукционный каротаж 
COLL               .unitless                               :  
CSAT               .unitless                               :  
GR                 .uR/h                                   : Гамма каротаж 
GZ1                .Ohmm                                   : Градиент-зонд  длиной 0.45м 
GZ2                .Ohmm                                   : Градиент-зонд  длиной 1.05м 
GZ3                .Ohmm                                   : Градиент-зонд  длиной 2.25м 
GZ4                .Ohmm                                   : Градиент-зонд  длиной 4.5м 
GZ5                .Ohmm                                   : Градиент-зонд  длиной 8.5м 
LLS                .Ohmm                                   : Боковой каротаж 
MINV               .Ohmm                                   : Микро-градиент зонд 
MNOR               .Ohmm                                   : Микро-потенциал зонд 
OGZ                .Ohmm                                   : Обращенный градиент-зонд 
RT                 .Ohmm                                   : УЭС пласта 
SP                 .мВ                                     : Потенциал самополяризации 
VSH_FIN            .v/v                                    : Описание 
VSH_GR             .v/v                                    : Shale volume 
VSH_SP             .v/v                                    : Shale Volume 
~Ascii
# ...
986.2000000000001 0.222      416.274    -9999      -9999      6.038      1.798      14.654     2.876      2.487      2.4        1.892      0.635      0.925      2.109      2.404      69.148     0.5138294  0.318422   0.7092369 
986.4      0.223      431.973    -9999      -9999      6.137      1.697      13.774     2.7        2.375      2.375      1.896      0.692      1.044      1.996      2.318      69.127     0.5215704  0.3345296  0.7086111 
986.6      0.225      451.648    -9999      -9999      6.139      1.735      14.025     2.524      2.4        2.35       1.815      0.439      0.883      1.845      2.217      69.043     0.5202407  0.3348632  0.705618  
986.8      0.228      472.161    -9999      -9999      5.919      1.773      14.465     2.374      2.35       2.288      1.673      0.395      0.868      1.707      2.12       68.917     0.5005748  0.3000835  0.7010662 
987        0.231      490.581    -9999      -9999      5.761      1.722      13.711     2.235      2.25       2.237      1.525      0.273      0.592      1.657      2.04       68.77      0.4865577  0.2773564  0.6957589 
987.2000000000001 0.234      503.349    -9999      -9999      5.683      1.597      12.767     2.072      2.05       2.2        1.427      0.242      0.423      1.795      1.987      68.644     0.4790194  0.2667798  0.6912591 
987.4      0.235      510.675    -9999      -9999      5.856      1.408      11.698     1.909      1.913      2.112      1.392      0.284      0.347      1.946      1.958      68.58      0.4899344  0.2908063  0.6890625 
987.6      0.233      512.35     -9999      -9999      6.076      1.194      10.755     1.821      1.8        2.05       1.406      0.305      0.391      2.109      1.952      68.622     0.5076414  0.3245109  0.6907719 
987.8      0.227      510.047    -9999      -9999      6.255      1.031      9.937001   1.683      1.738      1.988      1.502      0.367      0.452      2.247      1.961      68.728     0.5248247  0.3547964  0.6948531 
988        0.222      500        -9999      -9999      6.331      0.968      9.434      1.582      1.738      1.95       1.643      0.38       0.521      2.247      2.001      68.812     0.533315   0.368495   0.698135  
988.2000000000001 0.22       475.51     -9999      -9999      6.428      0.917      8.931      1.645      1.8        1.938      1.746      0.474      0.523      2.285      2.11       68.854     0.5433063  0.3867498  0.6998628 
988.4      0.222      438.671    -9999      -9999      6.451      1.081      9.057001   1.733      1.813      2.013      1.875      0.606      0.538      2.473      2.296      68.896     0.5464019  0.3912093  0.7015945 
988.6      0.225      399.111    -9999      -9999      6.282      1.094      8.491      1.846      1.825      2.088      2.084      1.019      0.918      2.724      2.52       68.938     0.5314665  0.3596036  0.7033293 
988.8      0.222      368.341    -9999      -9999      6.096      1.207      8.616      1.934      1.875      2.125      2.376      1.149      1.135      2.925      2.723      68.98      0.5164148  0.3277622  0.7050673 
989        0.216      347.619    -9999      -9999      5.959      1.471      8.805      1.997      1.962      2.225      2.556      1.44       1.562      2.812      2.881      69.022     0.5064679  0.3061267  0.7068092 
989.2000000000001 0.212      334.642    -9999      -9999      6.044      1.76       9.937001   2.009      2.05       2.325      2.571      1.193      1.39       2.687      2.99       69.064     0.5139651  0.3193758  0.7085545 
989.4      0.213      327.734    -9999      -9999      6.044      2.288      12.767     1.984      2.125      2.388      2.531      1.266      1.401      2.549      3.051      69.085     0.5144435  0.3193758  0.7095112 
989.6      0.217      326.688    -9999      -9999      6.143      2.628      15.094     1.959      2.15       2.463      2.572      1.275      1.221      2.436      3.061      69.085     0.5226041  0.3355316  0.7096766 
989.8      0.219      330.246    -9999      -9999      6.274      2.515      15.849     1.984      2.125      2.475      2.609      1.366      1.217      2.272      3.029      69.064     0.5336117  0.3581725  0.7090508 
990        0.221      338.618    -9999      -9999      6.476      2.628      18.302     1.997      2.15       2.475      2.521      1.17       1.073      2.122      2.955      69.043     0.55227    0.3961148  0.7084252 
990.2000000000001 0.223      350.968    -9999      -9999      6.736      2.804      21.384     2.085      2.175      2.425      2.316      0.683      0.914      1.946      2.852      69.022     0.5793633  0.4509265  0.7078001 
990.4      0.225      365.62     -9999      -9999      6.747      2.616      20.692     2.185      2.138      2.35       2.103      0.48       0.736      1.783      2.738      69.022     0.5806856  0.4534058  0.7079654 
990.6      0.224      381.319    -9999      -9999      6.628      2.452      20.189     2.273      2.063      2.313      1.98       0.395      0.615      1.594      2.626      69.022     0.567712   0.4272932  0.7081308 
990.8      0.221      397.436    -9999      -9999      6.371      2.138      18.679     2.399      1.988      2.25       1.903      0.518      0.621      1.669      2.519      69.022     0.5421061  0.3759159  0.7082962 
991        0.221      413.553    -9999      -9999      6.31       1.81       17.421     2.537      1.938      2.175      1.871      0.549      0.647      1.783      2.42       69.001     0.5361643  0.3646578  0.7076709 
991.2000000000001 0.224      428.414    -9999      -9999      6.322      1.634      16.226     2.662      1.913      2.125      1.843      0.524      0.72       1.87       2.336      68.98      0.5369461  0.3668455  0.7070466 
991.4      0.229      440.554    -9999      -9999      6.51       1.584      14.528     2.738      1.9        2.063      1.787      0.495      0.674      1.883      2.271      68.959     0.5546539  0.4028853  0.7064224 
991.6      0.231      448.299    -9999      -9999      6.685      1.559      13.396     2.763      1.875      2.013      1.709      0.353      0.646      1.908      2.231      68.959     0.5730976  0.4396077  0.7065876 
991.8      0.23       449.555    -9999      -9999      6.795      1.496      12.83      2.675      1.837      1.975      1.686      0.399      0.642      1.908      2.224      68.959     0.5855687  0.4643849  0.7067524 
992        0.225      444.113    -9999      -9999      6.78       1.458      11.95      2.575      1.788      1.962      1.751      0.579      0.803      1.908      2.252      68.938     0.5835272  0.4609257  0.7061287 
992.2000000000001 0.22       435.741    -9999      -9999      6.732      1.27       10.943     2.462      1.725      1.925      1.844      0.696      0.849      1.908      2.296      68.917     0.5777668  0.4500283  0.7055052 
992.4      0.216      430.298    -9999      -9999      6.896      1.332      11.195     2.374      1.75       1.913      1.892      0.71       0.891      1.946      2.324      68.896     0.5966226  0.4883627  0.7048824 
992.6      0.216      428.833    -9999      -9999      7          1.37       11.195     2.286      1.725      1.9        1.896      0.547      0.787      1.996      2.332      68.896     0.6096971  0.5143472  0.705047  
992.8      0.219      428.833    -9999      -9999      7.154      1.421      11.195     2.223      1.725      1.913      1.892      0.48       0.831      2.059      2.332      68.896     0.6302984  0.5553851  0.7052118 
993        0.223      426.112    -9999      -9999      7.145      1.458      11.258     2.148      1.775      1.9        1.907      0.48       0.801      2.134      2.347      68.854     0.6283506  0.5528991  0.703802  
993.2000000000001 0.225      420.879    -9999      -9999      7.101      1.521      11.635     2.148      1.825      1.913      1.921      0.541      0.841      2.159      2.376      68.812     0.6216497  0.5409048  0.7023948 
993.4      0.224      414.181    -9999      -9999      6.898      1.546      11.698     2.16       1.863      1.9        1.919      0.744      0.768      2.147      2.415      68.77      0.5949197  0.4888498  0.7009896 
