~Version
 VERS              .         2.0                           : CWLS LOG ASCII STANDARD - VERSION 2.0
 WRAP              .         NO                            : ONE LINE PER DEPTH STEP
 DLM               .         SPACE                         : DELIMITING CHARACTER(SPACE TAB OR COMMA)
~Well Information
#_______________________________________________________________________________
#
#PARAMETER_NAME    .UNIT     VALUE                         : DESCRIPTION
#_______________________________________________________________________________
STRT               .M        890                           : First reference value
STOP               .M        1196                          : Last reference value
STEP               .M        0.2                           : Step increment
NULL               .         -9999                         : Missing value
COMP               .                                       : Company
WELL               .         1683                          : Well name
FLD                .         Узень                         : Field
LOC                .                                       : Location
CNTY               .                                       : County
STAT               .                                       : State
CTRY               .                                       : Country
SRVC               .                                       : Service Company
DATE               .         31.01.1984                    : Date
UWI                .                                       : Unique Well ID
Block              .         6а                            : 
Cartographic_reference_system .         GCS_WGS_1984                  : ESRI,PE_10_3_1- <?xml version="1.0" encoding="utf-16"?><ILateBoundCoordinateReferenceSystem name="GCS_WGS_1984"><AuthorityCode>EPSG,4326</AuthorityCode></ILateBoundCoordinateReferenceSystem>
Category           .         Нефтяная                      : 
Condition          .         Ликвидированная               : 
Date               .         20.02.1984                    : 
EREF               .m        81                            : 100.8
Gorizont           .         15                            : 14
HZCS               .GCS_WGS_1984 WGS_1984_EASE-Grid_2.0_Global : ESRI,PE_10_3_1- <?xml version="1.0" encoding="utf-16"?><ILateBoundCoordinateReferenceSystem name="WGS_1984_EASE-Grid_2.0_Global"><AuthorityCode>EPSG,6933</AuthorityCode></ILateBoundCoordinateReferenceSystem>
Interpretator      .         Кушербаева А.С                : 
Kupol              .         основной                      : osnovnoi
LATI               .dega     0.6655357802                  : GCS_WGS_1984
LONG               .dega     0.4591046508                  : GCS_WGS_1984
Mud                .                                       : 
Mud_density        .                                       : 
Mud_resistivity    .                                       : 
NGDU               .         НГДУ-2                        : 
ORIGINALWELLNAME   .         1683                          : 
Spud_date          .         1984                          : 1961
Viscosity          .                                       : 
X                  .m        44297.3                       : 46154
Y                  .m        84902.73                      : 85761.93
YEAR               .         2018г                         : 
~Parameter Information Block
#_______________________________________________________________________________
#
#PARAMETER_NAME    .UNIT     VALUE                         : DESCRIPTION
#_______________________________________________________________________________
SET                .         LQC_KAZNIPI_Petrel            : 
TLFamily_CALI      .         Caliper                       : 
TLFamily_CILD      .         Conductivity                  : 
TLFamily_COLL      .         Net Reservoir Flag            : 
TLFamily_CSAT      .         Fluid Code                    : 
TLFamily_DEPT      .         Measured Depth                : 
TLFamily_GR        .         Russian Gamma Ray             : 
TLFamily_GZ1       .         Gradient 045                  : 
TLFamily_GZ2       .         Gradient 105                  : 
TLFamily_GZ3       .         Gradient 225                  : 
TLFamily_GZ4       .         Gradient 425                  : 
TLFamily_GZ5       .         Gradient 850                  : 
TLFamily_LLS       .         Lateral Log Resistivity       : 
TLFamily_MINV      .         Micro Gradient Resistivity    : 
TLFamily_MNOR      .         Micro Resistivity             : 
TLFamily_OGZ       .         Gradient Inverted 225         : 
TLFamily_RT        .         Formation Resistivity         : 
TLFamily_SP        .         Spontaneous Potential         : 
TLFamily_VSH_FIN   .         Shale Volume                  : 
TLFamily_VSH_GR    .         Shale Volume                  : 
TLFamily_VSH_SP    .         Shale Volume                  : 
~Curve Information
#_______________________________________________________________________________
#
#LOGNAME           .UNIT     LOG_ID                        : DESCRIPTION
#_______________________________________________________________________________
DEPT               .M                                      : Колонка глубины 
CALI               .м                                      : Каверномер 
CILD               .мСм/м                                  : Индукционный каротаж 
COLL               .unitless                               :  
CSAT               .unitless                               :  
GR                 .uR/h                                   : Гамма каротаж 
GZ1                .Ohmm                                   : Градиент-зонд  длиной 0.45м 
GZ2                .Ohmm                                   : Градиент-зонд  длиной 1.05м 
GZ3                .Ohmm                                   : Градиент-зонд  длиной 2.25м 
GZ4                .Ohmm                                   : Градиент-зонд  длиной 4.5м 
GZ5                .Ohmm                                   : Градиент-зонд  длиной 8.5м 
LLS                .Ohmm                                   : Боковой каротаж 
MINV               .Ohmm                                   : Микро-градиент зонд 
MNOR               .Ohmm                                   : Микро-потенциал зонд 
OGZ                .Ohmm                                   : Обращенный градиент-зонд 
RT                 .Ohmm                                   : УЭС пласта 
SP                 .мВ                                     : Потенциал самополяризации 
VSH_FIN            .v/v                                    : Описание 
VSH_GR             .v/v                                    : Shale volume 
VSH_SP             .v/v                                    : Shale Volume 
~Ascii
# ...
1045.4     0.237      596.285    -9999      -9999      8.059      0.741      1.371      1.407      1.3        1.712      1.357      0.23       0.367      1.23       1.677      61.451     0.4756373  0.3977498  0.5535248 
1045.6     0.231      596.913    -9999      -9999      8.088      0.779      1.346      1.419      1.3        1.763      1.362      0.227      0.404      1.293      1.675      61.535     0.4793187  0.402403   0.5562344 
1045.8     0.228      596.913    -9999      -9999      7.974      0.804      1.434      1.407      1.3        1.775      1.357      0.234      0.385      1.381      1.675      61.619     0.4716872  0.3844189  0.5589556 
1046       0.228      591.68     -9999      -9999      7.926      0.704      1.434      1.394      1.313      1.738      1.339      0.248      0.391      1.456      1.69       61.703     0.4693886  0.3770892  0.561688  
1046.2     0.229      580.796    -9999      -9999      7.945      0.653      1.346      1.381      1.325      1.688      1.347      0.311      0.479      1.569      1.722      61.746     0.4715658  0.3799737  0.5631579 
1046.4     0.232      570.33     -9999      -9999      7.911      0.691      1.296      1.381      1.337      1.65       1.396      0.292      0.502      1.732      1.754      61.788     0.4697138  0.3748274  0.5646001 
1046.6     0.234      565.515    -9999      -9999      7.78       0.666      1.296      1.407      1.275      1.625      1.478      0.3        0.582      1.833      1.768      61.83      0.4608442  0.3556428  0.5660455 
1046.8     0.237      565.306    -9999      -9999      7.822      0.716      1.333      1.432      1.3        1.625      1.537      0.265      0.506      1.757      1.769      61.893     0.4649174  0.3616841  0.5681506 
1047       0.236      564.678    -9999      -9999      8.143      0.88       1.484      1.432      1.35       1.638      1.531      0.296      0.486      1.669      1.771      61.935     0.4904908  0.4113779  0.5696037 
1047.2     0.232      559.027    -9999      -9999      8.413      1.043      1.497      1.356      1.35       1.65       1.513      0.261      0.458      1.632      1.789      61.977     0.5147431  0.4584262  0.5710601 
1047.4     0.227      548.98     -9999      -9999      8.559      0.993      1.396      1.319      1.313      1.613      1.5        0.261      0.479      1.669      1.822      62.019     0.5292953  0.4860708  0.5725197 
1047.6     0.222      535.165    -9999      -9999      8.438      0.892      1.333      1.306      1.263      1.55       1.538      0.259      0.519      1.77       1.87       62.061     0.518514   0.4630457  0.5739823 
1047.8     0.219      518.42     -9999      -9999      8.219      0.917      1.371      1.231      1.25       1.513      1.576      0.305      0.642      1.883      1.93       62.103     0.4997792  0.4241101  0.5754483 
1048       0.219      500.419    -9999      -9999      8.004      0.905      1.409      1.231      1.25       1.45       1.604      0.392      0.766      1.933      2          62.124     0.4826621  0.3890721  0.5762521 
1048.2     0.222      484.092    -9999      -9999      7.799      0.88       1.434      1.256      1.25       1.425      1.666      0.624      0.789      1.87       2.067      62.166     0.468043   0.3583631  0.5777229 
1048.4     0.225      472.789    -9999      -9999      7.782      0.917      1.484      1.281      1.263      1.413      1.736      0.884      0.977      1.77       2.116      62.187     0.4672288  0.3559282  0.5785294 
1048.6     0.228      469.649    -9999      -9999      7.698      0.993      1.597      1.331      1.288      1.413      1.806      0.921      0.926      1.669      2.129      62.229     0.4620712  0.3441369  0.5800054 
1048.8     0.228      471.952    -9999      -9999      7.837      1.144      1.761      1.369      1.313      1.425      1.775      0.796      1.047      1.607      2.119      62.229     0.472006   0.3638666  0.5801454 
1049       0.225      473.836    -9999      -9999      8.029      1.32       1.937      1.394      1.3        1.45       1.68       0.48       0.838      1.682      2.11       62.25      0.4869737  0.3929928  0.5809546 
1049.2     0.222      468.394    -9999      -9999      8.217      1.521      2          1.432      1.288      1.462      1.638      0.416      0.861      1.77       2.136      62.25      0.5024324  0.4237701  0.5810948 
1049.4     0.222      458.556    -9999      -9999      8.168      1.433      1.95       1.444      1.25       1.475      1.652      0.357      0.797      1.82       2.182      62.25      0.4983792  0.4155234  0.581235  
1049.6     0.223      452.276    -9999      -9999      8.124      1.156      1.937      1.457      1.263      1.5        1.74       0.604      0.916      1.745      2.211      62.229     0.4944802  0.408255   0.5807053 
1049.8     0.226      455.416    -9999      -9999      8.261      1.043      2.013      1.469      1.288      1.45       1.802      0.65       0.92       1.569      2.196      62.187     0.5054109  0.4313145  0.5795072 
1050       0.227      463.998    -9999      -9999      8.645      1.169      2.164      1.482      1.325      1.45       1.814      0.623      0.908      1.582      2.156      62.145     0.5407201  0.5031286  0.5783115 
1050.2     0.225      470.905    -9999      -9999      8.763      1.358      2.201      1.532      1.363      1.462      1.748      0.462      0.776      1.619      2.124      62.103     0.5523148  0.5275117  0.5771179 
1050.4     0.222      470.905    -9999      -9999      8.548      1.571      2.088      1.62       1.4        1.5        1.656      0.378      0.728      1.682      2.124      62.103     0.5305942  0.4839312  0.5772573 
1050.6     0.218      465.882    -9999      -9999      8.169      1.559      2          1.695      1.4        1.525      1.635      0.441      0.724      1.757      2.147      62.124     0.4968765  0.41569    0.578063  
1050.8     0.216      459.184    -9999      -9999      8.147      1.408      1.987      1.783      1.375      1.525      1.693      0.566      0.728      1.833      2.178      62.145     0.4954542  0.4120385  0.5788699 
1051       0.216      454.579    -9999      -9999      8.308      1.207      1.987      1.871      1.4        1.525      1.78       0.62       0.818      1.908      2.2        62.145     0.5092658  0.4395219  0.5790097 
1051.2     0.218      451.857    -9999      -9999      8.519      1.094      1.987      1.922      1.45       1.5        1.822      0.79       0.795      1.933      2.213      62.145     0.5287424  0.4783353  0.5791494 
1051.4     0.223      451.229    -9999      -9999      8.595      1.207      1.962      1.884      1.488      1.462      1.808      0.934      0.763      1.896      2.216      62.145     0.5362144  0.4931398  0.579289  
1051.6     0.225      452.904    -9999      -9999      8.62       1.383      1.987      1.821      1.5        1.5        1.794      1.07       0.855      1.808      2.208      62.145     0.5387689  0.4981091  0.5794289 
1051.8     0.225      457.509    -9999      -9999      8.772      1.37       1.95       1.771      1.5        1.55       1.812      1.187      0.916      1.732      2.186      62.145     0.554494   0.5294193  0.5795687 
1052       0.222      462.951    -9999      -9999      8.903      1.37       1.937      1.721      1.5        1.563      1.827      1.314      1.027      1.619      2.16       62.145     0.5688432  0.5579782  0.5797083 
1052.2     0.219      465.463    -9999      -9999      8.989      1.421      2.05       1.683      1.5        1.575      1.78       1.297      0.837      1.506      2.148      62.145     0.5787038  0.5775594  0.5798482 
1052.4     0.218      462.533    -9999      -9999      8.896      1.471      2.138      1.658      1.475      1.575      1.739      1.308      0.812      1.556      2.162      62.145     0.568201   0.5564139  0.5799882 
1052.6     0.221      457.509    -9999      -9999      8.913      1.446      2.189      1.645      1.45       1.55       1.764      1.245      0.87       1.594      2.186      62.145     0.5701743  0.5602205  0.5801281 
