~Version
 VERS              .         2.0                           : CWLS LOG ASCII STANDARD - VERSION 2.0
 WRAP              .         NO                            : ONE LINE PER DEPTH STEP
 DLM               .         SPACE                         : DELIMITING CHARACTER(SPACE TAB OR COMMA)
~Well Information
#_______________________________________________________________________________
#
#PARAMETER_NAME    .UNIT     VALUE                         : DESCRIPTION
#_______________________________________________________________________________
STRT               .M        900                           : First reference value
STOP               .M        1276                          : Last reference value
STEP               .M        0.2                           : Step increment
NULL               .         -9999                         : Missing value
COMP               .                                       : Company
WELL               .         1784                          : Well name
FLD                .         Узень                         : Field
LOC                .                                       : Location
CNTY               .                                       : County
STAT               .                                       : State
CTRY               .                                       : Country
SRVC               .         UPGF                          : Service Company
DATE               .         28.04.1972                    : Date
UWI                .                                       : Unique Well ID
3кв_для_заказчика  .         5                             : 
Block              .         7                             : 
Category           .         Нагнетательная                : 
Condition          .         Ликвидированная               : 
Date               .         27.04.1972                    : 
EREF               .m        85.7                          : 100.8
Gor                .         14                            : 
Gorizont           .         14                            : 14
Interpretator      .         Кайсанов Е.К                  : 
Kupol              .         Основной                      : osnovnoi
METD               .         GZ1, GZ2, GZ4, GZ5            : Метод
Mud                .                                       : 
Mud_density        .                                       : 
Mud_resistivity    .                                       : 
NGDU               .         НГДУ-2                        : 
ORIGINALWELLNAME   .         1784                          : 
SCAL               .         200                           : Масштаб по глубине
Spud_date          .         1972                          : 1961
Viscosity          .                                       : 
X                  .m        43899.5                       : 46154
Y                  .m        85571.93                      : 85761.93
YEAR               .         2019                          : 
временно           .         5                             : 
~Parameter Information Block
#_______________________________________________________________________________
#
#PARAMETER_NAME    .UNIT     VALUE                         : DESCRIPTION
#_______________________________________________________________________________
SET                .         LQC_KAZNIPI_Petrel            : 
TLFamily_CALI      .         Caliper                       : 
TLFamily_COLL      .         Net Reservoir Flag            : 
TLFamily_CSAT      .         Fluid Code                    : 
TLFamily_DEPT      .         Measured Depth                : 
TLFamily_GR        .         Russian Gamma Ray             : 
TLFamily_GZ1       .         Gradient 045                  : 
TLFamily_GZ2       .         Gradient 105                  : 
TLFamily_GZ3       .         Gradient 225                  : 
TLFamily_GZ4       .         Gradient 425                  : 
TLFamily_GZ5       .         Gradient 850                  : 
TLFamily_LLS       .         Lateral Log Resistivity       : 
TLFamily_MINV      .         Micro Gradient Resistivity    : 
TLFamily_MNOR      .         Micro Resistivity             : 
TLFamily_NGLD      .         Neutron Far                   : 
TLFamily_OGZ3      .         Gradient Inverted 225         : 
TLFamily_PHIE      .         Effective Porosity            : 
TLFamily_PHIEN     .         Effective Porosity            : 
TLFamily_PHIT      .         Porosity                      : 
TLFamily_PRMB      .         Permeability                  : 
TLFamily_PRMB_DGR  .         Permeability                  : 
TLFamily_RT        .         Formation Resistivity         : 
TLFamily_SOIL_ARCHIE .         Oil Saturation                : 
TLFamily_SOIL_DW   .         Oil Saturation                : 
TLFamily_SP        .         Spontaneous Potential         : 
TLFamily_VSH_FIN   .         Shale Volume                  : 
TLFamily_VSH_GR    .         Shale Volume                  : 
TLFamily_VSH_SP    .         Shale Volume                  : 
~Curve Information
#_______________________________________________________________________________
#
#LOGNAME           .UNIT     LOG_ID                        : DESCRIPTION
#_______________________________________________________________________________
DEPT               .M                                      : Колонка глубины 
CALI               .м                                      : Каверномер 
COLL               .unitless                               :  
CSAT               .unitless                               :  
GR                 .uR/h                                   : Гамма каротаж 
GZ1                .Ohmm                                   : A0.4M0.1N 
GZ2                .Ohmm                                   : A1.0M0.1N 
GZ3                .Ohmm                                   : A2M0.5N 
GZ4                .Ohmm                                   : A4M0.5N 
GZ5                .Ohmm                                   : A8M1N 
LLS                .Ohmm                                   : Боковой каротаж 
MINV               .Ohmm                                   : Микро-градиент зонд 
MNOR               .Ohmm                                   : Микро-потенциал зонд 
NGLD               .у.е.                                   : Показания зонда НГК-60 аппаратуры ДРСТ-3-90 
OGZ3               .Ohmm                                   : N0.5M2A 
PHIE               .v/v                                    : Описание 
PHIEN              .v/v                                    :  
PHIT               .v/v                                    : Описание 
PRMB               .mD                                     :  
PRMB_DGR           .mD                                     :  
RT                 .ohmm                                   : УЭС пласта 
SOIL_ARCHIE        .v/v                                    :  
SOIL_DW            .v/v                                    :  
SP                 .мВ                                     : Потенциал самополяризации 
VSH_FIN            .v/v                                    : Описание 
VSH_GR             .v/v                                    : Shale volume 
VSH_SP             .v/v                                    : Shale Volume 
~Ascii
# ...
997.2      0.236      -9999      -9999      4.427947   1.972      3.434      3.86       3.35       3.288      2.094      0.874      1.114      1.062      3.271      0.1419279  0.1419279  0.3027798  1.82487    2.96981    2.833      0.2919787  0.5289999  54.832     0.4874298  0.4159903  0.5588694 
997.4      0.231      -9999      -9999      4.456365   2.16       3.635      4.089      3.475      3.4        2.497      2.176      1.474      1.081      3.296      0.1274816  0.1274816  0.2904849  0.9854875  2.823365   2.92       0.2384907  0.5060136  54.963     0.4939494  0.4246693  0.5632296 
997.6      0.227      -9999      -9999      4.448825   2.424      3.962      4.317      3.7        3.45       2.99       1.481      1.815      1.113      3.271      0.1068375  0.1068375  0.2697777  0.4085747  2.8615     2.978      0.1306183  0.4564958  55.028     0.4937582  0.4223492  0.5651672 
997.8      0.229      -9999      -9999      4.424381   2.7        4.377      4.533      3.875      3.475      3.416      1.879      2.011      1.128      3.119      0.09763137 0.09763137 0.2600712  0.2759002  2.988714   2.956      0.06294461 0.4251344  55.159     0.4922419  0.4149139  0.5695699 
998        0.235      -9999      -9999      4.410794   2.964      4.855      4.469999   4.113      3.475      3.507      1.247      1.759      1.125      2.941      0.09992238 0.09992238 0.2620125  0.3042196  3.061853   2.838      0.0622207  0.4204293  55.224     0.4911822  0.4108379  0.5715264 
998.2      0.246      -9999      -9999      4.420491   3.114      4.503      4.394      4.375      3.338      3.614      2.486      2.106      1.113      2.738      0.1068783  0.1068783  0.2697777  0.409286   3.009474   2.699      0.08982217 0.4291682  55.29      0.4936346  0.4137428  0.5735264 
998.4      0.275      -9999      -9999      4.449487   2.599      4.126      4.279      4.275      3.25       3.351      1.677      1.784      1.093      2.497      0.1176372  0.1176372  0.2827197  0.6476042  2.858133   2.523      0.1299175  0.4445638  55.42      0.5002497  0.4225523  0.5779471 
998.6      0.269      -9999      -9999      4.501193   2.373      4.101      4.114      3.95       3.163      2.743      1.348      0.906      1.063      2.256      0.1336406  0.1336406  0.3021327  1.281535   2.606904   2.331      0.1852738  0.4689062  55.551     0.5105821  0.4387291  0.5824353 
998.8      0.263      -9999      -9999      4.590137   2.198      3.748      3.975      3.763      3.175      2.136      1.986      1.177      1.055      2.13       0.1336492  0.1336492  0.3073095  1.282004   2.225303   2.219      0.1662722  0.4612384  55.617     0.5262435  0.4680191  0.5844679 
999        0.257      -9999      -9999      4.718527   1.934      3.572      3.848      3.8        3.2        1.807      1.424      1.455      1.043      2.231      0.1335336  0.1335336  0.3150747  1.275701   1.770805   2.26       0.1728248  0.474007   55.682     0.5501245  0.5137807  0.5864684 
999.2      0.277      -9999      -9999      4.865001   1.909      3.836      3.81       3.888      3.288      2.054      1.658      1.518      1.046      2.383      0.1213226  0.1213226  0.3131334  0.7578278  1.364511   2.346      0.1217513  0.4645012  55.813     0.5812449  0.5714766  0.5910133 
999.4      0.296      -9999      -9999      4.995474   2.16       3.509      3.848      3.9        3.325      2.275      1.531      1.323      1.058      2.523      0.1038476  0.1038476  0.3053682  0.3596604  1.081805   2.438      0.02323404 0.4383845  55.878     0.6106684  0.6283041  0.5930328 
999.6      0.288      -9999      -9999      5.07773    1.959      3.044      3.81       3.862      3.275      2.185      1.885      1.342      1.04       2.599      0.1087763  0.1087763  0.317016   0.4437957  0.9345068  2.472      0.06472892 0.463286   55.943     0.6310295  0.6670006  0.5950583 
999.8      0.275      -9999      -9999      5.090876   1.746      2.981      3.708      3.7        3.213      1.971      1.772      1.12       1.033      2.51       0.1114905  0.1114905  0.3215457  0.49826    0.9128999  2.395      0.06923419 0.4638562  56.074     0.6365311  0.6734024  0.5996597 
1000       0.32       -9999      -9999      5.030978   1.733      3.321      3.759      3.487      3.125      1.98       0.906      0.659      1.021      2.421      0.1232234  0.1232234  0.3293109  0.8218247  1.015574   2.356      0.1344049  0.4847027  56.205     0.6245074  0.6447235  0.6042914 
1000.2     0.332      -9999      -9999      4.913279   1.984      2.994      3.733      3.463      3.088      2.235      0.571      0.792      1.023      2.396      0.1303091  0.1303091  0.3280167  1.111789   1.252186   2.335      0.1691195  0.4908338  56.27      0.5991141  0.5918787  0.6063495 
1000.4     0.319      -9999      -9999      4.773174   1.846      2.616      3.708      3.5        3.013      2.012      0.419      0.912      1.039      2.295      0.1290608  0.1290608  0.3176631  1.054147   1.606721   2.268      0.1511087  0.4713749  56.336     0.5715221  0.5345911  0.6084529 
1000.6     0.3        -9999      -9999      4.659931   1.645      2.44       3.492      3.275      2.925      1.478      0.678      0.596      1.025      2.18       0.1443204  0.1443204  0.3267225  2.020905   1.96541    2.147      0.2044958  0.4862327  56.466     0.5527338  0.4923652  0.6131023 
1000.8     0.276      -9999      -9999      4.608034   1.419      2.189      3.276      2.963      2.8        0.92       0.653      0.665      1.019      2.066      0.1512923  0.1512923  0.3306051  2.720717   2.155555   2.027      0.2135884  0.483696   56.466     0.5433719  0.4741446  0.6125992 
1001       0.257      -9999      -9999      4.613367   1.218      1.987      3.073      2.688      2.75       1.307      0.381      0.489      1.006      2.231      0.1599088  0.1599088  0.3390174  3.928994   2.135195   2.068      0.255468   0.5063828  56.401     0.5427532  0.4759856  0.6095209 
1001.2     0.245      -9999      -9999      4.650122   1.08       2.176      2.87       2.5        2.775      1.347      0.634      0.577      1.018      2.548      0.1501006  0.1501006  0.3312522  2.585885   2.000018   2.16       0.2317486  0.499027   56.401     0.5489443  0.4888684  0.6090202 
1001.4     0.245      -9999      -9999      4.704879   1.319      2.453      2.654      2.763      3          1.166      1.835      1.152      1.037      3.017      0.1350371  0.1350371  0.3189573  1.360184   1.814336   2.259      0.1801278  0.4798186  56.336     0.5573339  0.5087109  0.605957  
1001.6     0.257      -9999      -9999      4.782696   1.758      2.717      2.438      3.063      3.225      1.898      2.985      1.55       1.05       3.296      0.1218244  0.1218244  0.310545   0.7742216  1.579727   2.242      0.1058389  0.4501864  56.336     0.5718808  0.5383026  0.6054589 
1001.8     0.273      -9999      -9999      4.884912   2.185      2.843      2.286      3.362      3.425      2.883      1.222      1.891      1.055      3.131      0.1122505  0.1122505  0.3073095  0.5146759  1.317015   2.114      0.01844242 0.4143076  56.27      0.591088   0.5798041  0.6023719 
1002       0.299      -9999      -9999      4.998169   2.436      3.094      2.946      3.588      3.375      3.359      0.634      0.767      1.082      2.89       0.08665478 0.08665478 0.2898378  0.1727584  1.076629   2.334      0          0.3720911  56.27      0.6157061  0.6295359  0.6018762 
1002.2     0.309      -9999      -9999      5.108721   2.26       2.616      3.517      3.45       3.35       2.883      0.552      0.577      1.074      2.649      0.08364397 0.08364397 0.2950146  0.1519398  0.8843682  2.418      0          0.383479   56.205     0.6405171  0.6821905  0.5988437 
1002.4     0.295      -9999      -9999      5.21692    1.909      2.83       3.327      3.2        3.25       2.079      1.013      1.101      1.054      2.396      0.08746091 0.08746091 0.3079566  0.1788013  0.7294865  2.229      0          0.3836783  56.205     0.6681687  0.737987   0.5983505 
