~Version
 VERS              .         2.0                           : CWLS LOG ASCII STANDARD - VERSION 2.0
 WRAP              .         NO                            : ONE LINE PER DEPTH STEP
 DLM               .         SPACE                         : DELIMITING CHARACTER(SPACE TAB OR COMMA)
~Well Information
#_______________________________________________________________________________
#
#PARAMETER_NAME    .UNIT     VALUE                         : DESCRIPTION
#_______________________________________________________________________________
STRT               .M        900                           : First reference value
STOP               .M        1276                          : Last reference value
STEP               .M        0.2                           : Step increment
NULL               .         -9999                         : Missing value
COMP               .                                       : Company
WELL               .         1784                          : Well name
FLD                .         Узень                         : Field
LOC                .                                       : Location
CNTY               .                                       : County
STAT               .                                       : State
CTRY               .                                       : Country
SRVC               .         UPGF                          : Service Company
DATE               .         28.04.1972                    : Date
UWI                .                                       : Unique Well ID
3кв_для_заказчика  .         5                             : 
Block              .         7                             : 
Category           .         Нагнетательная                : 
Condition          .         Ликвидированная               : 
Date               .         27.04.1972                    : 
EREF               .m        85.7                          : 100.8
Gor                .         14                            : 
Gorizont           .         14                            : 14
Interpretator      .         Кайсанов Е.К                  : 
Kupol              .         Основной                      : osnovnoi
METD               .         GZ1, GZ2, GZ4, GZ5            : Метод
Mud                .                                       : 
Mud_density        .                                       : 
Mud_resistivity    .                                       : 
NGDU               .         НГДУ-2                        : 
ORIGINALWELLNAME   .         1784                          : 
SCAL               .         200                           : Масштаб по глубине
Spud_date          .         1972                          : 1961
Viscosity          .                                       : 
X                  .m        43899.5                       : 46154
Y                  .m        85571.93                      : 85761.93
YEAR               .         2019                          : 
временно           .         5                             : 
~Parameter Information Block
#_______________________________________________________________________________
#
#PARAMETER_NAME    .UNIT     VALUE                         : DESCRIPTION
#_______________________________________________________________________________
SET                .         LQC_KAZNIPI_Petrel            : 
TLFamily_CALI      .         Caliper                       : 
TLFamily_COLL      .         Net Reservoir Flag            : 
TLFamily_CSAT      .         Fluid Code                    : 
TLFamily_DEPT      .         Measured Depth                : 
TLFamily_GR        .         Russian Gamma Ray             : 
TLFamily_GZ1       .         Gradient 045                  : 
TLFamily_GZ2       .         Gradient 105                  : 
TLFamily_GZ3       .         Gradient 225                  : 
TLFamily_GZ4       .         Gradient 425                  : 
TLFamily_GZ5       .         Gradient 850                  : 
TLFamily_LLS       .         Lateral Log Resistivity       : 
TLFamily_MINV      .         Micro Gradient Resistivity    : 
TLFamily_MNOR      .         Micro Resistivity             : 
TLFamily_NGLD      .         Neutron Far                   : 
TLFamily_OGZ3      .         Gradient Inverted 225         : 
TLFamily_PHIE      .         Effective Porosity            : 
TLFamily_PHIEN     .         Effective Porosity            : 
TLFamily_PHIT      .         Porosity                      : 
TLFamily_PRMB      .         Permeability                  : 
TLFamily_PRMB_DGR  .         Permeability                  : 
TLFamily_RT        .         Formation Resistivity         : 
TLFamily_SOIL_ARCHIE .         Oil Saturation                : 
TLFamily_SOIL_DW   .         Oil Saturation                : 
TLFamily_SP        .         Spontaneous Potential         : 
TLFamily_VSH_FIN   .         Shale Volume                  : 
TLFamily_VSH_GR    .         Shale Volume                  : 
TLFamily_VSH_SP    .         Shale Volume                  : 
~Curve Information
#_______________________________________________________________________________
#
#LOGNAME           .UNIT     LOG_ID                        : DESCRIPTION
#_______________________________________________________________________________
DEPT               .M                                      : Колонка глубины 
CALI               .м                                      : Каверномер 
COLL               .unitless                               :  
CSAT               .unitless                               :  
GR                 .uR/h                                   : Гамма каротаж 
GZ1                .Ohmm                                   : A0.4M0.1N 
GZ2                .Ohmm                                   : A1.0M0.1N 
GZ3                .Ohmm                                   : A2M0.5N 
GZ4                .Ohmm                                   : A4M0.5N 
GZ5                .Ohmm                                   : A8M1N 
LLS                .Ohmm                                   : Боковой каротаж 
MINV               .Ohmm                                   : Микро-градиент зонд 
MNOR               .Ohmm                                   : Микро-потенциал зонд 
NGLD               .у.е.                                   : Показания зонда НГК-60 аппаратуры ДРСТ-3-90 
OGZ3               .Ohmm                                   : N0.5M2A 
PHIE               .v/v                                    : Описание 
PHIEN              .v/v                                    :  
PHIT               .v/v                                    : Описание 
PRMB               .mD                                     :  
PRMB_DGR           .mD                                     :  
RT                 .ohmm                                   : УЭС пласта 
SOIL_ARCHIE        .v/v                                    :  
SOIL_DW            .v/v                                    :  
SP                 .мВ                                     : Потенциал самополяризации 
VSH_FIN            .v/v                                    : Описание 
VSH_GR             .v/v                                    : Shale volume 
VSH_SP             .v/v                                    : Shale Volume 
~Ascii
# ...
975.6      0.225      -9999      -9999      4.155143   2.913      4.78       4.051      4.138      4.537      3.574      1.601      1.234      1.089      4.475      0.1151285  0.1151285  0.2853081  0.581892   4.82557    3.402      0.2306028  0.5208062  56.728     0.5156956  0.3411917  0.6901995 
975.8      0.226      -9999      -9999      4.107342   3.014      4.805      4.432      4.525      4.575      3.294      3.383      2.34       1.082      4.361      0.1230824  0.1230824  0.2898378  0.8168955  5.253989   3.517      0.2820982  0.543753   56.532     0.5053194  0.3295448  0.6810941 
976        0.229      -9999      -9999      4.095336   2.599      3.849      4.838      4.275      4.412      2.448      1.993      1.525      1.054      4.221      0.1422355  0.1422355  0.3079566  1.848969   5.367434   3.607      0.3689617  0.5871196  56.466     0.502185   0.3266826  0.6776873 
976.2      0.235      -9999      -9999      4.10793    2.16       3.597      5.232      3.875      4.225      2.366      2.41       1.556      1.036      3.993      0.1534781  0.1534781  0.3196044  2.986548   5.248495   3.623      0.4081613  0.6079102  56.466     0.503413   0.3296856  0.6771404 
976.4      0.241      -9999      -9999      4.131263   2.16       3.862      5.143      3.65       4.063      2.727      1.614      1.335      1.042      3.816      0.1496783  0.1496783  0.3157218  2.539725   5.035042   3.505      0.3864538  0.5948056  56.336     0.5031621  0.3353226  0.6710017 
976.6      0.245      -9999      -9999      4.140304   2.486      4.063      4.914      3.638      3.875      2.711      2.694      2.024      1.07       3.651      0.1326696  0.1326696  0.297603   1.229545   4.954691   3.352      0.3088924  0.5519199  56.139     0.4997982  0.3375326  0.6620638 
976.8      0.249      -9999      -9999      4.107373   2.474      4.038      4.622      3.737      3.875      2.406      2.252      1.689      1.083      3.486      0.1256626  0.1256626  0.2891907  0.911925   5.2537     3.18       0.2598332  0.5229797  56.139     0.4955397  0.3295522  0.6615273 
977        0.253      -9999      -9999      4.034658   2.499      4.201      4.305      3.775      3.862      2.349      2.372      1.992      1.058      3.397      0.1465375  0.1465375  0.3053682  2.221329   5.979411   3.038      0.3324211  0.5526239  55.878     0.4813051  0.3125925  0.6500176 
977.2      0.255      -9999      -9999      3.960288   2.348      4.063      4.013      3.75       3.838      2.76       2.157      1.689      1.046      3.385      0.1575497  0.1575497  0.3131334  3.552923   6.825444   2.938      0.3608413  0.5634192  55.813     0.4714656  0.2961493  0.646782  
977.4      0.248      -9999      -9999      3.920343   2.461      4.126      3.822      3.725      3.825      2.661      1.955      1.683      1.04       3.435      0.1624707  0.1624707  0.317016   4.382613   7.328245   2.895      0.3724269  0.5682704  55.878     0.4683193  0.2876775  0.6489611 
977.6      0.242      -9999      -9999      3.915423   2.512      4.704      3.771      3.763      3.813      2.612      2.542      1.594      1.047      3.486      0.1586435  0.1586435  0.3124863  3.72258    7.392686   2.898      0.3603516  0.5609863  55.813     0.4661903  0.2866508  0.6457299 
977.8      0.244      -9999      -9999      3.919199   2.26       4.038      3.835      3.75       3.763      2.332      2.801      2.03       1.056      3.512      0.1527763  0.1527763  0.3066624  2.898484   7.343181   2.933      0.3440233  0.5526181  55.813     0.4663214  0.2874384  0.6452044 
978        0.249      -9999      -9999      3.90941    2.311      4.151      3.924      3.775      3.663      2.465      2.031      1.531      1.056      3.499      0.1531991  0.1531991  0.3066624  2.951223   7.472208   2.959      0.3482087  0.5550348  55.813     0.4650402  0.2854012  0.6446792 
978.2      0.26       -9999      -9999      3.889489   2.587      4.289      4.063      3.775      3.55       2.752      2.245      1.683      1.025      3.435      0.1735774  0.1735774  0.3267225  7.038116   7.741833   2.978      0.4134604  0.5919176  55.878     0.4640762  0.2812999  0.6468524 
978.4      0.268      -9999      -9999      3.882373   2.336      4          4.292      3.688      3.45       2.513      1.746      1.506      1.036      3.372      0.1672303  0.1672303  0.3196044  5.369      7.840477   3.021      0.3992623  0.583838   55.813     0.4617396  0.2798493  0.64363   
978.6      0.267      -9999      -9999      3.90327    1.921      3.346      4.305      3.5        3.413      2.103      1.696      1.607      1.032      3.283      0.1691988  0.1691988  0.3221928  5.839217   7.554301   2.98       0.4011864  0.5847733  55.813     0.4636183  0.2841307  0.6431059 
978.8      0.26       -9999      -9999      3.943654   1.934      3.459      4.216001   3.313      3.388      1.923      1.373      1.316      1.034      3.283      0.1661506  0.1661506  0.3208986  5.127379   7.030485   2.953      0.38957    0.5790757  55.878     0.4689331  0.2925915  0.6452746 
979        0.252      -9999      -9999      3.979726   2.009      3.459      4.127      3.2        3.362      1.782      1.993      1.19       1.051      3.397      0.1530551  0.1530551  0.3098979  2.933146   6.593402   2.981      0.3499706  0.5592853  56.009     0.4752813  0.3003616  0.650201  
979.2      0.244      -9999      -9999      3.986428   1.934      3.346      3.949      3.25       3.313      1.396      1.582      1.512      1.063      3.664      0.1455888  0.1455888  0.3021327  2.133244   6.515233   3.041      0.329188   0.5489431  55.943     0.4743755  0.3018279  0.646923  
979.4      0.237      -9999      -9999      3.94904    1.934      3.031      3.695      3.163      3.325      2.332      1.146      1.297      1.062      3.879      0.1472041  0.1472041  0.3027798  2.285381   6.963434   3.028      0.3338571  0.5503407  56.009     0.4714416  0.2937388  0.6491444 
979.6      0.233      -9999      -9999      3.876719   1.959      2.843      3.581      3.15       3.463      2.218      1.892      1.342      1.073      4.044      0.1426542  0.1426542  0.2956617  1.882277   7.91976    3.039      0.3177596  0.53958    56.009     0.4636593  0.278702   0.6486166 
979.8      0.23       -9999      -9999      3.803697   2.11       3.447      3.479      3.362      3.513      2.357      1.734      1.525      1.092      4.044      0.1328226  0.1328226  0.2833668  1.237595   9.018683   2.992      0.2717261  0.5117814  56.009     0.4561946  0.2643001  0.6480891 
980        0.23       -9999      -9999      3.7586     2.449      3.748      3.556      3.55       3.563      2.711      1.866      1.222      1.065      3.905      0.1513399  0.1513399  0.3008385  2.726238   9.772226   2.978      0.3436459  0.5493879  56.074     0.4530261  0.2557801  0.650272  
980.2      0.23       -9999      -9999      3.734084   2.461      3.245      3.606      3.688      3.6        2.883      2.643      2.207      1.071      3.74       0.1469328  0.1469328  0.2969559  2.259095   10.20797   2.937      0.3232329  0.5378168  56.27      0.4546154  0.2512642  0.6579667 
980.4      0.229      -9999      -9999      3.702206   2.11       3.648      3.657      3.575      3.575      2.636      2.081      1.493      1.051      3.638      0.1604523  0.1604523  0.3098979  4.021138   10.80374   2.918      0.3683098  0.5621556  56.336     0.4528653  0.2455112  0.6602194 
980.6      0.228      -9999      -9999      3.657366   2.373      4.403      3.695      3.625      3.575      2.3        1.67       1.405      1.065      3.664      0.1523257  0.1523257  0.3008385  2.843303   11.70109   2.944      0.3435915  0.547863   56.401     0.4500388  0.2376412  0.6624364 
980.8      0.227      -9999      -9999      3.625845   2.712      4.252      3.759      3.775      3.575      2.465      1.064      2.751      1.095      3.727      0.1334337  0.1334337  0.2814255  1.270278   12.37614   2.994      0.274657   0.510739   56.466     0.4484598  0.2322604  0.6646593 
