~Version
 VERS              .         2.0                           : CWLS LOG ASCII STANDARD - VERSION 2.0
 WRAP              .         NO                            : ONE LINE PER DEPTH STEP
 DLM               .         SPACE                         : DELIMITING CHARACTER(SPACE TAB OR COMMA)
~Well Information
#_______________________________________________________________________________
#
#PARAMETER_NAME    .UNIT     VALUE                         : DESCRIPTION
#_______________________________________________________________________________
STRT               .M        900                           : First reference value
STOP               .M        1276                          : Last reference value
STEP               .M        0.2                           : Step increment
NULL               .         -9999                         : Missing value
COMP               .                                       : Company
WELL               .         1784                          : Well name
FLD                .         Узень                         : Field
LOC                .                                       : Location
CNTY               .                                       : County
STAT               .                                       : State
CTRY               .                                       : Country
SRVC               .         UPGF                          : Service Company
DATE               .         28.04.1972                    : Date
UWI                .                                       : Unique Well ID
3кв_для_заказчика  .         5                             : 
Block              .         7                             : 
Category           .         Нагнетательная                : 
Condition          .         Ликвидированная               : 
Date               .         27.04.1972                    : 
EREF               .m        85.7                          : 100.8
Gor                .         14                            : 
Gorizont           .         14                            : 14
Interpretator      .         Кайсанов Е.К                  : 
Kupol              .         Основной                      : osnovnoi
METD               .         GZ1, GZ2, GZ4, GZ5            : Метод
Mud                .                                       : 
Mud_density        .                                       : 
Mud_resistivity    .                                       : 
NGDU               .         НГДУ-2                        : 
ORIGINALWELLNAME   .         1784                          : 
SCAL               .         200                           : Масштаб по глубине
Spud_date          .         1972                          : 1961
Viscosity          .                                       : 
X                  .m        43899.5                       : 46154
Y                  .m        85571.93                      : 85761.93
YEAR               .         2019                          : 
временно           .         5                             : 
~Parameter Information Block
#_______________________________________________________________________________
#
#PARAMETER_NAME    .UNIT     VALUE                         : DESCRIPTION
#_______________________________________________________________________________
SET                .         LQC_KAZNIPI_Petrel            : 
TLFamily_CALI      .         Caliper                       : 
TLFamily_COLL      .         Net Reservoir Flag            : 
TLFamily_CSAT      .         Fluid Code                    : 
TLFamily_DEPT      .         Measured Depth                : 
TLFamily_GR        .         Russian Gamma Ray             : 
TLFamily_GZ1       .         Gradient 045                  : 
TLFamily_GZ2       .         Gradient 105                  : 
TLFamily_GZ3       .         Gradient 225                  : 
TLFamily_GZ4       .         Gradient 425                  : 
TLFamily_GZ5       .         Gradient 850                  : 
TLFamily_LLS       .         Lateral Log Resistivity       : 
TLFamily_MINV      .         Micro Gradient Resistivity    : 
TLFamily_MNOR      .         Micro Resistivity             : 
TLFamily_NGLD      .         Neutron Far                   : 
TLFamily_OGZ3      .         Gradient Inverted 225         : 
TLFamily_PHIE      .         Effective Porosity            : 
TLFamily_PHIEN     .         Effective Porosity            : 
TLFamily_PHIT      .         Porosity                      : 
TLFamily_PRMB      .         Permeability                  : 
TLFamily_PRMB_DGR  .         Permeability                  : 
TLFamily_RT        .         Formation Resistivity         : 
TLFamily_SOIL_ARCHIE .         Oil Saturation                : 
TLFamily_SOIL_DW   .         Oil Saturation                : 
TLFamily_SP        .         Spontaneous Potential         : 
TLFamily_VSH_FIN   .         Shale Volume                  : 
TLFamily_VSH_GR    .         Shale Volume                  : 
TLFamily_VSH_SP    .         Shale Volume                  : 
~Curve Information
#_______________________________________________________________________________
#
#LOGNAME           .UNIT     LOG_ID                        : DESCRIPTION
#_______________________________________________________________________________
DEPT               .M                                      : Колонка глубины 
CALI               .м                                      : Каверномер 
COLL               .unitless                               :  
CSAT               .unitless                               :  
GR                 .uR/h                                   : Гамма каротаж 
GZ1                .Ohmm                                   : A0.4M0.1N 
GZ2                .Ohmm                                   : A1.0M0.1N 
GZ3                .Ohmm                                   : A2M0.5N 
GZ4                .Ohmm                                   : A4M0.5N 
GZ5                .Ohmm                                   : A8M1N 
LLS                .Ohmm                                   : Боковой каротаж 
MINV               .Ohmm                                   : Микро-градиент зонд 
MNOR               .Ohmm                                   : Микро-потенциал зонд 
NGLD               .у.е.                                   : Показания зонда НГК-60 аппаратуры ДРСТ-3-90 
OGZ3               .Ohmm                                   : N0.5M2A 
PHIE               .v/v                                    : Описание 
PHIEN              .v/v                                    :  
PHIT               .v/v                                    : Описание 
PRMB               .mD                                     :  
PRMB_DGR           .mD                                     :  
RT                 .ohmm                                   : УЭС пласта 
SOIL_ARCHIE        .v/v                                    :  
SOIL_DW            .v/v                                    :  
SP                 .мВ                                     : Потенциал самополяризации 
VSH_FIN            .v/v                                    : Описание 
VSH_GR             .v/v                                    : Shale volume 
VSH_SP             .v/v                                    : Shale Volume 
~Ascii
# ...
1272.6     0.213      -9999      -9999      -9999      2.009      2.78       -9999      2.25       2.237      1.602      2.018      1.335      1.088      -9999      1          1          0.3001056  9323613800000000.0000000 -9999      -9999      -9999      -9999      32.545     -4999.272  -9999      0.4564143 
1272.8     0.213      -9999      -9999      -9999      1.972      2.742      -9999      2.213      2.163      1.446      1.911      1.367      1.087      -9999      1          1          0.3006294  9323613800000000.0000000 -9999      -9999      -9999      -9999      31.041     -4999.292  -9999      0.4146351 
1273       0.212      1          3          -9999      1.959      2.642      -9999      2.15       2.088      1.651      1.266      1.133      1.072      -9999      1          1          0.3084864  9323613800000000.0000000 -9999      -9999      -9999      -9999      28.296     -4999.327  -9999      0.3462768 
1273.2     0.212      1          3          -9999      1.934      2.327      -9999      2.088      2.025      1.815      1.001      1.07       1.053      -9999      1          1          0.3184386  9323613800000000.0000000 -9999      -9999      -9999      -9999      25.617     -4999.354  -9999      0.2909387 
1273.4     0.212      1          3          -9999      1.921      2.201      -9999      2          1.95       1.619      1.026      1.259      1.046      -9999      1          1          0.3221052  9323613800000000.0000000 -9999      -9999      -9999      -9999      22.937     -4999.377  -9999      0.2456774 
1273.6     0.211      1          3          -9999      1.871      2.101      -9999      1.913      1.875      1.561      1.348      1.411      1.062      -9999      1          1          0.3137244  9323613800000000.0000000 -9999      -9999      -9999      -9999      20.257     -4999.396  -9999      0.2094301 
1273.8     0.211      1          3          -9999      1.808      2.013      -9999      1.837      1.8        1.495      1.456      1.569      1.081      -9999      1          1          0.3037722  9323613800000000.0000000 -9999      -9999      -9999      -9999      17.447     -4999.41   -9999      0.179884  
1274       0.21       1          3          -9999      1.746      1.899      -9999      1.75       1.725      1.347      1.159      1.297      1.098      -9999      1          1          0.2948676  9323613800000000.0000000 -9999      -9999      -9999      -9999      15.42      -4999.418  -9999      0.1634519 
1274.2     0.211      1          3          -9999      1.632      1.786      -9999      1.663      1.65       1.453      1.159      1.398      1.102      -9999      1          1          0.2927724  9323613800000000.0000000 -9999      -9999      -9999      -9999      14.767     -4999.42   -9999      0.1592641 
1274.4     0.212      1          3          -9999      1.658      1.748      -9999      1.587      1.525      1.314      1.146      1.316      1.1        -9999      1          1          0.29382    9323613800000000.0000000 -9999      -9999      -9999      -9999      16.27      -4999.414  -9999      0.1714833 
1274.6     0.212      1          3          -9999      1.67       1.761      -9999      1.5        1.625      1.347      1.058      1.329      1.107      -9999      1          1          0.2901534  9323613800000000.0000000 -9999      -9999      -9999      -9999      20.519     -4999.391  -9999      0.2177165 
1274.8     0.213      1          3          -9999      1.695      1.786      -9999      1.425      1.75       1.609      1.077      1.323      1.112      -9999      1          1          0.2875344  9323613800000000.0000000 -9999      -9999      -9999      -9999      25.617     -4999.348  -9999      0.3032309 
1275       0.213      -9999      -9999      -9999      1.746      1.836      -9999      1.45       1.85       1.446      1.43       1.304      -9999      -9999      -9999      -9999      -9999      -9999      -9999      -9999      -9999      -9999      29.734     -4999.299  -9999      0.4022139 
1275.2     0.213      -9999      -9999      -9999      1.783      2          -9999      1.563      1.975      1.265      1.462      1.632      -9999      -9999      -9999      -9999      -9999      -9999      -9999      -9999      -9999      -9999      33.46      -4999.24   -9999      0.51906   
1275.4     0.213      -9999      -9999      -9999      1.859      2.176      -9999      1.788      2.1        1.413      1.797      1.31       -9999      -9999      -9999      -9999      -9999      -9999      -9999      -9999      -9999      -9999      36.009     -4999.192  -9999      0.6166357 
1275.6     0.213      -9999      -9999      -9999      1.859      2.252      -9999      2.1        2.213      1.594      1.449      1.354      -9999      -9999      -9999      -9999      -9999      -9999      -9999      -9999      -9999      -9999      38.166     -4999.144  -9999      0.7114782 
1275.8     0.212      -9999      -9999      -9999      1.859      2.226      -9999      2.35       2.313      1.693      1.664      1.462      -9999      -9999      -9999      -9999      -9999      -9999      -9999      -9999      -9999      -9999      37.251     -4999.163  -9999      0.6746299 
1276       0.212      -9999      -9999      -9999      1.796      2.214      -9999      2.575      2.338      1.569      1.291      1.297      -9999      -9999      -9999      -9999      -9999      -9999      -9999      -9999      -9999      -9999      36.336     -4999.182  -9999      0.6362982 
