~Version
 VERS              .         2.0                           : CWLS LOG ASCII STANDARD - VERSION 2.0
 WRAP              .         NO                            : ONE LINE PER DEPTH STEP
 DLM               .         SPACE                         : DELIMITING CHARACTER(SPACE TAB OR COMMA)
~Well Information
#_______________________________________________________________________________
#
#PARAMETER_NAME    .UNIT     VALUE                         : DESCRIPTION
#_______________________________________________________________________________
STRT               .M        900                           : First reference value
STOP               .M        1276                          : Last reference value
STEP               .M        0.2                           : Step increment
NULL               .         -9999                         : Missing value
COMP               .                                       : Company
WELL               .         1784                          : Well name
FLD                .         Узень                         : Field
LOC                .                                       : Location
CNTY               .                                       : County
STAT               .                                       : State
CTRY               .                                       : Country
SRVC               .         UPGF                          : Service Company
DATE               .         28.04.1972                    : Date
UWI                .                                       : Unique Well ID
3кв_для_заказчика  .         5                             : 
Block              .         7                             : 
Category           .         Нагнетательная                : 
Condition          .         Ликвидированная               : 
Date               .         27.04.1972                    : 
EREF               .m        85.7                          : 100.8
Gor                .         14                            : 
Gorizont           .         14                            : 14
Interpretator      .         Кайсанов Е.К                  : 
Kupol              .         Основной                      : osnovnoi
METD               .         GZ1, GZ2, GZ4, GZ5            : Метод
Mud                .                                       : 
Mud_density        .                                       : 
Mud_resistivity    .                                       : 
NGDU               .         НГДУ-2                        : 
ORIGINALWELLNAME   .         1784                          : 
SCAL               .         200                           : Масштаб по глубине
Spud_date          .         1972                          : 1961
Viscosity          .                                       : 
X                  .m        43899.5                       : 46154
Y                  .m        85571.93                      : 85761.93
YEAR               .         2019                          : 
временно           .         5                             : 
~Parameter Information Block
#_______________________________________________________________________________
#
#PARAMETER_NAME    .UNIT     VALUE                         : DESCRIPTION
#_______________________________________________________________________________
SET                .         LQC_KAZNIPI_Petrel            : 
TLFamily_CALI      .         Caliper                       : 
TLFamily_COLL      .         Net Reservoir Flag            : 
TLFamily_CSAT      .         Fluid Code                    : 
TLFamily_DEPT      .         Measured Depth                : 
TLFamily_GR        .         Russian Gamma Ray             : 
TLFamily_GZ1       .         Gradient 045                  : 
TLFamily_GZ2       .         Gradient 105                  : 
TLFamily_GZ3       .         Gradient 225                  : 
TLFamily_GZ4       .         Gradient 425                  : 
TLFamily_GZ5       .         Gradient 850                  : 
TLFamily_LLS       .         Lateral Log Resistivity       : 
TLFamily_MINV      .         Micro Gradient Resistivity    : 
TLFamily_MNOR      .         Micro Resistivity             : 
TLFamily_NGLD      .         Neutron Far                   : 
TLFamily_OGZ3      .         Gradient Inverted 225         : 
TLFamily_PHIE      .         Effective Porosity            : 
TLFamily_PHIEN     .         Effective Porosity            : 
TLFamily_PHIT      .         Porosity                      : 
TLFamily_PRMB      .         Permeability                  : 
TLFamily_PRMB_DGR  .         Permeability                  : 
TLFamily_RT        .         Formation Resistivity         : 
TLFamily_SOIL_ARCHIE .         Oil Saturation                : 
TLFamily_SOIL_DW   .         Oil Saturation                : 
TLFamily_SP        .         Spontaneous Potential         : 
TLFamily_VSH_FIN   .         Shale Volume                  : 
TLFamily_VSH_GR    .         Shale Volume                  : 
TLFamily_VSH_SP    .         Shale Volume                  : 
~Curve Information
#_______________________________________________________________________________
#
#LOGNAME           .UNIT     LOG_ID                        : DESCRIPTION
#_______________________________________________________________________________
DEPT               .M                                      : Колонка глубины 
CALI               .м                                      : Каверномер 
COLL               .unitless                               :  
CSAT               .unitless                               :  
GR                 .uR/h                                   : Гамма каротаж 
GZ1                .Ohmm                                   : A0.4M0.1N 
GZ2                .Ohmm                                   : A1.0M0.1N 
GZ3                .Ohmm                                   : A2M0.5N 
GZ4                .Ohmm                                   : A4M0.5N 
GZ5                .Ohmm                                   : A8M1N 
LLS                .Ohmm                                   : Боковой каротаж 
MINV               .Ohmm                                   : Микро-градиент зонд 
MNOR               .Ohmm                                   : Микро-потенциал зонд 
NGLD               .у.е.                                   : Показания зонда НГК-60 аппаратуры ДРСТ-3-90 
OGZ3               .Ohmm                                   : N0.5M2A 
PHIE               .v/v                                    : Описание 
PHIEN              .v/v                                    :  
PHIT               .v/v                                    : Описание 
PRMB               .mD                                     :  
PRMB_DGR           .mD                                     :  
RT                 .ohmm                                   : УЭС пласта 
SOIL_ARCHIE        .v/v                                    :  
SOIL_DW            .v/v                                    :  
SP                 .мВ                                     : Потенциал самополяризации 
VSH_FIN            .v/v                                    : Описание 
VSH_GR             .v/v                                    : Shale volume 
VSH_SP             .v/v                                    : Shale Volume 
~Ascii
# ...
1224       0.212      1          3          5.900538   1.557      1.283      0.902      1.313      1.775      1.273      0.956      1.285      1.21       1.483      0.1914501  0.1914501  0.236202   9.846435   43.15153   0.897      0.02078415 0.1111215  13.198     0.1356116  0.1394732  0.1317501 
1224.2     0.213      6          6          5.876298   1.545      1.686      1.41       1.825      2.2        1.453      1.083      1.304      1.218      2.003      0.1819362  0.1819362  0.2320116  6.562328   45.27359   1.324      0.147277   0.2446603  19.603     0.1517435  0.1367658  0.1667213 
1224.4     0.216      6          6          5.861374   1.771      2.101      1.841      2.525      2.688      1.923      1.039      1.196      1.225      2.548      0.1683728  0.1683728  0.228345   3.679848   46.63163   1.71       0.1909521  0.3070118  25.224     0.181734   0.1351252  0.2283429 
1224.6     0.217      6          6          5.897272   2.386      2.465      2.298      3.188      3.2        2.579      3.111      2.656      1.248      3.055      0.1585209  0.1585209  0.2162976  2.417406   43.43153   2.098      0.2253502  0.3378364  23.852     0.1750809  0.1391053  0.2110565 
1224.8     0.217      6          6          5.977551   2.675      2.83       2.133      3.688      3.713      2.711      2.005      2.011      1.231      3.093      0.1681708  0.1681708  0.2252022  3.648293   37.04737   2.02       0.2510126  0.3569148  22.61      0.1728224  0.1484357  0.1972092 
1225       0.216      1          3          6.063019   2.938      3.27       1.981      3.9        3.775      2.488      1.228      1.512      1.215      2.89       0.1767247  0.1767247  0.233583   5.254466   31.27852   1.881      0.2582834  0.3609979  21.434     0.1722978  0.1590579  0.1855377 
1225.2     0.215      1          3          6.127481   3.416      4.075      1.803      3.513      3.375      2.727      1.247      1.582      1.191      2.637      0.1897992  0.1897992  0.2461542  9.176974   27.52979   1.713      0.2717041  0.3696315  20.126     0.1707728  0.1675694  0.1739762 
1225.4     0.213      1          3          6.181029   3.152      4.088      1.638      3.025      2.963      2.406      1.228      1.588      1.202      2.383      0.1843116  0.1843116  0.2403924  7.262005   24.75973   1.553      0.2176714  0.3204735  18.95      0.1699417  0.1749851  0.1648982 
1225.6     0.212      1          3          6.250334   2.825      3.673      1.46       2.588      2.563      1.996      1.209      1.493      1.183      2.13       0.1939901  0.1939901  0.2503446  10.973     21.58425   1.386      0.2107472  0.3123713  17.708     0.1707713  0.1850723  0.1564702 
1225.8     0.212      1          3          6.347748   2.486      3.409      1.295      2.15       2.163      1.651      1.127      1.424      1.186      1.902      0.1909943  0.1909943  0.2487732  9.656856   17.79719   1.233      0.1548346  0.2634845  16.597     0.1750876  0.2002415  0.1499338 
1226       0.212      1          3          6.464152   2.311      3.321      1.13       1.813      1.813      1.684      1.184      1.335      1.148      1.686      0.208123   0.208123   0.2686776  20.04934   14.13295   1.082      0.166166   0.2747411  16.009     0.1834989  0.2200066  0.1469913 
1226.2     0.212      1          3          6.584918   2.285      3.057      0.952      1.538      1.613      1.856      1.222      1.405      1.123      1.547      0.2177794  0.2177794  0.2817726  30.26637   11.12658   0.943      0.1450377  0.2585325  15.617     0.1939189  0.2425771  0.1452606 
1226.4     0.213      1          3          6.702847   2.361      2.805      0.952      1.375      1.425      1.782      1.051      1.373      1.139      1.483      0.2053326  0.2053326  0.2733918  17.79983   8.809103   0.928      0.09327555 0.2203262  15.617     0.2062399  0.2668499  0.1456299 
1226.6     0.213      1          3          6.814967   2.336      2.553      1.092      1.263      1.375      1.634      1.272      1.493      1.151      1.496      0.1949786  0.1949786  0.2671062  11.44551   7.055013   1.01       0.08842999 0.2258994  15.42      0.2185684  0.2921758  0.1449611 
1226.8     0.213      1          3          6.915193   2.298      2.553      1.27       1.113      1.325      1.668      0.956      1.259      1.16       1.559      0.1860763  0.1860763  0.262392   7.829638   5.784868   1.12       0.09552088 0.2426303  15.486     0.2312599  0.3168431  0.1456767 
1227       0.212      1          3          6.996147   2.26       2.566      1.41       1.075      1.275      1.832      1.222      1.436      1.143      1.635      0.1910261  0.1910261  0.2712966  9.669968   4.927938   1.211      0.1477876  0.2934656  15.878     0.2432439  0.3382796  0.1482081 
1227.2     0.212      1          3          7.053634   2.235      2.591      1.575      1.038      1.3        1.79       1.355      1.518      1.131      1.673      0.1941463  0.1941463  0.2775822  11.04635   4.397645   1.298      0.1866446  0.3311535  16.336     0.252836   0.3543773  0.1512947 
1227.4     0.211      1          3          7.087852   2.248      2.579      1.689      1          1.3        1.758      1.083      1.361      1.141      1.686      0.1856915  0.1856915  0.2723442  7.702208   4.109506   1.35       0.169926   0.3244769  17.708     0.2625839  0.3643203  0.1608475 
1227.6     0.211      1          3          7.108899   2.273      2.591      1.74       0.988      1.313      1.881      1.032      1.316      1.153      1.673      0.1730858  0.1730858  0.2660586  4.499115   3.941734   1.365      0.1220787  0.2989488  21.237     0.2817357  0.3705741  0.1928973 
1227.8     0.211      1          3          7.136809   2.285      2.629      1.74       1          1.313      1.889      1.083      1.272      1.143      1.673      0.1720941  0.1720941  0.2712966  4.312794   3.729765   1.365      0.1176742  0.3053718  23.59      0.3006136  0.3790334  0.2221937 
1228       0.211      1          3          7.185948   2.298      2.591      1.714      0.988      1.3        1.849      1.342      1.386      1.129      1.661      0.1697653  0.1697653  0.2786298  3.905019   3.383897   1.35       0.1025001  0.3087098  26.336     0.3298925  0.3943987  0.2653863 
1228.2     0.212      -9999      -9999      7.246981   2.172      2.44       1.651      0.988      1.288      1.946      1.234      1.354      1.137      1.661      0.1566665  0.1566665  0.2744394  2.233584   2.99863    1.307      0.02275407 0.2678185  28.1       0.3568875  0.4143531  0.299422  
1228.4     0.213      -9999      -9999      7.291306   1.984      2.327      1.575      1          1.288      1.856      1.348      1.417      1.122      1.648      0.1514808  0.1514808  0.2822964  1.790401   2.746626   1.275      0          0.2614404  30.911     0.3964109  0.4294747  0.363347  
1228.6     0.215      -9999      -9999      7.297218   1.972      2.252      1.511      1.125      1.337      1.7        1.538      1.518      1.135      1.686      0.1336729  0.1336729  0.275487   0.8377311  2.714651   1.315      0          0.2250204  33.264     0.4297397  0.4315332  0.4279462 
1228.8     0.217      -9999      -9999      7.268191   1.984      2.214      1.473      1.375      1.35       1.52       1.797      1.784      1.125      1.762      0.1320051  0.1320051  0.280725   0.7802121  2.875282   1.415      0          0.2579711  34.898     0.4506664  0.4215214  0.4798114 
1229       0.219      -9999      -9999      7.214952   1.934      2.352      1.562      1.625      1.375      1.503      1.721      1.657      1.133      1.825      0.116426   0.116426   0.2765346  0.401467   3.194998   1.497      0          0.2364953  37.447     0.4851776  0.4037587  0.5665964 
1229.2     0.221      -9999      -9999      7.133734   1.846      2.516      1.663      1.9        1.413      1.676      1.557      1.5        1.117      1.889      0.1170565  0.1170565  0.2849154  0.4124093  3.752552   1.527      0          0.2595912  39.342     0.5086634  0.3780919  0.6392348 
