~Version
 VERS              .         2.0                           : CWLS LOG ASCII STANDARD - VERSION 2.0
 WRAP              .         NO                            : ONE LINE PER DEPTH STEP
 DLM               .         SPACE                         : DELIMITING CHARACTER(SPACE TAB OR COMMA)
~Well Information
#_______________________________________________________________________________
#
#PARAMETER_NAME    .UNIT     VALUE                         : DESCRIPTION
#_______________________________________________________________________________
STRT               .M        900                           : First reference value
STOP               .M        1276                          : Last reference value
STEP               .M        0.2                           : Step increment
NULL               .         -9999                         : Missing value
COMP               .                                       : Company
WELL               .         1784                          : Well name
FLD                .         Узень                         : Field
LOC                .                                       : Location
CNTY               .                                       : County
STAT               .                                       : State
CTRY               .                                       : Country
SRVC               .         UPGF                          : Service Company
DATE               .         28.04.1972                    : Date
UWI                .                                       : Unique Well ID
3кв_для_заказчика  .         5                             : 
Block              .         7                             : 
Category           .         Нагнетательная                : 
Condition          .         Ликвидированная               : 
Date               .         27.04.1972                    : 
EREF               .m        85.7                          : 100.8
Gor                .         14                            : 
Gorizont           .         14                            : 14
Interpretator      .         Кайсанов Е.К                  : 
Kupol              .         Основной                      : osnovnoi
METD               .         GZ1, GZ2, GZ4, GZ5            : Метод
Mud                .                                       : 
Mud_density        .                                       : 
Mud_resistivity    .                                       : 
NGDU               .         НГДУ-2                        : 
ORIGINALWELLNAME   .         1784                          : 
SCAL               .         200                           : Масштаб по глубине
Spud_date          .         1972                          : 1961
Viscosity          .                                       : 
X                  .m        43899.5                       : 46154
Y                  .m        85571.93                      : 85761.93
YEAR               .         2019                          : 
временно           .         5                             : 
~Parameter Information Block
#_______________________________________________________________________________
#
#PARAMETER_NAME    .UNIT     VALUE                         : DESCRIPTION
#_______________________________________________________________________________
SET                .         LQC_KAZNIPI_Petrel            : 
TLFamily_CALI      .         Caliper                       : 
TLFamily_COLL      .         Net Reservoir Flag            : 
TLFamily_CSAT      .         Fluid Code                    : 
TLFamily_DEPT      .         Measured Depth                : 
TLFamily_GR        .         Russian Gamma Ray             : 
TLFamily_GZ1       .         Gradient 045                  : 
TLFamily_GZ2       .         Gradient 105                  : 
TLFamily_GZ3       .         Gradient 225                  : 
TLFamily_GZ4       .         Gradient 425                  : 
TLFamily_GZ5       .         Gradient 850                  : 
TLFamily_LLS       .         Lateral Log Resistivity       : 
TLFamily_MINV      .         Micro Gradient Resistivity    : 
TLFamily_MNOR      .         Micro Resistivity             : 
TLFamily_NGLD      .         Neutron Far                   : 
TLFamily_OGZ3      .         Gradient Inverted 225         : 
TLFamily_PHIE      .         Effective Porosity            : 
TLFamily_PHIEN     .         Effective Porosity            : 
TLFamily_PHIT      .         Porosity                      : 
TLFamily_PRMB      .         Permeability                  : 
TLFamily_PRMB_DGR  .         Permeability                  : 
TLFamily_RT        .         Formation Resistivity         : 
TLFamily_SOIL_ARCHIE .         Oil Saturation                : 
TLFamily_SOIL_DW   .         Oil Saturation                : 
TLFamily_SP        .         Spontaneous Potential         : 
TLFamily_VSH_FIN   .         Shale Volume                  : 
TLFamily_VSH_GR    .         Shale Volume                  : 
TLFamily_VSH_SP    .         Shale Volume                  : 
~Curve Information
#_______________________________________________________________________________
#
#LOGNAME           .UNIT     LOG_ID                        : DESCRIPTION
#_______________________________________________________________________________
DEPT               .M                                      : Колонка глубины 
CALI               .м                                      : Каверномер 
COLL               .unitless                               :  
CSAT               .unitless                               :  
GR                 .uR/h                                   : Гамма каротаж 
GZ1                .Ohmm                                   : A0.4M0.1N 
GZ2                .Ohmm                                   : A1.0M0.1N 
GZ3                .Ohmm                                   : A2M0.5N 
GZ4                .Ohmm                                   : A4M0.5N 
GZ5                .Ohmm                                   : A8M1N 
LLS                .Ohmm                                   : Боковой каротаж 
MINV               .Ohmm                                   : Микро-градиент зонд 
MNOR               .Ohmm                                   : Микро-потенциал зонд 
NGLD               .у.е.                                   : Показания зонда НГК-60 аппаратуры ДРСТ-3-90 
OGZ3               .Ohmm                                   : N0.5M2A 
PHIE               .v/v                                    : Описание 
PHIEN              .v/v                                    :  
PHIT               .v/v                                    : Описание 
PRMB               .mD                                     :  
PRMB_DGR           .mD                                     :  
RT                 .ohmm                                   : УЭС пласта 
SOIL_ARCHIE        .v/v                                    :  
SOIL_DW            .v/v                                    :  
SP                 .мВ                                     : Потенциал самополяризации 
VSH_FIN            .v/v                                    : Описание 
VSH_GR             .v/v                                    : Shale volume 
VSH_SP             .v/v                                    : Shale Volume 
~Ascii
# ...
1072.8     0.248      -9999      -9999      6.230295   2.059      3.321      2.857      2.737      2.5        1.931      1.373      1.329      1.045      2.092      0.123649   0.123649   0.3137805  0.8368786  1.627814   1.932      0.05257711 0.4144299  49.865     0.576156   0.5317517  0.6205603 
1073       0.249      -9999      -9999      6.283557   1.997      3.094      2.832      2.725      2.475      1.971      1.5        1.367      1.045      2.041      0.1211688  0.1211688  0.3137805  0.7528747  1.504493   1.898      0.02893626 0.4051493  49.8       0.5836719  0.5491359  0.6182078 
1073.2     0.255      -9999      -9999      6.411558   1.859      2.704      2.756      2.7        2.425      1.708      0.704      1          1.019      1.978      0.1311041  0.1311041  0.3306051  1.150135   1.244989   1.842      0.07586775 0.4306748  49.734     0.6045483  0.5932735  0.6158233 
1073.4     0.261      -9999      -9999      6.593533   1.683      2.491      2.641      2.513      2.375      1.404      0.868      0.95       1.018      1.927      0.1199016  0.1199016  0.3312522  0.7132636  0.9511921  1.783      0          0.4044325  49.8       0.6404565  0.6621981  0.6187148 
1073.6     0.265      -9999      -9999      6.77756    1.557      2.39       2.54       2.338      2.35       1.307      0.565      0.735      1.02       1.902      0.1044177  0.1044177  0.329958   0.3685111  0.7245247  1.74       0          0.3680182  49.996     0.6834556  0.7400466  0.6268647 
1073.8     0.272      -9999      -9999      6.90766    1.557      2.239      2.438      2.263      2.288      1.577      1.02       1.026      1.01       1.914      0.09963673 0.09963673 0.336429   0.3005358  0.597695   1.716      0          0.3622093  50.192     0.7175524  0.8        0.6351048 
1074       0.277      -9999      -9999      6.964205   1.557      2.189      2.324      2.25       2.25       1.856      1.664      1.253      1.027      1.94       0.08726148 0.08726148 0.3254283  0.177287   0.5497388  1.692      0          0.3169601  50.388     0.7217177  0.8        0.6434354 
1074.2     0.276      -9999      -9999      6.97505    1.582      2.05       2.298      2.275      2.2        1.487      1.266      1.278      1.003      1.99       0.1018503  0.1018503  0.3409587  0.3302917  0.5409905  1.706      0          0.3700961  50.519     0.7245708  0.8        0.6491416 
1074.4     0.267      -9999      -9999      6.976997   1.582      2.088      2.286      2.325      2.275      1.273      1.304      1.171      1.009      2.054      0.09656797 0.09656797 0.3370761  0.2636667  0.5394346  1.731      0          0.3596623  50.715     0.7288126  0.8        0.6576253 
1074.6     0.252      -9999      -9999      6.973838   1.62       2.201      2.311      2.338      2.338      1.453      1.241      1.07       1.01       2.104      0.09496905 0.09496905 0.336429   0.2462859  0.5419609  1.762      0          0.361307   50.845     0.7316968  0.8        0.6633936 
1074.8     0.247      -9999      -9999      6.946988   1.607      2.189      2.324      2.35       2.325      1.609      0.609      0.76       1.022      2.155      0.08577862 0.08577862 0.3286638  0.1664218  0.5639184  1.789      0          0.3366759  51.041     0.7360158  0.8        0.6720316 
1075       0.251      -9999      -9999      6.889877   1.607      2.164      2.324      2.362      2.3        1.322      1.31       0.552      1.027      2.18       0.08288844 0.08288844 0.3254283  0.1471219  0.613625   1.8        0          0.3277431  51.172     0.7349694  0.7919912  0.6779476 
1075.2     0.258      -9999      -9999      6.814824   1.595      2.138      2.222      2.375      2.3        0.846      1.285      0.956      1.042      2.155      0.07799011 0.07799011 0.3157218  0.1193846  0.6856707  1.75       0          0.292248   51.303     0.720399   0.7568915  0.6839063 
1075.4     0.264      -9999      -9999      6.743901   1.632      2.264      2.146      2.45       2.388      1.027      1.531      1.379      1.021      2.206      0.09488158 0.09488158 0.3293109  0.2453689  0.7615088  1.74       0          0.3481677  51.564     0.7103918  0.725154   0.6956296 
1075.6     0.261      -9999      -9999      6.699108   1.67       2.667      2.083      2.525      2.4        1.537      1.216      1.038      1.03       2.256      0.09124717 0.09124717 0.323487   0.2101365  0.8136717  1.733      0          0.3314333  51.695     0.7037571  0.7057984  0.7017158 
1075.8     0.257      -9999      -9999      6.693237   1.67       2.679      2.121      2.713      2.425      1.946      1.392      1.234      1.04       2.218      0.08417697 0.08417697 0.317016   0.1554332  0.8207682  1.735      0          0.3065704  51.826     0.7055729  0.7033002  0.7078457 
1076       0.257      -9999      -9999      6.721136   1.683      2.352      2.159      3          2.438      2.103      1.361      1.405      1.03       2.155      0.08717271 0.08717271 0.323487   0.1766169  0.7875872  1.726      0          0.3208795  52.022     0.716104   0.7152516  0.7169563 
1076.2     0.267      -9999      -9999      6.757811   1.683      2.491      2.121      2.85       2.45       1.733      1.152      1.203      1.032      2.117      0.08220587 0.08220587 0.3221928  0.1429007  0.7460012  1.695      0          0.3010116  52.153     0.7272332  0.7312719  0.7231947 
1076.4     0.281      -9999      -9999      6.766438   1.695      2.541      2.146      2.563      2.463      1.585      0.786      0.912      1.039      2.13       0.07749385 0.07749385 0.3176631  0.1168844  0.7365418  1.71       0          0.2856095  52.087     0.7277855  0.7350923  0.7204788 
1076.6     0.277      -9999      -9999      6.721391   1.695      2.327      2.171      2.563      2.487      1.676      1.411      1.411      1.006      2.155      0.1030355  0.1030355  0.3390174  0.3474162  0.7872903  1.73       0          0.3744378  51.956     0.7150965  0.7153618  0.7148313 
1076.8     0.273      -9999      -9999      6.630439   1.695      2.553      2.222      2.538      2.5        1.717      0.843      1.165      1.019      2.256      0.1018509  0.1018509  0.3306051  0.3302993  0.9006595  1.791      0          0.3729795  51.826     0.6931945  0.6771244  0.7092646 
1077       0.271      -9999      -9999      6.526      1.708      2.327      2.273      2.5        2.5        1.79       1.31       0.861      1.039      2.409      0.09665872 0.09665872 0.3176631  0.2646893  1.051116   1.871      0          0.3603769  51.695     0.6697102  0.6357313  0.703689  
1077.2     0.276      -9999      -9999      6.433846   1.733      2.44       2.311      2.5        2.475      1.297      1.797      1.247      1.022      2.561      0.1137692  0.1137692  0.3286638  0.549116   1.204613   1.944      0          0.4168641  51.63      0.6511958  0.6013141  0.7010776 
1077.4     0.28       -9999      -9999      6.361517   1.783      2.642      2.298      2.513      2.475      0.755      1.392      1.411      1.025      2.599      0.1169802  0.1169802  0.3267225  0.6297075  1.340634   1.951      0.0139234  0.4210517  51.499     0.6355829  0.5756111  0.6955547 
1077.6     0.281      -9999      -9999      6.314043   1.796      2.553      2.438      2.538      2.362      1.175      1.234      1.209      1.011      2.497      0.1296295  0.1296295  0.3357819  1.080029   1.438159   1.974      0.09717635 0.4531817  51.368     0.6247041  0.5593406  0.6900676 
1077.8     0.281      -9999      -9999      6.304434   1.746      2.365      2.413      2.538      2.388      1.158      1.013      1.026      1.041      2.383      0.1107048  0.1107048  0.3163689  0.4818404  1.458745   1.918      0          0.3933774  51.368     0.6232246  0.5561039  0.6903453 
1078       0.282      -9999      -9999      6.341473   1.658      2.289      2.337      2.45       2.388      2.005      0.735      0.868      1.031      2.307      0.114102   0.114102   0.3228399  0.5569654  1.380977   1.858      0          0.3973875  51.499     0.632539   0.5686843  0.6963937 
