~Version
 VERS              .         2.0                           : CWLS LOG ASCII STANDARD - VERSION 2.0
 WRAP              .         NO                            : ONE LINE PER DEPTH STEP
 DLM               .         SPACE                         : DELIMITING CHARACTER(SPACE TAB OR COMMA)
~Well Information
#_______________________________________________________________________________
#
#PARAMETER_NAME    .UNIT     VALUE                         : DESCRIPTION
#_______________________________________________________________________________
STRT               .M        900                           : First reference value
STOP               .M        1276                          : Last reference value
STEP               .M        0.2                           : Step increment
NULL               .         -9999                         : Missing value
COMP               .                                       : Company
WELL               .         1784                          : Well name
FLD                .         Узень                         : Field
LOC                .                                       : Location
CNTY               .                                       : County
STAT               .                                       : State
CTRY               .                                       : Country
SRVC               .         UPGF                          : Service Company
DATE               .         28.04.1972                    : Date
UWI                .                                       : Unique Well ID
3кв_для_заказчика  .         5                             : 
Block              .         7                             : 
Category           .         Нагнетательная                : 
Condition          .         Ликвидированная               : 
Date               .         27.04.1972                    : 
EREF               .m        85.7                          : 100.8
Gor                .         14                            : 
Gorizont           .         14                            : 14
Interpretator      .         Кайсанов Е.К                  : 
Kupol              .         Основной                      : osnovnoi
METD               .         GZ1, GZ2, GZ4, GZ5            : Метод
Mud                .                                       : 
Mud_density        .                                       : 
Mud_resistivity    .                                       : 
NGDU               .         НГДУ-2                        : 
ORIGINALWELLNAME   .         1784                          : 
SCAL               .         200                           : Масштаб по глубине
Spud_date          .         1972                          : 1961
Viscosity          .                                       : 
X                  .m        43899.5                       : 46154
Y                  .m        85571.93                      : 85761.93
YEAR               .         2019                          : 
временно           .         5                             : 
~Parameter Information Block
#_______________________________________________________________________________
#
#PARAMETER_NAME    .UNIT     VALUE                         : DESCRIPTION
#_______________________________________________________________________________
SET                .         LQC_KAZNIPI_Petrel            : 
TLFamily_CALI      .         Caliper                       : 
TLFamily_COLL      .         Net Reservoir Flag            : 
TLFamily_CSAT      .         Fluid Code                    : 
TLFamily_DEPT      .         Measured Depth                : 
TLFamily_GR        .         Russian Gamma Ray             : 
TLFamily_GZ1       .         Gradient 045                  : 
TLFamily_GZ2       .         Gradient 105                  : 
TLFamily_GZ3       .         Gradient 225                  : 
TLFamily_GZ4       .         Gradient 425                  : 
TLFamily_GZ5       .         Gradient 850                  : 
TLFamily_LLS       .         Lateral Log Resistivity       : 
TLFamily_MINV      .         Micro Gradient Resistivity    : 
TLFamily_MNOR      .         Micro Resistivity             : 
TLFamily_NGLD      .         Neutron Far                   : 
TLFamily_OGZ3      .         Gradient Inverted 225         : 
TLFamily_PHIE      .         Effective Porosity            : 
TLFamily_PHIEN     .         Effective Porosity            : 
TLFamily_PHIT      .         Porosity                      : 
TLFamily_PRMB      .         Permeability                  : 
TLFamily_PRMB_DGR  .         Permeability                  : 
TLFamily_RT        .         Formation Resistivity         : 
TLFamily_SOIL_ARCHIE .         Oil Saturation                : 
TLFamily_SOIL_DW   .         Oil Saturation                : 
TLFamily_SP        .         Spontaneous Potential         : 
TLFamily_VSH_FIN   .         Shale Volume                  : 
TLFamily_VSH_GR    .         Shale Volume                  : 
TLFamily_VSH_SP    .         Shale Volume                  : 
~Curve Information
#_______________________________________________________________________________
#
#LOGNAME           .UNIT     LOG_ID                        : DESCRIPTION
#_______________________________________________________________________________
DEPT               .M                                      : Колонка глубины 
CALI               .м                                      : Каверномер 
COLL               .unitless                               :  
CSAT               .unitless                               :  
GR                 .uR/h                                   : Гамма каротаж 
GZ1                .Ohmm                                   : A0.4M0.1N 
GZ2                .Ohmm                                   : A1.0M0.1N 
GZ3                .Ohmm                                   : A2M0.5N 
GZ4                .Ohmm                                   : A4M0.5N 
GZ5                .Ohmm                                   : A8M1N 
LLS                .Ohmm                                   : Боковой каротаж 
MINV               .Ohmm                                   : Микро-градиент зонд 
MNOR               .Ohmm                                   : Микро-потенциал зонд 
NGLD               .у.е.                                   : Показания зонда НГК-60 аппаратуры ДРСТ-3-90 
OGZ3               .Ohmm                                   : N0.5M2A 
PHIE               .v/v                                    : Описание 
PHIEN              .v/v                                    :  
PHIT               .v/v                                    : Описание 
PRMB               .mD                                     :  
PRMB_DGR           .mD                                     :  
RT                 .ohmm                                   : УЭС пласта 
SOIL_ARCHIE        .v/v                                    :  
SOIL_DW            .v/v                                    :  
SP                 .мВ                                     : Потенциал самополяризации 
VSH_FIN            .v/v                                    : Описание 
VSH_GR             .v/v                                    : Shale volume 
VSH_SP             .v/v                                    : Shale Volume 
~Ascii
# ...
1197       0.218      0          0          6.434189   4.244      7.887001   5.321      5.375      5.475      3.319      1.07       1.215      1.158      2.675      0.2051961  0.2051961  0.2634396  17.6965    14.99699   2.595      0.4400376  0.5234836  21.499     0.1764955  0.2147398  0.1382513 
1197.2     0.218      0          0          6.52012    3.792      7.874      4.965      4.912      5.075      2.874      1.171      1.601      1.122      2.409      0.2196537  0.2196537  0.2822964  32.78521   12.65013   2.249      0.4356234  0.5221197  23.721     0.1898263  0.2301929  0.1494597 
1197.4     0.22       0          0          6.607065   3.416      7.409      4.597      4.412      4.7        2.53       0.615      1.108      1.137      2.142      0.2033773  0.2033773  0.2744394  16.37569   10.64912   2.109      0.3780025  0.4818906  28.166     0.2153396  0.2469606  0.1837187 
1197.6     0.225      0          0          6.671893   2.989      6.377      4.254001   3.963      4.313      2.176      1.392      1.721      1.118      1.978      0.2044413  0.2044413  0.2843916  17.13587   9.366018   2.109      0.3808226  0.493643   31.63      0.2422737  0.260253   0.2242943 
1197.8     0.227      0          0          6.719937   2.562      5.321      3.886      3.575      3.925      1.923      1.102      1.43       1.115      2.142      0.2026087  0.2026087  0.285963   15.84756   8.515933   2.036      0.365546   0.4843779  32.349     0.2525889  0.2705635  0.2346142 
1198       0.228      0          0          6.783411   2.248      4.276999   3.606      3.138      3.538      1.7        0.988      1.171      1.102      2.485      0.1953968  0.1953968  0.2927724  11.65146   7.509976   1.952      0.3321237  0.4728002  36.401     0.2950777  0.2848142  0.3053412 
1198.2     0.23       0          0          6.88614    2.298      3.836      3.835      2.525      3.2        1.544      1.089      1.493      1.113      2.751      0.1791936  0.1791936  0.2870106  5.837933   6.127478   1.807      0.2532594  0.4256357  38.166     0.326718   0.3094858  0.3439502 
1198.4     0.228      0          0          7.005242   2.323      3.874      4.013      2.25       2.975      1.379      1.443      1.462      1.112      2.802      0.1667645  0.1667645  0.2875344  3.435905   4.839962   1.807      0.2050129  0.4094096  40.061     0.3659694  0.340777   0.3911618 
1198.6     0.225      0          0          7.081744   1.921      3.358      3.771      2.288      2.85       1.248      0.824      0.988      1.101      2.599      0.185568   0.185568   0.2932962  7.661755   4.15952    1.878      0.2886326  0.4516393  35.617     0.3264491  0.3625251  0.290373  
1198.8     0.221      0          0          7.076479   1.758      2.78       3.543      2.338      2.8        1.413      0.552      0.609      1.113      2.333      0.1874948  0.1874948  0.2870106  8.317956   4.203116   1.877      0.2948275  0.4467461  32.806     0.301563   0.360985   0.2421411 
1199       0.218      1          2          7.004784   1.771      2.478      3.302      2.138      2.688      1.429      0.603      1.095      1.128      2.092      0.1923004  0.1923004  0.2791536  10.21006   4.844356   1.888      0.3120896  0.4450678  28.296     0.2631915  0.3406508  0.1857322 
1199.2     0.218      1          2          6.904864   1.746      2.314      3.06       1.938      2.538      1.429      1.121      1.165      1.148      1.952      0.1912124  0.1912124  0.2686776  9.74711    5.90442    1.894      0.3097103  0.4320565  24.571     0.234743   0.3142076  0.1552784 
1199.4     0.219      1          2          6.789866   1.733      2.39       2.832      1.763      2.438      1.765      0.893      0.861      1.135      2.003      0.204864   0.204864   0.275487   17.44762   7.414583   1.888      0.3489814  0.4552798  22.153     0.2140091  0.2863048  0.1417134 
1199.6     0.218      1          2          6.644885   1.783      2.503      2.59       1.688      2.3        2.054      0.824      1.196      1.13       2.18       0.2140514  0.2140514  0.278106   25.81722   9.88063    1.926      0.3792189  0.4734134  20.192     0.1941048  0.2546305  0.1335791 
1199.8     0.217      1          2          6.458731   1.984      2.503      2.362      1.7        2.163      2.218      0.982      1.316      1.137      2.358      0.2175309  0.2175309  0.2744394  29.9473    14.28549   1.97       0.3943302  0.4788689  17.577     0.1724501  0.2190443  0.125856  
1200       0.215      1          2          6.246909   2.11       2.503      2.362      1.813      2.3        2.653      0.66       1.12       1.143      2.573      0.220645   0.220645   0.2712966  34.20095   21.73119   2.098      0.4191953  0.4947009  15.943     0.1534898  0.1845604  0.1224192 
1200.2     0.213      1          2          6.045451   2.147      2.616      2.629      2          2.438      2.924      1.095      1.443      1.151      2.764      0.2216017  0.2216017  0.2671062  35.62539   32.38594   2.235      0.4383033  0.5069367  13.786     0.1378923  0.1568141  0.1189704 
1200.4     0.211      1          2          5.886676   2.336      2.931      2.895      2.288      2.575      3.245      0.843      1.278      1.14       2.89       0.2303224  0.2303224  0.272868   51.6758    44.35254   2.39       0.4736957  0.5366797  14.44      0.1289262  0.1379185  0.1199339 
1200.6     0.219      1          2          5.778758   2.612      3.333      3.162      2.563      2.6        3.524      1.222      1.379      1.151      2.802      0.2258318  0.2258318  0.2671062  42.6688    54.92104   2.184      0.4414604  0.505215   16.597     0.125074   0.1263923  0.1237556 
1200.8     0.219      1          2          5.708827   2.901      3.736      3.492      3.038      2.588      2.678      1.127      1.569      1.135      2.637      0.2336662  0.2336662  0.275487   59.59691   63.07928   1.942      0.4270874  0.4919503  20.257     0.1267296  0.1194429  0.1340163 
1201       0.219      1          2          5.664188   3.152      4.34       3.276      3.425      2.475      1.864      1.165      1.398      1.115      2.485      0.2415924  0.2415924  0.285963   83.56699   68.90963   1.78       0.4202743  0.4879095  24.244     0.1344564  0.1152081  0.1537047 
1201.2     0.219      -9999      -9999      5.652627   2.675      3.836      3.022      3.737      2.438      1.379      1.165      1.335      1.143      2.333      0.2177738  0.2177738  0.2712966  30.25923   70.50557   1.624      0.3375157  0.4224778  30.388     0.1621902  0.1141361  0.2102443 
1201.4     0.222      -9999      -9999      5.69805    2.097      3.346      2.756      3.612      2.237      1.158      0.78       1.013      1.132      2.168      0.2151977  0.2151977  0.2770584  27.1108    64.44002   1.39       0.2799124  0.380183   33.59      0.1874566  0.1184065  0.2565067 
1201.6     0.225      -9999      -9999      5.798292   1.783      3.019      2.502      3.275      2.088      1.191      0.729      1.07       1.123      2.003      0.2082895  0.2082895  0.2817726  20.1923    52.83696   1.402      0.2621381  0.3804335  36.793     0.2226759  0.1284048  0.316947  
1201.8     0.228      -9999      -9999      5.902949   1.72       2.868      2.248      2.913      1.875      1.372      1.247      1.291      1.135      1.851      0.2036276  0.2036276  0.275487   16.55141   42.94598   1.463      0.2623376  0.3796293  35.747     0.2177558  0.1397454  0.2957663 
1202       0.232      -9999      -9999      5.963947   1.72       2.654      1.752      2.588      1.738      1.463      1.058      1.095      1.111      1.724      0.2192219  0.2192219  0.2880582  32.18689   38.05907   1.545      0.325733   0.4296724  34.375     0.208595   0.1468116  0.2703785 
1202.2     0.235      -9999      -9999      5.994283   1.695      2.377      1.841      2.35       1.55       1.478      1.241      1.291      1.122      1.673      0.2150466  0.2150466  0.2822964  26.93665   35.83988   1.58       0.3215152  0.4247493  33.59      0.2037872  0.1504577  0.2571166 
