~Version
 VERS              .         2.0                           : CWLS LOG ASCII STANDARD - VERSION 2.0
 WRAP              .         NO                            : ONE LINE PER DEPTH STEP
 DLM               .         SPACE                         : DELIMITING CHARACTER(SPACE TAB OR COMMA)
~Well Information
#_______________________________________________________________________________
#
#PARAMETER_NAME    .UNIT     VALUE                         : DESCRIPTION
#_______________________________________________________________________________
STRT               .M        900                           : First reference value
STOP               .M        1276                          : Last reference value
STEP               .M        0.2                           : Step increment
NULL               .         -9999                         : Missing value
COMP               .                                       : Company
WELL               .         1784                          : Well name
FLD                .         Узень                         : Field
LOC                .                                       : Location
CNTY               .                                       : County
STAT               .                                       : State
CTRY               .                                       : Country
SRVC               .         UPGF                          : Service Company
DATE               .         28.04.1972                    : Date
UWI                .                                       : Unique Well ID
3кв_для_заказчика  .         5                             : 
Block              .         7                             : 
Category           .         Нагнетательная                : 
Condition          .         Ликвидированная               : 
Date               .         27.04.1972                    : 
EREF               .m        85.7                          : 100.8
Gor                .         14                            : 
Gorizont           .         14                            : 14
Interpretator      .         Кайсанов Е.К                  : 
Kupol              .         Основной                      : osnovnoi
METD               .         GZ1, GZ2, GZ4, GZ5            : Метод
Mud                .                                       : 
Mud_density        .                                       : 
Mud_resistivity    .                                       : 
NGDU               .         НГДУ-2                        : 
ORIGINALWELLNAME   .         1784                          : 
SCAL               .         200                           : Масштаб по глубине
Spud_date          .         1972                          : 1961
Viscosity          .                                       : 
X                  .m        43899.5                       : 46154
Y                  .m        85571.93                      : 85761.93
YEAR               .         2019                          : 
временно           .         5                             : 
~Parameter Information Block
#_______________________________________________________________________________
#
#PARAMETER_NAME    .UNIT     VALUE                         : DESCRIPTION
#_______________________________________________________________________________
SET                .         LQC_KAZNIPI_Petrel            : 
TLFamily_CALI      .         Caliper                       : 
TLFamily_COLL      .         Net Reservoir Flag            : 
TLFamily_CSAT      .         Fluid Code                    : 
TLFamily_DEPT      .         Measured Depth                : 
TLFamily_GR        .         Russian Gamma Ray             : 
TLFamily_GZ1       .         Gradient 045                  : 
TLFamily_GZ2       .         Gradient 105                  : 
TLFamily_GZ3       .         Gradient 225                  : 
TLFamily_GZ4       .         Gradient 425                  : 
TLFamily_GZ5       .         Gradient 850                  : 
TLFamily_LLS       .         Lateral Log Resistivity       : 
TLFamily_MINV      .         Micro Gradient Resistivity    : 
TLFamily_MNOR      .         Micro Resistivity             : 
TLFamily_NGLD      .         Neutron Far                   : 
TLFamily_OGZ3      .         Gradient Inverted 225         : 
TLFamily_PHIE      .         Effective Porosity            : 
TLFamily_PHIEN     .         Effective Porosity            : 
TLFamily_PHIT      .         Porosity                      : 
TLFamily_PRMB      .         Permeability                  : 
TLFamily_PRMB_DGR  .         Permeability                  : 
TLFamily_RT        .         Formation Resistivity         : 
TLFamily_SOIL_ARCHIE .         Oil Saturation                : 
TLFamily_SOIL_DW   .         Oil Saturation                : 
TLFamily_SP        .         Spontaneous Potential         : 
TLFamily_VSH_FIN   .         Shale Volume                  : 
TLFamily_VSH_GR    .         Shale Volume                  : 
TLFamily_VSH_SP    .         Shale Volume                  : 
~Curve Information
#_______________________________________________________________________________
#
#LOGNAME           .UNIT     LOG_ID                        : DESCRIPTION
#_______________________________________________________________________________
DEPT               .M                                      : Колонка глубины 
CALI               .м                                      : Каверномер 
COLL               .unitless                               :  
CSAT               .unitless                               :  
GR                 .uR/h                                   : Гамма каротаж 
GZ1                .Ohmm                                   : A0.4M0.1N 
GZ2                .Ohmm                                   : A1.0M0.1N 
GZ3                .Ohmm                                   : A2M0.5N 
GZ4                .Ohmm                                   : A4M0.5N 
GZ5                .Ohmm                                   : A8M1N 
LLS                .Ohmm                                   : Боковой каротаж 
MINV               .Ohmm                                   : Микро-градиент зонд 
MNOR               .Ohmm                                   : Микро-потенциал зонд 
NGLD               .у.е.                                   : Показания зонда НГК-60 аппаратуры ДРСТ-3-90 
OGZ3               .Ohmm                                   : N0.5M2A 
PHIE               .v/v                                    : Описание 
PHIEN              .v/v                                    :  
PHIT               .v/v                                    : Описание 
PRMB               .mD                                     :  
PRMB_DGR           .mD                                     :  
RT                 .ohmm                                   : УЭС пласта 
SOIL_ARCHIE        .v/v                                    :  
SOIL_DW            .v/v                                    :  
SP                 .мВ                                     : Потенциал самополяризации 
VSH_FIN            .v/v                                    : Описание 
VSH_GR             .v/v                                    : Shale volume 
VSH_SP             .v/v                                    : Shale Volume 
~Ascii
# ...
1099.8     0.244      -9999      -9999      5.719752   2.26       3.774      2.997      2.713      2.7        2.275      1.689      1.575      1.077      3.943      0.1295305  0.1295305  0.2930733  1.075475   3.463912   2.724      0.2233234  0.4941039  49.603     0.4955843  0.3906528  0.6005158 
1100       0.244      -9999      -9999      5.834566   2.361      3.774      3.276      2.838      2.825      2.538      1.392      1.386      1.082      4.171      0.1212942  0.1212942  0.2898378  0.7569123  2.922894   2.936      0.2093583  0.4981219  49.669     0.5107381  0.418704   0.6027722 
1100.2     0.246      -9999      -9999      5.92921    2.386      3.874      3.619      3          2.85       2.653      1.323      1.714      1.052      4.323      0.1362759  0.1362759  0.3092508  1.43398    2.541064   3.152      0.3039493  0.5527287  49.734     0.5241662  0.4433358  0.6049966 
1100.4     0.244      -9999      -9999      5.993071   2.386      3.849      3.81       3.1        2.888      2.488      1.519      1.5        1.068      4.297      0.1226711  0.1226711  0.2988972  0.8026927  2.312025   3.231      0.2509321  0.5322678  49.8       0.5340185  0.4607696  0.6072673 
1100.6     0.245      -9999      -9999      6.036271   2.436      4.05       3.886      3          2.888      2.555      2.694      2.03       1.068      4.209      0.120292   0.120292   0.2988972  0.7252399  2.168911   3.233      0.239254   0.5292763  49.865     0.541228   0.4729502  0.6095058 
1100.8     0.247      -9999      -9999      6.069688   2.512      3.786      3.975      3          2.9        2.916      1.765      1.67       1.085      4.107      0.1077545  0.1077545  0.2878965  0.4248705  2.064311   3.232      0.1690543  0.5001009  49.865     0.5458848  0.4825929  0.6091768 
1101       0.249      -9999      -9999      6.093763   2.348      3.761      4.063      3          2.788      2.653      1.386      1.683      1.065      4.107      0.1191598  0.1191598  0.3008385  0.6910534  1.992094   3.268      0.237313   0.532155   49.93      0.5505413  0.4896615  0.6114211 
1101.2     0.246      -9999      -9999      6.106699   2.135      3.849      4.152      2.975      2.85       2.25       2.422      1.809      1.074      4.095      0.1123242  0.1123242  0.2950146  0.5162966  1.954339   3.299      0.2038593  0.5192794  49.996     0.5536072  0.4935022  0.6137122 
1101.4     0.235      -9999      -9999      6.109561   2.147      3.723      4          2.9        2.888      2.324      1.791      1.481      1.092      4.145      0.1001629  0.1001629  0.2833668  0.3073561  1.946084   3.257      0.122576   0.4849163  50.061     0.5551634  0.494356   0.6159708 
1101.6     0.227      -9999      -9999      6.094636   2.16       3.409      3.873      2.875      2.963      2.136      1.98       1.455      1.099      4.374      0.09599138 0.09599138 0.2788371  0.2572619  1.989523   3.287      0.09647073 0.4749445  50.126     0.554078   0.4899197  0.6182362 
1101.8     0.225      -9999      -9999      6.039747   2.022      3.069      3.746      2.862      3.088      1.889      1.481      1.436      1.109      4.881      0.09177473 0.09177473 0.2723661  0.2149181  2.157788   3.391      0.07753608 0.4678465  50.192     0.5472466  0.4739442  0.620549  
1102       0.242      -9999      -9999      5.929629   1.896      3.157      3.568      2.862      3.25       2.054      1.98       1.537      1.133      5.464      0.08090004 0.08090004 0.2568357  0.1351597  2.539489   3.454      0          0.4309098  50.257     0.5331383  0.4434481  0.6228287 
1102.2     0.248      -9999      -9999      5.780403   2.034      3.22       3.429      2.95       3.5        2.374      1.873      1.923      1.155      5.907      0.07259279 0.07259279 0.2425995  0.09483681 3.166695   3.471      0          0.3917745  50.322     0.5151719  0.4052284  0.6251153 
1102.4     0.242      -9999      -9999      5.631867   2.059      3.748      3.429      3.45       3.838      2.612      1.14       1.556      1.166      5.743      0.07126735 0.07126735 0.2354814  0.08962445 3.944779   3.435      0          0.3735393  50.322     0.4976183  0.3704574  0.6247792 
1102.6     0.236      -9999      -9999      5.515442   2.436      4.73       3.581      3.938      4.063      3.819      2.896      2.738      1.19       5.438001   0.05950249 0.05950249 0.219951   0.05426413 4.686099   3.455      0          0.3122804  50.388     0.4862075  0.3453023  0.6271126 
1102.8     0.232      -9999      -9999      5.436965   3.278      5.119      3.848      4.513      4.287      3.819      2.245      1.961      1.219      5.096      0.04299472 0.04299472 0.2011851  0.02683791 5.262886   3.508      0          0.2107768  50.453     0.4793648  0.3293172  0.6294125 
1103       0.231      -9999      -9999      5.391714   3.265      5.069      4.254001   5.013      4.513      6.406      3.737      1.5        1.236      4.651999   0.03307158 0.03307158 0.1901844  0.01757714 5.627193   3.555      0          0.1334023  50.519     0.4760996  0.3204387  0.6317604 
1103.2     0.226      -9999      -9999      5.390403   3.642      6.491001   4.813001   5.212999   4.488      5.545      1.525      3.787      1.225      4.057      0.03984964 0.03984964 0.1973025  0.02346898 5.638118   3.522      0          0.1869186  50.584     0.4771298  0.320185   0.6340746 
1103.4     0.222      -9999      -9999      5.455288   3.88       6.955999   5.193999   5.125      4.412      4.453      3.787      3.768      1.198      3.575      0.05393711 0.05393711 0.2147742  0.04279849 5.122163   3.388      0          0.2751259  50.78      0.4873852  0.332982   0.6417885 
1103.6     0.223      -9999      -9999      5.584456   3.478      6.415      5.473      5.275      4.162      4.485      1.986      2.302      1.133      3.119      0.0924867  0.0924867  0.2568357  0.2215442  4.231346   3.179      0.05491819 0.4314102  50.649     0.4980272  0.3599997  0.6360548 
1103.8     0.234      -9999      -9999      5.736      3.039      5.899      5.473      4.95       3.925      3.73       1.317      1.259      1.083      2.802      0.1200806  0.1200806  0.2891907  0.7187299  3.38166    2.965      0.2066052  0.4981743  50.519     0.512455   0.3945052  0.6304049 
1104       0.252      -9999      -9999      5.864569   2.662      5.346      5.130001   4.488      3.713      2.965      1.001      1.076      1.067      2.662      0.1261099  0.1261099  0.2995443  0.9294884  2.796016   2.804      0.2170584  0.5033187  50.388     0.5255587  0.4263606  0.6247568 
1104.2     0.267      -9999      -9999      5.963248   2.386      5.447      4.965      4.1        3.6        2.547      1.279      1.468      1.077      2.586      0.1162435  0.1162435  0.2930733  0.610231   2.416297   2.721      0.1521553  0.4746201  50.257     0.5358478  0.4525444  0.6191512 
1104.4     0.261      -9999      -9999      6.054922   2.574      5.283      4.775      3.888      3.463      2.587      1.494      1.588      1.102      2.561      0.09629894 0.09629894 0.2768958  0.2606588  2.109895   2.667      0.005867292 0.4151622  50.192     0.5472632  0.478308   0.6162184 
1104.6     0.252      -9999      -9999      6.151665   2.499      4.855      4.775      3.838      3.425      2.144      1.114      1.272      1.09       2.535      0.1002295  0.1002295  0.284661   0.3082312  1.828584   2.649      0.033748   0.4305936  50.061     0.5588831  0.5070886  0.6106777 
1104.8     0.241      -9999      -9999      6.234532   2.738      4.981      5.105      3.85       3.388      1.725      1.645      1.487      1.078      2.485      0.1046078  0.1046078  0.2924262  0.3715124  1.617645   2.674      0.07008608 0.4503601  49.93      0.5691466  0.5331141  0.6051791 
1105       0.245      -9999      -9999      6.268972   2.512      4.629      5.359      3.813      3.275      2.562      1.083      1.386      1.054      2.434      0.1196072  0.1196072  0.3079566  0.7043664  1.537303   2.678      0.165135   0.4911905  49.734     0.5707556  0.5443197  0.5971914 
