~Version
 VERS              .         2.0                           : CWLS LOG ASCII STANDARD - VERSION 2.0
 WRAP              .         NO                            : ONE LINE PER DEPTH STEP
 DLM               .         SPACE                         : DELIMITING CHARACTER(SPACE TAB OR COMMA)
~Well Information
#_______________________________________________________________________________
#
#PARAMETER_NAME    .UNIT     VALUE                         : DESCRIPTION
#_______________________________________________________________________________
STRT               .M        900                           : First reference value
STOP               .M        1276                          : Last reference value
STEP               .M        0.2                           : Step increment
NULL               .         -9999                         : Missing value
COMP               .                                       : Company
WELL               .         1784                          : Well name
FLD                .         Узень                         : Field
LOC                .                                       : Location
CNTY               .                                       : County
STAT               .                                       : State
CTRY               .                                       : Country
SRVC               .         UPGF                          : Service Company
DATE               .         28.04.1972                    : Date
UWI                .                                       : Unique Well ID
3кв_для_заказчика  .         5                             : 
Block              .         7                             : 
Category           .         Нагнетательная                : 
Condition          .         Ликвидированная               : 
Date               .         27.04.1972                    : 
EREF               .m        85.7                          : 100.8
Gor                .         14                            : 
Gorizont           .         14                            : 14
Interpretator      .         Кайсанов Е.К                  : 
Kupol              .         Основной                      : osnovnoi
METD               .         GZ1, GZ2, GZ4, GZ5            : Метод
Mud                .                                       : 
Mud_density        .                                       : 
Mud_resistivity    .                                       : 
NGDU               .         НГДУ-2                        : 
ORIGINALWELLNAME   .         1784                          : 
SCAL               .         200                           : Масштаб по глубине
Spud_date          .         1972                          : 1961
Viscosity          .                                       : 
X                  .m        43899.5                       : 46154
Y                  .m        85571.93                      : 85761.93
YEAR               .         2019                          : 
временно           .         5                             : 
~Parameter Information Block
#_______________________________________________________________________________
#
#PARAMETER_NAME    .UNIT     VALUE                         : DESCRIPTION
#_______________________________________________________________________________
SET                .         LQC_KAZNIPI_Petrel            : 
TLFamily_CALI      .         Caliper                       : 
TLFamily_COLL      .         Net Reservoir Flag            : 
TLFamily_CSAT      .         Fluid Code                    : 
TLFamily_DEPT      .         Measured Depth                : 
TLFamily_GR        .         Russian Gamma Ray             : 
TLFamily_GZ1       .         Gradient 045                  : 
TLFamily_GZ2       .         Gradient 105                  : 
TLFamily_GZ3       .         Gradient 225                  : 
TLFamily_GZ4       .         Gradient 425                  : 
TLFamily_GZ5       .         Gradient 850                  : 
TLFamily_LLS       .         Lateral Log Resistivity       : 
TLFamily_MINV      .         Micro Gradient Resistivity    : 
TLFamily_MNOR      .         Micro Resistivity             : 
TLFamily_NGLD      .         Neutron Far                   : 
TLFamily_OGZ3      .         Gradient Inverted 225         : 
TLFamily_PHIE      .         Effective Porosity            : 
TLFamily_PHIEN     .         Effective Porosity            : 
TLFamily_PHIT      .         Porosity                      : 
TLFamily_PRMB      .         Permeability                  : 
TLFamily_PRMB_DGR  .         Permeability                  : 
TLFamily_RT        .         Formation Resistivity         : 
TLFamily_SOIL_ARCHIE .         Oil Saturation                : 
TLFamily_SOIL_DW   .         Oil Saturation                : 
TLFamily_SP        .         Spontaneous Potential         : 
TLFamily_VSH_FIN   .         Shale Volume                  : 
TLFamily_VSH_GR    .         Shale Volume                  : 
TLFamily_VSH_SP    .         Shale Volume                  : 
~Curve Information
#_______________________________________________________________________________
#
#LOGNAME           .UNIT     LOG_ID                        : DESCRIPTION
#_______________________________________________________________________________
DEPT               .M                                      : Колонка глубины 
CALI               .м                                      : Каверномер 
COLL               .unitless                               :  
CSAT               .unitless                               :  
GR                 .uR/h                                   : Гамма каротаж 
GZ1                .Ohmm                                   : A0.4M0.1N 
GZ2                .Ohmm                                   : A1.0M0.1N 
GZ3                .Ohmm                                   : A2M0.5N 
GZ4                .Ohmm                                   : A4M0.5N 
GZ5                .Ohmm                                   : A8M1N 
LLS                .Ohmm                                   : Боковой каротаж 
MINV               .Ohmm                                   : Микро-градиент зонд 
MNOR               .Ohmm                                   : Микро-потенциал зонд 
NGLD               .у.е.                                   : Показания зонда НГК-60 аппаратуры ДРСТ-3-90 
OGZ3               .Ohmm                                   : N0.5M2A 
PHIE               .v/v                                    : Описание 
PHIEN              .v/v                                    :  
PHIT               .v/v                                    : Описание 
PRMB               .mD                                     :  
PRMB_DGR           .mD                                     :  
RT                 .ohmm                                   : УЭС пласта 
SOIL_ARCHIE        .v/v                                    :  
SOIL_DW            .v/v                                    :  
SP                 .мВ                                     : Потенциал самополяризации 
VSH_FIN            .v/v                                    : Описание 
VSH_GR             .v/v                                    : Shale volume 
VSH_SP             .v/v                                    : Shale Volume 
~Ascii
900.0      0.221      -9999      -9999      -9999      2.336      3.044      4.279      2.7        2.775      2.3        1.114      1.12       1.133      1.965      1          1          0.2668357  9323613800000000.0000000 -9999      2.155      0.8440305  0.52927    46.858     -4999.239  -9999      0.5221909 
900.2      0.221      -9999      -9999      -9999      2.248      2.792      3.975      2.325      2.6        2.308      1.26       1.076      1.145      1.724      1          1          0.2590705  9323613800000000.0000000 -9999      1.924      0.8355071  0.48688    46.858     -4999.239  -9999      0.5221909 
900.4      0.221      -9999      -9999      -9999      2.085      2.956      3.67       1.988      2.35       2.054      1.051      1.026      1.155      1.864      1          1          0.2525995  9323613800000000.0000000 -9999      1.978      0.8376299  0.4809684  46.858     -4999.239  -9999      0.5221909 
900.6      0.22       -9999      -9999      -9999      1.946      2.943      3.365      1.813      2.375      1.898      1.222      1.133      1.154      2.256      1          1          0.2532466  9323613800000000.0000000 -9999      2.161      0.8442339  0.5046998  46.858     -4999.239  -9999      0.5221909 
900.8      0.22       -9999      -9999      -9999      1.808      2.818      3.06       1.8        2.838      1.898      1.077      1.095      1.165      2.738      1          1          0.2461285  9323613800000000.0000000 -9999      2.312      0.8490934  0.5072988  46.858     -4999.239  -9999      0.5221909 
901        0.22       -9999      -9999      4.980847   1.695      2.604      2.756      1.925      3.563      1.931      1.039      1.051      1.161      3.638      0.1167198  0.1167198  0.2487169  0.4065297  7.983489   2.509      0.0569906  0.3623022  46.858     0.3999911  0.2777914  0.5221909 
901.2      0.22       -9999      -9999      5.033614   1.695      2.943      2.451      2.45       4.313      2.103      1.178      1.215      1.16       4.651999   0.1158628  0.1158628  0.249364   0.3919384  7.237037   2.568      0.06121371 0.3689317  46.793     0.4045492  0.2891524  0.519946  
901.4      0.22       -9999      -9999      5.103447   2.059      3.824      2.146      3.65       4.813001   3.565      1.614      1.108      1.191      4.868      0.09320337 0.09320337 0.2293039  0.1491113  6.355348   2.383      0          0.2512997  46.793     0.4124259  0.3049057  0.519946  
901.6      0.22       -9999      -9999      5.187938   2.712      5.283      5.765      5.987999   5.075      4.46       2.315      2.593      1.194      4.437      0.08792721 0.08792721 0.2273626  0.1190648  5.430954   4.012      0.03172741 0.4074611  46.793     0.4225315  0.325117   0.519946  
901.8      0.22       -9999      -9999      5.296418   3.265      4.679      5.193999   6.6        4.725      3.73       2.005      2.125      1.158      3.993      0.106615   0.106615   0.2506582  0.2641957  4.438446   3.612      0.1399811  0.4528746  46.793     0.4364947  0.3530434  0.519946  
902        0.22       -9999      -9999      5.440642   2.888      4          4.711      5.725      4.15       2.703      1.083      1.493      1.129      3.461      0.1186361  0.1186361  0.2694241  0.4411499  3.393956   3.192      0.1695963  0.4654441  46.793     0.4569335  0.393921   0.519946  
902.2      0.22       -9999      -9999      5.616664   2.373      3.321      4.229      4.650001   3.575      2.087      1.165      1.215      1.132      2.89       0.1055182  0.1055182  0.2674828  0.2521225  2.446195   2.747      0.01324487 0.3956661  47.12      0.4908018  0.4502775  0.531326  
902.4      0.22       -9999      -9999      5.790357   2.047      2.918      3.759      3.225      3.013      1.938      1.159      1.165      1.119      3.41       0.1003732  0.1003732  0.2758951  0.2024478  1.770754   2.861      0          0.4090087  47.643     0.5318847  0.5137867  0.5499827 
902.6      0.22       -9999      -9999      5.907507   1.959      3.019      3.289      2.45       2.5        2.07       1.133      1.133      1.14       5.666999   0.07572181 0.07572181 0.262306   0.07074726 1.423993   3.33       0          0.3764805  48.166     0.5654067  0.561606   0.5692073 
902.8      0.22       -9999      -9999      5.932106   1.859      2.969      2.806      2.188      3.05       2.218      1.108      1.114      1.144      6.753      0.06812459 0.06812459 0.2597176  0.0511671  1.360297   3.172      0          0.334477   48.688     0.5805848  0.5721989  0.5889705 
903        0.22       -9999      -9999      5.875741   1.783      2.893      2.337      2.463      3.612      3.376      1.114      1.095      1.148      7.225999   0.06612965 0.06612965 0.2571292  0.04699371 1.510683   2.825      0          0.28323    49.211     0.5787865  0.548216   0.6093569 
903.2      0.22       -9999      -9999      5.781661   2.097      3.522      1.854      3.125      4.188      3.943      1.026      1.07       1.138      11.473     0.07581341 0.07581341 0.2636002  0.0710242  1.799632   2.554      0          0.2906609  49.669     0.5690508  0.5104041  0.6276977 
903.4      0.227      -9999      -9999      5.682233   2.951      4.415      3.441      4.05       4.75       6.899      0.994      2.662      1.141      10.205     0.07644969 0.07644969 0.2616589  0.07297798 2.165288   4.117      0          0.4400714  50.192     0.56124    0.4732732  0.6492068 
903.6      0.239      -9999      -9999      5.577507   3.717      5.623      4.851      4.8        4.975      5.257      1.765      1.639      1.111      8.937      0.09818462 0.09818462 0.2810719  0.1844062  2.63104    5.031      0.2090738  0.5562437  50.715     0.554204   0.4370812  0.6713269 
903.8      0.251      -9999      -9999      5.451856   2.926      5.182001   4.838      3.813      4.088      4.025      0.533      0.457      1.024      7.732999   0.1573028  0.1573028  0.3373696  2.295028   3.323889   4.762      0.4616596  0.6579162  51.237     0.5456568  0.3972908  0.6940229 
904        0.263      -9999      -9999      5.306612   2.097      3.925      4.406      2.9        3.2        3.015      0.78       0.817      0.997      4.906      0.1777668  0.1777668  0.3548413  5.493271   4.355061   3.714      0.456183   0.6416669  51.76      0.5365893  0.3557882  0.7173905 
904.2      0.351      -9999      -9999      5.174712   1.519      2.642      3.975      2.025      2.225      2.094      0.356      0.508      1.019      3.588      0.1651667  0.1651667  0.3406051  3.209565   5.566241   3.017      0.3608254  0.5806063  52.283     0.5316314  0.3218669  0.741396  
904.4      0.324      -9999      -9999      5.096404   1.256      2.34       3.543      1.675      2.1        1.898      1.165      1.076      1.037      2.535      0.1540554  0.1540554  0.3289573  1.998196   6.439171   2.364      0.2384999  0.5028945  52.61      0.5300058  0.3032787  0.7567329 
904.6      0.297      -9999      -9999      5.077092   1.168      2.692      3.124      1.663      2.075      1.996      0.584      0.621      1.048      2.789      0.1461291  0.1461291  0.3218392  1.425029   6.674716   2.358      0.201697   0.4852838  52.806     0.5324548  0.298862   0.7660477 
904.8      0.27       -9999      -9999      5.079443   1.206      3.057      2.679      1.738      2.125      2.079      0.994      0.729      1.055      3.524      0.1399592  0.1399592  0.3173095  1.095322   6.645594   2.435      0.1835366  0.4806581  53.002     0.5374253  0.2993961  0.7754545 
905        0.24       -9999      -9999      5.06208    1.231      3.157      2.248      1.913      2.95       2.168      0.47       0.394      1.06       5.248      0.1394345  0.1394345  0.314074   1.071082   6.863755   2.518      0.1936446  0.4852767  52.741     0.5292108  0.2954732  0.7629485 
905.2      0.241      -9999      -9999      5.013931   1.218      2.868      4.419      2.275      4.2        4.304      0.969      0.741      1.088      5.768      0.1251109  0.1251109  0.2959552  0.5814547  7.506939   4.003      0.2870652  0.5588277  52.479     0.5177098  0.2848613  0.7505583 
