~Version
 VERS              .         2.0                           : CWLS LOG ASCII STANDARD - VERSION 2.0
 WRAP              .         NO                            : ONE LINE PER DEPTH STEP
 DLM               .         SPACE                         : DELIMITING CHARACTER(SPACE TAB OR COMMA)
~Well Information
#_______________________________________________________________________________
#
#PARAMETER_NAME    .UNIT     VALUE                         : DESCRIPTION
#_______________________________________________________________________________
STRT               .M        900                           : First reference value
STOP               .M        1276                          : Last reference value
STEP               .M        0.2                           : Step increment
NULL               .         -9999                         : Missing value
COMP               .                                       : Company
WELL               .         1784                          : Well name
FLD                .         Узень                         : Field
LOC                .                                       : Location
CNTY               .                                       : County
STAT               .                                       : State
CTRY               .                                       : Country
SRVC               .         UPGF                          : Service Company
DATE               .         28.04.1972                    : Date
UWI                .                                       : Unique Well ID
3кв_для_заказчика  .         5                             : 
Block              .         7                             : 
Category           .         Нагнетательная                : 
Condition          .         Ликвидированная               : 
Date               .         27.04.1972                    : 
EREF               .m        85.7                          : 100.8
Gor                .         14                            : 
Gorizont           .         14                            : 14
Interpretator      .         Кайсанов Е.К                  : 
Kupol              .         Основной                      : osnovnoi
METD               .         GZ1, GZ2, GZ4, GZ5            : Метод
Mud                .                                       : 
Mud_density        .                                       : 
Mud_resistivity    .                                       : 
NGDU               .         НГДУ-2                        : 
ORIGINALWELLNAME   .         1784                          : 
SCAL               .         200                           : Масштаб по глубине
Spud_date          .         1972                          : 1961
Viscosity          .                                       : 
X                  .m        43899.5                       : 46154
Y                  .m        85571.93                      : 85761.93
YEAR               .         2019                          : 
временно           .         5                             : 
~Parameter Information Block
#_______________________________________________________________________________
#
#PARAMETER_NAME    .UNIT     VALUE                         : DESCRIPTION
#_______________________________________________________________________________
SET                .         LQC_KAZNIPI_Petrel            : 
TLFamily_CALI      .         Caliper                       : 
TLFamily_COLL      .         Net Reservoir Flag            : 
TLFamily_CSAT      .         Fluid Code                    : 
TLFamily_DEPT      .         Measured Depth                : 
TLFamily_GR        .         Russian Gamma Ray             : 
TLFamily_GZ1       .         Gradient 045                  : 
TLFamily_GZ2       .         Gradient 105                  : 
TLFamily_GZ3       .         Gradient 225                  : 
TLFamily_GZ4       .         Gradient 425                  : 
TLFamily_GZ5       .         Gradient 850                  : 
TLFamily_LLS       .         Lateral Log Resistivity       : 
TLFamily_MINV      .         Micro Gradient Resistivity    : 
TLFamily_MNOR      .         Micro Resistivity             : 
TLFamily_NGLD      .         Neutron Far                   : 
TLFamily_OGZ3      .         Gradient Inverted 225         : 
TLFamily_PHIE      .         Effective Porosity            : 
TLFamily_PHIEN     .         Effective Porosity            : 
TLFamily_PHIT      .         Porosity                      : 
TLFamily_PRMB      .         Permeability                  : 
TLFamily_PRMB_DGR  .         Permeability                  : 
TLFamily_RT        .         Formation Resistivity         : 
TLFamily_SOIL_ARCHIE .         Oil Saturation                : 
TLFamily_SOIL_DW   .         Oil Saturation                : 
TLFamily_SP        .         Spontaneous Potential         : 
TLFamily_VSH_FIN   .         Shale Volume                  : 
TLFamily_VSH_GR    .         Shale Volume                  : 
TLFamily_VSH_SP    .         Shale Volume                  : 
~Curve Information
#_______________________________________________________________________________
#
#LOGNAME           .UNIT     LOG_ID                        : DESCRIPTION
#_______________________________________________________________________________
DEPT               .M                                      : Колонка глубины 
CALI               .м                                      : Каверномер 
COLL               .unitless                               :  
CSAT               .unitless                               :  
GR                 .uR/h                                   : Гамма каротаж 
GZ1                .Ohmm                                   : A0.4M0.1N 
GZ2                .Ohmm                                   : A1.0M0.1N 
GZ3                .Ohmm                                   : A2M0.5N 
GZ4                .Ohmm                                   : A4M0.5N 
GZ5                .Ohmm                                   : A8M1N 
LLS                .Ohmm                                   : Боковой каротаж 
MINV               .Ohmm                                   : Микро-градиент зонд 
MNOR               .Ohmm                                   : Микро-потенциал зонд 
NGLD               .у.е.                                   : Показания зонда НГК-60 аппаратуры ДРСТ-3-90 
OGZ3               .Ohmm                                   : N0.5M2A 
PHIE               .v/v                                    : Описание 
PHIEN              .v/v                                    :  
PHIT               .v/v                                    : Описание 
PRMB               .mD                                     :  
PRMB_DGR           .mD                                     :  
RT                 .ohmm                                   : УЭС пласта 
SOIL_ARCHIE        .v/v                                    :  
SOIL_DW            .v/v                                    :  
SP                 .мВ                                     : Потенциал самополяризации 
VSH_FIN            .v/v                                    : Описание 
VSH_GR             .v/v                                    : Shale volume 
VSH_SP             .v/v                                    : Shale Volume 
~Ascii
# ...
1245.6     0.208      1          3          6.564101   2.022      2.189      1.384      1.675      1.75       1.577      1.234      1.398      1.146      1.23       0.1903253  0.1903253  0.2697252  9.385214   11.59489   1.091      0.1021478  0.251948   26.336     0.2406058  0.2385276  0.2426839 
1245.8     0.209      1          3          6.405098   2.085      2.239      1.359      1.712      1.75       1.478      1.399      1.474      1.125      1.103      0.2114581  0.2114581  0.280725   23.11405   15.88639   1.062      0.1704006  0.2910812  23.983     0.2098996  0.2097469  0.2100522 
1246       0.21       1          3          6.264355   2.172      2.176      1.346      1.738      1.738      1.668      1.285      1.474      1.127      0.976      0.218547   0.218547   0.2796774  31.27368   20.99315   1.042      0.1866628  0.2926303  21.564     0.1852436  0.1871827  0.1833045 
1246.2     0.211      1          3          6.178185   2.072      2.088      1.333      1.725      1.738      1.537      1.152      1.335      1.155      1.09       0.2093783  0.2093783  0.265011   21.15202   24.89958   0.974      0.1285642  0.2314406  19.146     0.168584   0.1745832  0.1625848 
1246.4     0.211      1          3          6.153944   1.871      1.937      1.308      1.688      1.738      1.388      0.988      1.285      1.145      1.978      0.2177464  0.2177464  0.270249   30.22387   26.12415   0.905      0.1282606  0.2245937  16.728     0.1590987  0.171194   0.1470035 
1246.6     0.212      1          3          6.167624   1.645      1.774      1.663      1.725      1.725      1.463      0.83       1.108      1.169      2.662      0.2075301  0.2075301  0.2576778  19.54873   25.42584   0.959      0.1153895  0.2098512  12.937     0.1519628  0.1730985  0.130827  
1246.8     0.213      1          3          6.190529   1.432      2.377      2.26       1.988      1.85       1.257      0.66       0.899      1.185      3.968      0.1975572  0.1975572  0.249297   12.77605   24.29828   1.26       0.1876408  0.2825925  14.702     0.1567874  0.1763346  0.1372402 
1247       0.214      6          6          6.219637   1.846      3.006      2.946      2.513      2.1        1.248      1.045      1.165      1.205      3.676      0.1846729  0.1846729  0.238821   7.374767   22.93717   1.971      0.3016508  0.3950195  16.858     0.1640851  0.1805346  0.1476356 
1247.2     0.215      6          6          6.263951   2.675      2.994      2.717      3.237      2.35       3.918      2.997      3.003      1.219      3.385      0.1739772  0.1739772  0.2314878  4.673458   21.00997   2.617      0.3560304  0.4518239  19.015     0.1742745  0.1871215  0.1614274 
1247.4     0.214      6          6          6.315188   3.353      2.642      2.489      3.725      2.612      3.458      2.125      2.409      1.234      3.08       0.1613668  0.1613668  0.2236308  2.729371   18.98262   2.412      0.2855844  0.3988081  21.499     0.1886789  0.1950378  0.18232   
1247.6     0.212      0          0          6.357745   2.989      2.516      2.26       3.3        2.513      2.538      1.405      1.79       1.226      2.789      0.1642293  0.1642293  0.2278212  3.083779   17.4483    2.1        0.2491904  0.3672869  21.63      0.1927028  0.2018668  0.1835387 
1247.8     0.21       0          0          6.395057   2.537      2.692      2.019      2.725      2.225      1.758      0.723      1.196      1.203      2.497      0.1726498  0.1726498  0.2398686  4.416231   16.20547   1.786      0.2244254  0.3479624  23.133     0.2036933  0.2080506  0.199336  
1248       0.209      0          0          6.44528    2.185      3.208      1.79       2.188      1.95       1.75       0.969      1.272      1.109      2.066      0.2173005  0.2173005  0.2891058  29.65448   14.67118   1.534      0.3182614  0.4267237  24.702     0.2175919  0.2166744  0.2185094 
1248.2     0.209      0          0          6.513553   2.072      2.906      1.562      1.8        1.688      1.782      0.704      1.266      1.089      1.749      0.222258   0.222258   0.2995818  36.63663   12.81572   1.237      0.2604957  0.3805548  26.205     0.2343146  0.2289738  0.2396553 
1248.4     0.21       0          0          6.584705   2.047      2.667      1.333      1.55       1.413      1.626      0.988      1.158      1.125      1.572      0.1971907  0.1971907  0.280725   12.5779    11.13128   1.062      0.1183597  0.2701417  27.708     0.2531343  0.2425353  0.2637333 
1248.6     0.212      0          0          6.63869    1.946      2.566      1.105      1.425      1.363      1.503      0.988      1.436      1.145      1.661      0.1804381  0.1804381  0.270249   6.156157   10.0026    1.058      0.04579258 0.2243502  29.211     0.2721542  0.253358   0.2909504 
1248.8     0.213      0          0          6.668027   1.884      2.403      1.054      1.388      1.363      1.544      0.881      1.297      1.123      1.775      0.1859115  0.1859115  0.2817726  7.774827   9.437998   1.187      0.1191687  0.2942294  30.715     0.290488   0.2594407  0.3215353 
1249       0.214      0          0          6.680099   1.909      2.465      1.117      1.425      1.375      1.782      0.893      1.323      1.13       1.876      0.1761953  0.1761953  0.278106   5.137158   9.215031   1.574      0.1914884  0.3686517  32.218     0.3088202  0.2619859  0.3556545 
1249.2     0.213      0          0          6.683289   1.959      2.503      1.283      1.413      1.5        1.807      1.007      1.038      1.125      2.016      0.1721667  0.1721667  0.280725   4.326157   9.157004   1.546      0.1680575  0.3605315  33.786     0.3289647  0.2626626  0.3952668 
1249.4     0.213      0          0          6.67278    2.009      2.428      1.79       1.4        1.638      1.676      0.622      1.525      1.156      1.914      0.1493567  0.1493567  0.2644872  1.635333   9.349589   1.455      0.03124098 0.2768278  35.29      0.3488804  0.2604397  0.437321  
1249.6     0.214      0          0          6.633001   1.972      2.44       2.527      1.4        1.788      1.602      0.9        1.335      1.192      1.775      0.1266371  0.1266371  0.2456304  0.6205605  10.11593   1.43       0          0.1858553  36.336     0.3605857  0.2521952  0.4689763 
1249.8     0.216      0          0          6.55632    1.871      2.465      2.362      1.4        1.825      1.438      1.083      1.12       1.181      1.635      0.1366053  0.1366053  0.2513922  0.9493344  11.77496   1.401      0          0.2127315  36.009     0.3478392  0.2370313  0.4586471 
1250       0.216      0          0          6.455901   1.859      2.428      2.235      1.388      1.825      1.569      1.14       1.082      1.17       1.534      0.1493323  0.1493323  0.257154   1.633634   14.3658    1.407      0.01573028 0.2520091  35.224     0.3267324  0.2185435  0.4349214 
1250.2     0.215      0          0          6.352379   1.846      2.365      2.095      1.388      1.888      1.537      1.19       1.297      1.17       1.559      0.1538118  0.1538118  0.257154   1.977544   17.63472   1.419      0.04455907 0.2639555  34.898     0.3131582  0.2009927  0.4253236 
1250.4     0.214      1          3          6.249751   1.833      2.39       1.956      1.375      1.875      1.495      0.925      1.146      1.171      1.585      0.162165   0.162165   0.2566302  2.823889   21.60919   1.437      0.0929497  0.2831853  33.525     0.2862581  0.1849851  0.3875312 
1250.6     0.213      1          3          6.138679   1.821      2.453      1.994      1.363      1.9        1.379      0.817      1          1.176      1.597      0.1696223  0.1696223  0.2540112  3.881282   26.92597   1.436      0.1274966  0.291703   31.695     0.2557239  0.1690937  0.342354  
1250.8     0.213      1          3          6.022705   1.808      2.579      2.095      1.363      1.888      1.413      1.234      1.209      1.166      1.572      0.1908734  0.1908734  0.2592492  9.607186   33.87824   1.435      0.2124792  0.3332786  27.577     0.2071994  0.153956   0.2604429 
