~Version
 VERS              .         2.0                           : CWLS LOG ASCII STANDARD - VERSION 2.0
 WRAP              .         NO                            : ONE LINE PER DEPTH STEP
 DLM               .         SPACE                         : DELIMITING CHARACTER(SPACE TAB OR COMMA)
~Well Information
#_______________________________________________________________________________
#
#PARAMETER_NAME    .UNIT     VALUE                         : DESCRIPTION
#_______________________________________________________________________________
STRT               .M        900                           : First reference value
STOP               .M        1276                          : Last reference value
STEP               .M        0.2                           : Step increment
NULL               .         -9999                         : Missing value
COMP               .                                       : Company
WELL               .         1784                          : Well name
FLD                .         Узень                         : Field
LOC                .                                       : Location
CNTY               .                                       : County
STAT               .                                       : State
CTRY               .                                       : Country
SRVC               .         UPGF                          : Service Company
DATE               .         28.04.1972                    : Date
UWI                .                                       : Unique Well ID
3кв_для_заказчика  .         5                             : 
Block              .         7                             : 
Category           .         Нагнетательная                : 
Condition          .         Ликвидированная               : 
Date               .         27.04.1972                    : 
EREF               .m        85.7                          : 100.8
Gor                .         14                            : 
Gorizont           .         14                            : 14
Interpretator      .         Кайсанов Е.К                  : 
Kupol              .         Основной                      : osnovnoi
METD               .         GZ1, GZ2, GZ4, GZ5            : Метод
Mud                .                                       : 
Mud_density        .                                       : 
Mud_resistivity    .                                       : 
NGDU               .         НГДУ-2                        : 
ORIGINALWELLNAME   .         1784                          : 
SCAL               .         200                           : Масштаб по глубине
Spud_date          .         1972                          : 1961
Viscosity          .                                       : 
X                  .m        43899.5                       : 46154
Y                  .m        85571.93                      : 85761.93
YEAR               .         2019                          : 
временно           .         5                             : 
~Parameter Information Block
#_______________________________________________________________________________
#
#PARAMETER_NAME    .UNIT     VALUE                         : DESCRIPTION
#_______________________________________________________________________________
SET                .         LQC_KAZNIPI_Petrel            : 
TLFamily_CALI      .         Caliper                       : 
TLFamily_COLL      .         Net Reservoir Flag            : 
TLFamily_CSAT      .         Fluid Code                    : 
TLFamily_DEPT      .         Measured Depth                : 
TLFamily_GR        .         Russian Gamma Ray             : 
TLFamily_GZ1       .         Gradient 045                  : 
TLFamily_GZ2       .         Gradient 105                  : 
TLFamily_GZ3       .         Gradient 225                  : 
TLFamily_GZ4       .         Gradient 425                  : 
TLFamily_GZ5       .         Gradient 850                  : 
TLFamily_LLS       .         Lateral Log Resistivity       : 
TLFamily_MINV      .         Micro Gradient Resistivity    : 
TLFamily_MNOR      .         Micro Resistivity             : 
TLFamily_NGLD      .         Neutron Far                   : 
TLFamily_OGZ3      .         Gradient Inverted 225         : 
TLFamily_PHIE      .         Effective Porosity            : 
TLFamily_PHIEN     .         Effective Porosity            : 
TLFamily_PHIT      .         Porosity                      : 
TLFamily_PRMB      .         Permeability                  : 
TLFamily_PRMB_DGR  .         Permeability                  : 
TLFamily_RT        .         Formation Resistivity         : 
TLFamily_SOIL_ARCHIE .         Oil Saturation                : 
TLFamily_SOIL_DW   .         Oil Saturation                : 
TLFamily_SP        .         Spontaneous Potential         : 
TLFamily_VSH_FIN   .         Shale Volume                  : 
TLFamily_VSH_GR    .         Shale Volume                  : 
TLFamily_VSH_SP    .         Shale Volume                  : 
~Curve Information
#_______________________________________________________________________________
#
#LOGNAME           .UNIT     LOG_ID                        : DESCRIPTION
#_______________________________________________________________________________
DEPT               .M                                      : Колонка глубины 
CALI               .м                                      : Каверномер 
COLL               .unitless                               :  
CSAT               .unitless                               :  
GR                 .uR/h                                   : Гамма каротаж 
GZ1                .Ohmm                                   : A0.4M0.1N 
GZ2                .Ohmm                                   : A1.0M0.1N 
GZ3                .Ohmm                                   : A2M0.5N 
GZ4                .Ohmm                                   : A4M0.5N 
GZ5                .Ohmm                                   : A8M1N 
LLS                .Ohmm                                   : Боковой каротаж 
MINV               .Ohmm                                   : Микро-градиент зонд 
MNOR               .Ohmm                                   : Микро-потенциал зонд 
NGLD               .у.е.                                   : Показания зонда НГК-60 аппаратуры ДРСТ-3-90 
OGZ3               .Ohmm                                   : N0.5M2A 
PHIE               .v/v                                    : Описание 
PHIEN              .v/v                                    :  
PHIT               .v/v                                    : Описание 
PRMB               .mD                                     :  
PRMB_DGR           .mD                                     :  
RT                 .ohmm                                   : УЭС пласта 
SOIL_ARCHIE        .v/v                                    :  
SOIL_DW            .v/v                                    :  
SP                 .мВ                                     : Потенциал самополяризации 
VSH_FIN            .v/v                                    : Описание 
VSH_GR             .v/v                                    : Shale volume 
VSH_SP             .v/v                                    : Shale Volume 
~Ascii
# ...
1148.4     0.217      1          2          5.172292   3.303      6.667      8.582      9.625001   8.938001   4.928      1.298      1.613      1.107      6.186      0.2481256  0.2481256  0.2901534  142.1721   160.2408   5.752      0.6754785  0.7194199  20.911     0.1273569  0.08162661 0.1273569 
1148.6     0.217      1          2          5.278191   3.403      6.918      8.365      9.625001   8.812999   5.175      1.197      1.531      1.121      6.022      0.2407075  0.2407075  0.2828202  98.32664   129.0185   5.602      0.66137    0.7071916  20.976     0.1276141  0.08917939 0.1276141 
1148.8     0.217      1          2          5.370122   3.504      6.980999   8.148001   9.625001   8.750001   5.175      1.197      1.329      1.13       5.857      0.2360226  0.2360226  0.278106   76.5621    106.8921   5.452      0.6497256  0.6972088  20.911     0.1275256  0.09630038 0.1275256 
1149       0.217      1          2          5.417629   3.591      7.232999   7.931      9.75       8.688      5.191      1.026      1.582      1.132      5.692      0.2348892  0.2348892  0.2770584  71.0311    96.98888   5.302      0.6428254  0.691323   20.976     0.1277854  0.1002004  0.1277854 
1149.2     0.217      1          2          5.40323    3.617      7.484      7.683      7.925      8.563      4.911      1.531      1.512      1.144      5.54       0.2286331  0.2286331  0.2707728  54.84198   99.88946   5.15       0.6296765  0.6791364  20.911     0.127696   0.09900192 0.127696  
1149.4     0.218      1          2          5.33353    3.491      7.170001   7.467      7.463      8.5        4.674      0.982      1.62       1.161      5.375      0.2196419  0.2196419  0.2618682  38.90852   115.2041   5          0.6127635  0.6630122  20.976     0.1279584  0.09340025 0.1279584 
1149.6     0.218      1          2          5.238328   3.34       6.980999   7.250999   7.138      8.438      4.345      1.392      1.74       1.148      5.21       0.22654    0.22654    0.2686776  54.86366   139.9851   4.851      0.6191484  0.6679227  20.845     0.1276897  0.08625761 0.1276897 
1149.8     0.217      1          2          5.157772   3.34       6.855      7.035      6.863      8.25       4.255      1.203      1.651      1.128      5.666999   0.2368696  0.2368696  0.2791536  88.79112   165.0739   5.022      0.6404955  0.6871174  20.976     0.1281332  0.08064215 0.1281332 
1150       0.217      1          2          5.127301   3.29       6.73       6.819      6.613      8          4.206      1.197      1.329      1.107      6.465      0.2475334  0.2475334  0.2901534  142.3853   175.6956   5.31       0.6631116  0.7079929  21.303     0.1291517  0.07861464 0.1291517 
1150.2     0.217      1          2          5.16032    3.353      6.541      6.603      6.363      7.688001   3.975      1.234      1.582      1.088      7.086      0.2569272  0.2569272  0.3001056  210.4228   164.2155   5.469      0.6778337  0.7220106  21.826     0.1308435  0.08081402 0.1308435 
1150.4     0.217      1          2          5.235844   3.391      6.415      6.387      6.199999   7.438001   3.738      1.07       1.518      1.098      7.695001   0.2512293  0.2512293  0.2948676  159.7551   140.6986   5.584      0.6739864  0.7191355  22.218     0.1322373  0.08607872 0.1322373 
1150.6     0.217      1          2          5.305676   3.278      6.164      6.159      6.013      7.188      3.507      1.114      1.449      1.1        7.255      0.2495329  0.2495329  0.29382    144.2499   121.9619   5.33       0.6640566  0.7107813  22.741     0.1342033  0.09125135 0.1342033 
1150.8     0.217      1          2          5.31886    3.077      5.786      5.943      5.825      6.938001   3.319      1.089      1.474      1.102      7.923      0.247694   0.247694   0.2927724  133.539    118.7152   5.433      0.6649846  0.7120742  23.329     0.1366012  0.09226225 0.1366012 
1151       0.217      1          2          5.254222   2.901      5.472001   5.727      5.625      6.75       3.433      1.089      1.43       1.109      8.937      0.2432557  0.2432557  0.2891058  115.3172   135.5051   5.585      0.6653214  0.7122818  23.852     0.1389396  0.0874109  0.1389396 
1151.2     0.217      1          2          5.142453   2.725      5.031      5.511      5.438001   6.75       3.515      1.241      1.209      1.122      9.951      0.2356112  0.2356112  0.2822964  88.75733   170.331    5.675      0.6605269  0.7075494  24.375     0.1414703  0.07961641 0.1414703 
1151.4     0.217      1          2          5.047463   2.612      4.78       5.295      5.238      6.813      3.426      0.906      1.323      1.112      10.902     0.2402737  0.2402737  0.2875344  113.7657   206.8802   5.702      0.6681933  0.7142013  24.702     0.1432143  0.0735409  0.1432143 
1151.6     0.217      1          2          5.015272   2.675      4.843      5.079      5.050001   6.813      3.351      1.5        1.563      1.124      11.536     0.233271   0.233271   0.2812488  86.28262   220.9685   5.642      0.6587856  0.7057263  25.094     0.1453875  0.07158893 0.1453875 
1151.8     0.217      1          2          5.043532   2.775      4.465      4.863      4.875      6.813      3.5        1.348      1.67       1.136      12.233     0.227268   0.227268   0.2749632  65.7743    208.5512   5.568      0.6486152  0.6964886  24.898     0.1445309  0.07329971 0.1445309 
1152       0.217      1          2          5.096294   2.788      4.403      4.876      4.75       6.875      3.671      1.443      1.417      1.147      13.247     0.2218921  0.2218921  0.2692014  50.86559   187.2057   5.703      0.6446252  0.6930716  24.636     0.1433616  0.07660383 0.1433616 
1152.2     0.217      1          2          5.132541   2.825      4.276999   5.130001   4.638      6.875      3.589      1.183      1.359      1.128      14.578     0.2323217  0.2323217  0.2791536  77.62662   173.8214   6.071      0.6673551  0.7138436  24.309     0.1419148  0.07895967 0.1419148 
1152.4     0.217      1          2          5.124397   2.813      4.527999   5.6        4.662      7          3.515      1.045      1.329      1.129      15.973     0.2321554  0.2321554  0.2786298  77.05429   176.7428   6.634      0.6807133  0.7258753  24.048     0.1408316  0.0784241  0.1408316 
1152.6     0.217      1          2          5.066763   2.738      4.276999   6.057      4.888      8.313      3.861      1.411      1.67       1.169      17.684     0.2116472  0.2116472  0.2576778  32.8122    198.8682   7.219      0.6689118  0.7147563  23.721     0.1394866  0.07473659 0.1394866 
1152.8     0.217      1          2          4.973061   2.65       4.465      7.479      5.338      9.125      4.345      1.287      1.581      1.18       20.473     0.2062175  0.2062175  0.251916   26.98144   240.9055   8.765      0.6921216  0.7353809  23.46      0.1384805  0.06910774 0.1384805 
1153       0.217      6          6          4.865937   2.512      4.465      8.14       6.025      10.313     4.805      1.301      1.408      1.2        20.473     0.1960641  0.1960641  0.24144    18.17808   299.9553   9.319      0.6891619  0.7320574  23.198     0.1375026  0.06319015 0.1375026 
1153.2     0.217      6          6          4.775246   2.461      4.969      8.8        7.325      10.75      6.572      2.707      1.525      1.232      19.649     0.1796134  0.1796134  0.2246784  9.278376   361.1277   9.725      0.673418   0.7172126  22.937     0.1365607  0.05857819 0.1365607 
1153.4     0.217      6          6          4.734224   2.838      5.849      9.459999   9.688      11.563     11.007     3.812      3.774      1.269      18.635     0.160618   0.160618   0.2052978  4.167514   392.754    10.039     0.6477595  0.6936135  22.61      0.1353932  0.05660414 0.1353932 
1153.6     0.217      6          6          4.763741   3.868      7.736001   10.121     10.5       12.063     38.975     2.757      3.774      1.281      17.494     0.1547804  0.1547804  0.1990122  3.201754   369.7317   10.259     0.639983   0.6865941  22.218     0.1340358  0.05801768 0.1340358 
