~Version
 VERS              .         2.0                           : CWLS LOG ASCII STANDARD - VERSION 2.0
 WRAP              .         NO                            : ONE LINE PER DEPTH STEP
 DLM               .         SPACE                         : DELIMITING CHARACTER(SPACE TAB OR COMMA)
~Well Information
#_______________________________________________________________________________
#
#PARAMETER_NAME    .UNIT     VALUE                         : DESCRIPTION
#_______________________________________________________________________________
STRT               .M        900                           : First reference value
STOP               .M        1276                          : Last reference value
STEP               .M        0.2                           : Step increment
NULL               .         -9999                         : Missing value
COMP               .                                       : Company
WELL               .         1784                          : Well name
FLD                .         Узень                         : Field
LOC                .                                       : Location
CNTY               .                                       : County
STAT               .                                       : State
CTRY               .                                       : Country
SRVC               .         UPGF                          : Service Company
DATE               .         28.04.1972                    : Date
UWI                .                                       : Unique Well ID
3кв_для_заказчика  .         5                             : 
Block              .         7                             : 
Category           .         Нагнетательная                : 
Condition          .         Ликвидированная               : 
Date               .         27.04.1972                    : 
EREF               .m        85.7                          : 100.8
Gor                .         14                            : 
Gorizont           .         14                            : 14
Interpretator      .         Кайсанов Е.К                  : 
Kupol              .         Основной                      : osnovnoi
METD               .         GZ1, GZ2, GZ4, GZ5            : Метод
Mud                .                                       : 
Mud_density        .                                       : 
Mud_resistivity    .                                       : 
NGDU               .         НГДУ-2                        : 
ORIGINALWELLNAME   .         1784                          : 
SCAL               .         200                           : Масштаб по глубине
Spud_date          .         1972                          : 1961
Viscosity          .                                       : 
X                  .m        43899.5                       : 46154
Y                  .m        85571.93                      : 85761.93
YEAR               .         2019                          : 
временно           .         5                             : 
~Parameter Information Block
#_______________________________________________________________________________
#
#PARAMETER_NAME    .UNIT     VALUE                         : DESCRIPTION
#_______________________________________________________________________________
SET                .         LQC_KAZNIPI_Petrel            : 
TLFamily_CALI      .         Caliper                       : 
TLFamily_COLL      .         Net Reservoir Flag            : 
TLFamily_CSAT      .         Fluid Code                    : 
TLFamily_DEPT      .         Measured Depth                : 
TLFamily_GR        .         Russian Gamma Ray             : 
TLFamily_GZ1       .         Gradient 045                  : 
TLFamily_GZ2       .         Gradient 105                  : 
TLFamily_GZ3       .         Gradient 225                  : 
TLFamily_GZ4       .         Gradient 425                  : 
TLFamily_GZ5       .         Gradient 850                  : 
TLFamily_LLS       .         Lateral Log Resistivity       : 
TLFamily_MINV      .         Micro Gradient Resistivity    : 
TLFamily_MNOR      .         Micro Resistivity             : 
TLFamily_NGLD      .         Neutron Far                   : 
TLFamily_OGZ3      .         Gradient Inverted 225         : 
TLFamily_PHIE      .         Effective Porosity            : 
TLFamily_PHIEN     .         Effective Porosity            : 
TLFamily_PHIT      .         Porosity                      : 
TLFamily_PRMB      .         Permeability                  : 
TLFamily_PRMB_DGR  .         Permeability                  : 
TLFamily_RT        .         Formation Resistivity         : 
TLFamily_SOIL_ARCHIE .         Oil Saturation                : 
TLFamily_SOIL_DW   .         Oil Saturation                : 
TLFamily_SP        .         Spontaneous Potential         : 
TLFamily_VSH_FIN   .         Shale Volume                  : 
TLFamily_VSH_GR    .         Shale Volume                  : 
TLFamily_VSH_SP    .         Shale Volume                  : 
~Curve Information
#_______________________________________________________________________________
#
#LOGNAME           .UNIT     LOG_ID                        : DESCRIPTION
#_______________________________________________________________________________
DEPT               .M                                      : Колонка глубины 
CALI               .м                                      : Каверномер 
COLL               .unitless                               :  
CSAT               .unitless                               :  
GR                 .uR/h                                   : Гамма каротаж 
GZ1                .Ohmm                                   : A0.4M0.1N 
GZ2                .Ohmm                                   : A1.0M0.1N 
GZ3                .Ohmm                                   : A2M0.5N 
GZ4                .Ohmm                                   : A4M0.5N 
GZ5                .Ohmm                                   : A8M1N 
LLS                .Ohmm                                   : Боковой каротаж 
MINV               .Ohmm                                   : Микро-градиент зонд 
MNOR               .Ohmm                                   : Микро-потенциал зонд 
NGLD               .у.е.                                   : Показания зонда НГК-60 аппаратуры ДРСТ-3-90 
OGZ3               .Ohmm                                   : N0.5M2A 
PHIE               .v/v                                    : Описание 
PHIEN              .v/v                                    :  
PHIT               .v/v                                    : Описание 
PRMB               .mD                                     :  
PRMB_DGR           .mD                                     :  
RT                 .ohmm                                   : УЭС пласта 
SOIL_ARCHIE        .v/v                                    :  
SOIL_DW            .v/v                                    :  
SP                 .мВ                                     : Потенциал самополяризации 
VSH_FIN            .v/v                                    : Описание 
VSH_GR             .v/v                                    : Shale volume 
VSH_SP             .v/v                                    : Shale Volume 
~Ascii
# ...
1051.2     0.313      -9999      -9999      6.184883   1.432      2.239      2.171      2.95       2.612      1.651      0.666      0.432      0.925      1.483      0.2192157  0.2192157  0.3914325  49.29347   1.74091    1.41       0.3134251  0.5115156  48.035     0.521869   0.517365   0.526373  
1051.4     0.306      -9999      -9999      6.189812   1.394      2.038      2.07       2.713      2.475      1.528      0.843      0.849      0.921      1.458      0.2226341  0.2226341  0.3940209  57.03034   1.728264   1.369      0.3127693  0.5090623  47.839     0.5193539  0.5189075  0.5198003 
1051.6     0.299      -9999      -9999      6.18329    1.281      1.962      2.006      2.588      2.425      1.092      0.742      0.482      0.92       1.432      0.2239565  0.2239565  0.394668   60.33923   1.745017   1.337      0.3085214  0.5048159  47.773     0.5173076  0.5168675  0.5177477 
1051.8     0.301      -9999      -9999      6.135042   1.369      2.075      1.93       2.588      2.362      0.681      0.552      0.533      0.926      1.42       0.2224874  0.2224874  0.3907854  56.67463   1.874103   1.309      0.2977774  0.4953694  47.773     0.509994   0.5020229  0.517965  
1052       0.302      -9999      -9999      6.042976   1.369      2.226      1.879      2.563      2.338      0.386      0.35       0.665      0.96       1.42       0.2045554  0.2045554  0.368784   26.37821   2.147507   1.294      0.2428448  0.4578849  47.839     0.4976623  0.4748695  0.5204552 
1052.2     0.3        -9999      -9999      5.939936   1.143      2.314      1.816      2.475      2.3        0.657      0.735      0.596      0.943      1.42       0.2209908  0.2209908  0.3797847  53.1702    2.501067   1.275      0.2850413  0.478707   47.708     0.4811935  0.4462172  0.5161698 
1052.4     0.297      -9999      -9999      5.85913    1.231      2.038      1.752      2.362      2.25       1.257      0.742      0.596      0.931      1.42       0.2322273  0.2322273  0.3875499  85.86083   2.818599   1.255      0.3089065  0.4905224  47.708     0.4706746  0.4249624  0.5163868 
1052.6     0.299      -9999      -9999      5.809549   1.268      1.912      1.752      2.288      2.275      1.232      0.363      0.672      0.931      1.42       0.2335165  0.2335165  0.3875499  90.71404   3.033078   1.255      0.3120942  0.4916063  47.839     0.4667679  0.4124251  0.5211107 
1052.8     0.305      -9999      -9999      5.789887   1.168      1.761      1.74       2.25       2.225      0.871      0.577      0.508      0.932      1.42       0.2332654  0.2332654  0.3869028  89.74775   3.122583   1.251      0.3104436  0.4900862  47.904     0.4655679  0.4075564  0.5235795 
1053       0.309      -9999      -9999      5.808108   1.118      1.61       1.727      2.213      2.213      0.837      0.312      0.564      0.937      1.42       0.2284967  0.2284967  0.3836673  73.23112   3.039546   1.247      0.2973955  0.4826681  48.035     0.470214   0.4120664  0.5283616 
1053.2     0.305      -9999      -9999      5.871476   1.155      1.723      1.702      2.2        2.2        1.347      0.514      0.621      0.925      1.445      0.2328138  0.2328138  0.3914325  88.03578   2.767595   1.25       0.3090675  0.4929608  48.166     0.4806626  0.4281431  0.5331822 
1053.4     0.295      -9999      -9999      5.964643   1.18       1.761      1.714      2.15       2.188      0.978      0.641      0.804      0.919      1.483      0.2318114  0.2318114  0.3953151  84.35124   2.411318   1.272      0.3122276  0.4994325  48.296     0.4954658  0.4529256  0.5380059 
1053.6     0.279      -9999      -9999      6.050678   1.155      1.623      1.714      2.125      2.313      0.525      0.457      0.583      0.913      1.521      0.2312831  0.2312831  0.3991977  82.47211   2.123181   1.289      0.315196   0.5051547  48.362     0.508832   0.4770834  0.5405806 
1053.8     0.269      -9999      -9999      6.094999   1.13       1.686      1.689      2.125      2.388      1.512      0.817      0.95       0.931      1.547      0.2163018  0.2163018  0.3875499  43.53279   1.988456   1.292      0.276666   0.484085   48.558     0.5189337  0.4900271  0.5478401 
1054       0.269      -9999      -9999      6.086148   1.143      1.811      1.676      2.125      2.45       3.327      0.407      0.482      0.922      1.521      0.2221311  0.2221311  0.3933738  55.81998   2.01466    1.276      0.288363   0.490557   48.623     0.5189172  0.4874145  0.5504199 
1054.2     0.265      -9999      -9999      6.034642   1.18       1.774      1.663      2.112      2.5        2.998      0.508      0.628      0.947      1.458      0.2079896  0.2079896  0.3771963  30.53896   2.174143   1.243      0.2390197  0.4575906  48.688     0.5127475  0.4724851  0.5530099 
1054.4     0.257      -9999      -9999      5.959024   1.206      1.597      1.638      2.112      2.575      1.931      1.095      0.912      0.964      1.42       0.2000343  0.2000343  0.3661956  21.75215   2.431439   1.217      0.2061406  0.4339364  48.754     0.5035192  0.4513914  0.5556471 
1054.6     0.247      -9999      -9999      5.882249   1.231      1.472      1.625      2.1        2.663      1.314      0.483      0.602      0.94       1.445      0.2196884  0.2196884  0.381726   50.29723   2.723845   1.224      0.2676154  0.4683493  48.623     0.4910231  0.4309379  0.5511084 
1054.8     0.245      -9999      -9999      5.83415    1.231      1.535      1.537      2.075      2.625      1.331      0.35       0.501      0.957      1.496      0.2102958  0.2102958  0.3707253  33.69539   2.924694   1.213      0.2372682  0.4476085  48.688     0.48615    0.4185988  0.5537012 
1055       0.248      -9999      -9999      5.83871    1.206      1.597      1.587      2.05       2.625      1.134      1.222      1.013      0.963      1.585      0.2061846  0.2061846  0.3668427  28.27628   2.905034   1.269      0.2408992  0.4525091  48.688     0.4868426  0.4197533  0.5539319 
1055.2     0.246      -9999      -9999      5.889363   1.18       1.547      1.587      2.038      2.563      1.297      0.748      0.684      0.954      1.673      0.209028   0.209028   0.3726666  31.92184   2.695335   1.303      0.2587434  0.4674438  48.819     0.4958746  0.4327934  0.5589557 
1055.4     0.242      -9999      -9999      5.94259    1.18       1.635      1.575      2.013      2.5        1.478      0.445      0.665      0.97       1.8        0.1970941  0.1970941  0.362313   19.18861   2.491267   1.344      0.2329095  0.4549291  48.688     0.5006632  0.4469331  0.5543934 
1055.6     0.238      -9999      -9999      5.945413   1.18       1.66       1.575      2          2.438      1.347      0.628      0.539      0.967      1.914      0.1980801  0.1980801  0.3642543  20.01272   2.480889   1.382      0.2460061  0.4651684  48.819     0.5035582  0.4476956  0.5594208 
1055.8     0.269      -9999      -9999      5.875602   1.243      1.623      1.587      2.05       2.425      1.413      0.925      0.703      0.97       2.028      0.1983526  0.1983526  0.362313   20.24668   2.750757   1.424      0.2573718  0.4717233  48.95      0.4968496  0.4292113  0.5644879 
1056       0.312      -9999      -9999      5.757065   1.356      1.673      1.537      2.1        2.463      1.265      0.761      0.659      0.98       2.079      0.1959321  0.1959321  0.355842   18.26081   3.277919   1.414      0.2472901  0.4617241  49.081     0.4845755  0.3995565  0.5695944 
1056.2     0.304      -9999      -9999      5.637995   1.406      1.635      1.486      2.088      2.35       1.084      0.83       1.531      0.99       2.041      0.1931929  0.1931929  0.349371   16.24737   3.909186   1.376      0.2286623  0.4454929  49.211     0.473267   0.371831   0.5747031 
1056.4     0.297      -9999      -9999      5.558736   1.344      1.572      1.448      2          2.3        0.706      0.704      0.71       0.967      1.914      0.2100883  0.2100883  0.3642543  33.39847   4.395419   1.319      0.2660699  0.4645692  49.342     0.4671698  0.3544506  0.5798891 
