~Version
 VERS              .         2.0                           : CWLS LOG ASCII STANDARD - VERSION 2.0
 WRAP              .         NO                            : ONE LINE PER DEPTH STEP
 DLM               .         SPACE                         : DELIMITING CHARACTER(SPACE TAB OR COMMA)
~Well Information
#_______________________________________________________________________________
#
#PARAMETER_NAME    .UNIT     VALUE                         : DESCRIPTION
#_______________________________________________________________________________
STRT               .M        900                           : First reference value
STOP               .M        1276                          : Last reference value
STEP               .M        0.2                           : Step increment
NULL               .         -9999                         : Missing value
COMP               .                                       : Company
WELL               .         1784                          : Well name
FLD                .         Узень                         : Field
LOC                .                                       : Location
CNTY               .                                       : County
STAT               .                                       : State
CTRY               .                                       : Country
SRVC               .         UPGF                          : Service Company
DATE               .         28.04.1972                    : Date
UWI                .                                       : Unique Well ID
3кв_для_заказчика  .         5                             : 
Block              .         7                             : 
Category           .         Нагнетательная                : 
Condition          .         Ликвидированная               : 
Date               .         27.04.1972                    : 
EREF               .m        85.7                          : 100.8
Gor                .         14                            : 
Gorizont           .         14                            : 14
Interpretator      .         Кайсанов Е.К                  : 
Kupol              .         Основной                      : osnovnoi
METD               .         GZ1, GZ2, GZ4, GZ5            : Метод
Mud                .                                       : 
Mud_density        .                                       : 
Mud_resistivity    .                                       : 
NGDU               .         НГДУ-2                        : 
ORIGINALWELLNAME   .         1784                          : 
SCAL               .         200                           : Масштаб по глубине
Spud_date          .         1972                          : 1961
Viscosity          .                                       : 
X                  .m        43899.5                       : 46154
Y                  .m        85571.93                      : 85761.93
YEAR               .         2019                          : 
временно           .         5                             : 
~Parameter Information Block
#_______________________________________________________________________________
#
#PARAMETER_NAME    .UNIT     VALUE                         : DESCRIPTION
#_______________________________________________________________________________
SET                .         LQC_KAZNIPI_Petrel            : 
TLFamily_CALI      .         Caliper                       : 
TLFamily_COLL      .         Net Reservoir Flag            : 
TLFamily_CSAT      .         Fluid Code                    : 
TLFamily_DEPT      .         Measured Depth                : 
TLFamily_GR        .         Russian Gamma Ray             : 
TLFamily_GZ1       .         Gradient 045                  : 
TLFamily_GZ2       .         Gradient 105                  : 
TLFamily_GZ3       .         Gradient 225                  : 
TLFamily_GZ4       .         Gradient 425                  : 
TLFamily_GZ5       .         Gradient 850                  : 
TLFamily_LLS       .         Lateral Log Resistivity       : 
TLFamily_MINV      .         Micro Gradient Resistivity    : 
TLFamily_MNOR      .         Micro Resistivity             : 
TLFamily_NGLD      .         Neutron Far                   : 
TLFamily_OGZ3      .         Gradient Inverted 225         : 
TLFamily_PHIE      .         Effective Porosity            : 
TLFamily_PHIEN     .         Effective Porosity            : 
TLFamily_PHIT      .         Porosity                      : 
TLFamily_PRMB      .         Permeability                  : 
TLFamily_PRMB_DGR  .         Permeability                  : 
TLFamily_RT        .         Formation Resistivity         : 
TLFamily_SOIL_ARCHIE .         Oil Saturation                : 
TLFamily_SOIL_DW   .         Oil Saturation                : 
TLFamily_SP        .         Spontaneous Potential         : 
TLFamily_VSH_FIN   .         Shale Volume                  : 
TLFamily_VSH_GR    .         Shale Volume                  : 
TLFamily_VSH_SP    .         Shale Volume                  : 
~Curve Information
#_______________________________________________________________________________
#
#LOGNAME           .UNIT     LOG_ID                        : DESCRIPTION
#_______________________________________________________________________________
DEPT               .M                                      : Колонка глубины 
CALI               .м                                      : Каверномер 
COLL               .unitless                               :  
CSAT               .unitless                               :  
GR                 .uR/h                                   : Гамма каротаж 
GZ1                .Ohmm                                   : A0.4M0.1N 
GZ2                .Ohmm                                   : A1.0M0.1N 
GZ3                .Ohmm                                   : A2M0.5N 
GZ4                .Ohmm                                   : A4M0.5N 
GZ5                .Ohmm                                   : A8M1N 
LLS                .Ohmm                                   : Боковой каротаж 
MINV               .Ohmm                                   : Микро-градиент зонд 
MNOR               .Ohmm                                   : Микро-потенциал зонд 
NGLD               .у.е.                                   : Показания зонда НГК-60 аппаратуры ДРСТ-3-90 
OGZ3               .Ohmm                                   : N0.5M2A 
PHIE               .v/v                                    : Описание 
PHIEN              .v/v                                    :  
PHIT               .v/v                                    : Описание 
PRMB               .mD                                     :  
PRMB_DGR           .mD                                     :  
RT                 .ohmm                                   : УЭС пласта 
SOIL_ARCHIE        .v/v                                    :  
SOIL_DW            .v/v                                    :  
SP                 .мВ                                     : Потенциал самополяризации 
VSH_FIN            .v/v                                    : Описание 
VSH_GR             .v/v                                    : Shale volume 
VSH_SP             .v/v                                    : Shale Volume 
~Ascii
# ...
1024.2     0.292      -9999      -9999      4.29917    1.143      2.277      2.26       2.588      2.6        0.985      0.508      0.564      0.929      1.116      0.235682   0.235682   0.3888441  99.49136   3.734613   1.195      0.3015037  0.4818575  54.505     0.4641274  0.3788324  0.5494224 
1024.4     0.305      -9999      -9999      4.429869   1.168      2          2.108      2.525      2.563      0.896      0.432      0.577      0.943      1.128      0.2197215  0.2197215  0.3797847  50.36824   2.959671   1.176      0.25383    0.4560148  54.571     0.4850401  0.4165717  0.5535085 
1024.6     0.318      -9999      -9999      4.497497   1.118      1.811      2.083      2.563      2.513      0.978      0.546      0.508      0.926      1.179      0.2265878  0.2265878  0.3907854  67.50527   2.624102   1.205      0.2809933  0.4776882  54.636     0.4975685  0.4375526  0.5575845 
1024.8     0.319      -9999      -9999      4.509633   1.13       1.597      2.095      2.55       2.475      0.584      0.647      0.71       0.93       1.242      0.2226771  0.2226771  0.388197   57.13493   2.568043   1.248      0.2823845  0.4813299  54.702     0.5015756  0.441428   0.5617232 
1025       0.311      -9999      -9999      4.485275   1.13       1.585      2.083      2.438      2.425      0.599      0.552      0.508      0.92       1.306      0.2297446  0.2297446  0.394668   77.23437   2.681798   1.284      0.3101131  0.4995874  54.767     0.4997677  0.4336841  0.5658513 
1025.2     0.303      -9999      -9999      4.455229   1.13       1.686      2.044      2.35       2.375      1.322      0.539      0.596      0.924      1.344      0.228016   0.228016   0.3920796  71.74506   2.82908    1.297      0.3090254  0.4987326  54.832     0.4971623  0.4243188  0.5700059 
1025.4     0.299      -9999      -9999      4.45388    1.105      1.66       1.943      2.325      2.338      3.45       0.634      0.615      0.916      1.382      0.2325654  0.2325654  0.3972564  87.10786   2.835877   1.292      0.3190931  0.5053608  54.898     0.4990637  0.4239033  0.5742241 
1025.6     0.303      -9999      -9999      4.495917   1.105      1.509      1.778      2.313      2.288      2.152      0.4        0.552      0.933      1.407      0.2191061  0.2191061  0.3862557  49.06354   2.63149    1.257      0.2751009  0.4784712  54.898     0.5065139  0.4370507  0.5759771 
1025.8     0.305      -9999      -9999      4.566638   1.105      1.459      1.663      2.3        2.25       0.822      0.483      0.533      0.936      1.382      0.2142877  0.2142877  0.3843144  39.94942   2.320326   1.208      0.2476484  0.4619076  54.702     0.5152324  0.4600958  0.570369  
1026       0.308      -9999      -9999      4.637558   1.105      1.484      1.511      2.275      2.288      1.126      0.584      0.609      0.927      1.382      0.2158096  0.2158096  0.3901383  42.62839   2.045234   1.155      0.2361527  0.4560146  54.702     0.5282689  0.4844259  0.5721119 
1026.2     0.314      -9999      -9999      4.690193   1.105      1.56       1.435      2.213      2.25       1.487      0.539      0.558      0.938      1.407      0.2056954  0.2056954  0.3830202  27.69233   1.862375   1.137      0.1991689  0.4356373  54.636     0.5373479  0.5033113  0.5713844 
1026.4     0.302      -9999      -9999      4.727862   1.105      1.535      1.486      2.15       2.188      1.282      0.419      0.583      0.954      1.471      0.1939564  0.1939564  0.3726666  16.78516   1.741633   1.183      0.1746743  0.4252062  54.44      0.541546   0.5172774  0.5658147 
1026.6     0.299      -9999      -9999      4.770064   1.093      1.472      1.537      2.088      2.112      1.084      0.704      0.533      0.94       1.521      0.1992652  0.1992652  0.381726   21.05021   1.615636   1.223      0.2054359  0.4482527  54.571     0.5529116  0.5333847  0.5724386 
1026.8     0.314      -9999      -9999      4.834277   1.093      1.472      1.422      2.063      2.088      1.364      0.552      0.571      0.946      1.585      0.1925036  0.1925036  0.3778434  15.7767    1.441187   1.199      0.1747388  0.4321453  54.309     0.5616358  0.5588604  0.5644113 
1027       0.309      -9999      -9999      4.917981   1.093      1.509      1.346      2.05       2.063      1.717      0.811      0.533      0.965      1.661      0.1757288  0.1757288  0.3655485  7.714475   1.241752   1.19       0.1070354  0.3988901  54.048     0.5752112  0.5939043  0.5565181 
1027.2     0.296      -9999      -9999      4.996748   1.093      1.459      1.295      2.025      2.025      1.552      0.799      0.716      0.965      1.737      0.1692811  0.1692811  0.3655485  5.859749   1.079355   1.187      0.07803752 0.389957   54.113     0.5947497  0.6288863  0.5606132 
1027.4     0.286      -9999      -9999      5.043428   1.093      1.472      1.27       1.988      1.975      1.339      0.552      0.615      0.967      1.787      0.165311   0.165311   0.3642543  4.947007   0.9933227  1.188      0.06025069 0.3836928  53.917     0.6028585  0.6505823  0.5551347 
1027.6     0.29       -9999      -9999      5.055186   1.08       1.547      1.283      1.913      1.913      1.29       0.596      0.583      0.972      1.825      0.1616618  0.1616618  0.3610188  4.234006   0.9727561  1.205      0.04923576 0.3798311  53.786     0.604112   0.6561642  0.5520599 
1027.8     0.297      -9999      -9999      5.059004   1.08       1.56       1.308      1.875      1.888      1.429      0.483      0.533      0.954      1.8        0.1735078  0.1735078  0.3726666  7.017272   0.9661708  1.212      0.1053536  0.4085306  53.656     0.6035115  0.6579868  0.5490361 
1028       0.298      -9999      -9999      5.082114   1.105      1.535      1.333      1.825      1.9        1.183      1.026      0.811      0.974      1.825      0.1584492  0.1584492  0.3597246  3.69186    0.9272447  1.233      0.04382474 0.3811891  53.656     0.6099256  0.6691289  0.5507224 
1028.2     0.295      -9999      -9999      5.120086   1.13       1.484      1.295      1.788      1.825      1.084      0.666      0.684      0.993      1.851      0.1427867  0.1427867  0.3474297  1.892951   0.8666626  1.219      0          0.3407467  53.656     0.6201302  0.6878474  0.5524132 
1028.4     0.282      -9999      -9999      5.143468   1.13       1.459      1.244      1.763      1.775      1.396      0.691      0.533      1.002      1.876      0.1347384  0.1347384  0.3416058  1.342966   0.8313434  1.197      0          0.3142513  53.656     0.6268709  0.6996333  0.5541084 
1028.6     0.266      -9999      -9999      5.133561   1.13       1.459      1.194      1.613      1.813      1.453      0.4        0.501      0.991      1.965      0.1424041  0.1424041  0.3487239  1.862309   0.8461297  1.188      0          0.333103   53.656     0.6252115  0.6946148  0.5558082 
1028.8     0.25       -9999      -9999      5.098536   1.143      1.56       1.244      1.462      1.85       1.248      0.464      0.672      0.998      2.092      0.1396842  0.1396842  0.3441942  1.658336   0.900542   1.248      0          0.3397203  53.786     0.6197273  0.6771606  0.5622939 
1029       0.238      -9999      -9999      5.052369   1.155      1.761      1.283      1.513      1.9        1.453      0.615      0.741      1.007      2.396      0.1368583  0.1368583  0.3383703  1.470041   0.9776454  1.337      0          0.3508174  53.852     0.6106426  0.6548222  0.5664631 
1029.2     0.267      -9999      -9999      4.995447   1.381      2.038      1.41       1.625      1.925      1.528      0.438      0.47       1.005      3.042      0.1422441  0.1422441  0.3396645  1.849641   1.081857   1.541      0.05951061 0.4047102  53.852     0.5982438  0.6282919  0.5681956 
1029.4     0.29       -9999      -9999      4.923226   1.746      2.491      1.537      1.763      1.975      1.478      3.876      2.852      1.03       3.638      0.131884   0.131884   0.323487   1.189033   1.230216   1.729      0.05256043 0.4056769  53.721     0.5806152  0.5961723  0.5650582 
