~Version
 VERS              .         2.0                           : CWLS LOG ASCII STANDARD - VERSION 2.0
 WRAP              .         NO                            : ONE LINE PER DEPTH STEP
 DLM               .         SPACE                         : DELIMITING CHARACTER(SPACE TAB OR COMMA)
~Well Information
#_______________________________________________________________________________
#
#PARAMETER_NAME    .UNIT     VALUE                         : DESCRIPTION
#_______________________________________________________________________________
STRT               .M        900                           : First reference value
STOP               .M        1276                          : Last reference value
STEP               .M        0.2                           : Step increment
NULL               .         -9999                         : Missing value
COMP               .                                       : Company
WELL               .         1784                          : Well name
FLD                .         Узень                         : Field
LOC                .                                       : Location
CNTY               .                                       : County
STAT               .                                       : State
CTRY               .                                       : Country
SRVC               .         UPGF                          : Service Company
DATE               .         28.04.1972                    : Date
UWI                .                                       : Unique Well ID
3кв_для_заказчика  .         5                             : 
Block              .         7                             : 
Category           .         Нагнетательная                : 
Condition          .         Ликвидированная               : 
Date               .         27.04.1972                    : 
EREF               .m        85.7                          : 100.8
Gor                .         14                            : 
Gorizont           .         14                            : 14
Interpretator      .         Кайсанов Е.К                  : 
Kupol              .         Основной                      : osnovnoi
METD               .         GZ1, GZ2, GZ4, GZ5            : Метод
Mud                .                                       : 
Mud_density        .                                       : 
Mud_resistivity    .                                       : 
NGDU               .         НГДУ-2                        : 
ORIGINALWELLNAME   .         1784                          : 
SCAL               .         200                           : Масштаб по глубине
Spud_date          .         1972                          : 1961
Viscosity          .                                       : 
X                  .m        43899.5                       : 46154
Y                  .m        85571.93                      : 85761.93
YEAR               .         2019                          : 
временно           .         5                             : 
~Parameter Information Block
#_______________________________________________________________________________
#
#PARAMETER_NAME    .UNIT     VALUE                         : DESCRIPTION
#_______________________________________________________________________________
SET                .         LQC_KAZNIPI_Petrel            : 
TLFamily_CALI      .         Caliper                       : 
TLFamily_COLL      .         Net Reservoir Flag            : 
TLFamily_CSAT      .         Fluid Code                    : 
TLFamily_DEPT      .         Measured Depth                : 
TLFamily_GR        .         Russian Gamma Ray             : 
TLFamily_GZ1       .         Gradient 045                  : 
TLFamily_GZ2       .         Gradient 105                  : 
TLFamily_GZ3       .         Gradient 225                  : 
TLFamily_GZ4       .         Gradient 425                  : 
TLFamily_GZ5       .         Gradient 850                  : 
TLFamily_LLS       .         Lateral Log Resistivity       : 
TLFamily_MINV      .         Micro Gradient Resistivity    : 
TLFamily_MNOR      .         Micro Resistivity             : 
TLFamily_NGLD      .         Neutron Far                   : 
TLFamily_OGZ3      .         Gradient Inverted 225         : 
TLFamily_PHIE      .         Effective Porosity            : 
TLFamily_PHIEN     .         Effective Porosity            : 
TLFamily_PHIT      .         Porosity                      : 
TLFamily_PRMB      .         Permeability                  : 
TLFamily_PRMB_DGR  .         Permeability                  : 
TLFamily_RT        .         Formation Resistivity         : 
TLFamily_SOIL_ARCHIE .         Oil Saturation                : 
TLFamily_SOIL_DW   .         Oil Saturation                : 
TLFamily_SP        .         Spontaneous Potential         : 
TLFamily_VSH_FIN   .         Shale Volume                  : 
TLFamily_VSH_GR    .         Shale Volume                  : 
TLFamily_VSH_SP    .         Shale Volume                  : 
~Curve Information
#_______________________________________________________________________________
#
#LOGNAME           .UNIT     LOG_ID                        : DESCRIPTION
#_______________________________________________________________________________
DEPT               .M                                      : Колонка глубины 
CALI               .м                                      : Каверномер 
COLL               .unitless                               :  
CSAT               .unitless                               :  
GR                 .uR/h                                   : Гамма каротаж 
GZ1                .Ohmm                                   : A0.4M0.1N 
GZ2                .Ohmm                                   : A1.0M0.1N 
GZ3                .Ohmm                                   : A2M0.5N 
GZ4                .Ohmm                                   : A4M0.5N 
GZ5                .Ohmm                                   : A8M1N 
LLS                .Ohmm                                   : Боковой каротаж 
MINV               .Ohmm                                   : Микро-градиент зонд 
MNOR               .Ohmm                                   : Микро-потенциал зонд 
NGLD               .у.е.                                   : Показания зонда НГК-60 аппаратуры ДРСТ-3-90 
OGZ3               .Ohmm                                   : N0.5M2A 
PHIE               .v/v                                    : Описание 
PHIEN              .v/v                                    :  
PHIT               .v/v                                    : Описание 
PRMB               .mD                                     :  
PRMB_DGR           .mD                                     :  
RT                 .ohmm                                   : УЭС пласта 
SOIL_ARCHIE        .v/v                                    :  
SOIL_DW            .v/v                                    :  
SP                 .мВ                                     : Потенциал самополяризации 
VSH_FIN            .v/v                                    : Описание 
VSH_GR             .v/v                                    : Shale volume 
VSH_SP             .v/v                                    : Shale Volume 
~Ascii
# ...
1175.4     0.245      -9999      -9999      7.249045   1.557      1.912      1.917      2.888      1.75       1.429      0.603      1.038      1.085      1.914      0.1032376  0.1032376  0.301677   0.2521857  2.285555   1.482      0          0.2385893  46.728     0.6013314  0.4629413  0.6013314 
1175.6     0.242      -9999      -9999      7.262217   1.557      1.937      1.854      2.838      1.775      1.372      0.571      0.988      1.098      2.041      0.09218349 0.09218349 0.2948676  0.1636815  2.22477    1.515      0          0.2084538  47.054     0.6141942  0.4680648  0.6141942 
1175.8     0.236      -9999      -9999      7.28772    1.582      1.912      1.79       2.75       1.825      1.626      0.419      0.887      1.097      2.231      0.08661445 0.08661445 0.2953914  0.1339848  2.111633   1.554      0          0.2059205  47.512     0.6326574  0.4781472  0.6326574 
1176       0.237      -9999      -9999      7.299001   1.457      2.063      1.727      2.663      1.863      1.421      0.451      0.71       1.084      2.434      0.08537715 0.08537715 0.3022008  0.1420932  2.063441   1.589      0          0.230422   48.1       0.6570414  0.482676   0.6570414 
1176.2     0.24       -9999      -9999      7.286685   1.658      2.101      1.676      2.538      1.913      1.577      0.476      0.88       1.078      2.662      0.0930263  0.0930263  0.3053436  0.1881302  2.116112   1.616      0          0.2595639  47.773     0.6433858  0.4777337  0.6433858 
1176.4     0.244      -9999      -9999      7.268302   1.67       2.151      1.6        2.425      1.85       1.577      0.527      0.823      1.073      2.916      0.09653167 0.09653167 0.3079626  0.2263527  2.197235   1.646      0          0.2811342  47.708     0.6406999  0.4704511  0.6406999 
1176.6     0.248      -9999      -9999      7.270577   1.683      2.063      1.562      2.275      1.875      1.396      0.653      0.767      1.085      3.169      0.09639081 0.09639081 0.301677   0.2004322  2.18703    1.653      0          0.2658283  47.251     0.6220793  0.4713463  0.6220793 
1176.8     0.25       -9999      -9999      7.301221   1.683      2.088      1.562      2.163      1.875      1.134      0.571      0.71       1.062      3.423      0.1114297  0.1114297  0.3137244  0.3312005  2.054087   1.674      0          0.3158233  47.054     0.6130143  0.4835723  0.6130143 
1177       0.25       -9999      -9999      7.334087   1.658      2.138      1.575      2.075      1.875      1.092      0.628      0.653      1.084      3.638      0.1053731  0.1053731  0.3022008  0.2111903  1.920471   1.716      0          0.2832617  46.662     0.5964477  0.4970377  0.5964477 
1177.2     0.239      -9999      -9999      7.324162   1.632      2.151      1.587      2          1.875      1.314      0.773      0.811      1.096      3.74       0.1148158  0.1148158  0.2959152  0.2464048  1.959879   1.759      0          0.2910154  45.42      0.548786   0.4929322  0.548786  
1177.4     0.23       -9999      -9999      7.24421    1.607      2.138      1.537      1.925      1.875      0.985      0.824      0.874      1.115      3.816      0.1244765  0.1244765  0.285963   0.330458   2.308283   1.768      0          0.293237   43.721     0.489353   0.4610746  0.489353  
1177.6     0.222      -9999      -9999      7.105967   1.582      1.987      1.473      1.875      1.875      1.322      0.54       0.669      1.126      3.955      0.1370239  0.1370239  0.2802012  0.586141   3.063071   1.717      0          0.3032051  41.956     0.4338705  0.4107712  0.4338705 
1177.8     0.221      -9999      -9999      6.937357   1.557      1.887      1.435      1.8        1.875      1.438      0.906      1.215      1.117      4.209      0.1529222  0.1529222  0.2849154  1.39505    4.325284   1.712      0.06952057 0.3477511  40.78      0.3999793  0.3567863  0.3999793 
1178       0.223      -9999      -9999      6.748103   1.532      1.786      1.384      1.738      1.913      1.076      1.563      1.639      1.144      4.627      0.1485725  0.1485725  0.2707728  1.417998   6.371184   1.705      0.06985759 0.326437   39.669     0.370304   0.304596   0.370304  
1178.2     0.225      -9999      -9999      6.53237    1.62       2          1.384      1.663      2.088      1.487      1.26       1.43       1.17       5.147      0.1445131  0.1445131  0.257154   1.447669   9.907407   1.745      0.08258101 0.3139213  38.492     0.3413361  0.2543493  0.3413361 
1178.4     0.227      -9999      -9999      6.295105   1.859      2.591      1.689      1.775      2.5        2.431      1.759      1.714      1.193      5.603001   0.1407776  0.1407776  0.2451066  1.484803   16.10041   2.076      0.1573638  0.353586   37.381     0.3161485  0.2086039  0.3161485 
1178.6     0.227      6          6          6.056309   2.135      3.434      2.286      2.038      3.038      4.124      1.809      1.759      1.219      5.933      0.1347972  0.1347972  0.2314878  1.324732   26.24669   2.64       0.2351062  0.4024364  36.27      0.2930017  0.1708672  0.2930017 
1178.8     0.225      6          6          5.832814   2.574      4.289      2.756      2.525      3.788      3.778      1.914      1.411      1.243      5.666999   0.1224159  0.1224159  0.2189166  0.955925   41.46797   2.967      0.2407394  0.404296   36.27      0.2924262  0.1417581  0.2924262 
1179       0.226      6          6          5.636514   3.227      5.145      3.949      3.088      4.613      6.201      1.133      3.174      1.245      5.045      0.1427437  0.1427437  0.217869   1.233439   72.79186   3.544      0.3363887  0.4702236  36.662     0.2276524  0.1126584  0.3426464 
1179.2     0.229      6          6          5.488671   3.968      6.642      4.978      3.6        5.363      9.816      3.85       2.719      1.248      4.475      0.1418683  0.1418683  0.2162976  1.188236   97.55328   3.77       0.3518999  0.4828466  37.054     0.2255433  0.09996326 0.3511235 
1179.4     0.231      6          6          5.414667   4.734001   7.107      4.762      3.963      6.05       9.528      3.844      2.138      1.229      3.854      0.151604   0.151604   0.2262498  1.799828   112.9517   3.408      0.358628   0.4845404  37.381     0.2261996  0.09415635 0.3582428 
1179.6     0.233      -9999      -9999      5.419072   4.496      8.428      4.559      4.113      6.363      7.146      2.775      1.865      1.211      3.372      0.1595122  0.1595122  0.2356782  2.521804   111.9706   3.101      0.3586204  0.4833784  37.773     0.2308061  0.09449236 0.3671198 
1179.8     0.231      -9999      -9999      5.479859   3.905      8.994      4.343      3.825      5.925001   3.426      1.544      1.55       1.178      2.954      0.1750534  0.1750534  0.2529636  4.892968   99.27067   2.813      0.3808244  0.499245   38.035     0.2360915  0.09925344 0.3729295 
1180       0.229      -9999      -9999      5.573342   3.416      7.736001   4.14       3.463      5.4        2.538      1.443      1.55       1.157      2.573      0.1848904  0.1848904  0.2639634  7.443505   82.49297   2.539      0.3805309  0.497405   38.035     0.2396151  0.1070477  0.3721826 
1180.2     0.226      -9999      -9999      5.69189    2.964      6.189      3.937      3.05       4.825      2.094      1.475      1.411      1.142      2.231      0.190276   0.190276   0.2718204  9.365504   65.231     2.278      0.3642802  0.4845986  38.231     0.2471043  0.1178181  0.3763905 
1180.4     0.223      -9999      -9999      5.833832   2.612      5.119      3.708      2.725      4.213      1.832      1.399      1.323      1.147      1.978      0.1845903  0.1845903  0.2692014  7.348825   49.2459    2.064      0.3163311  0.4485836  38.427     0.2563974  0.1321488  0.3806461 
1180.6     0.225      -9999      -9999      5.988653   2.373      4.289      3.759      2.4        3.675      1.906      1.402      1.304      1.156      1.838      0.1768176  0.1768176  0.2644872  5.275325   36.2417    1.975      0.2753955  0.4202299  38.492     0.2656654  0.1497743  0.3815565 
