~Version
 VERS              .         2.0                           : CWLS LOG ASCII STANDARD - VERSION 2.0
 WRAP              .         NO                            : ONE LINE PER DEPTH STEP
 DLM               .         SPACE                         : DELIMITING CHARACTER(SPACE TAB OR COMMA)
~Well Information
#_______________________________________________________________________________
#
#PARAMETER_NAME    .UNIT     VALUE                         : DESCRIPTION
#_______________________________________________________________________________
STRT               .M        900                           : First reference value
STOP               .M        1276                          : Last reference value
STEP               .M        0.2                           : Step increment
NULL               .         -9999                         : Missing value
COMP               .                                       : Company
WELL               .         1784                          : Well name
FLD                .         Узень                         : Field
LOC                .                                       : Location
CNTY               .                                       : County
STAT               .                                       : State
CTRY               .                                       : Country
SRVC               .         UPGF                          : Service Company
DATE               .         28.04.1972                    : Date
UWI                .                                       : Unique Well ID
3кв_для_заказчика  .         5                             : 
Block              .         7                             : 
Category           .         Нагнетательная                : 
Condition          .         Ликвидированная               : 
Date               .         27.04.1972                    : 
EREF               .m        85.7                          : 100.8
Gor                .         14                            : 
Gorizont           .         14                            : 14
Interpretator      .         Кайсанов Е.К                  : 
Kupol              .         Основной                      : osnovnoi
METD               .         GZ1, GZ2, GZ4, GZ5            : Метод
Mud                .                                       : 
Mud_density        .                                       : 
Mud_resistivity    .                                       : 
NGDU               .         НГДУ-2                        : 
ORIGINALWELLNAME   .         1784                          : 
SCAL               .         200                           : Масштаб по глубине
Spud_date          .         1972                          : 1961
Viscosity          .                                       : 
X                  .m        43899.5                       : 46154
Y                  .m        85571.93                      : 85761.93
YEAR               .         2019                          : 
временно           .         5                             : 
~Parameter Information Block
#_______________________________________________________________________________
#
#PARAMETER_NAME    .UNIT     VALUE                         : DESCRIPTION
#_______________________________________________________________________________
SET                .         LQC_KAZNIPI_Petrel            : 
TLFamily_CALI      .         Caliper                       : 
TLFamily_COLL      .         Net Reservoir Flag            : 
TLFamily_CSAT      .         Fluid Code                    : 
TLFamily_DEPT      .         Measured Depth                : 
TLFamily_GR        .         Russian Gamma Ray             : 
TLFamily_GZ1       .         Gradient 045                  : 
TLFamily_GZ2       .         Gradient 105                  : 
TLFamily_GZ3       .         Gradient 225                  : 
TLFamily_GZ4       .         Gradient 425                  : 
TLFamily_GZ5       .         Gradient 850                  : 
TLFamily_LLS       .         Lateral Log Resistivity       : 
TLFamily_MINV      .         Micro Gradient Resistivity    : 
TLFamily_MNOR      .         Micro Resistivity             : 
TLFamily_NGLD      .         Neutron Far                   : 
TLFamily_OGZ3      .         Gradient Inverted 225         : 
TLFamily_PHIE      .         Effective Porosity            : 
TLFamily_PHIEN     .         Effective Porosity            : 
TLFamily_PHIT      .         Porosity                      : 
TLFamily_PRMB      .         Permeability                  : 
TLFamily_PRMB_DGR  .         Permeability                  : 
TLFamily_RT        .         Formation Resistivity         : 
TLFamily_SOIL_ARCHIE .         Oil Saturation                : 
TLFamily_SOIL_DW   .         Oil Saturation                : 
TLFamily_SP        .         Spontaneous Potential         : 
TLFamily_VSH_FIN   .         Shale Volume                  : 
TLFamily_VSH_GR    .         Shale Volume                  : 
TLFamily_VSH_SP    .         Shale Volume                  : 
~Curve Information
#_______________________________________________________________________________
#
#LOGNAME           .UNIT     LOG_ID                        : DESCRIPTION
#_______________________________________________________________________________
DEPT               .M                                      : Колонка глубины 
CALI               .м                                      : Каверномер 
COLL               .unitless                               :  
CSAT               .unitless                               :  
GR                 .uR/h                                   : Гамма каротаж 
GZ1                .Ohmm                                   : A0.4M0.1N 
GZ2                .Ohmm                                   : A1.0M0.1N 
GZ3                .Ohmm                                   : A2M0.5N 
GZ4                .Ohmm                                   : A4M0.5N 
GZ5                .Ohmm                                   : A8M1N 
LLS                .Ohmm                                   : Боковой каротаж 
MINV               .Ohmm                                   : Микро-градиент зонд 
MNOR               .Ohmm                                   : Микро-потенциал зонд 
NGLD               .у.е.                                   : Показания зонда НГК-60 аппаратуры ДРСТ-3-90 
OGZ3               .Ohmm                                   : N0.5M2A 
PHIE               .v/v                                    : Описание 
PHIEN              .v/v                                    :  
PHIT               .v/v                                    : Описание 
PRMB               .mD                                     :  
PRMB_DGR           .mD                                     :  
RT                 .ohmm                                   : УЭС пласта 
SOIL_ARCHIE        .v/v                                    :  
SOIL_DW            .v/v                                    :  
SP                 .мВ                                     : Потенциал самополяризации 
VSH_FIN            .v/v                                    : Описание 
VSH_GR             .v/v                                    : Shale volume 
VSH_SP             .v/v                                    : Shale Volume 
~Ascii
# ...
927        0.221      1          3          2.286356   2.625      3.723      3.225      3.963      2.775      2.596      1.652      1.67       1.25       2.485      0.133297   0.133297   0.191125   0.8244088  1199.993   2.246      0.1151893  0.2501347  39.996     0.1752362  0.03587426 0.3145982 
927.2      0.221      1          3          2.275849   2.926      4.05       3.048      4.175      2.875      2.168      1.576      1.683      1.246      2.535      0.135749   0.135749   0.1937134  0.9152896  1223.681   2.214      0.1232408  0.2562895  40.061     0.1756496  0.03558905 0.3157102 
927.4      0.22       1          3          2.259971   2.888      3.836      2.895      3.9        2.938      1.824      1.373      1.354      1.202      2.358      0.1643347  0.1643347  0.2221858  3.09767    1260.364   2.079      0.2354262  0.3456406  40.061     0.1753064  0.03516238 0.3154504 
927.6      0.22       1          3          2.241314   2.574      3.484      2.717      3.45       2.95       1.684      1.317      1.379      1.166      2.155      0.1875279  0.1875279  0.2454814  8.329711   1304.878   1.923      0.293067   0.3924183  40.126     0.1756166  0.03466755 0.3165657 
927.8      0.22       1          3          2.232672   2.298      3.182      2.552      3.038      2.9        1.651      1.089      1.082      1.148      1.965      0.1992562  0.1992562  0.2571292  13.73617   1326.027   1.776      0.3039525  0.4000133  40.126     0.1753728  0.0344407  0.316305  
928        0.22       1          3          2.235916   2.059      2.83       2.375      2.713      2.95       1.659      1.317      1.297      1.128      1.775      0.2122271  0.2122271  0.2700712  23.88464   1318.049   1.625      0.3131008  0.4062982  40.126     0.1752851  0.03452567 0.3160446 
928.2      0.22       1          3          2.238089   1.821      2.717      2.21       2.463      2.987      1.676      1.152      1.209      1.137      1.661      0.2059774  0.2059774  0.2642473  18.29616   1312.73    1.517      0.2718601  0.3698507  40.257     0.1765754  0.03458272 0.3185681 
928.4      0.22       1          3          2.223275   1.758      2.528      2.095      2.388      3.038      1.651      1.184      1.095      1.141      1.711      0.2032668  0.2032668  0.2616589  16.2987    1349.41    1.507      0.2611208  0.360598   40.322     0.1769456  0.03419574 0.3196954 
928.6      0.22       1          3          2.183631   1.846      2.314      2.121      2.313      3.088      1.609      1.203      1.316      1.148      1.775      0.198948   0.198948   0.2571292  13.55683   1452.694   1.546      0.2561426  0.356513   40.322     0.1763066  0.03318127 0.3194319 
928.8      0.22       1          3          2.122495   1.921      2.314      2.146      2.213      3.2        1.651      1.114      1.342      1.155      1.825      0.1942455  0.1942455  0.2525995  11.09318   1627.677   1.578      0.2477496  0.3499797  40.453     0.1768304  0.03167553 0.3219852 
929        0.22       1          3          2.052876   1.934      2.377      2.171      2.15       3.163      1.487      1.462      1.013      1.173      1.876      0.1829107  0.1829107  0.2409517  6.840829   1852.747   1.61       0.2147407  0.3217134  40.453     0.1758818  0.03004387 0.3217196 
929.2      0.219      1          3          1.995171   1.896      2.365      2.197      2.05       3.125      1.175      0.988      1.139      1.177      1.94       0.1801103  0.1801103  0.2383633  6.070688   2062.71    1.648      0.2127825  0.3209892  40.584     0.1765241  0.02875534 0.3242929 
929.4      0.219      1          3          1.97029    1.821      2.327      2.222      1.962      3.075      1.257      1.216      1.158      1.161      1.99       0.1903631  0.1903631  0.2487169  9.400347   2160.433   1.68       0.2565801  0.3589289  40.649     0.1768298  0.02821694 0.3254426 
929.6      0.219      1          3          1.987123   1.733      2.264      2.248      1.875      3.05       1.668      1.317      1.259      1.163      2.041      0.1888149  0.1888149  0.2474227  8.799713   2093.827   1.712      0.2578743  0.3608398  40.715     0.1775994  0.02858007 0.3266187 
929.8      0.219      1          3          2.035472   1.695      2.189      2.273      1.875      3.088      1.438      1.032      1.051      1.172      2.092      0.1823866  0.1823866  0.2415988  6.689597   1913.717   1.743      0.241558   0.348344   40.845     0.1794309  0.02964928 0.3292125 
930        0.219      1          3          2.092957   1.783      2.214      2.298      1.95       3.112      1.503      1.197      1.165      1.171      2.142      0.1828602  0.1828602  0.2422459  6.826111   1719.624   1.774      0.2495038  0.3557665  40.845     0.1799566  0.03097268 0.3289404 
930.2      0.219      1          3          2.137876   1.884      2.352      2.311      2.088      3.125      1.938      1.228      1.158      1.156      2.206      0.192193   0.192193   0.2519524  10.16341   1581.764   1.806      0.2873496  0.3887794  40.911     0.1810889  0.03204778 0.33013   
930.4      0.219      1          3          2.155884   1.946      2.352      2.273      2.25       3.15       2.136      1.443      1.101      1.17       2.256      0.1831059  0.1831059  0.242893   6.898002   1529.65    1.812      0.2577993  0.3639045  40.911     0.1811732  0.0324892  0.3298571 
930.6      0.22       1          3          2.141278   1.946      2.352      2.248      2.388      3.15       2.037      1.512      1.316      1.185      2.32       0.1732653  0.1732653  0.2331865  4.533691   1571.785   1.827      0.2242246  0.3361686  40.976     0.1815795  0.03213071 0.3310283 
930.8      0.219      1          3          2.100095   2.072      2.516      2.222      2.513      3.15       2.226      1.039      1.146      1.165      2.282      0.1859327  0.1859327  0.2461285  7.781842   1696.941   1.801      0.2655411  0.3708999  41.107     0.1824116  0.03114107 0.3336822 
931        0.219      1          3          2.051735   2.235      2.654      2.197      2.638      3.138      2.243      1.544      1.24       1.178      2.244      0.1777513  0.1777513  0.2377162  5.489624   1856.686   1.776      0.2311576  0.3412692  41.107     0.181712   0.03001783 0.3334062 
931.2      0.219      1          3          2.020519   2.373      3.057      2.159      2.763      3.1        2.037      1.317      1.443      1.185      2.18       0.1733831  0.1733831  0.2331865  4.556534   1967.698   1.736      0.2058707  0.3191845  41.107     0.1812224  0.0293144  0.3331304 
931.4      0.219      1          3          2.021006   2.273      3.17       2.133      2.838      3.063      1.815      1.216      1.272      1.184      2.142      0.1743172  0.1743172  0.2338336  4.741712   1965.919   1.71       0.2039609  0.3166663  41.041     0.1803528  0.02932523 0.3313803 
931.6      0.219      1          3          2.050775   2.21       2.994      2.171      2.862      3.075      1.659      1.089      1.215      1.183      2.104      0.1746558  0.1746558  0.2344807  4.810681   1860.005   1.71       0.2053051  0.3183188  41.107     0.1812877  0.02999594 0.3325795 
931.8      0.219      1          3          2.094499   2.16       2.994      2.197      2.8        3.1        1.585      1.26       1.127      1.195      2.13       0.1667687  0.1667687  0.2267155  3.436527   1714.697   1.73       0.1771718  0.295398   41.107     0.1816567  0.03100899 0.3323044 
932        0.219      1          3          2.131805   2.097      3.031      2.197      2.688      3.075      1.626      0.975      1.089      1.183      2.117      0.1744323  0.1744323  0.2344807  4.765049   1599.73    1.725      0.2076724  0.3209275  41.107     0.1819649  0.03190032 0.3320296 
932.2      0.219      1          3          2.143617   2.034      2.918      2.21       2.55       3.063      1.79       0.868      0.931      1.183      2.13       0.1741903  0.1741903  0.2344807  4.716113   1564.959   1.735      0.2088625  0.3224962  41.172     0.1826984  0.03218786 0.3332089 
