~Version
 VERS              .         2.0                           : CWLS LOG ASCII STANDARD - VERSION 2.0
 WRAP              .         NO                            : ONE LINE PER DEPTH STEP
 DLM               .         SPACE                         : DELIMITING CHARACTER(SPACE TAB OR COMMA)
~Well Information
#_______________________________________________________________________________
#
#PARAMETER_NAME    .UNIT     VALUE                         : DESCRIPTION
#_______________________________________________________________________________
STRT               .M        900                           : First reference value
STOP               .M        1276                          : Last reference value
STEP               .M        0.2                           : Step increment
NULL               .         -9999                         : Missing value
COMP               .                                       : Company
WELL               .         1784                          : Well name
FLD                .         Узень                         : Field
LOC                .                                       : Location
CNTY               .                                       : County
STAT               .                                       : State
CTRY               .                                       : Country
SRVC               .         UPGF                          : Service Company
DATE               .         28.04.1972                    : Date
UWI                .                                       : Unique Well ID
3кв_для_заказчика  .         5                             : 
Block              .         7                             : 
Category           .         Нагнетательная                : 
Condition          .         Ликвидированная               : 
Date               .         27.04.1972                    : 
EREF               .m        85.7                          : 100.8
Gor                .         14                            : 
Gorizont           .         14                            : 14
Interpretator      .         Кайсанов Е.К                  : 
Kupol              .         Основной                      : osnovnoi
METD               .         GZ1, GZ2, GZ4, GZ5            : Метод
Mud                .                                       : 
Mud_density        .                                       : 
Mud_resistivity    .                                       : 
NGDU               .         НГДУ-2                        : 
ORIGINALWELLNAME   .         1784                          : 
SCAL               .         200                           : Масштаб по глубине
Spud_date          .         1972                          : 1961
Viscosity          .                                       : 
X                  .m        43899.5                       : 46154
Y                  .m        85571.93                      : 85761.93
YEAR               .         2019                          : 
временно           .         5                             : 
~Parameter Information Block
#_______________________________________________________________________________
#
#PARAMETER_NAME    .UNIT     VALUE                         : DESCRIPTION
#_______________________________________________________________________________
SET                .         LQC_KAZNIPI_Petrel            : 
TLFamily_CALI      .         Caliper                       : 
TLFamily_COLL      .         Net Reservoir Flag            : 
TLFamily_CSAT      .         Fluid Code                    : 
TLFamily_DEPT      .         Measured Depth                : 
TLFamily_GR        .         Russian Gamma Ray             : 
TLFamily_GZ1       .         Gradient 045                  : 
TLFamily_GZ2       .         Gradient 105                  : 
TLFamily_GZ3       .         Gradient 225                  : 
TLFamily_GZ4       .         Gradient 425                  : 
TLFamily_GZ5       .         Gradient 850                  : 
TLFamily_LLS       .         Lateral Log Resistivity       : 
TLFamily_MINV      .         Micro Gradient Resistivity    : 
TLFamily_MNOR      .         Micro Resistivity             : 
TLFamily_NGLD      .         Neutron Far                   : 
TLFamily_OGZ3      .         Gradient Inverted 225         : 
TLFamily_PHIE      .         Effective Porosity            : 
TLFamily_PHIEN     .         Effective Porosity            : 
TLFamily_PHIT      .         Porosity                      : 
TLFamily_PRMB      .         Permeability                  : 
TLFamily_PRMB_DGR  .         Permeability                  : 
TLFamily_RT        .         Formation Resistivity         : 
TLFamily_SOIL_ARCHIE .         Oil Saturation                : 
TLFamily_SOIL_DW   .         Oil Saturation                : 
TLFamily_SP        .         Spontaneous Potential         : 
TLFamily_VSH_FIN   .         Shale Volume                  : 
TLFamily_VSH_GR    .         Shale Volume                  : 
TLFamily_VSH_SP    .         Shale Volume                  : 
~Curve Information
#_______________________________________________________________________________
#
#LOGNAME           .UNIT     LOG_ID                        : DESCRIPTION
#_______________________________________________________________________________
DEPT               .M                                      : Колонка глубины 
CALI               .м                                      : Каверномер 
COLL               .unitless                               :  
CSAT               .unitless                               :  
GR                 .uR/h                                   : Гамма каротаж 
GZ1                .Ohmm                                   : A0.4M0.1N 
GZ2                .Ohmm                                   : A1.0M0.1N 
GZ3                .Ohmm                                   : A2M0.5N 
GZ4                .Ohmm                                   : A4M0.5N 
GZ5                .Ohmm                                   : A8M1N 
LLS                .Ohmm                                   : Боковой каротаж 
MINV               .Ohmm                                   : Микро-градиент зонд 
MNOR               .Ohmm                                   : Микро-потенциал зонд 
NGLD               .у.е.                                   : Показания зонда НГК-60 аппаратуры ДРСТ-3-90 
OGZ3               .Ohmm                                   : N0.5M2A 
PHIE               .v/v                                    : Описание 
PHIEN              .v/v                                    :  
PHIT               .v/v                                    : Описание 
PRMB               .mD                                     :  
PRMB_DGR           .mD                                     :  
RT                 .ohmm                                   : УЭС пласта 
SOIL_ARCHIE        .v/v                                    :  
SOIL_DW            .v/v                                    :  
SP                 .мВ                                     : Потенциал самополяризации 
VSH_FIN            .v/v                                    : Описание 
VSH_GR             .v/v                                    : Shale volume 
VSH_SP             .v/v                                    : Shale Volume 
~Ascii
# ...
948.6      0.219      1          3          2.209874   2.298      3.635      3.302      3.362      7.406      2.834      1.222      1.158      1.147      14.325     0.1651566  0.1651566  0.2577763  3.208186   1383.475   4.294      0.45836    0.5837337  49.015     0.2806657  0.03384939 0.5274821 
948.8      0.219      1          3          2.321864   2.662      4.453      3.517      5.525      10.438     4.329      0.944      1.278      1.151      20.093     0.1535132  0.1535132  0.2551879  1.952517   1123.286   4.789      0.4515604  0.5916081  50.453     0.3081051  0.03685507 0.5793552 
949        0.22       1          3          2.419159   2.763      4.39       5.524      7.712999   11.063     4.83       2.031      1.664      1.17       18.635     0.1349657  0.1349657  0.242893   0.8852198  937.3077   6.817      0.4801554  0.6288695  51.368     0.3270524  0.03968219 0.6144225 
949.2      0.221      1          3          2.505231   3.039      3.874      5.219      7.612999   10.5       5.381      1.443      1.367      1.168      17.177     0.130632   0.130632   0.2441872  0.7358322  798.6208   6.404      0.449249   0.6134119  52.153     0.3441068  0.04236349 0.6458501 
949.4      0.222      1          3          2.585489   3.453      4.314      4.914      6.563      9          6.448      3.098      3.06       1.155      15.593     0.1345988  0.1345988  0.2525995  0.8714747  687.8558   5.978      0.4457971  0.6126027  52.741     0.3575779  0.04502663 0.6701291 
949.6      0.223      -9999      -9999      2.664296   3.843      4.855      4.61       5.737999   7.05       5.381      3.819      1.784      1.138      14.135     0.1405372  0.1405372  0.2636002  1.122657   594.0546   5.562      0.447874   0.615219   53.394     0.3729183  0.04780446 0.6980321 
949.8      0.223      -9999      -9999      2.7468     3.303      5.710999   4.305      5.075      5.725      4.468      2.226      2.972      1.171      12.614     0.1158707  0.1158707  0.2422459  0.3920709  509.5279   5.135      0.3218618  0.5456375  53.786     0.3829551  0.05089641 0.7150139 
950        0.224      -9999      -9999      2.834031   3.315      6.403      4.013      4.113      4.488      4.936      3.029      2.011      1.173      10.907     0.1116369  0.1116369  0.2409517  0.327299   433.2021   4.694      0.2693693  0.5164165  54.113     0.391863   0.05438329 0.7293428 
950.2      0.224      -9999      -9999      2.920775   3.064      6.289      3.708      3.25       3.8        7.475      2.043      2.492      1.176      9.902      0.1066818  0.1066818  0.2390104  0.2649496  368.6435   4.316      0.2093557  0.4844112  54.44      0.4009959  0.05808756 0.7439041 
950.4      0.223      -9999      -9999      2.991971   3.466      7.396      3.403      2.713      3.513      10.309     1.039      1.815      1.219      8.897999   0.07588255 0.07588255 0.2111851  0.07123393 322.9121   3.939      0          0.3391047  54.767     0.4100078  0.06131566 0.7586999 
950.6      0.222      -9999      -9999      3.020159   4.044      8.252      3.137      2.475      3.138      10.391     3.793      3.66       1.274      7.893001   0.03966038 0.03966038 0.1755946  0.01519723 306.4152   3.592      0          0.03122666 54.832     0.4119218  0.06264275 0.7612008 
950.8      0.22       -9999      -9999      2.983532   4.621      9.56       3.048      2.425      2.975      7.352      3.061      2.864      1.322      7.086      0.01       0          0.1345338  0.004289259 38.81131   3.41       0          0          55.159     0.4179417  0.145643   0.6902405 
951        0.219      -9999      -9999      2.899057   3.893      8.239      5.79       2.4        2.788      5.955      2.934      2.801      1.293      6.769      0.01595017 0.01595017 0.1532997  0.008468727 45.10661   4.993      0          0.0255086  55.29      0.4162107  0.1369723  0.6954492 
951.2      0.218      -9999      -9999      2.821735   3.868      7.736001   6.895      2.288      2.625      7.228      1.746      1.942      1.252      6.478      0.04189517 0.04189517 0.1798308  0.0256084  51.75995   5.344      0          0.3077195  55.551     0.4179868  0.1294891  0.7064845 
951.4      0.219      -9999      -9999      2.798927   4.194      8.679001   7.642      2.125      2.45       6.325      3.793      3.351      1.251      6.174      0.04201742 0.04201742 0.1804779  0.02574227 53.90381   5.464      0          0.3174583  55.682     0.4195771  0.1273609  0.7117933 
951.6      0.219      -9999      -9999      2.83672    4.194      10.063     8.389      2.1        2.425      5.257      3.787      2.77       1.267      6.148      0.03019749 0.03019749 0.1701243  0.01554938 50.39802   5.677      0          0.246068   55.813     0.4240207  0.1309067  0.7171347 
951.8      0.219      -9999      -9999      2.915715   3.667      9.308      9.206      2.3        2.375      5.134      3.749      2.776      1.234      6.63       0.04988426 0.04988426 0.1914786  0.03600476 43.7892    6.167      0          0.409216   55.878     0.4290738  0.1386402  0.7195074 
952        0.219      -9999      -9999      3.024032   4.044      8.302      9.650999   2.6        2.338      6.53       2.258      1.676      1.205      7.124      0.06588791 0.06588791 0.2102445  0.07125021 36.11277   6.558      0.1259224  0.5016017  56.009     0.4374442  0.1499924  0.7248959 
952.2      0.22       -9999      -9999      3.163548   4.621      9.245      10.73      3          2.3        8.091      1.948      3.799      1.21       7.162001   0.05961703 0.05961703 0.207009   0.05452986 28.17369   6.872      0.07818931 0.4935586  56.074     0.4466422  0.1659949  0.7272897 
952.4      0.219      -9999      -9999      3.331517   4.709      11.132     11.81      3.3        2.25       7.515      3.073      3.572      1.238      6.769      0.03803862 0.03803862 0.1888902  0.0217245  20.89485   6.884      0          0.3946473  56.074     0.4571259  0.1875418  0.72671   
952.6      0.219      -9999      -9999      3.509024   4.244      11.258     12.825     3.588      2.188      3.762      1.866      1.923      1.213      6.388999   0.05054149 0.05054149 0.2050677  0.03702826 15.23574   6.823      0          0.4643313  56.009     0.4682611  0.2133593  0.723163  
952.8      0.219      -9999      -9999      3.67194    3.617      7.987      13.397     3.862      2.025      3.097      2.549      1.923      1.163      5.996      0.07856777 0.07856777 0.2374227  0.1223625  11.40153   6.627      0.2397206  0.5645187  56.009     0.4813786  0.2401711  0.722586  
953        0.219      -9999      -9999      3.810699   3.051      6.654      12.508     4.2        1.875      3.121      2.365      1.582      1.139      5.907      0.08998956 0.08998956 0.2529531  0.1991623  8.907016   6.42       0.3056799  0.5925239  56.009     0.4938288  0.2656482  0.7220095 
953.2      0.218      -9999      -9999      3.932847   2.976      6.527999   11.111     5.113      1.738      3.146      2.195      1.563      1.135      6.072      0.088605   0.088605   0.2555415  0.1877422  7.166988   6.282      0.2899933  0.5886158  56.009     0.5058682  0.2903031  0.7214333 
953.4      0.218      -9999      -9999      4.04071    2.788      5.925001   9.964999   5.875      1.675      3.426      1.98       1.796      1.13       6.212      0.08900987 0.08900987 0.258777   0.1910122  5.915364   6.123      0.2839602  0.5871506  55.878     0.5144458  0.3139701  0.7149215 
953.6      0.218      -9999      -9999      4.117562   2.876      6.013      8.818      6.287001   1.6        3.45       3.775      1.575      1.142      6.402      0.07933608 0.07933608 0.2510118  0.1264384  5.159301   5.935      0.2053386  0.5568964  55.747     0.5202295  0.3320011  0.7084579 
953.8      0.218      -9999      -9999      4.148562   2.926      4.956      7.672      6.388      1.525      3.738      3.787      2.182      1.165      6.947      0.06425617 0.06425617 0.2361285  0.06646032 4.882414   5.833      0.05887426 0.5052021  55.617     0.5208253  0.3395641  0.7020866 
