~Version
 VERS              .         2.0                           : CWLS LOG ASCII STANDARD - VERSION 2.0
 WRAP              .         NO                            : ONE LINE PER DEPTH STEP
 DLM               .         SPACE                         : DELIMITING CHARACTER(SPACE TAB OR COMMA)
~Well Information
#_______________________________________________________________________________
#
#PARAMETER_NAME    .UNIT     VALUE                         : DESCRIPTION
#_______________________________________________________________________________
STRT               .M        900                           : First reference value
STOP               .M        1276                          : Last reference value
STEP               .M        0.2                           : Step increment
NULL               .         -9999                         : Missing value
COMP               .                                       : Company
WELL               .         1784                          : Well name
FLD                .         Узень                         : Field
LOC                .                                       : Location
CNTY               .                                       : County
STAT               .                                       : State
CTRY               .                                       : Country
SRVC               .         UPGF                          : Service Company
DATE               .         28.04.1972                    : Date
UWI                .                                       : Unique Well ID
3кв_для_заказчика  .         5                             : 
Block              .         7                             : 
Category           .         Нагнетательная                : 
Condition          .         Ликвидированная               : 
Date               .         27.04.1972                    : 
EREF               .m        85.7                          : 100.8
Gor                .         14                            : 
Gorizont           .         14                            : 14
Interpretator      .         Кайсанов Е.К                  : 
Kupol              .         Основной                      : osnovnoi
METD               .         GZ1, GZ2, GZ4, GZ5            : Метод
Mud                .                                       : 
Mud_density        .                                       : 
Mud_resistivity    .                                       : 
NGDU               .         НГДУ-2                        : 
ORIGINALWELLNAME   .         1784                          : 
SCAL               .         200                           : Масштаб по глубине
Spud_date          .         1972                          : 1961
Viscosity          .                                       : 
X                  .m        43899.5                       : 46154
Y                  .m        85571.93                      : 85761.93
YEAR               .         2019                          : 
временно           .         5                             : 
~Parameter Information Block
#_______________________________________________________________________________
#
#PARAMETER_NAME    .UNIT     VALUE                         : DESCRIPTION
#_______________________________________________________________________________
SET                .         LQC_KAZNIPI_Petrel            : 
TLFamily_CALI      .         Caliper                       : 
TLFamily_COLL      .         Net Reservoir Flag            : 
TLFamily_CSAT      .         Fluid Code                    : 
TLFamily_DEPT      .         Measured Depth                : 
TLFamily_GR        .         Russian Gamma Ray             : 
TLFamily_GZ1       .         Gradient 045                  : 
TLFamily_GZ2       .         Gradient 105                  : 
TLFamily_GZ3       .         Gradient 225                  : 
TLFamily_GZ4       .         Gradient 425                  : 
TLFamily_GZ5       .         Gradient 850                  : 
TLFamily_LLS       .         Lateral Log Resistivity       : 
TLFamily_MINV      .         Micro Gradient Resistivity    : 
TLFamily_MNOR      .         Micro Resistivity             : 
TLFamily_NGLD      .         Neutron Far                   : 
TLFamily_OGZ3      .         Gradient Inverted 225         : 
TLFamily_PHIE      .         Effective Porosity            : 
TLFamily_PHIEN     .         Effective Porosity            : 
TLFamily_PHIT      .         Porosity                      : 
TLFamily_PRMB      .         Permeability                  : 
TLFamily_PRMB_DGR  .         Permeability                  : 
TLFamily_RT        .         Formation Resistivity         : 
TLFamily_SOIL_ARCHIE .         Oil Saturation                : 
TLFamily_SOIL_DW   .         Oil Saturation                : 
TLFamily_SP        .         Spontaneous Potential         : 
TLFamily_VSH_FIN   .         Shale Volume                  : 
TLFamily_VSH_GR    .         Shale Volume                  : 
TLFamily_VSH_SP    .         Shale Volume                  : 
~Curve Information
#_______________________________________________________________________________
#
#LOGNAME           .UNIT     LOG_ID                        : DESCRIPTION
#_______________________________________________________________________________
DEPT               .M                                      : Колонка глубины 
CALI               .м                                      : Каверномер 
COLL               .unitless                               :  
CSAT               .unitless                               :  
GR                 .uR/h                                   : Гамма каротаж 
GZ1                .Ohmm                                   : A0.4M0.1N 
GZ2                .Ohmm                                   : A1.0M0.1N 
GZ3                .Ohmm                                   : A2M0.5N 
GZ4                .Ohmm                                   : A4M0.5N 
GZ5                .Ohmm                                   : A8M1N 
LLS                .Ohmm                                   : Боковой каротаж 
MINV               .Ohmm                                   : Микро-градиент зонд 
MNOR               .Ohmm                                   : Микро-потенциал зонд 
NGLD               .у.е.                                   : Показания зонда НГК-60 аппаратуры ДРСТ-3-90 
OGZ3               .Ohmm                                   : N0.5M2A 
PHIE               .v/v                                    : Описание 
PHIEN              .v/v                                    :  
PHIT               .v/v                                    : Описание 
PRMB               .mD                                     :  
PRMB_DGR           .mD                                     :  
RT                 .ohmm                                   : УЭС пласта 
SOIL_ARCHIE        .v/v                                    :  
SOIL_DW            .v/v                                    :  
SP                 .мВ                                     : Потенциал самополяризации 
VSH_FIN            .v/v                                    : Описание 
VSH_GR             .v/v                                    : Shale volume 
VSH_SP             .v/v                                    : Shale Volume 
~Ascii
# ...
1121.4     0.232      -9999      -9999      6.536983   2.11       3.711      3.695      1.775      1.813      4.674      1.418      1.386      1.146      2.916      0.09098533 0.09098533 0.2697252  0.4554208  9.814314   2.514      0.07619952 0.3994877  51.891     0.5416359  0.2553316  0.5416359 
1121.6     0.236      -9999      -9999      6.565718   1.934      3.283      3.53       1.538      1.6        4.928      1.222      1.139      1.16       3.283      0.0664057  0.0664057  0.262392   0.207097   9.253825   2.553      0          0.3550622  53.264     0.5938979  0.2615369  0.5938979 
1121.8     0.24       -9999      -9999      6.554722   1.695      2.956      3.378      1.388      1.413      4.683      1.392      1.5        1.143      3.79       0.06114579 0.06114579 0.2712966  0.2163954  9.464412   2.665      0          0.3843792  54.309     0.6368206  0.2591448  0.6368206 
1122       0.243      -9999      -9999      6.483002   1.67       2.591      3.213      1.288      1.275      2.103      0.982      1.139      1.135      4.297      0.05861392 0.05861392 0.275487   0.2434812  10.96069   2.858      0.02483279 0.416961   54.767     0.6571912  0.2440696  0.6571912 
1122.2     0.247      -9999      -9999      6.36351    1.783      2.314      3.073      1.225      1.238      2.161      1.159      1.329      1.133      4.792      0.05555796 0.05555796 0.2765346  0.2813513  13.99715   2.941      0.06417782 0.4331744  55.028     0.6696262  0.2208757  0.6696262 
1122.4     0.251      -9999      -9999      6.231859   1.733      2.025      3.022      1.25       1.125      2.25       0.754      0.899      1.115      5.299      0.07627897 0.07627897 0.285963   0.6298336  18.32522   2.996      0.1937306  0.48178    54.179     0.6354061  0.197865   0.6354061 
1122.6     0.255      -9999      -9999      6.118324   1.607      2.025      2.921      1.2        1.138      2.152      0.363      0.615      1.083      5.806      0.1080476  0.1080476  0.3027246  2.122036   23.11834   3.079      0.3326243  0.5430838  53.002     0.5899304  0.1799555  0.5899304 
1122.8     0.258      -9999      -9999      6.028003   1.469      2.164      2.692      1.313      1.138      2.168      0.634      0.659      1.054      6.313      0.1627814  0.1627814  0.3179148  12.02058   27.81203   3.109      0.4573626  0.5972362  49.538     0.4701012  0.1668729  0.4701012 
1123       0.238      -9999      -9999      5.940345   1.356      2.239      2.463      1.587      1.138      1.84       0.4        0.811      1.08       6.820001   0.1612726  0.1612726  0.304296   9.940901   33.2768    3.02       0.4387996  0.5766189  48.296     0.4334042  0.1550861  0.4334042 
1123.2     0.223      1          2          5.832021   1.482      2.34       2.413      1.925      1.15       1.577      0.969      1.285      1.1        7.353      0.1885464  0.1885464  0.29382    18.52602   41.53537   2.895      0.4630018  0.5715241  43.721     0.3190109  0.1416642  0.3190109 
1123.4     0.215      1          2          5.706772   1.796      2.604      2.578      2.35       1.2        1.906      0.956      1.335      1.135      7.15       0.1804526  0.1804526  0.275487   12.25797   53.67064   2.907      0.4411213  0.5470173  42.153     0.287983   0.1275866  0.287983  
1123.6     0.214      1          2          5.597047   2.034      2.893      2.73       2.775      1.288      2.391      0.584      1.184      1.163      6.947      0.1858256  0.1858256  0.2608206  12.15981   67.18283   3.032      0.4515963  0.5418423  38.427     0.2272576  0.1164082  0.2272576 
1123.8     0.214      1          2          5.533479   2.235      3.094      2.895      3.163      1.388      2.867      1.266      1.468      1.185      7.099      0.1824567  0.1824567  0.249297   9.72048    76.51675   3.136      0.4473178  0.5322253  36.466     0.2025465  0.1103859  0.2025465 
1124       0.213      1          2          5.521864   2.361      3.069      3.048      3.55       1.5        3.171      1.077      1.24       1.193      7.606      0.1846085  0.1846085  0.2451066  9.794359   78.35733   3.29       0.460049   0.5389602  34.636     0.1833275  0.1093197  0.1833275 
1124.2     0.212      1          2          5.551228   2.411      3.182      3.2        3.862      1.5        3.277      0.982      1.278      1.202      8.05       0.1851433  0.1851433  0.2403924  9.142995   73.78738   3.482      0.4703382  0.5451578  32.806     0.1674214  0.1120353  0.1674214 
1124.4     0.212      1          2          5.603206   2.474      3.434      3.365      4.113      1.525      3.433      0.906      1.297      1.184      8.494      0.1978432  0.1978432  0.2498208  14.53505   66.34138   3.664      0.5073461  0.5764149  31.434     0.1575079  0.1170089  0.1575079 
1124.6     0.211      1          2          5.643997   2.587      3.736      3.492      4.313      1.6        3.401      0.919      1.266      1.182      8.937      0.2014203  0.2014203  0.2508684  15.93901   61.02819   3.937      0.5281096  0.5941904  30.192     0.1498427  0.1210661  0.1498427 
1124.8     0.212      1          2          5.628311   2.675      3.975      3.581      4.463      1.625      3.54       0.824      1.177      1.165      9.064      0.2124888  0.2124888  0.259773   25.18017   63.019     4.107      0.5576834  0.6189852  28.95      0.1432854  0.1194895  0.1432854 
1125       0.212      1          2          5.533509   2.775      4.478      3.632      4.55       1.725      3.803      0.893      1.253      1.143      9.064      0.2255706  0.2255706  0.2712966  46.07873   76.51205   4.149      0.5837529  0.6402116  27.904     0.1385637  0.1103887  0.1385637 
1125.2     0.212      1          2          5.388772   2.876      4.516      3.822      4.588      1.825      4.033      0.938      1.253      1.153      8.874      0.2210103  0.2210103  0.2660586  41.13926   102.8892   4.274      0.5852889  0.6397192  27.381     0.1365099  0.09781297 0.1365099 
1125.4     0.212      1          2          5.258603   3.026      4.78       4.025      4.613      1.925      4.181      0.994      1.329      1.141      8.747      0.2287707  0.2287707  0.2723442  60.55267   134.2957   4.41       0.6051588  0.6558734  26.139     0.1320409  0.08773148 0.1320409 
1125.6     0.212      1          2          5.195238   3.19       5.208      4.216001   4.662      2.063      4.428      0.893      1.449      1.118      8.81       0.2415425  0.2415425  0.2843916  107.0093   152.8901   4.562      0.6297184  0.6776659  25.42      0.1298456  0.08320688 0.1298456 
1125.8     0.212      1          2          5.204856   3.34       5.535      4.406      4.75       2.163      4.887      0.938      1.335      1.139      8.937      0.2311927  0.2311927  0.2733918  68.07443   149.9102   4.722      0.6214877  0.6698124  24.702     0.127876   0.08387832 0.127876  
1126       0.213      1          2          5.254594   3.478      5.937      4.762      4.863      2.325      5.092      0.931      1.398      1.144      9.064      0.2287765  0.2287765  0.2707728  59.7769    135.4019   4.995      0.6271573  0.6753973  24.44      0.1272616  0.08743811 0.1272616 
1126.2     0.213      1          2          5.310181   3.378      6.125999   5.359      5.025      2.375      5.339      0.855      1.342      1.149      9.253999   0.2264069  0.2264069  0.2681538  52.35346   120.8427   5.43       0.6372785  0.6851383  24.113     0.1265058  0.0915955  0.1265058 
1126.4     0.213      1          2          5.362663   3.391      6.465      6.108      5.199999   2.6        5.503      1.007      1.285      1.171      9.380999   0.215069   0.215069   0.2566302  31.30838   108.5363   5.919      0.6349885  0.6835724  23.852     0.125943   0.09570198 0.125943  
1126.6     0.213      1          2          5.415648   3.591      6.868001   6.513999   5.412      2.85       5.586      1.013      1.405      1.151      9.380999   0.2255196  0.2255196  0.2671062  47.4339    97.38295   6.151      0.6548733  0.7022263  23.852     0.12602    0.1000346  0.12602   
