~Version
 VERS              .         2.0                           : CWLS LOG ASCII STANDARD - VERSION 2.0
 WRAP              .         NO                            : ONE LINE PER DEPTH STEP
 DLM               .         SPACE                         : DELIMITING CHARACTER(SPACE TAB OR COMMA)
~Well Information
#_______________________________________________________________________________
#
#PARAMETER_NAME    .UNIT     VALUE                         : DESCRIPTION
#_______________________________________________________________________________
STRT               .м        906                           : First reference value
STOP               .м        1170                          : Last reference value
STEP               .м        0.2                           : Step increment
NULL               .         -9999                         : Missing value
COMP               .                                       : Company
WELL               .         3668                          : Well name
FLD                .         Узень                         : Field
LOC                .                                       : Location
CNTY               .                                       : County
STAT               .                                       : State
CTRY               .                                       : Country
SRVC               .                                       : Service Company
DATE               .                                       : Date
UWI                .                                       : Unique Well ID
Block              .         6а                            : 
Category           .         Нефтяная                      : 
Condition          .         В работе                      : 
Date               .         30.11.2006                    : 
EREF               .m        81.3                          : 100.8
Gorizont           .         13                            : 14
Interpretator      .         Танауова А.Б.                 : 
Kupol              .         Основной                      : osnovnoi
Mud                .         0                             : 
Mud_density        .         0                             : 
Mud_resistivity    .         0                             : 
NGDU               .         НГДУ-2                        : 
ORIGINALWELLNAME   .         3668                          : 
Spud_date          .         2007                          : 1961
Viscosity          .         0                             : 
X                  .m        44346.52                      : 46154
Y                  .m        85016.13                      : 85761.93
YEAR               .         2019                          : 
~Parameter Information Block
#_______________________________________________________________________________
#
#PARAMETER_NAME    .UNIT     VALUE                         : DESCRIPTION
#_______________________________________________________________________________
SET                .         LQC_KAZNIPI_Petrel            : 
TLFamily_CALI      .         Caliper                       : 
TLFamily_COLL      .         Net Reservoir Flag            : 
TLFamily_CSAT      .         Fluid Code                    : 
TLFamily_DEPT      .         Measured Depth                : 
TLFamily_DT        .         Compressional Slowness        : 
TLFamily_GR        .         Russian Gamma Ray             : 
TLFamily_LLS       .         Lateral Log Resistivity       : 
TLFamily_NPHI      .         Neutron Porosity              : 
TLFamily_PHIE      .         Effective Porosity            : 
TLFamily_PHIEN     .         Effective Porosity            : 
TLFamily_PHIES     .         Effective Porosity            : 
TLFamily_PHIT      .         Porosity                      : 
TLFamily_PRMB      .         Permeability                  : 
TLFamily_PRMB_DGR  .         Permeability                  : 
TLFamily_RT        .         Formation Resistivity         : 
TLFamily_SOIL_ARCHIE .         Oil Saturation                : 
TLFamily_SOIL_DW   .         Oil Saturation                : 
TLFamily_SP        .         Spontaneous Potential         : 
TLFamily_VSH_FIN   .         Shale Volume                  : 
TLFamily_VSH_GR    .         Shale Volume                  : 
TLFamily_VSH_SP    .         Shale Volume                  : 
~Curve Information
#_______________________________________________________________________________
#
#LOGNAME           .UNIT     LOG_ID                        : DESCRIPTION
#_______________________________________________________________________________
DEPT               .м                                      : Колонка глубины 
CALI               .м                                      : Каверномер 
COLL               .unitless                               : Описание 
CSAT               .unitless                               :  
DT                 .мкс/м                                  : Интервальное время пробега продольной волны 
GR                 .uR/h                                   : Гамма каротаж 
LLS                .Ohmm                                   : Боковой каротаж 
NPHI               .v/v                                    : Водородосодержание по НКТ 
PHIE               .v/v                                    : Описание 
PHIEN              .v/v                                    :  
PHIES              .v/v                                    :  
PHIT               .v/v                                    : Описание 
PRMB               .mD                                     :  
PRMB_DGR           .mD                                     :  
RT                 .ohmm                                   : УЭС пласта 
SOIL_ARCHIE        .v/v                                    :  
SOIL_DW            .v/v                                    :  
SP                 .mV                                     : Потенциал самополяризации 
VSH_FIN            .v/v                                    : Описание 
VSH_GR             .v/v                                    : Shale volume 
VSH_SP             .v/v                                    : Shale Volume 
~Ascii
# ...
1081       0.22       0          0          289.875    8.554      3.824      0.266      0.1319459  0.1339776  0.1299141  0.2606736  0.7782441  19.87584   3.824      0.3045699  0.521193   25.944     0.4000678  0.2063491  0.6087256 
1081.2     0.226      0          0          297.477    8.722      3.778      0.277      0.1416076  0.1440742  0.1391411  0.2712162  1.175099   17.62334   3.778      0.3423578  0.5425341  25.892     0.4028055  0.2094753  0.6045654 
1081.4     0.228      0          0          298.578    9.135      3.626      0.278      0.13851    0.1406573  0.1363628  0.2724253  1.029675   13.11207   3.626      0.3165222  0.5303126  25.92      0.4161899  0.228758   0.6055335 
1081.6     0.229      0          0          301.881    9.548      3.473      0.279      0.1361221  0.1365458  0.1356985  0.2750214  0.9299729  9.75561    3.473      0.2919103  0.5196689  25.962     0.4316795  0.2523833  0.6074011 
1081.8     0.231      0          0          302.982    9.848      3.321      0.282      0.1342244  0.1353549  0.1330938  0.2772099  0.8576671  7.869982   3.321      0.2679859  0.5085663  26.005     0.4443792  0.2674761  0.609338  
1082       0.231      0          0          300.178    9.811      3.266      0.278      0.1306424  0.1315411  0.1297438  0.2734464  0.7361605  8.081246   3.266      0.2446399  0.4950586  26.047     0.443815   0.2630281  0.6112157 
1082.2     0.228      0          0          295.384    9.361      3.416      0.275      0.1312288  0.1338526  0.1286049  0.2688538  0.7548035  11.1532    3.416      0.2632695  0.5019186  26.089     0.4277193  0.2386153  0.6130981 
1082.4     0.223      0          0          288.685    8.717      3.566      0.272      0.1316224  0.1374033  0.1258415  0.2628602  0.7675802  17.68653   3.566      0.2798585  0.5062491  26.131     0.4078688  0.2078264  0.6149856 
1082.6     0.218      0          0          287.569    8.219      3.716      0.261      0.1294144  0.1305683  0.1282606  0.2565912  0.6985981  25.26326   3.716      0.2831644  0.5058748  26.174     0.3952477  0.1888717  0.6169429 
1082.8     0.227      0          0          291.158    8.437      3.69       0.276      0.1372236  0.1433707  0.1310765  0.2665431  0.9747037  21.6125    3.69       0.3165794  0.526421   26.216     0.4019069  0.1899312  0.6188403 
1083       0.228      0          0          293.281    8.751      3.221      0.291      0.1429786  0.1551225  0.1308347  0.2754652  1.245857   17.2612    3.221      0.2971677  0.5110788  26.258     0.41175    0.2036883  0.6207426 
1083.2     0.229      0          0          298.578    9.091      3.07       0.3        0.1498512  0.1630072  0.1366951  0.2834253  1.670188   13.53171   3.07       0.3099525  0.5167421  26.048     0.4151298  0.2190091  0.6063126 
1083.4     0.231      0          0          300.83     9.205      3.093      0.291      0.1481326  0.155389   0.1408762  0.2803594  1.552149   12.47113   3.093      0.3054222  0.5131525  25.809     0.4109425  0.2300643  0.5903485 
1083.6     0.234      0          0          308.487    9.241      3.018      0.284      0.1514684  0.1505594  0.1523774  0.2815789  1.789453   12.1538    3.018      0.3108715  0.5126938  25.57      0.4043654  0.2408927  0.5747446 
1083.8     0.237      0          0          313.884    9.542      2.777      0.291      0.157147   0.156524   0.1577699  0.2882671  2.279822   9.797614   2.777      0.3060316  0.5063564  25.331     0.4075031  0.2573545  0.5594969 
1084       0.235      0          0          318.209    9.918      2.537      0.307      0.1652439  0.1700832  0.1604047  0.298744   3.220152   7.485277   2.537      0.306962   0.5044831  25.092     0.4148995  0.2716307  0.5446014 
1084.2     0.232      0          0          317.295    9.858      2.538      0.31       0.1693644  0.1763018  0.1624271  0.2997261  3.838825   7.813836   2.538      0.3217959  0.5103399  24.853     0.405146   0.2700743  0.5300535 
1084.4     0.228      0          0          314.337    9.444      2.701      0.303      0.1715928  0.1769166  0.1662689  0.2945297  4.221558   10.50974   2.701      0.3487757  0.5227827  24.614     0.3820708  0.2574388  0.5158489 
1084.6     0.231      0          0          315.77     9.379      2.825      0.298      0.1729012  0.1749756  0.1708268  0.2928555  4.463834   11.01039   2.825      0.3665541  0.5331826  24.375     0.3728013  0.2525724  0.5019835 
1084.8     0.233      0          0          319.497    9.528      2.483      0.3        0.1740053  0.1749152  0.1730954  0.2959686  4.679057   9.896312   2.483      0.3307318  0.5064812  24.418     0.379045   0.2666801  0.5036243 
1085       0.235      0          0          322.799    9.98       2.141      0.307      0.1701467  0.17249    0.1678034  0.3013     3.969061   7.160282   2.141      0.2683824  0.4695242  24.812     0.4076061  0.3034544  0.5247981 
1085.2     0.238      0          0          331.12     10.697     1.8        0.34       0.1766809  0.1907022  0.1626597  0.322253   5.244661   4.285373   1.8        0.2319556  0.4527444  25.205     0.4524176  0.3581577  0.5466959 
1085.4     0.241      0          0          335.255    11.288     1.458      0.373      0.180794   0.208813   0.152775   0.3408836  6.25031    2.806888   1.458      0.1689516  0.4176639  25.598     0.4975363  0.4140024  0.569387  
1085.6     0.245      0          0          337.083    11.563     1.429      0.375      0.1783249  0.2063062  0.1503436  0.3428088  5.625578   2.305248   1.429      0.1509717  0.4106649  25.473     0.5111934  0.4585147  0.5610645 
1085.8     0.245      0          0          333.116    11.787     1.429      0.379      0.1750593  0.2069784  0.1431402  0.342788   4.894196   1.963667   1.429      0.1371942  0.4064121  25.3       0.5212775  0.4965345  0.5500114 
1086       0.25       0          0          333.809    12.083     1.429      0.39       0.1755101  0.2124344  0.1385859  0.3486445  4.989202   1.588658   1.429      0.1391247  0.4131406  25.126     0.5380777  0.5355919  0.5390906 
1086.2     0.256      0          0          337.112    12.312     1.429      0.4        0.1779236  0.2180597  0.1377874  0.3553234  5.530121   1.348423   1.429      0.1493042  0.4229923  24.953     0.5513341  0.5742291  0.5284171 
1086.4     0.255      0          0          334.91     12.575     1.509      0.391      0.1666115  0.2032174  0.1300055  0.3497078  3.413552   1.116991   1.509      0.1219484  0.4185235  24.78      0.5690382  0.601487   0.5179306 
1086.6     0.255      0          0          330.618    12.614     1.616      0.376      0.1574164  0.1887529  0.1260799  0.3399907  2.306169   1.086234   1.616      0.1066292  0.4157529  24.606     0.5674155  0.5942032  0.5075741 
1086.8     0.254      0          0          327.394    12.204     1.785      0.375      0.1674463  0.2002996  0.134593   0.337787   3.537281   1.456824   1.785      0.1920263  0.4548193  24.524     0.5293952  0.5399485  0.5023872 
1087       0.239      0          0          323.263    11.439     2.163      0.375      0.1825455  0.2180751  0.1470159  0.3355543  6.735088   2.519264   2.163      0.3151504  0.5190953  24.606     0.4755301  0.46259    0.506162  
1087.2     0.226      0          0          320.598    10.947     2.333      0.369      0.1870523  0.2212826  0.1528221  0.3310834  8.162462   3.583065   2.333      0.3529305  0.5376203  24.688     0.4476286  0.3979405  0.509962  
1087.4     0.228      0          0          317.845    10.659     2.36       0.353      0.181897   0.2097849  0.154009   0.3215381  6.551353   4.40356    2.36       0.340557   0.5268693  24.77      0.4339852  0.3519534  0.5137875 
1087.6     0.23       0          0          311.802    10.207     2.387      0.334      0.175343   0.1973834  0.1533026  0.3085502  4.953771   6.086217   2.387      0.3227653  0.510628   24.852     0.4139896  0.3138492  0.5176384 
1087.8     0.232      0          0          314.602    9.717      2.462      0.324      0.1780066  0.1935687  0.1624445  0.305183   5.549738   8.643829   2.462      0.3412333  0.5178278  24.935     0.3952464  0.2894323  0.5215712 
