~Version
 VERS              .         2.0                           : CWLS LOG ASCII STANDARD - VERSION 2.0
 WRAP              .         NO                            : ONE LINE PER DEPTH STEP
 DLM               .         SPACE                         : DELIMITING CHARACTER(SPACE TAB OR COMMA)
~Well Information
#_______________________________________________________________________________
#
#PARAMETER_NAME    .UNIT     VALUE                         : DESCRIPTION
#_______________________________________________________________________________
STRT               .м        906                           : First reference value
STOP               .м        1170                          : Last reference value
STEP               .м        0.2                           : Step increment
NULL               .         -9999                         : Missing value
COMP               .                                       : Company
WELL               .         3668                          : Well name
FLD                .         Узень                         : Field
LOC                .                                       : Location
CNTY               .                                       : County
STAT               .                                       : State
CTRY               .                                       : Country
SRVC               .                                       : Service Company
DATE               .                                       : Date
UWI                .                                       : Unique Well ID
Block              .         6а                            : 
Category           .         Нефтяная                      : 
Condition          .         В работе                      : 
Date               .         30.11.2006                    : 
EREF               .m        81.3                          : 100.8
Gorizont           .         13                            : 14
Interpretator      .         Танауова А.Б.                 : 
Kupol              .         Основной                      : osnovnoi
Mud                .         0                             : 
Mud_density        .         0                             : 
Mud_resistivity    .         0                             : 
NGDU               .         НГДУ-2                        : 
ORIGINALWELLNAME   .         3668                          : 
Spud_date          .         2007                          : 1961
Viscosity          .         0                             : 
X                  .m        44346.52                      : 46154
Y                  .m        85016.13                      : 85761.93
YEAR               .         2019                          : 
~Parameter Information Block
#_______________________________________________________________________________
#
#PARAMETER_NAME    .UNIT     VALUE                         : DESCRIPTION
#_______________________________________________________________________________
SET                .         LQC_KAZNIPI_Petrel            : 
TLFamily_CALI      .         Caliper                       : 
TLFamily_COLL      .         Net Reservoir Flag            : 
TLFamily_CSAT      .         Fluid Code                    : 
TLFamily_DEPT      .         Measured Depth                : 
TLFamily_DT        .         Compressional Slowness        : 
TLFamily_GR        .         Russian Gamma Ray             : 
TLFamily_LLS       .         Lateral Log Resistivity       : 
TLFamily_NPHI      .         Neutron Porosity              : 
TLFamily_PHIE      .         Effective Porosity            : 
TLFamily_PHIEN     .         Effective Porosity            : 
TLFamily_PHIES     .         Effective Porosity            : 
TLFamily_PHIT      .         Porosity                      : 
TLFamily_PRMB      .         Permeability                  : 
TLFamily_PRMB_DGR  .         Permeability                  : 
TLFamily_RT        .         Formation Resistivity         : 
TLFamily_SOIL_ARCHIE .         Oil Saturation                : 
TLFamily_SOIL_DW   .         Oil Saturation                : 
TLFamily_SP        .         Spontaneous Potential         : 
TLFamily_VSH_FIN   .         Shale Volume                  : 
TLFamily_VSH_GR    .         Shale Volume                  : 
TLFamily_VSH_SP    .         Shale Volume                  : 
~Curve Information
#_______________________________________________________________________________
#
#LOGNAME           .UNIT     LOG_ID                        : DESCRIPTION
#_______________________________________________________________________________
DEPT               .м                                      : Колонка глубины 
CALI               .м                                      : Каверномер 
COLL               .unitless                               : Описание 
CSAT               .unitless                               :  
DT                 .мкс/м                                  : Интервальное время пробега продольной волны 
GR                 .uR/h                                   : Гамма каротаж 
LLS                .Ohmm                                   : Боковой каротаж 
NPHI               .v/v                                    : Водородосодержание по НКТ 
PHIE               .v/v                                    : Описание 
PHIEN              .v/v                                    :  
PHIES              .v/v                                    :  
PHIT               .v/v                                    : Описание 
PRMB               .mD                                     :  
PRMB_DGR           .mD                                     :  
RT                 .ohmm                                   : УЭС пласта 
SOIL_ARCHIE        .v/v                                    :  
SOIL_DW            .v/v                                    :  
SP                 .mV                                     : Потенциал самополяризации 
VSH_FIN            .v/v                                    : Описание 
VSH_GR             .v/v                                    : Shale volume 
VSH_SP             .v/v                                    : Shale Volume 
~Ascii
# ...
1046       0.232      0          0          410.273    12.979     1.296      0.41       0.1954114  0.2098355  0.1809872  0.3905807  11.65871   0.8364337  1.296      0.1792292  0.4486203  22.978     0.606559   0.7109096  0.5152265 
1046.2     0.23       0          0          413.759    12.942     1.246      0.421      0.2029049  0.2216754  0.1841344  0.3972553  16.04905   0.8588871  1.246      0.1908922  0.4515038  23.004     0.6040139  0.6986883  0.5176446 
1046.4     0.229      0          0          420.784    12.992     1.267      0.416      0.2006868  0.2145974  0.1867761  0.3970633  14.60036   0.828685   1.267      0.1894906  0.4535946  23.03      0.610311   0.6979927  0.520073  
1046.6     0.232      0          0          428.491    13.021     1.349      0.387      0.1872799  0.1842109  0.1903488  0.3850083  8.24205    0.8116564  1.349      0.1641465  0.4457963  23.056     0.6145125  0.6925054  0.5225114 
1046.8     0.235      0          0          416.198    12.873     1.324      0.392      0.1902471  0.1937339  0.1867604  0.3835654  9.353976   0.9023827  1.324      0.1682431  0.4426543  23.083     0.6008064  0.6701753  0.5250165 
1047       0.238      0          0          395.462    12.648     1.287      0.406      0.1965749  0.2144353  0.1787146  0.383359   12.25188   1.060112   1.287      0.1807876  0.4415932  23.109     0.5804991  0.636515   0.5274754 
1047.2     0.24       0          0          395.487    12.462     1.251      0.42       0.2085811  0.2335602  0.1836019  0.3903682  20.44492   1.211116   1.251      0.2115862  0.452607   23.135     0.5649691  0.6038883  0.5299445 
1047.4     0.239      0          0          399.866    12.311     1.224      0.414      0.2109347  0.2314264  0.1904429  0.3889521  22.6037    1.349389   1.224      0.2112185  0.4478025  23.161     0.5532534  0.5792665  0.5324236 
1047.6     0.238      0          0          394.361    12.197     1.229      0.39       0.1995647  0.2101205  0.1890089  0.3749552  13.91813   1.464144   1.229      0.1738011  0.4241513  23.187     0.5450893  0.5687922  0.5349131 
1047.8     0.237      0          0          386.866    12.273     1.234      0.383      0.1908455  0.2006496  0.1810413  0.3686452  9.595757   1.386605   1.234      0.1426556  0.4091556  23.213     0.5525768  0.5793263  0.5374127 
1048       0.236      0          0          375.645    12.5       1.238      0.373      0.1747578  0.1838079  0.1657078  0.3592286  4.831663   1.17861    1.238      0.07571565 0.3799922  23.239     0.5733095  0.6064749  0.5399227 
1048.2     0.234      0          0          367.207    12.727     1.243      0.362      0.1586561  0.1655234  0.1517888  0.3502296  2.431382   1.001815   1.243      0          0.3479761  23.265     0.5953838  0.6305507  0.5424428 
1048.4     0.233      0          0          372.994    12.705     1.223      0.378      0.1693344  0.1817916  0.1568772  0.3606463  3.833917   1.017719   1.223      0.04453577 0.3702172  23.291     0.5945708  0.6353683  0.5449733 
1048.6     0.235      0          0          376.746    12.538     1.191      0.396      0.1843817  0.2044273  0.164336   0.3711736  7.283734   1.146976   1.191      0.1017099  0.3930944  23.318     0.5805233  0.6347671  0.5475727 
1048.8     0.235      0          0          375.151    12.672     1.16       0.393      0.1778826  0.1969623  0.1588028  0.3690281  5.52045    1.042051   1.16       0.06165029 0.3743049  23.344     0.5940537  0.656856   0.5501238 
1049       0.236      0          0          372.342    13.068     1.129      0.397      0.1652545  0.1871395  0.1433694  0.3698778  3.221604   0.7847985  1.129      0          0.3488244  23.419     0.6359408  0.6955454  0.5555933 
1049.2     0.238      0          0          365.4      13.144     1.123      0.407      0.1632204  0.1929187  0.1335222  0.3719592  2.953905   0.7432362  1.123      0          0.3463655  23.56      0.6487311  0.7172485  0.5650808 
1049.4     0.238      0          0          356.929    13.097     1.244      0.394      0.1530643  0.1799793  0.1261494  0.361744   1.915495   0.7686718  1.244      0          0.3527581  23.701     0.6485475  0.7073891  0.574708  
1049.6     0.236      0          0          352.525    12.911     1.365      0.361      0.1391417  0.151676   0.1266075  0.343242   1.057792   0.8781627  1.365      0          0.338486   23.842     0.6343153  0.6669594  0.584476  
1049.8     0.235      0          0          355.928    12.459     1.44       0.345      0.1447234  0.1480142  0.1414326  0.3367934  1.342105   1.21372    1.44       0          0.3575251  23.983     0.5969267  0.6075243  0.5943858 
1050       0.236      0          0          366.817    12.083     1.389      0.347      0.1589162  0.1586519  0.1591804  0.3425639  2.458505   1.588658   1.389      0.04875154 0.37501    24.124     0.5707517  0.5602928  0.6044385 
1050.2     0.237      0          0          376.746    11.932     1.338      0.361      0.1721167  0.1747963  0.1694371  0.3536736  4.316948   1.770035   1.338      0.09690195 0.3943265  24.265     0.5642535  0.5618091  0.6146352 
1050.4     0.239      0          0          380.049    12.533     1.286      0.362      0.1563923  0.1578034  0.1549813  0.3554931  2.207616   1.15109    1.286      0          0.3615058  24.406     0.6187775  0.6206906  0.6249771 
1050.6     0.24       0          0          378.948    13.174     1.336      0.373      0.1394555  0.1462408  0.1326702  0.3605558  1.072043   0.7274429  1.336      0          0.3525303  24.547     0.687149   0.6805919  0.6354651 
1050.8     0.241      0          0          373.738    13.078     1.45       0.395      0.1504403  0.1703833  0.1304973  0.3694516  1.712683   0.7791995  1.45       0.0221619  0.4046767  24.641     0.6806568  0.6681587  0.6429281 
1051       0.241      0          0          362.454    12.361     1.412      0.362      0.1503865  0.1591371  0.1416359  0.3481869  1.708758   1.301938   1.412      0.009591399 0.3736053  24.683     0.6147361  0.5807409  0.6469358 
1051.2     0.238      0          0          349.636    11.531     1.761      0.361      0.163656   0.1781927  0.1491193  0.3419013  3.009287   2.358672   1.761      0.1704999  0.4504221  24.724     0.5539616  0.4722804  0.6508965 
1051.4     0.233      0          0          337.999    10.776     2.095      0.345      0.163935   0.1764603  0.1514097  0.3282687  3.04531    4.049716   2.095      0.2365544  0.4836445  24.766     0.5107265  0.3846631  0.6549458 
1051.6     0.232      0          0          334.726    10.21      2.226      0.324      0.1601177  0.1640112  0.1562243  0.3161139  2.587779   6.073158   2.226      0.2425937  0.4826366  24.808     0.4848146  0.3336348  0.659016  
1051.8     0.235      0          0          332.479    10.152     2.224      0.354      0.1744915  0.1945534  0.1544296  0.3299591  4.777101   6.330657   2.224      0.2969355  0.5123332  24.849     0.4831715  0.3239565  0.6609523 
1052       0.238      0          0          350.984    10.443     1.913      0.358      0.1808759  0.1937473  0.1680045  0.3410296  6.272188   5.140039   1.913      0.2686895  0.4918349  24.891     0.4977354  0.3544281  0.6629623 
1052.2     0.24       0          0          369.489    11.2       1.602      0.359      0.1759626  0.1808246  0.1711007  0.3496916  5.086427   2.989424   1.602      0.1859021  0.4473026  24.933     0.5399255  0.4121392  0.6649774 
1052.4     0.242      0          0          387.993    11.823     1.561      0.376      0.1781865  0.1838158  0.1725572  0.3655747  5.592487   1.913701   1.561      0.1849021  0.4578336  24.975     0.5823762  0.458526   0.6669975 
1052.6     0.243      0          0          369.304    11.701     1.766      0.364      0.1672283  0.1743823  0.1600744  0.352114   3.504553   2.088374   1.766      0.187037   0.4655279  25.015     0.5745991  0.4584704  0.6688836 
1052.8     0.241      0          0          346.199    11.165     1.971      0.375      0.1733287  0.1965995  0.1500578  0.3472771  4.545956   3.06528    1.971      0.2515955  0.4966778  25.052     0.5406076  0.4287578  0.6705649 
