~Version
 VERS              .         2.0                           : CWLS LOG ASCII STANDARD - VERSION 2.0
 WRAP              .         NO                            : ONE LINE PER DEPTH STEP
 DLM               .         SPACE                         : DELIMITING CHARACTER(SPACE TAB OR COMMA)
~Well Information
#_______________________________________________________________________________
#
#PARAMETER_NAME    .UNIT     VALUE                         : DESCRIPTION
#_______________________________________________________________________________
STRT               .м        906                           : First reference value
STOP               .м        1170                          : Last reference value
STEP               .м        0.2                           : Step increment
NULL               .         -9999                         : Missing value
COMP               .                                       : Company
WELL               .         3668                          : Well name
FLD                .         Узень                         : Field
LOC                .                                       : Location
CNTY               .                                       : County
STAT               .                                       : State
CTRY               .                                       : Country
SRVC               .                                       : Service Company
DATE               .                                       : Date
UWI                .                                       : Unique Well ID
Block              .         6а                            : 
Category           .         Нефтяная                      : 
Condition          .         В работе                      : 
Date               .         30.11.2006                    : 
EREF               .m        81.3                          : 100.8
Gorizont           .         13                            : 14
Interpretator      .         Танауова А.Б.                 : 
Kupol              .         Основной                      : osnovnoi
Mud                .         0                             : 
Mud_density        .         0                             : 
Mud_resistivity    .         0                             : 
NGDU               .         НГДУ-2                        : 
ORIGINALWELLNAME   .         3668                          : 
Spud_date          .         2007                          : 1961
Viscosity          .         0                             : 
X                  .m        44346.52                      : 46154
Y                  .m        85016.13                      : 85761.93
YEAR               .         2019                          : 
~Parameter Information Block
#_______________________________________________________________________________
#
#PARAMETER_NAME    .UNIT     VALUE                         : DESCRIPTION
#_______________________________________________________________________________
SET                .         LQC_KAZNIPI_Petrel            : 
TLFamily_CALI      .         Caliper                       : 
TLFamily_COLL      .         Net Reservoir Flag            : 
TLFamily_CSAT      .         Fluid Code                    : 
TLFamily_DEPT      .         Measured Depth                : 
TLFamily_DT        .         Compressional Slowness        : 
TLFamily_GR        .         Russian Gamma Ray             : 
TLFamily_LLS       .         Lateral Log Resistivity       : 
TLFamily_NPHI      .         Neutron Porosity              : 
TLFamily_PHIE      .         Effective Porosity            : 
TLFamily_PHIEN     .         Effective Porosity            : 
TLFamily_PHIES     .         Effective Porosity            : 
TLFamily_PHIT      .         Porosity                      : 
TLFamily_PRMB      .         Permeability                  : 
TLFamily_PRMB_DGR  .         Permeability                  : 
TLFamily_RT        .         Formation Resistivity         : 
TLFamily_SOIL_ARCHIE .         Oil Saturation                : 
TLFamily_SOIL_DW   .         Oil Saturation                : 
TLFamily_SP        .         Spontaneous Potential         : 
TLFamily_VSH_FIN   .         Shale Volume                  : 
TLFamily_VSH_GR    .         Shale Volume                  : 
TLFamily_VSH_SP    .         Shale Volume                  : 
~Curve Information
#_______________________________________________________________________________
#
#LOGNAME           .UNIT     LOG_ID                        : DESCRIPTION
#_______________________________________________________________________________
DEPT               .м                                      : Колонка глубины 
CALI               .м                                      : Каверномер 
COLL               .unitless                               : Описание 
CSAT               .unitless                               :  
DT                 .мкс/м                                  : Интервальное время пробега продольной волны 
GR                 .uR/h                                   : Гамма каротаж 
LLS                .Ohmm                                   : Боковой каротаж 
NPHI               .v/v                                    : Водородосодержание по НКТ 
PHIE               .v/v                                    : Описание 
PHIEN              .v/v                                    :  
PHIES              .v/v                                    :  
PHIT               .v/v                                    : Описание 
PRMB               .mD                                     :  
PRMB_DGR           .mD                                     :  
RT                 .ohmm                                   : УЭС пласта 
SOIL_ARCHIE        .v/v                                    :  
SOIL_DW            .v/v                                    :  
SP                 .mV                                     : Потенциал самополяризации 
VSH_FIN            .v/v                                    : Описание 
VSH_GR             .v/v                                    : Shale volume 
VSH_SP             .v/v                                    : Shale Volume 
~Ascii
# ...
990        0.227      0          0          170.678    8.637      1.507      0.397      0.1263     0.2526001  0          0.1985     0.6117038  4.609578   1.507      0          0.08494724 26.009     0.4375756  0.3525716  0.4375756 
990.2000000000001 0.231      0          0          177.315    9.134      1.268      0.44       0.1508289  0.3016579  0          0.2224103  1.74131    2.979136   1.268      0          0.1324684  25.608     0.4192185  0.4078834  0.4192185 
990.4      0.235      0          0          200.319    9.445      1.03       0.433      0.1502286  0.3004573  0          0.2559555  1.697294   2.267073   1.03       0          0.1133655  25.208     0.4016446  0.4523628  0.4016446 
990.6      0.237      0          0          353.407    9.607      1.002      0.41       0.2335596  0.2719679  0.1951512  0.368147   59.32638   1.966407   1.002      0.2071287  0.3942126  25.567     0.4182789  0.4718422  0.4182789 
990.8      0.235      0          0          448.544    9.468      1.026      0.399      0.253799   0.2521582  0.2554398  0.3969763  140.647    2.221735   1.026      0.2706361  0.4465446  26.121     0.4449752  0.4638352  0.4449752 
991        0.234      0          0          458.275    9.3        1.137      0.397      0.2464062  0.2408246  0.2519877  0.3986841  102.612    2.574974   1.137      0.2868342  0.469307   26.675     0.4732587  0.4412426  0.4732587 
991.2000000000001 0.233      0          0          458.672    9.132      1.248      0.397      0.2368874  0.2309515  0.2428234  0.3987921  68.37351   2.984372   1.248      0.293506   0.485484   27.229     0.5031774  0.4167789  0.5031774 
991.4      0.232      0          0          459.069    8.964      1.462      0.393      0.2248455  0.2165419  0.2331491  0.3969     40.91122   3.458864   1.462      0.3135822  0.5132862  27.782     0.5347214  0.3964098  0.5347214 
991.6      0.231      0          0          458.667    8.902      1.735      0.361      0.1980121  0.1735433  0.222481   0.3807908  13.02635   3.65243    1.735      0.2924325  0.5184358  28.336     0.5680507  0.3794868  0.5680507 
991.8      0.23       0          0          446.882    8.838      2.009      0.329      0.1721618  0.1348138  0.2095098  0.361502   4.325253   3.863611   2.009      0.2538953  0.5124183  28.657     0.5884432  0.3524972  0.5884432 
992        0.228      0          0          189.511    8.264      2.282      0.307      0.05331058 0.1066212  0          0.1766706  0.0272019  6.396388   2.282      0          0          28.943     0.6072087  0.3066123  0.6072087 
992.2000000000001 0.227      0          0          153.05     7.691      2.683      0.295      0.04413101 0.08826202 0          0.1475     0.01838956 10.58021   2.683      0          0          29.229     0.6264787  0.258708   0.6264787 
992.4      0.225      0          0          147.381    7.288      2.797      0.283      0.03486701 0.06973403 0          0.1415     0.01238739 15.07338   2.797      0          0          29.515     0.6462605  0.2287525  0.6462605 
992.6      0.225      0          0          145.635    7.278      2.848      0.278      0.02900589 0.05801177 0          0.139      0.009647558 15.20636   2.848      0          0          29.802     0.666631   0.2221591  0.666631  
992.8      0.227      0          0          160.043    7.49       2.989      0.288      0.03509755 0.0701951  0          0.144      0.01250978 12.62298   2.989      0          0          29.696     0.6600148  0.2319009  0.6600148 
993        0.229      0          0          175.318    7.703      3.134      0.297      0.04396059 0.08792118 0          0.1485     0.01825639 10.46929   3.134      0          0          29.295     0.6335722  0.2471098  0.6335722 
993.2000000000001 0.231      0          0          190.594    7.866      3.08       0.306      0.05266545 0.1053309  0          0.1778856  0.02646366 9.072853   3.08       0          0.05192634 28.895     0.6080882  0.2624591  0.6080882 
993.4      0.232      0          0          198.971    7.893      2.757      0.315      0.06122606 0.1224521  0          0.1950209  0.0381253  8.86024    2.757      0          0.1037451  28.495     0.5834784  0.286159   0.5834784 
993.6      0.232      0          0          206.765    8.439      2.434      0.324      0.0696549  0.1393098  0          0.2103574  0.05461801 5.485098   2.434      0          0.1315905  28.094     0.5596672  0.3310287  0.5596672 
993.8      0.233      0          0          214.558    8.985      2.111      0.332      0.07743449 0.154869   0          0.2244054  0.0761084  3.395653   2.111      0          0.1382738  27.694     0.5367606  0.3895393  0.5367606 
994        0.233      0          0          219.65     9.387      1.788      0.337      0.08236811 0.1647362  0          0.2330857  0.09393235 2.385549   1.788      0          0.1060088  27.425     0.5220115  0.4417061  0.5220115 
994.2000000000001 0.234      0          0          217.033    9.562      1.661      0.363      0.09435679 0.1887136  0          0.2429456  0.1566299  2.045681   1.661      0          0.1394966  27.523     0.5281407  0.475341   0.5281407 
994.4      0.235      0          0          190.847    9.621      1.647      0.388      0.1058445  0.2116891  0          0.2192835  0.2556559  1.942376   1.647      0          0.1167694  27.62      0.5342755  0.494284   0.5342755 
994.6      0.234      0          0          162.768    9.659      1.633      0.39       0.1058124  0.2116248  0          0.195      0.2553054  1.878621   1.633      0          0.04664281 27.718     0.540531   0.5137998  0.540531  
994.8      0.233      0          0          144.445    9.879      1.62       0.384      0.1017794  0.2035587  0          0.192      0.2149605  1.548548   1.62       0          0.01896321 27.815     0.5467918  0.5435767  0.5467918 
995        0.232      0          0          144.445    10.104     1.606      0.356      0.0868434  0.1736868  0          0.178      0.1136864  1.270874   1.606      0          0          27.901     0.5524642  0.5710078  0.5524642 
995.2000000000001 0.232      0          0          178.195    10.114     1.592      0.357      0.08758447 0.1751689  0          0.1825033  0.117337   1.259761   1.592      0          0          27.866     0.5510032  0.5780616  0.5510032 
995.4      0.232      0          0          286.66     9.962      1.551      0.359      0.1281171  0.1776305  0.07860379 0.3049605  0.6609953  1.439679   1.551      0          0.310595   27.832     0.5496045  0.5716336  0.5496045 
995.6      0.231      0          0          374.544    10         1.476      0.364      0.1779056  0.1831105  0.1727008  0.3542809  5.525887   1.392424   1.476      0.1620514  0.4312038  27.797     0.54815    0.5722059  0.54815   
995.8      0.231      0          0          418.845    10.093     1.401      0.387      0.2060067  0.20657    0.2054434  0.381934   18.31901   1.283211   1.401      0.244259   0.4732597  27.763     0.5467575  0.5796176  0.5467575 
996        0.231      0          0          453.091    10.114     1.326      0.4        0.2232947  0.2200479  0.2265415  0.398756   38.29285   1.259761   1.326      0.2770554  0.4889833  27.728     0.5453095  0.5787576  0.5453095 
996.2000000000001 0.231      0          0          454.674    9.988      1.251      0.393      0.2206803  0.2135054  0.2278552  0.3956956  34.25252   1.407176   1.251      0.2493703  0.4689676  27.694     0.5439232  0.5643535  0.5439232 
996.4      0.233      0          0          453.219    9.878      1.399      0.378      0.2132402  0.198981   0.2274994  0.3877917  24.93929   1.549908   1.399      0.2661446  0.4847542  27.659     0.5424818  0.5451402  0.5424818 
996.6      0.235      0          0          437.285    9.804      1.568      0.363      0.1983429  0.1811109  0.2155748  0.3756928  13.21141   1.653986   1.568      0.2590953  0.4895784  27.797     0.5511792  0.5279841  0.5511792 
996.8      0.237      0          0          290.421    9.697      1.736      0.36       0.12693    0.17425    0.07961004 0.3080446  0.6283627  1.816959   1.736      0          0.3502821  27.983     0.5628787  0.5154362  0.5628787 
