~Version
 VERS              .         2.0                           : CWLS LOG ASCII STANDARD - VERSION 2.0
 WRAP              .         NO                            : ONE LINE PER DEPTH STEP
 DLM               .         SPACE                         : DELIMITING CHARACTER(SPACE TAB OR COMMA)
~Well Information
#_______________________________________________________________________________
#
#PARAMETER_NAME    .UNIT     VALUE                         : DESCRIPTION
#_______________________________________________________________________________
STRT               .м        906                           : First reference value
STOP               .м        1170                          : Last reference value
STEP               .м        0.2                           : Step increment
NULL               .         -9999                         : Missing value
COMP               .                                       : Company
WELL               .         3668                          : Well name
FLD                .         Узень                         : Field
LOC                .                                       : Location
CNTY               .                                       : County
STAT               .                                       : State
CTRY               .                                       : Country
SRVC               .                                       : Service Company
DATE               .                                       : Date
UWI                .                                       : Unique Well ID
Block              .         6а                            : 
Category           .         Нефтяная                      : 
Condition          .         В работе                      : 
Date               .         30.11.2006                    : 
EREF               .m        81.3                          : 100.8
Gorizont           .         13                            : 14
Interpretator      .         Танауова А.Б.                 : 
Kupol              .         Основной                      : osnovnoi
Mud                .         0                             : 
Mud_density        .         0                             : 
Mud_resistivity    .         0                             : 
NGDU               .         НГДУ-2                        : 
ORIGINALWELLNAME   .         3668                          : 
Spud_date          .         2007                          : 1961
Viscosity          .         0                             : 
X                  .m        44346.52                      : 46154
Y                  .m        85016.13                      : 85761.93
YEAR               .         2019                          : 
~Parameter Information Block
#_______________________________________________________________________________
#
#PARAMETER_NAME    .UNIT     VALUE                         : DESCRIPTION
#_______________________________________________________________________________
SET                .         LQC_KAZNIPI_Petrel            : 
TLFamily_CALI      .         Caliper                       : 
TLFamily_COLL      .         Net Reservoir Flag            : 
TLFamily_CSAT      .         Fluid Code                    : 
TLFamily_DEPT      .         Measured Depth                : 
TLFamily_DT        .         Compressional Slowness        : 
TLFamily_GR        .         Russian Gamma Ray             : 
TLFamily_LLS       .         Lateral Log Resistivity       : 
TLFamily_NPHI      .         Neutron Porosity              : 
TLFamily_PHIE      .         Effective Porosity            : 
TLFamily_PHIEN     .         Effective Porosity            : 
TLFamily_PHIES     .         Effective Porosity            : 
TLFamily_PHIT      .         Porosity                      : 
TLFamily_PRMB      .         Permeability                  : 
TLFamily_PRMB_DGR  .         Permeability                  : 
TLFamily_RT        .         Formation Resistivity         : 
TLFamily_SOIL_ARCHIE .         Oil Saturation                : 
TLFamily_SOIL_DW   .         Oil Saturation                : 
TLFamily_SP        .         Spontaneous Potential         : 
TLFamily_VSH_FIN   .         Shale Volume                  : 
TLFamily_VSH_GR    .         Shale Volume                  : 
TLFamily_VSH_SP    .         Shale Volume                  : 
~Curve Information
#_______________________________________________________________________________
#
#LOGNAME           .UNIT     LOG_ID                        : DESCRIPTION
#_______________________________________________________________________________
DEPT               .м                                      : Колонка глубины 
CALI               .м                                      : Каверномер 
COLL               .unitless                               : Описание 
CSAT               .unitless                               :  
DT                 .мкс/м                                  : Интервальное время пробега продольной волны 
GR                 .uR/h                                   : Гамма каротаж 
LLS                .Ohmm                                   : Боковой каротаж 
NPHI               .v/v                                    : Водородосодержание по НКТ 
PHIE               .v/v                                    : Описание 
PHIEN              .v/v                                    :  
PHIES              .v/v                                    :  
PHIT               .v/v                                    : Описание 
PRMB               .mD                                     :  
PRMB_DGR           .mD                                     :  
RT                 .ohmm                                   : УЭС пласта 
SOIL_ARCHIE        .v/v                                    :  
SOIL_DW            .v/v                                    :  
SP                 .mV                                     : Потенциал самополяризации 
VSH_FIN            .v/v                                    : Описание 
VSH_GR             .v/v                                    : Shale volume 
VSH_SP             .v/v                                    : Shale Volume 
~Ascii
# ...
1011       0.227      0          0          306.285    8.389      2.33       0.317      0.08967058 0.1046248  0.07471633 0.2967458  0.1282551  5.731338   2.33       0          0.351005   28.45      0.6435611  0.340069   0.6435611 
1011.2     0.227      0          0          305.263    8.426      2.391      0.317      0.09491472 0.1106444  0.07918501 0.2961206  0.1604017  5.548084   2.391      0          0.3706141  28.156     0.6253199  0.3245838  0.6253199 
1011.4     0.232      0          0          300.938    8.532      2.471      0.304      0.09145048 0.1035198  0.07938118 0.2869276  0.1383703  5.054886   2.471      0          0.359823   27.862     0.6075158  0.3095466  0.6075158 
1011.6     0.233      0          0          295.276    8.002      2.776      0.281      0.08189574 0.08625279 0.07753868 0.2717829  0.0920589  8.051364   2.776      0          0.3501978  27.568     0.590143   0.2711265  0.590143  
1011.8     0.22       0          0          286.152    7.236      3.117      0.258      0.06967178 0.06884509 0.07049847 0.2541062  0.05465733 15.77776   3.117      0          0.3234735  27.274     0.5731966  0.2213961  0.5731966 
1012       0.22       0          0          282.064    6.632      3.487      0.248      0.06709207 0.06429858 0.06988556 0.2462091  0.04896276 26.81817   3.487      0          0.338544   26.98      0.556671   0.1861006  0.556671  
1012.2     0.22       0          0          280.336    6.647      3.4        0.252      0.07302587 0.07361507 0.07243668 0.2469591  0.06306295 26.46719   3.4        0          0.3497648  26.686     0.5405604  0.172243   0.5405604 
1012.4     0.22       0          0          282.617    6.662      3.196      0.263      0.08522466 0.08979634 0.08065297 0.254106   0.1061025  26.12078   3.196      0          0.375388   26.392     0.5248596  0.1666734  0.5248596 
1012.6     0.22       0          0          284.266    6.471      2.992      0.262      0.09138715 0.09442523 0.08834906 0.25478    0.137997   30.89154   2.992      0          0.3710586  26.066     0.5078023  0.1576403  0.5078023 
1012.8     0.22       0          0          280.573    6.184      3.089      0.258      0.09253004 0.09636487 0.08869521 0.2501315  0.1448902  39.74753   3.089      0          0.3763524  25.713     0.4898034  0.1445716  0.4898034 
1013       0.22       0          0          274.669    5.898      3.433      0.252      0.09073663 0.09609665 0.08537661 0.2427493  0.134221   51.09746   3.433      0          0.3926821  25.361     0.4724344  0.1308477  0.4724344 
1013.2     0.22       0          0          261.261    5.612      3.893      0.245      0.08197203 0.09465835 0.06928571 0.2285618  0.09235895 65.68837   3.893      0          0.3853459  25.008     0.4555808  0.1183771  0.4555808 
1013.4     0.219      0          0          256.742    5.325      4.384      0.234      0.07784602 0.08901972 0.06667233 0.2192082  0.07745603 84.51991   4.384      0          0.3939746  24.656     0.4393342  0.1087909  0.4393342 
1013.6     0.219      0          0          257.771    5.149      4.592      0.224      0.07880235 0.08421639 0.07338832 0.2150976  0.08068055 98.64854   4.592      0.0001771008 0.403137   24.303     0.4235867  0.1066221  0.4235867 
1013.8     0.219      0          0          270.079    5.286      4.354      0.233      0.09829388 0.09822027 0.09836749 0.2297101  0.1852675  87.46511   4.354      0.1543922  0.4574328  23.951     0.4084234  0.1216203  0.4084234 
1014       0.22       0          0          314.886    6.277      3.597      0.286      0.1596404  0.1560505  0.1632303  0.286347   2.535628   36.63002   3.597      0.3937432  0.5671793  23.599     0.3937864  0.1644553  0.3937864 
1014.2     0.223      0          0          359.694    7.393      2.84       0.317      0.2023263  0.1917241  0.2129286  0.3244759  15.65785   13.74551   2.84       0.4489588  0.5888858  23.246     0.3796241  0.2381419  0.3796241 
1014.4     0.234      0          0          404.501    8.508      2.083      0.361      0.2432104  0.2370254  0.2493955  0.3640912  89.53758   5.162564   2.083      0.457068   0.5839698  23.131     0.3756806  0.3340061  0.3756806 
1014.6     0.246      0          0          441.08     9.396      1.326      0.408      0.2776088  0.2831754  0.2720421  0.3993183  388.2806   2.366766   1.326      0.4019296  0.5322801  23.173     0.3782564  0.4221692  0.3782564 
1014.8     0.247      0          0          455.075    9.609      1.235      0.401      0.2772624  0.2753195  0.2792052  0.3998064  382.587    1.962957   1.235      0.380967   0.5154547  23.215     0.3808499  0.4686184  0.3808499 
1015       0.243      0          0          455.56     9.519      1.332      0.375      0.2602546  0.245072   0.2754373  0.3869402  185.2273   2.124415   1.332      0.3686806  0.5118361  23.497     0.3937213  0.4778465  0.3937213 
1015.2     0.24       0          0          455.879    9.424      1.665      0.344      0.2379764  0.2070302  0.2689227  0.3715281  71.62397   2.309273   1.665      0.3853583  0.5361353  23.957     0.4150601  0.4844579  0.4150601 
1015.4     0.242      0          0          453.697    9.784      1.673      0.348      0.2321651  0.2036378  0.2606924  0.3729247  55.90099   1.683295   1.673      0.3733912  0.5336472  24.416     0.437461   0.4981403  0.437461  
1015.6     0.24       0          0          443.77     9.701      1.605      0.361      0.2282719  0.2088711  0.2476728  0.3766044  47.3487    1.810585   1.605      0.3515899  0.5234338  24.875     0.4609967  0.4915824  0.4609967 
1015.8     0.237      0          0          427.477    9.331      1.537      0.35       0.2098947  0.1897028  0.2300866  0.3661916  21.62306   2.505811   1.537      0.2880991  0.4878823  25.335     0.4857491  0.4694985  0.4857491 
1016       0.239      0          0          418.354    9.362      1.568      0.335      0.1911445  0.1661573  0.2161317  0.3557737  9.718917   2.438507   1.568      0.2348523  0.4646677  25.794     0.5116447  0.4666481  0.5116447 
1016.2     0.236      0          0          417.332    9.603      1.608      0.335      0.1820654  0.1571892  0.2069416  0.3554389  6.598595   1.973329   1.608      0.2111063  0.4609669  26.254     0.5388206  0.4831619  0.5388206 
1016.4     0.235      0          0          415.209    9.755      1.794      0.335      0.1722353  0.1478263  0.1966444  0.3547381  4.338848   1.726719   1.794      0.213487   0.4780434  26.713     0.5671931  0.4832148  0.5671931 
1016.6     0.237      0          0          413.077    9.344      1.997      0.335      0.1700561  0.1463206  0.1937917  0.354027   3.953762   2.477365   1.997      0.2437326  0.5022584  26.768     0.5717559  0.445953   0.5717559 
1016.8     0.238      0          0          410.876    8.932      2.126      0.329      0.1659197  0.1399158  0.1919236  0.3502852  3.314313   3.557452   2.126      0.2497039  0.5098411  26.768     0.5729825  0.3930358  0.5729825 
1017       0.236      0          0          407.573    8.521      2.144      0.312      0.1558961  0.1225103  0.189282   0.3406571  2.161386   5.103958   2.144      0.2109859  0.4915325  26.768     0.5742113  0.3539994  0.5742113 
1017.2     0.234      0          0          407.818    8.51       2.038      0.308      0.1535843  0.118104   0.1890646  0.3387414  1.958447   5.153505   2.038      0.1814045  0.4736909  26.768     0.5754424  0.3424632  0.5754424 
1017.4     0.231      0          0          412.754    8.651      1.778      0.311      0.1563648  0.120697   0.1920325  0.3419186  2.205022   4.553246   1.778      0.1407942  0.4435606  26.768     0.5766757  0.3522404  0.5766757 
1017.6     0.236      0          0          415.28     8.82       1.748      0.317      0.1598101  0.1262892  0.193331   0.3457616  2.554049   3.925179   1.748      0.150191   0.4472589  26.768     0.5779114  0.3688576  0.5779114 
1017.8     0.237      0          0          414.178    8.977      1.882      0.311      0.1560453  0.1198807  0.1922099  0.3423951  2.175178   3.419595   1.882      0.1619194  0.4592075  26.768     0.5791495  0.3781424  0.5791495 
