~Version
 VERS              .         2.0                           : CWLS LOG ASCII STANDARD - VERSION 2.0
 WRAP              .         NO                            : ONE LINE PER DEPTH STEP
 DLM               .         SPACE                         : DELIMITING CHARACTER(SPACE TAB OR COMMA)
~Well Information
#_______________________________________________________________________________
#
#PARAMETER_NAME    .UNIT     VALUE                         : DESCRIPTION
#_______________________________________________________________________________
STRT               .м        906                           : First reference value
STOP               .м        1170                          : Last reference value
STEP               .м        0.2                           : Step increment
NULL               .         -9999                         : Missing value
COMP               .                                       : Company
WELL               .         3668                          : Well name
FLD                .         Узень                         : Field
LOC                .                                       : Location
CNTY               .                                       : County
STAT               .                                       : State
CTRY               .                                       : Country
SRVC               .                                       : Service Company
DATE               .                                       : Date
UWI                .                                       : Unique Well ID
Block              .         6а                            : 
Category           .         Нефтяная                      : 
Condition          .         В работе                      : 
Date               .         30.11.2006                    : 
EREF               .m        81.3                          : 100.8
Gorizont           .         13                            : 14
Interpretator      .         Танауова А.Б.                 : 
Kupol              .         Основной                      : osnovnoi
Mud                .         0                             : 
Mud_density        .         0                             : 
Mud_resistivity    .         0                             : 
NGDU               .         НГДУ-2                        : 
ORIGINALWELLNAME   .         3668                          : 
Spud_date          .         2007                          : 1961
Viscosity          .         0                             : 
X                  .m        44346.52                      : 46154
Y                  .m        85016.13                      : 85761.93
YEAR               .         2019                          : 
~Parameter Information Block
#_______________________________________________________________________________
#
#PARAMETER_NAME    .UNIT     VALUE                         : DESCRIPTION
#_______________________________________________________________________________
SET                .         LQC_KAZNIPI_Petrel            : 
TLFamily_CALI      .         Caliper                       : 
TLFamily_COLL      .         Net Reservoir Flag            : 
TLFamily_CSAT      .         Fluid Code                    : 
TLFamily_DEPT      .         Measured Depth                : 
TLFamily_DT        .         Compressional Slowness        : 
TLFamily_GR        .         Russian Gamma Ray             : 
TLFamily_LLS       .         Lateral Log Resistivity       : 
TLFamily_NPHI      .         Neutron Porosity              : 
TLFamily_PHIE      .         Effective Porosity            : 
TLFamily_PHIEN     .         Effective Porosity            : 
TLFamily_PHIES     .         Effective Porosity            : 
TLFamily_PHIT      .         Porosity                      : 
TLFamily_PRMB      .         Permeability                  : 
TLFamily_PRMB_DGR  .         Permeability                  : 
TLFamily_RT        .         Formation Resistivity         : 
TLFamily_SOIL_ARCHIE .         Oil Saturation                : 
TLFamily_SOIL_DW   .         Oil Saturation                : 
TLFamily_SP        .         Spontaneous Potential         : 
TLFamily_VSH_FIN   .         Shale Volume                  : 
TLFamily_VSH_GR    .         Shale Volume                  : 
TLFamily_VSH_SP    .         Shale Volume                  : 
~Curve Information
#_______________________________________________________________________________
#
#LOGNAME           .UNIT     LOG_ID                        : DESCRIPTION
#_______________________________________________________________________________
DEPT               .м                                      : Колонка глубины 
CALI               .м                                      : Каверномер 
COLL               .unitless                               : Описание 
CSAT               .unitless                               :  
DT                 .мкс/м                                  : Интервальное время пробега продольной волны 
GR                 .uR/h                                   : Гамма каротаж 
LLS                .Ohmm                                   : Боковой каротаж 
NPHI               .v/v                                    : Водородосодержание по НКТ 
PHIE               .v/v                                    : Описание 
PHIEN              .v/v                                    :  
PHIES              .v/v                                    :  
PHIT               .v/v                                    : Описание 
PRMB               .mD                                     :  
PRMB_DGR           .mD                                     :  
RT                 .ohmm                                   : УЭС пласта 
SOIL_ARCHIE        .v/v                                    :  
SOIL_DW            .v/v                                    :  
SP                 .mV                                     : Потенциал самополяризации 
VSH_FIN            .v/v                                    : Описание 
VSH_GR             .v/v                                    : Shale volume 
VSH_SP             .v/v                                    : Shale Volume 
~Ascii
906.0      0.222      -9999      -9999      300.338    10.879     3.457      0.303      -9999      -9999      -9999      -9999      -9999      -9999      3.457      -9999      -9999      25.765     -9999      -9999      0.2180615 
906.2000000000001 0.223      -9999      -9999      299.214    10.921     3.236      0.295      -9999      -9999      -9999      -9999      -9999      -9999      3.236      -9999      -9999      26.143     -9999      -9999      0.2222966 
906.4      0.221      -9999      -9999      297.762    11.425     2.849      0.291      -9999      -9999      -9999      -9999      -9999      -9999      2.849      -9999      -9999      26.547     -9999      -9999      0.2269603 
906.6      0.219      -9999      -9999      296.953    11.929     2.493      0.292      -9999      -9999      -9999      -9999      -9999      -9999      2.493      -9999      -9999      26.951     -9999      0.8000001  0.2317684 
906.8      0.217      -9999      -9999      295.813    12.433     2.681      0.293      -9999      -9999      -9999      -9999      -9999      -9999      2.681      -9999      -9999      27.355     -9999      0.8000001  0.2367232 
907        0.217      -9999      -9999      294.673    12.524     2.869      0.289      -9999      -9999      -9999      -9999      -9999      -9999      2.869      -9999      -9999      27.759     -9999      0.8000001  0.2418272 
907.2000000000001 0.217      -9999      -9999      293.606    12.506     3.057      0.283      -9999      -9999      -9999      -9999      -9999      -9999      3.057      -9999      -9999      28.163     -9999      0.8000001  0.2470826 
907.4      0.217      -9999      -9999      292.145    12.111     3.222      0.278      -9999      -9999      -9999      -9999      -9999      -9999      3.222      -9999      -9999      28.567     -9999      0.8000001  0.252492  
907.6      0.218      -9999      -9999      290.772    11.51      3.253      0.269      -9999      -9999      -9999      -9999      -9999      -9999      3.253      -9999      -9999      28.876     -9999      0.8000001  0.2567348 
907.8      0.218      -9999      -9999      289.399    11.413     3.284      0.264      -9999      -9999      -9999      -9999      -9999      -9999      3.284      -9999      -9999      29.156     -9999      0.8000001  0.2606593 
908        0.218      -9999      -9999      288.602    11.383     3.315      0.252      -9999      -9999      -9999      -9999      -9999      -9999      3.315      -9999      -9999      29.437     -9999      0.7998271  0.2646751 
908.2000000000001 0.218      -9999      -9999      286.019    11.342     3.619      0.244      -9999      -9999      -9999      -9999      -9999      -9999      3.619      -9999      -9999      29.229     -9999      0.7962222  0.2616951 
908.4      0.218      -9999      -9999      284.199    10.685     4.213      0.222      -9999      -9999      -9999      -9999      -9999      -9999      4.213      -9999      -9999      28.711     -9999      0.7679001  0.2544578 
908.6      0.214      -9999      -9999      281.968    9.806      4.807      0.199      -9999      -9999      -9999      -9999      -9999      -9999      4.807      -9999      -9999      28.193     -9999      0.6626751  0.247479  
908.8      0.213      -9999      -9999      275.334    8.928      5.129      0.197      -9999      -9999      -9999      -9999      -9999      -9999      5.129      -9999      -9999      27.675     -9999      0.4817154  0.2407535 
909        0.212      -9999      -9999      266.79     8.312      5.129      0.194      -9999      -9999      -9999      -9999      -9999      -9999      5.129      -9999      -9999      26.059     -9999      0.3309312  0.2213448 
909.2000000000001 0.211      -9999      -9999      251.757    8.087      6.213      0.194      -9999      -9999      -9999      -9999      -9999      -9999      6.213      -9999      -9999      24.391     -9999      0.2588505  0.2036825 
909.4      0.211      6          6          247.208    7.56       8.47       0.193      0.1163312  0.1173269  0.1153356  0.1901159  0.3998476  11.8703    8.47       0.4656487  0.5906095  22.723     0.2293125  0.2270134  0.222373  
909.6      0.21       6          6          237.882    7.045      10.308     0.193      0.1189033  0.1292682  0.1085384  0.1810447  0.4462064  18.65944   10.308     0.5218866  0.6212897  21.054     0.1931267  0.2004783  0.1898432 
909.8      0.209      6          6          211.879    6.596      11.152     0.183      0.09305244 0.128149   0.05795586 0.1465346  0.1481545  27.67966   11.152     0.4295478  0.5439709  19.386     0.1662151  0.1797147  0.1652319 
910        0.209      6          6          204.724    6.732      12.397     0.175      0.08116376 0.1217351  0.04059245 0.1330994  0.08922938 24.56328   12.397     0.3885588  0.5159816  17.717     0.1614089  0.1681386  0.1472624 
910.2000000000001 0.209      6          6          202.848    6.445      13.998     0.165      0.0783617  0.1166394  0.04008402 0.1255155  0.07917842 31.60506   13.998     0.4044878  0.5215268  16.049     0.1465474  0.1543283  0.13471   
910.4      0.209      6          6          215.565    5.928      15.599     0.153      0.09466048 0.1104478  0.07887319 0.1361508  0.1586718  49.7687    15.599     0.5198839  0.6000608  14.38      0.1289462  0.1369283  0.1263122 
910.6      0.209      6          6          227.7      5.606      15.767     0.162      0.1163449  0.1225686  0.1101212  0.1547923  0.4000812  66.03542   15.767     0.6008425  0.6612105  13.044     0.119489   0.1279837  0.1217481 
910.8      0.209      6          6          245.902    5.792      13.57      0.175      0.1406058  0.1347134  0.1464982  0.179887   1.125949   56.08297   13.57      0.636851   0.6908591  11.902     0.1220805  0.1373514  0.1188444 
911        0.209      6          6          263.046    6.525      11.373     0.187      0.1560916  0.1408934  0.1712897  0.2010475  2.17948    29.46065   11.373     0.6397873  0.6970056  10.76      0.1397168  0.1620921  0.1164389 
911.2000000000001 0.209      1          3          258.196    7.107      8.377      0.216      0.160792   0.1640322  0.1575517  0.2114629  2.663271   17.67054   8.377      0.5948192  0.6614079  9.618      0.1574782  0.1825825  0.1141301 
911.4      0.208      1          3          291.731    7.028      5.082      0.254      0.2065811  0.2033891  0.209773   0.255929   18.77329   18.94013   5.082      0.5881664  0.649702   8.476      0.1533664  0.1779525  0.1115166 
911.6      0.208      1          3          369.459    6.245      4.304      0.218      0.2380539  0.1758223  0.3002855  0.279179   71.86106   37.6741    4.304      0.6064975  0.6590637  7.335      0.1278112  0.1497189  0.1082001 
911.8      0.208      1          3          383.039    5.462      4.015      0.299      0.2905616  0.2635079  0.3176153  0.325168   674.6277   74.93815   4.015      0.6582404  0.7029239  6.193      0.1075517  0.117577   0.1037738 
912        0.209      1          3          393.354    4.82       3.444      0.331      0.3151159  0.300265   0.3299669  0.3450839  1922.514   131.6986   3.444      0.6577852  0.7005485  5.051      0.09313628 0.09501652 0.09783872
912.2000000000001 0.209      1          3          396.563    4.508      2.656      0.337      0.3214666  0.3084947  0.3344386  0.3492606  2520.576   173.2159   2.656      0.6200724  0.6642305  4.411      0.08637988 0.08482046 0.0936875 
912.4      0.209      1          3          390.124    4.596      1.867      0.343      0.3219597  0.3143651  0.3295542  0.34988    2574.141   160.3326   1.867      0.5523303  0.6001856  4.171      0.08677233 0.08547218 0.09193712
912.6      0.209      1          3          371.526    4.935      1.388      0.335      0.309222   0.3049313  0.3135128  0.3385404  1495.202   119.0466   1.388      0.4670992  0.5192398  3.93       0.09111743 0.09324125 0.09007755
912.8      0.21       1          3          347.423    5.311      1.348      0.325      0.2917168  0.2930605  0.290373   0.3228592  708.6962   85.56557   1.348      0.4316069  0.4860786  3.689      0.09678639 0.1023413  0.08811174
