~Version
 VERS              .         2.0                           : CWLS LOG ASCII STANDARD - VERSION 2.0
 WRAP              .         NO                            : ONE LINE PER DEPTH STEP
 DLM               .         SPACE                         : DELIMITING CHARACTER(SPACE TAB OR COMMA)
~Well Information
#_______________________________________________________________________________
#
#PARAMETER_NAME    .UNIT     VALUE                         : DESCRIPTION
#_______________________________________________________________________________
STRT               .м        906                           : First reference value
STOP               .м        1170                          : Last reference value
STEP               .м        0.2                           : Step increment
NULL               .         -9999                         : Missing value
COMP               .                                       : Company
WELL               .         3668                          : Well name
FLD                .         Узень                         : Field
LOC                .                                       : Location
CNTY               .                                       : County
STAT               .                                       : State
CTRY               .                                       : Country
SRVC               .                                       : Service Company
DATE               .                                       : Date
UWI                .                                       : Unique Well ID
Block              .         6а                            : 
Category           .         Нефтяная                      : 
Condition          .         В работе                      : 
Date               .         30.11.2006                    : 
EREF               .m        81.3                          : 100.8
Gorizont           .         13                            : 14
Interpretator      .         Танауова А.Б.                 : 
Kupol              .         Основной                      : osnovnoi
Mud                .         0                             : 
Mud_density        .         0                             : 
Mud_resistivity    .         0                             : 
NGDU               .         НГДУ-2                        : 
ORIGINALWELLNAME   .         3668                          : 
Spud_date          .         2007                          : 1961
Viscosity          .         0                             : 
X                  .m        44346.52                      : 46154
Y                  .m        85016.13                      : 85761.93
YEAR               .         2019                          : 
~Parameter Information Block
#_______________________________________________________________________________
#
#PARAMETER_NAME    .UNIT     VALUE                         : DESCRIPTION
#_______________________________________________________________________________
SET                .         LQC_KAZNIPI_Petrel            : 
TLFamily_CALI      .         Caliper                       : 
TLFamily_COLL      .         Net Reservoir Flag            : 
TLFamily_CSAT      .         Fluid Code                    : 
TLFamily_DEPT      .         Measured Depth                : 
TLFamily_DT        .         Compressional Slowness        : 
TLFamily_GR        .         Russian Gamma Ray             : 
TLFamily_LLS       .         Lateral Log Resistivity       : 
TLFamily_NPHI      .         Neutron Porosity              : 
TLFamily_PHIE      .         Effective Porosity            : 
TLFamily_PHIEN     .         Effective Porosity            : 
TLFamily_PHIES     .         Effective Porosity            : 
TLFamily_PHIT      .         Porosity                      : 
TLFamily_PRMB      .         Permeability                  : 
TLFamily_PRMB_DGR  .         Permeability                  : 
TLFamily_RT        .         Formation Resistivity         : 
TLFamily_SOIL_ARCHIE .         Oil Saturation                : 
TLFamily_SOIL_DW   .         Oil Saturation                : 
TLFamily_SP        .         Spontaneous Potential         : 
TLFamily_VSH_FIN   .         Shale Volume                  : 
TLFamily_VSH_GR    .         Shale Volume                  : 
TLFamily_VSH_SP    .         Shale Volume                  : 
~Curve Information
#_______________________________________________________________________________
#
#LOGNAME           .UNIT     LOG_ID                        : DESCRIPTION
#_______________________________________________________________________________
DEPT               .м                                      : Колонка глубины 
CALI               .м                                      : Каверномер 
COLL               .unitless                               : Описание 
CSAT               .unitless                               :  
DT                 .мкс/м                                  : Интервальное время пробега продольной волны 
GR                 .uR/h                                   : Гамма каротаж 
LLS                .Ohmm                                   : Боковой каротаж 
NPHI               .v/v                                    : Водородосодержание по НКТ 
PHIE               .v/v                                    : Описание 
PHIEN              .v/v                                    :  
PHIES              .v/v                                    :  
PHIT               .v/v                                    : Описание 
PRMB               .mD                                     :  
PRMB_DGR           .mD                                     :  
RT                 .ohmm                                   : УЭС пласта 
SOIL_ARCHIE        .v/v                                    :  
SOIL_DW            .v/v                                    :  
SP                 .mV                                     : Потенциал самополяризации 
VSH_FIN            .v/v                                    : Описание 
VSH_GR             .v/v                                    : Shale volume 
VSH_SP             .v/v                                    : Shale Volume 
~Ascii
# ...
1165       0.213      0          0          309.314    12.594     1.678      0.345      0.1556522  0.1840612  0.1272431  0.3125746  2.139015   4.545711   1.678      0.1136155  0.3934073  36.373     0.4876933  0.3520992  0.6257688 
1165.2     0.213      0          0          308.555    12.849     1.645      0.342      0.156275   0.183705   0.1288451  0.3106198  2.196599   3.591795   1.645      0.1084219  0.3859262  35.565     0.479682   0.3824963  0.5744516 
1165.4     0.212      0          0          307.796    13.065     1.612      0.353      0.1637192  0.1971677  0.1302707  0.3156626  3.017409   2.942157   1.612      0.1356543  0.3967152  34.758     0.4722191  0.4065346  0.5268558 
1165.6     0.21       0          0          307.888    13.101     1.586      0.365      0.1686643  0.2080289  0.1292997  0.3217182  3.725892   2.845933   1.586      0.1513171  0.4057239  34.779     0.4756701  0.4152338  0.5280492 
1165.8     0.208      0          0          308.979    13.026     1.59       0.359      0.1676874  0.2034309  0.1319438  0.3193741  3.573837   3.050072   1.59       0.1480201  0.402465   34.837     0.4714215  0.4103625  0.5313578 
1166       0.206      0          0          310.07     12.95      1.594      0.345      0.1708139  0.1991486  0.1424792  0.3130255  4.083629   3.271873   1.594      0.1626062  0.4002047  33.976     0.4419739  0.4002065  0.4840901 
1166.2     0.207      0          0          311.162    12.875     1.598      0.347      0.1828844  0.2118384  0.1539303  0.3146729  6.833138   3.506566   1.598      0.2118801  0.4187298  32.901     0.4095805  0.3917995  0.4304555 
1166.4     0.207      0          0          314.011    12.803     1.603      0.357      0.1989445  0.2314712  0.1664179  0.3213408  13.55481   3.747691   1.603      0.268663   0.4458583  31.826     0.3803904  0.3945395  0.3824888 
1166.6     0.208      0          0          319.248    13.03      1.607      0.363      0.2037072  0.2362143  0.1712002  0.327329   16.60772   3.038824   1.607      0.2844151  0.4578078  31.181     0.3841991  0.4148042  0.3562918 
1166.8     0.208      0          0          324.485    13.258     1.611      0.359      0.1987334  0.2261986  0.1712682  0.3282207  13.4333    2.461761   1.611      0.2696943  0.4539687  31.167     0.4024284  0.4404115  0.355744  
1167       0.208      0          0          325.001    13.378     1.61       0.352      0.192256   0.215858   0.168654   0.3250005  10.19074   2.20348    1.61       0.2480914  0.4432331  31.153     0.4125516  0.4505668  0.355197  
1167.2     0.209      0          0          325.001    13.201     1.606      0.345      0.1937322  0.2139615  0.1735028  0.3215005  10.85295   2.594841   1.606      0.2522114  0.4406143  31.138     0.3970864  0.4389058  0.354612  
1167.4     0.209      0          0          323.899    13.023     1.603      0.368      0.2093128  0.2417607  0.1768649  0.3324018  21.09303   3.058535   1.603      0.3003174  0.4679464  31.124     0.3825433  0.4230413  0.3540668 
1167.6     0.209      0          0          320.989    13.033     1.599      0.383      0.2150495  0.2565942  0.1735048  0.3383008  26.93994   3.030416   1.599      0.3158002  0.4785642  31.11      0.3830477  0.4211762  0.3535225 
1167.8     0.209      0          0          318.08     13.162     1.595      0.36       0.1987042  0.2302964  0.167112   0.325171   13.41659   2.690019   1.595      0.2661718  0.4481266  31.095     0.3930413  0.4310625  0.3529402 
1168       0.209      0          0          319.053    13.291     1.592      0.374      0.2028656  0.2408227  0.1649086  0.3327194  16.02218   2.387857   1.592      0.2786629  0.4596576  31.081     0.4035676  0.435473   0.3523977 
1168.2     0.209      0          0          321.461    13.05      1.588      0.358      0.2026523  0.2314313  0.1738733  0.3260624  15.87706   2.983202   1.588      0.2771487  0.4521652  31.067     0.3835415  0.4419541  0.3518561 
1168.4     0.209      0          0          323.869    12.879     1.588      0.381      0.2195231  0.2585828  0.1804635  0.3388854  32.60313   3.493634   1.588      0.3257797  0.4816395  31.087     0.3709612  0.5227056  0.3526301 
1168.6     0.209      0          0          326.023    12.991     1.606      0.393      -9999      -9999      -9999      -9999      -9999      -9999      1.606      -9999      -9999      31.134     -9999      0.6782835  0.2906168 
1168.8     0.208      0          0          324.932    13.16      1.624      0.384      -9999      -9999      -9999      -9999      -9999      -9999      1.624      -9999      -9999      31.18      -9999      0.7761139  0.2913613 
1169       0.208      0          0          323.841    13.371     1.641      0.37       -9999      -9999      -9999      -9999      -9999      -9999      1.641      -9999      -9999      31.226     -9999      0.7981794  0.2921081 
1169.2     0.208      0          0          322.75     13.142     1.641      0.354      -9999      -9999      -9999      -9999      -9999      -9999      1.641      -9999      -9999      31.272     -9999      0.8000001  0.2928571 
1169.4     0.208      0          0          321.659    12.588     1.689      0.334      -9999      -9999      -9999      -9999      -9999      -9999      1.689      -9999      -9999      31.318     -9999      0.8000001  0.2936084 
1169.6     0.208      0          0          317.042    12.034     1.808      0.345      -9999      -9999      -9999      -9999      -9999      -9999      1.808      -9999      -9999      31.365     -9999      -9999      0.2943783 
1169.8     0.207      0          0          306.925    11.481     2.027      0.357      -9999      -9999      -9999      -9999      -9999      -9999      2.027      -9999      -9999      31.411     -9999      -9999      0.295134  
1170       0.208      -9999      -9999      297.477    10.985     2.754      0.346      -9999      -9999      -9999      -9999      -9999      -9999      2.754      -9999      -9999      31.313     -9999      -9999      0.2935266 
