~Version
 VERS              .         2.0                           : CWLS LOG ASCII STANDARD - VERSION 2.0
 WRAP              .         NO                            : ONE LINE PER DEPTH STEP
 DLM               .         SPACE                         : DELIMITING CHARACTER(SPACE TAB OR COMMA)
~Well Information
#_______________________________________________________________________________
#
#PARAMETER_NAME    .UNIT     VALUE                         : DESCRIPTION
#_______________________________________________________________________________
STRT               .м        906                           : First reference value
STOP               .м        1170                          : Last reference value
STEP               .м        0.2                           : Step increment
NULL               .         -9999                         : Missing value
COMP               .                                       : Company
WELL               .         3668                          : Well name
FLD                .         Узень                         : Field
LOC                .                                       : Location
CNTY               .                                       : County
STAT               .                                       : State
CTRY               .                                       : Country
SRVC               .                                       : Service Company
DATE               .                                       : Date
UWI                .                                       : Unique Well ID
Block              .         6а                            : 
Category           .         Нефтяная                      : 
Condition          .         В работе                      : 
Date               .         30.11.2006                    : 
EREF               .m        81.3                          : 100.8
Gorizont           .         13                            : 14
Interpretator      .         Танауова А.Б.                 : 
Kupol              .         Основной                      : osnovnoi
Mud                .         0                             : 
Mud_density        .         0                             : 
Mud_resistivity    .         0                             : 
NGDU               .         НГДУ-2                        : 
ORIGINALWELLNAME   .         3668                          : 
Spud_date          .         2007                          : 1961
Viscosity          .         0                             : 
X                  .m        44346.52                      : 46154
Y                  .m        85016.13                      : 85761.93
YEAR               .         2019                          : 
~Parameter Information Block
#_______________________________________________________________________________
#
#PARAMETER_NAME    .UNIT     VALUE                         : DESCRIPTION
#_______________________________________________________________________________
SET                .         LQC_KAZNIPI_Petrel            : 
TLFamily_CALI      .         Caliper                       : 
TLFamily_COLL      .         Net Reservoir Flag            : 
TLFamily_CSAT      .         Fluid Code                    : 
TLFamily_DEPT      .         Measured Depth                : 
TLFamily_DT        .         Compressional Slowness        : 
TLFamily_GR        .         Russian Gamma Ray             : 
TLFamily_LLS       .         Lateral Log Resistivity       : 
TLFamily_NPHI      .         Neutron Porosity              : 
TLFamily_PHIE      .         Effective Porosity            : 
TLFamily_PHIEN     .         Effective Porosity            : 
TLFamily_PHIES     .         Effective Porosity            : 
TLFamily_PHIT      .         Porosity                      : 
TLFamily_PRMB      .         Permeability                  : 
TLFamily_PRMB_DGR  .         Permeability                  : 
TLFamily_RT        .         Formation Resistivity         : 
TLFamily_SOIL_ARCHIE .         Oil Saturation                : 
TLFamily_SOIL_DW   .         Oil Saturation                : 
TLFamily_SP        .         Spontaneous Potential         : 
TLFamily_VSH_FIN   .         Shale Volume                  : 
TLFamily_VSH_GR    .         Shale Volume                  : 
TLFamily_VSH_SP    .         Shale Volume                  : 
~Curve Information
#_______________________________________________________________________________
#
#LOGNAME           .UNIT     LOG_ID                        : DESCRIPTION
#_______________________________________________________________________________
DEPT               .м                                      : Колонка глубины 
CALI               .м                                      : Каверномер 
COLL               .unitless                               : Описание 
CSAT               .unitless                               :  
DT                 .мкс/м                                  : Интервальное время пробега продольной волны 
GR                 .uR/h                                   : Гамма каротаж 
LLS                .Ohmm                                   : Боковой каротаж 
NPHI               .v/v                                    : Водородосодержание по НКТ 
PHIE               .v/v                                    : Описание 
PHIEN              .v/v                                    :  
PHIES              .v/v                                    :  
PHIT               .v/v                                    : Описание 
PRMB               .mD                                     :  
PRMB_DGR           .mD                                     :  
RT                 .ohmm                                   : УЭС пласта 
SOIL_ARCHIE        .v/v                                    :  
SOIL_DW            .v/v                                    :  
SP                 .mV                                     : Потенциал самополяризации 
VSH_FIN            .v/v                                    : Описание 
VSH_GR             .v/v                                    : Shale volume 
VSH_SP             .v/v                                    : Shale Volume 
~Ascii
# ...
1095       0.216      0          0          278.648    10.53      2.677      0.318      0.1293214  0.1647745  0.09386832 0.2787231  0.6958315  4.829642   2.677      0.1633814  0.4467239  26.511     0.4643197  0.3503594  0.5875652 
1095.2     0.216      0          0          278.002    10.29      2.677      0.301      0.1236084  0.1511221  0.09609479 0.2697461  0.5453634  5.735084   2.677      0.129803   0.4256228  26.569     0.4541756  0.323997   0.5903878 
1095.4     0.216      0          0          277.355    10.105     2.628      0.284      0.1168658  0.1364166  0.09731487 0.2607661  0.4090678  6.547313   2.628      0.07827872 0.3953032  26.627     0.4472224  0.3126324  0.5932216 
1095.6     0.216      0          0          276.709    10.239     2.578      0.312      0.1279903  0.1619614  0.09401926 0.2742847  0.6574301  5.948361   2.578      0.1407479  0.4283112  26.685     0.4546624  0.317466   0.5960671 
1095.8     0.216      0          0          276.062    10.434     2.529      0.332      0.1340897  0.1784578  0.08972156 0.2838002  0.8527544  5.173268   2.529      0.1674268  0.4447761  26.743     0.4652795  0.3326426  0.5989241 
1096       0.216      0          0          275.458    10.628     2.48       0.316      0.1220603  0.1587912  0.08532934 0.2753459  0.5105175  4.502389   2.48       0.08806702 0.4080716  26.801     0.4763902  0.3523383  0.6017931 
1096.2     0.216      0          0          275.458    10.822     2.43       0.3        0.1103017  0.1389365  0.08166698 0.2673458  0.3091816  3.918516   2.43       0          0.3675413  26.859     0.4880713  0.3767004  0.6046734 
1096.4     0.216      0          0          275.458    11.114     2.381      0.329      0.1190106  0.1619971  0.07602406 0.2818458  0.4482526  3.179273   2.381      0.04975416 0.3990778  26.917     0.5060694  0.4062855  0.6075658 
1096.6     0.216      0          0          275.458    11.483     2.332      0.327      0.1101291  0.1519139  0.06834432 0.2808459  0.3069139  2.441139   2.332      0          0.3739496  26.975     0.5305638  0.4270348  0.6104695 
1096.8     0.216      0          0          275.458    11.41      2.282      0.336      0.115691   0.162003   0.06937903 0.2853459  0.3890777  2.572119   2.282      0.006446094 0.3846099  27.033     0.5272636  0.4134701  0.613385  
1097       0.216      0          0          275.458    10.737     2.921      0.319      0.119396   0.1575204  0.08127164 0.2768458  0.4556818  4.164386   2.921      0.1390945  0.4519591  27.091     0.4893322  0.3637556  0.6163123 
1097.2     0.216      0          0          272.948    10.064     3.633      0.303      0.1194255  0.1517138  0.08713719 0.2669363  0.4562557  6.742349   3.633      0.2230253  0.4972632  27.149     0.458443   0.3047112  0.6192517 
1097.4     0.216      0          0          263.46     9.393      4.345      0.295      0.115933   0.1519745  0.07989153 0.2553892  0.3931142  10.90059   4.345      0.266905   0.5221229  27.207     0.4334105  0.2587096  0.6222028 
1097.6     0.215      0          0          253.972    9.136      5.056      0.263      0.09419399 0.1224071  0.06598087 0.2312783  0.1555462  13.10269   5.056      0.1818734  0.4907558  27.265     0.4260391  0.2324274  0.6251656 
1097.8     0.215      0          0          244.632    8.958      5.703      0.222      0.06631879 0.08266214 0.04997543 0.2021794  0.04737431 14.88357   5.703      0          0.407812   27.337     0.4222359  0.2212231  0.6290654 
1098       0.215      0          0          244.632    9.038      5.835      0.219      0.06335733 0.07816328 0.04855138 0.2006794  0.04175318 14.05504   5.835      0          0.4024383  27.41      0.4267779  0.2172514  0.6330521 
1098.2     0.215      0          0          244.632    8.928      5.301      0.231      0.06982443 0.09064234 0.04900653 0.2066794  0.05501435 15.20671   5.301      0          0.4052143  27.484     0.4253263  0.2144019  0.637127  
1098.4     0.215      0          0          255.402    8.802      4.319      0.235      0.08227844 0.09525162 0.06930526 0.2185393  0.09357382 16.64229   4.319      0.008970357 0.4001092  27.557     0.4234799  0.2183269  0.6411567 
1098.6     0.215      0          0          287.407    9.077      3.336      0.261      0.1167838  0.1177293  0.1158383  0.2564791  0.4076408  13.66802   3.336      0.1753894  0.4575616  27.631     0.4341536  0.2434027  0.6452749 
1098.8     0.215      0          0          319.412    10.088     3.162      0.305      0.1457202  0.148391   0.1430494  0.2984209  1.400391   6.627485   3.162      0.3026752  0.5336657  27.705     0.4745727  0.285362   0.6494156 
1099       0.214      0          0          351.417    10.475     3.172      0.297      0.1515946  0.1337913  0.169398   0.3107304  1.799111   5.023615   3.172      0.3272673  0.5526922  27.778     0.494572   0.31365    0.65351   
1099.2     0.214      0          0          350.071    10.289     3.333      0.293      0.1511534  0.1320318  0.1702751  0.3081046  1.765577   5.739191   3.333      0.3410465  0.5608472  27.852     0.4877823  0.3143437  0.6576943 
1099.4     0.214      0          0          346.252    10.038     3.494      0.29       0.1488691  0.1300757  0.1676625  0.3048024  1.601679   6.869033   3.494      0.3468685  0.5656987  28.098     0.484619   0.3059245  0.6738575 
1099.6     0.215      0          0          352.787    10.076     3.57       0.298      0.1497475  0.1317358  0.1677592  0.3118625  1.662817   6.684672   3.57       0.3567347  0.5773383  28.602     0.503831   0.3099246  0.7089819 
1099.8     0.215      0          0          364.819    10.417     3.178      0.316      0.1635854  0.1492132  0.1779575  0.3262099  3.000243   5.236617   3.178      0.370982   0.5787866  28.223     0.5054145  0.3306138  0.6808382 
1100       0.216      0          0          386.477    10.613     2.786      0.333      0.1821305  0.1675041  0.1967568  0.3434964  6.616921   4.551004   2.786      0.3906419  0.581889   27.843     0.5015028  0.3671063  0.653554  
1100.2     0.217      0          0          396.793    11.214     2.394      0.341      0.1834214  0.1687793  0.1980635  0.3513442  6.991453   2.95961    2.394      0.3497127  0.5563594  27.463     0.5218808  0.4256801  0.6271864 
1100.4     0.223      0          0          407.109    11.814     2.002      0.332      0.1708951  0.1478013  0.193989   0.3504971  4.097797   1.926072   2.002      0.2478504  0.5007274  27.365     0.5581779  0.5005538  0.6199089 
1100.6     0.228      0          0          408.882    12.527     1.853      0.341      0.1556817  0.1359585  0.175405   0.3556063  2.141711   1.156044   1.853      0.154073   0.4672918  27.549     0.621338   0.5578239  0.6311717 
1100.8     0.231      0          0          407.678    12.301     1.857      0.363      0.170719   0.1625228  0.1789152  0.3661932  4.06713    1.359085   1.857      0.2201398  0.4952931  27.733     0.6075066  0.5637372  0.642606  
1101       0.23       0          0          406.474    12.061     1.86       0.37       0.178165   0.173996   0.1823339  0.3692776  5.587347   1.61388    1.86       0.249173   0.506382   27.918     0.5939515  0.5386834  0.6542813 
1101.2     0.229      0          0          405.371    11.869     1.864      0.348      0.1695727  0.1548581  0.1842874  0.3578947  3.873076   1.851701   1.864      0.2169342  0.4877112  28.102     0.5852785  0.519426   0.666063  
1101.4     0.228      0          0          405.371    11.894     1.867      0.326      0.1581209  0.1323947  0.1838471  0.3468947  2.376516   1.818853   1.867      0.1683923  0.464114   28.102     0.5866827  0.5259444  0.6651708 
1101.6     0.227      0          0          408.674    12.141     1.87       0.341      0.1616369  0.1421391  0.1811347  0.3555351  2.760997   1.52404    1.87       0.1847843  0.4770443  28.025     0.6026087  0.5651102  0.6589686 
1101.8     0.227      0          0          408.674    12.669     1.874      0.348      0.1514585  0.1351106  0.1678064  0.3590351  1.788698   1.044292   1.874      0.1381359  0.4680857  27.948     0.6451193  0.6232427  0.6528144 
