~Version
 VERS              .         2.0                           : CWLS LOG ASCII STANDARD - VERSION 2.0
 WRAP              .         NO                            : ONE LINE PER DEPTH STEP
 DLM               .         SPACE                         : DELIMITING CHARACTER(SPACE TAB OR COMMA)
~Well Information
#_______________________________________________________________________________
#
#PARAMETER_NAME    .UNIT     VALUE                         : DESCRIPTION
#_______________________________________________________________________________
STRT               .м        906                           : First reference value
STOP               .м        1170                          : Last reference value
STEP               .м        0.2                           : Step increment
NULL               .         -9999                         : Missing value
COMP               .                                       : Company
WELL               .         3668                          : Well name
FLD                .         Узень                         : Field
LOC                .                                       : Location
CNTY               .                                       : County
STAT               .                                       : State
CTRY               .                                       : Country
SRVC               .                                       : Service Company
DATE               .                                       : Date
UWI                .                                       : Unique Well ID
Block              .         6а                            : 
Category           .         Нефтяная                      : 
Condition          .         В работе                      : 
Date               .         30.11.2006                    : 
EREF               .m        81.3                          : 100.8
Gorizont           .         13                            : 14
Interpretator      .         Танауова А.Б.                 : 
Kupol              .         Основной                      : osnovnoi
Mud                .         0                             : 
Mud_density        .         0                             : 
Mud_resistivity    .         0                             : 
NGDU               .         НГДУ-2                        : 
ORIGINALWELLNAME   .         3668                          : 
Spud_date          .         2007                          : 1961
Viscosity          .         0                             : 
X                  .m        44346.52                      : 46154
Y                  .m        85016.13                      : 85761.93
YEAR               .         2019                          : 
~Parameter Information Block
#_______________________________________________________________________________
#
#PARAMETER_NAME    .UNIT     VALUE                         : DESCRIPTION
#_______________________________________________________________________________
SET                .         LQC_KAZNIPI_Petrel            : 
TLFamily_CALI      .         Caliper                       : 
TLFamily_COLL      .         Net Reservoir Flag            : 
TLFamily_CSAT      .         Fluid Code                    : 
TLFamily_DEPT      .         Measured Depth                : 
TLFamily_DT        .         Compressional Slowness        : 
TLFamily_GR        .         Russian Gamma Ray             : 
TLFamily_LLS       .         Lateral Log Resistivity       : 
TLFamily_NPHI      .         Neutron Porosity              : 
TLFamily_PHIE      .         Effective Porosity            : 
TLFamily_PHIEN     .         Effective Porosity            : 
TLFamily_PHIES     .         Effective Porosity            : 
TLFamily_PHIT      .         Porosity                      : 
TLFamily_PRMB      .         Permeability                  : 
TLFamily_PRMB_DGR  .         Permeability                  : 
TLFamily_RT        .         Formation Resistivity         : 
TLFamily_SOIL_ARCHIE .         Oil Saturation                : 
TLFamily_SOIL_DW   .         Oil Saturation                : 
TLFamily_SP        .         Spontaneous Potential         : 
TLFamily_VSH_FIN   .         Shale Volume                  : 
TLFamily_VSH_GR    .         Shale Volume                  : 
TLFamily_VSH_SP    .         Shale Volume                  : 
~Curve Information
#_______________________________________________________________________________
#
#LOGNAME           .UNIT     LOG_ID                        : DESCRIPTION
#_______________________________________________________________________________
DEPT               .м                                      : Колонка глубины 
CALI               .м                                      : Каверномер 
COLL               .unitless                               : Описание 
CSAT               .unitless                               :  
DT                 .мкс/м                                  : Интервальное время пробега продольной волны 
GR                 .uR/h                                   : Гамма каротаж 
LLS                .Ohmm                                   : Боковой каротаж 
NPHI               .v/v                                    : Водородосодержание по НКТ 
PHIE               .v/v                                    : Описание 
PHIEN              .v/v                                    :  
PHIES              .v/v                                    :  
PHIT               .v/v                                    : Описание 
PRMB               .mD                                     :  
PRMB_DGR           .mD                                     :  
RT                 .ohmm                                   : УЭС пласта 
SOIL_ARCHIE        .v/v                                    :  
SOIL_DW            .v/v                                    :  
SP                 .mV                                     : Потенциал самополяризации 
VSH_FIN            .v/v                                    : Описание 
VSH_GR             .v/v                                    : Shale volume 
VSH_SP             .v/v                                    : Shale Volume 
~Ascii
# ...
955        0.222      0          0          372.509    7.048      2.418      0.355      0.1712158  0.1727203  0.1697114  0.3489467  4.154231   18.61034   2.418      0.312743   0.544782   31.034     0.5523627  0.1897687  0.5523627 
955.2000000000001 0.222      0          0          297.442    7.045      2.631      0.363      0.1345725  0.1787817  0.09036337 0.3141936  0.8704982  18.65944   2.631      0.1852872  0.4898858  31.115     0.5582373  0.1913176  0.5582373 
955.4      0.222      0          0          271.024    6.853      2.845      0.357      0.1109199  0.1708253  0.05101456 0.2924486  0.3174417  22.08681   2.845      0.07064533 0.44912    31.196     0.5641658  0.1864302  0.5641658 
955.6      0.223      0          0          327.504    6.775      2.901      0.329      0.1313723  0.1408308  0.1219138  0.3148456  0.7594361  23.65291   2.901      0.2053077  0.510514   31.278     0.5702097  0.1844346  0.5702097 
955.8      0.223      0          0          371.118    6.962      2.901      0.308      0.1394549  0.1178382  0.1610716  0.3248711  1.072017   20.07046   2.901      0.2455768  0.5305563  31.359     0.5762478  0.1877933  0.5762478 
956        0.223      0          0          370.573    7.008      2.951      0.3        0.1332677  0.1078275  0.1587079  0.3206444  0.8233768  19.27575   2.951      0.2214292  0.5227678  31.44      0.582341   0.1900156  0.582341  
956.2000000000001 0.223      0          0          370.14     6.894      2.933      0.292      0.1271088  0.09779851 0.1564191  0.3164639  0.6331711  21.30564   2.933      0.186341   0.5088835  31.521     0.5884894  0.1900195  0.5884894 
956.4      0.224      0          0          372.342    6.916      2.646      0.287      0.1215907  0.08876589 0.1544155  0.3148778  0.5003949  20.89792   2.646      0.1124012  0.4728771  31.697     0.6007094  0.1964069  0.6007094 
956.6      0.223      0          0          377.847    7.216      2.336      0.311      0.1294208  0.1061938  0.1526478  0.329116   0.6987869  16.05735   2.336      0.108737   0.4667697  31.988     0.6206249  0.2155301  0.6206249 
956.8      0.222      0          0          386.027    7.717      2.439      0.342      0.1415424  0.130439   0.1526459  0.3478239  1.171838   10.34135   2.439      0.1921191  0.5123243  32.279     0.6410939  0.2385539  0.6410939 
957        0.221      0          0          393.261    7.904      2.731      0.344      0.1384789  0.125476   0.1514818  0.3515495  1.028309   8.775055   2.731      0.2191303  0.5385928  32.571     0.6621938  0.2427814  0.6621938 
957.2000000000001 0.225      0          0          397.664    7.35       3.11       0.345      0.1336385  0.1193473  0.1479297  0.35366    0.8365026  14.27454   3.11       0.2422046  0.5637261  32.862     0.6837962  0.2204036  0.6837962 
957.4      0.232      0          0          399.629    6.797      3.388      0.331      0.1202091  0.09802797 0.1423903  0.3473672  0.4717619  23.20029   3.388      0.2017075  0.561013   33.153     0.7059758  0.1936062  0.7059758 
957.6      0.24       0          0          336.382    6.758      3.388      0.313      0.07697219 0.07251556 0.0814288  0.3114552  0.07462248 24.00872   3.388      0          0.4528675  33.444     0.7287407  0.1810024  0.7287407 
957.8      0.24       0          0          247.35     6.776      3.388      0.301      0.02877409 0.05754818 0          0.2442487  0.009552654 23.63215   3.388      0          0.1506263  33.546     0.7377328  0.1796611  0.7377328 
958        0.237      0          0          181.217    6.818      3.213      0.31       0.03400869 0.06801739 0          0.1643563  0.01194212 22.7763    3.213      0          0          33.469     0.7332807  0.183746   0.7332807 
958.2000000000001 0.235      0          0          182.963    6.929      2.936      0.315      0.03723974 0.07447948 0          0.1698685  0.01370656 20.66067   2.936      0          0          33.392     0.7288501  0.1939627  0.7288501 
958.4      0.236      0          0          184.708    7.229      2.658      0.31       0.03546714 0.07093428 0          0.170322   0.01270854 15.87505   2.658      0          0          33.315     0.7244416  0.2121442  0.7244416 
958.6      0.241      0          0          181.086    7.517      2.38       0.305      0.03369096 0.06738192 0          0.161628   0.01178139 12.32717   2.38       0          0          33.238     0.7200548  0.2380121  0.7200548 
958.8      0.24       0          0          175.475    7.928      2.192      0.332      0.04791119 0.09582238 0          0.166      0.02160675 8.59202    2.192      0          0          33.161     0.7156897  0.2686085  0.7156897 
959        0.238      0          0          177.725    8.339      2.326      0.359      0.06212787 0.1242557  0          0.1826545  0.03962023 5.988631   2.326      0          0          33.084     0.7113462  0.288896   0.7113462 
959.2000000000001 0.236      0          0          180.271    8.162      2.461      0.387      0.07684099 0.153682   0          0.2011999  0.0742061  6.995853   2.461      0          0.1412096  33.007     0.7070243  0.281804   0.7070243 
959.4      0.234      0          0          182.817    7.733      2.483      0.363      0.06525122 0.1305024  0          0.1936188  0.04526566 10.19705   2.483      0          0.07152451 32.955     0.7045381  0.2565934  0.7045381 
959.6      0.236      0          0          169.512    7.304      2.341      0.335      0.05103744 0.1020749  0          0.1675     0.02468853 14.86305   2.341      0          0          32.955     0.7058337  0.2436862  0.7058337 
959.8      0.239      0          0          155.135    7.764      2.317      0.303      0.03482334 0.06964669 0          0.1515     0.01236434 9.923162   2.317      0          0          32.955     0.7071313  0.2627117  0.7071313 
960        0.236      0          0          146.964    8.294      2.358      0.311      0.03860891 0.07721782 0          0.1555     0.01453077 6.230057   2.358      0          0          32.955     0.7084308  0.2998938  0.7084308 
960.2000000000001 0.233      0          0          150.519    8.556      2.511      0.325      0.04539413 0.09078825 0          0.1625     0.0194074  4.949452   2.511      0          0          32.955     0.7097325  0.3338896  0.7097325 
960.4      0.229      0          0          156.867    8.744      2.476      0.364      0.06467906 0.1293581  0          0.182      0.04417446 4.196119   2.476      0          0.02898404 32.955     0.711036   0.3605194  0.711036  
960.6      0.226      0          0          163.124    8.932      2.322      0.356      0.06046368 0.1209274  0          0.178      0.03690558 3.557452   2.322      0          0          32.955     0.7123414  0.3832823  0.7123414 
960.8      0.226      0          0          158.759    9          2.167      0.328      0.04624797 0.09249595 0          0.164      0.02012717 3.351213   2.167      0          0          32.955     0.7136487  0.4059047  0.7136487 
961        0.227      0          0          154.395    9.362      2.319      0.292      0.02850427 0.05700854 0          0.146      0.009443354 2.438507   2.319      0          0          32.916     0.7120953  0.4201014  0.7120953 
961.2000000000001 0.23       0          0          150.031    9.165      2.784      0.282      0.02522502 0.05045005 0          0.141      0.008210823 2.899118   2.784      0          0          32.755     0.7016665  0.4022131  0.7016665 
961.4      0.234      0          0          145.666    8.651      2.992      0.282      0.02691328 0.05382656 0          0.141      0.008823832 4.553246   2.992      0          0          32.595     0.6914347  0.360727   0.6914347 
961.6      0.234      0          0          144.774    8.226      3.156      0.314      0.04458125 0.0891625  0          0.157      0.0187461  6.613466   3.156      0          0          32.435     0.6813258  0.3362088  0.6813258 
961.8      0.231      0          0          160.691    8.717      2.855      0.352      0.06522906 0.1304581  0          0.176      0.0452229  4.296816   2.855      0          0.07867801 32.275     0.671339   0.3392927  0.671339  
