~Version
 VERS              .         2.0                           : CWLS LOG ASCII STANDARD - VERSION 2.0
 WRAP              .         NO                            : ONE LINE PER DEPTH STEP
 DLM               .         SPACE                         : DELIMITING CHARACTER(SPACE TAB OR COMMA)
~Well Information
#_______________________________________________________________________________
#
#PARAMETER_NAME    .UNIT     VALUE                         : DESCRIPTION
#_______________________________________________________________________________
STRT               .м        906                           : First reference value
STOP               .м        1170                          : Last reference value
STEP               .м        0.2                           : Step increment
NULL               .         -9999                         : Missing value
COMP               .                                       : Company
WELL               .         3668                          : Well name
FLD                .         Узень                         : Field
LOC                .                                       : Location
CNTY               .                                       : County
STAT               .                                       : State
CTRY               .                                       : Country
SRVC               .                                       : Service Company
DATE               .                                       : Date
UWI                .                                       : Unique Well ID
Block              .         6а                            : 
Category           .         Нефтяная                      : 
Condition          .         В работе                      : 
Date               .         30.11.2006                    : 
EREF               .m        81.3                          : 100.8
Gorizont           .         13                            : 14
Interpretator      .         Танауова А.Б.                 : 
Kupol              .         Основной                      : osnovnoi
Mud                .         0                             : 
Mud_density        .         0                             : 
Mud_resistivity    .         0                             : 
NGDU               .         НГДУ-2                        : 
ORIGINALWELLNAME   .         3668                          : 
Spud_date          .         2007                          : 1961
Viscosity          .         0                             : 
X                  .m        44346.52                      : 46154
Y                  .m        85016.13                      : 85761.93
YEAR               .         2019                          : 
~Parameter Information Block
#_______________________________________________________________________________
#
#PARAMETER_NAME    .UNIT     VALUE                         : DESCRIPTION
#_______________________________________________________________________________
SET                .         LQC_KAZNIPI_Petrel            : 
TLFamily_CALI      .         Caliper                       : 
TLFamily_COLL      .         Net Reservoir Flag            : 
TLFamily_CSAT      .         Fluid Code                    : 
TLFamily_DEPT      .         Measured Depth                : 
TLFamily_DT        .         Compressional Slowness        : 
TLFamily_GR        .         Russian Gamma Ray             : 
TLFamily_LLS       .         Lateral Log Resistivity       : 
TLFamily_NPHI      .         Neutron Porosity              : 
TLFamily_PHIE      .         Effective Porosity            : 
TLFamily_PHIEN     .         Effective Porosity            : 
TLFamily_PHIES     .         Effective Porosity            : 
TLFamily_PHIT      .         Porosity                      : 
TLFamily_PRMB      .         Permeability                  : 
TLFamily_PRMB_DGR  .         Permeability                  : 
TLFamily_RT        .         Formation Resistivity         : 
TLFamily_SOIL_ARCHIE .         Oil Saturation                : 
TLFamily_SOIL_DW   .         Oil Saturation                : 
TLFamily_SP        .         Spontaneous Potential         : 
TLFamily_VSH_FIN   .         Shale Volume                  : 
TLFamily_VSH_GR    .         Shale Volume                  : 
TLFamily_VSH_SP    .         Shale Volume                  : 
~Curve Information
#_______________________________________________________________________________
#
#LOGNAME           .UNIT     LOG_ID                        : DESCRIPTION
#_______________________________________________________________________________
DEPT               .м                                      : Колонка глубины 
CALI               .м                                      : Каверномер 
COLL               .unitless                               : Описание 
CSAT               .unitless                               :  
DT                 .мкс/м                                  : Интервальное время пробега продольной волны 
GR                 .uR/h                                   : Гамма каротаж 
LLS                .Ohmm                                   : Боковой каротаж 
NPHI               .v/v                                    : Водородосодержание по НКТ 
PHIE               .v/v                                    : Описание 
PHIEN              .v/v                                    :  
PHIES              .v/v                                    :  
PHIT               .v/v                                    : Описание 
PRMB               .mD                                     :  
PRMB_DGR           .mD                                     :  
RT                 .ohmm                                   : УЭС пласта 
SOIL_ARCHIE        .v/v                                    :  
SOIL_DW            .v/v                                    :  
SP                 .mV                                     : Потенциал самополяризации 
VSH_FIN            .v/v                                    : Описание 
VSH_GR             .v/v                                    : Shale volume 
VSH_SP             .v/v                                    : Shale Volume 
~Ascii
# ...
1130       0.211      8          2          390.648    12.911     2.064      0.335      0.2377176  0.2238676  0.2515675  0.3460766  70.83765   3.391882   2.064      0.4437711  0.5652945  25.559     0.3367649  0.4019364  0.2795105 
1130.2     0.211      0          0          388.633    13.028     2.048      0.325      0.2269133  0.2086933  0.2451332  0.3403174  44.68301   3.044442   2.048      0.418655   0.5507838  26.026     0.3524444  0.4044007  0.2930931 
1130.4     0.211      0          0          388.217    12.992     2.032      0.325      0.2253393  0.2072408  0.2434378  0.3401597  41.78193   3.147378   2.032      0.4129633  0.5476128  26.493     0.356846   0.4065008  0.3074498 
1130.6     0.211      0          0          387.802    12.955     1.856      0.345      0.234039   0.2260689  0.242009   0.3500021  60.55186   3.256799   1.856      0.407347   0.5417123  26.891     0.3603972  0.409212   0.3201818 
1130.8     0.211      0          0          380.767    13.108     1.891      0.367      0.2387684  0.2444327  0.233104   0.3582769  74.08449   2.827592   1.891      0.4226678  0.5558509  26.866     0.371416   0.4140398  0.3184219 
1131       0.21       0          0          358.653    13.069     1.976      0.351      0.2227787  0.2297382  0.2158192  0.3410144  37.4593    2.931305   1.976      0.3992644  0.5397942  26.842     0.3674601  0.4094194  0.3167072 
1131.2     0.21       0          0          328.103    12.882     2.212      0.336      0.2052905  0.2197242  0.1908567  0.3186645  17.76787   3.483967   2.212      0.3881944  0.5318835  26.817     0.3523508  0.3936334  0.3149686 
1131.4     0.21       0          0          299.448    12.809     2.448      0.337      0.1910831  0.2227501  0.1594162  0.3024819  9.693515   3.72698    2.448      0.3790158  0.5274813  26.793     0.3462118  0.3731519  0.3132744 
1131.6     0.209      0          0          286.84     12.623     2.709      0.325      0.1810958  0.2152718  0.1469198  0.2880857  6.331288   4.425566   2.709      0.3795034  0.5274366  26.768     0.3325096  0.3452742  0.3115565 
1131.8     0.209      0          0          274.232    12.197     2.691      0.286      0.1607779  0.1848359  0.13672    0.2594175  2.661679   6.559245   2.691      0.3095844  0.470444   26.81      0.306558   0.3163036  0.3121167 
1132       0.209      0          0          286.738    12.022     2.349      0.275      0.1673725  0.1769098  0.1578351  0.2630148  3.526161   7.709973   2.349      0.2894301  0.446883   26.853     0.297243   0.3159247  0.312712  
1132.2     0.208      0          0          304.195    12.481     2.006      0.299      0.1822332  0.1921028  0.1723636  0.2864627  6.645988   5.045804   2.006      0.2894417  0.4503788  26.882     0.3239308  0.3716563  0.3128312 
1132.4     0.208      0          0          320.661    13.452     1.663      0.322      0.1806304  0.1917618  0.169499   0.3076185  6.206855   2.057904   1.663      0.2180887  0.4195117  26.708     0.3946612  0.4678963  0.3061167 
1132.6     0.208      0          0          321.713    14.041     1.685      0.344      0.1739246  0.1950046  0.1528446  0.3192018  4.662986   1.194412   1.685      0.1968648  0.427579   26.535     0.4515013  0.5362853  0.2995968 
1132.8     0.208      0          0          322.764    13.753     1.732      0.362      0.1945243  0.2243074  0.1647412  0.3287807  11.22587   1.558412   1.732      0.2808119  0.4694069  26.361     0.4172504  0.533032   0.2932038 
1133       0.208      8          2          323.816    13.465     1.779      0.361      0.2045619  0.2335242  0.1755995  0.3288565  17.22424   2.033341   1.779      0.3202412  0.4869812  26.188     0.3862904  0.4925409  0.2869999 
1133.2     0.209      8          2          324.868    13.22      1.826      0.361      0.2130072  0.241599   0.1844154  0.3294285  24.69269   2.5497     1.826      0.3517565  0.5023538  26.014     0.3618211  0.459216   0.2809203 
1133.4     0.209      8          2          325.919    13.22      1.873      0.347      0.2075236  0.2285719  0.1864753  0.3229963  19.54337   2.5497     1.873      0.3447244  0.497558   25.841     0.3588729  0.4467453  0.2750238 
1133.6     0.209      8          2          326.971    13.22      1.92       0.331      0.2010173  0.2135247  0.1885099  0.3155609  14.80767   2.5497     1.92       0.3340802  0.4902887  25.667     0.3559856  0.4507297  0.2692492 
1133.8     0.21       8          2          328.023    13.332     1.946      0.326      0.1969057  0.2062965  0.187515   0.313622   12.42596   2.299121   1.946      0.3262518  0.4875822  25.494     0.3627379  0.4668499  0.2636519 
1134       0.21       8          2          329.074    13.526     1.934      0.324      0.1917038  0.1994158  0.1839917  0.3131789  9.953525   1.921945   1.934      0.3083516  0.4799886  25.32      0.3775279  0.4852317  0.2581737 
1134.2     0.21       8          2          330.126    13.561     1.923      0.326      0.1924408  0.200578   0.1843036  0.3147328  10.27137   1.860805   1.923      0.3088116  0.4808466  25.289     0.3800667  0.4899344  0.2566488 
1134.4     0.21       8          2          331.177    13.371     1.911      0.339      0.2049469  0.2191739  0.1907199  0.3217827  17.50942   2.217773   1.911      0.3437692  0.498935   25.348     0.3631094  0.487149   0.2575515 
1134.6     0.21       8          2          331.129    13.435     1.9        0.356      0.2114294  0.2341305  0.1887284  0.3302577  23.08576   2.090472   1.9        0.3595957  0.5114     25.408     0.3693016  0.5078612  0.2584855 
1134.8     0.21       8          2          330.321    13.849     1.889      0.357      0.1983068  0.2215925  0.1750211  0.3303351  13.19109   1.426176   1.889      0.3209928  0.4972525  25.467     0.4103257  0.5591556  0.2593966 
1135       0.21       8          2          329.512    14.225     1.879      0.358      0.1844725  0.2083274  0.1606176  0.3304099  7.311993   1.007732   1.879      0.275048   0.4813111  25.527     0.4535534  0.5989367  0.2603392 
1135.2     0.21       8          2          328.704    14.035     1.871      0.366      0.1950935  0.2235554  0.1666315  0.3339832  11.50172   1.201051   1.871      0.3081613  0.4948858  25.586     0.4316502  0.5889627  0.2612587 
1135.4     0.21       8          2          327.896    13.735     1.863      0.343      0.1933736  0.2110257  0.1757215  0.3220544  10.68824   1.58454    1.863      0.3014018  0.4807806  25.646     0.3999222  0.550186   0.26221   
1135.6     0.21       8          2          327.088    13.573     1.855      0.338      0.1954201  0.2111305  0.1797097  0.3191235  11.66304   1.840295   1.855      0.3063785  0.4790048  25.705     0.3844531  0.5205871  0.2631378 
1135.8     0.21       8          2          326.28     13.636     1.752      0.331      0.189376   0.2019655  0.1767866  0.3151904  9.012832   1.736264   1.752      0.2677687  0.4530685  25.765     0.3910138  0.5033095  0.2640976 
1136       0.21       8          2          326.102    13.43      1.655      0.334      0.1968585  0.2111992  0.1825178  0.3165947  12.40097   2.100148   1.655      0.2728927  0.4474235  25.824     0.3721236  0.4824653  0.265034  
1136.2     0.21       8          2          326.102    13.289     1.691      0.353      0.2101956  0.2341345  0.1862567  0.3260947  21.90231   2.392273   1.691      0.320143   0.4769233  25.884     0.3601986  0.4626286  0.2660026 
1136.4     0.21       8          2          326.102    13.249     1.727      0.365      0.2171382  0.2471012  0.1871751  0.3320948  29.4499    2.482312   1.727      0.3456156  0.4946895  25.943     0.3572691  0.454858   0.2669474 
1136.6     0.21       8          2          326.102    13.306     1.762      0.357      0.2114207  0.2373397  0.1855016  0.3280948  23.07712   2.355003   1.762      0.3365056  0.4906314  26.002     0.3626069  0.4591458  0.2678964 
1136.8     0.21       8          2          326.102    13.363     1.797      0.357      0.2099472  0.2358286  0.1840658  0.3280948  21.67153   2.234223   1.797      0.3385849  0.4941853  26         0.3671862  0.4698425  0.2671171 
