~Version
 VERS              .         2.0                           : CWLS LOG ASCII STANDARD - VERSION 2.0
 WRAP              .         NO                            : ONE LINE PER DEPTH STEP
 DLM               .         SPACE                         : DELIMITING CHARACTER(SPACE TAB OR COMMA)
~Well Information
#_______________________________________________________________________________
#
#PARAMETER_NAME    .UNIT     VALUE                         : DESCRIPTION
#_______________________________________________________________________________
STRT               .м        906                           : First reference value
STOP               .м        1170                          : Last reference value
STEP               .м        0.2                           : Step increment
NULL               .         -9999                         : Missing value
COMP               .                                       : Company
WELL               .         3668                          : Well name
FLD                .         Узень                         : Field
LOC                .                                       : Location
CNTY               .                                       : County
STAT               .                                       : State
CTRY               .                                       : Country
SRVC               .                                       : Service Company
DATE               .                                       : Date
UWI                .                                       : Unique Well ID
Block              .         6а                            : 
Category           .         Нефтяная                      : 
Condition          .         В работе                      : 
Date               .         30.11.2006                    : 
EREF               .m        81.3                          : 100.8
Gorizont           .         13                            : 14
Interpretator      .         Танауова А.Б.                 : 
Kupol              .         Основной                      : osnovnoi
Mud                .         0                             : 
Mud_density        .         0                             : 
Mud_resistivity    .         0                             : 
NGDU               .         НГДУ-2                        : 
ORIGINALWELLNAME   .         3668                          : 
Spud_date          .         2007                          : 1961
Viscosity          .         0                             : 
X                  .m        44346.52                      : 46154
Y                  .m        85016.13                      : 85761.93
YEAR               .         2019                          : 
~Parameter Information Block
#_______________________________________________________________________________
#
#PARAMETER_NAME    .UNIT     VALUE                         : DESCRIPTION
#_______________________________________________________________________________
SET                .         LQC_KAZNIPI_Petrel            : 
TLFamily_CALI      .         Caliper                       : 
TLFamily_COLL      .         Net Reservoir Flag            : 
TLFamily_CSAT      .         Fluid Code                    : 
TLFamily_DEPT      .         Measured Depth                : 
TLFamily_DT        .         Compressional Slowness        : 
TLFamily_GR        .         Russian Gamma Ray             : 
TLFamily_LLS       .         Lateral Log Resistivity       : 
TLFamily_NPHI      .         Neutron Porosity              : 
TLFamily_PHIE      .         Effective Porosity            : 
TLFamily_PHIEN     .         Effective Porosity            : 
TLFamily_PHIES     .         Effective Porosity            : 
TLFamily_PHIT      .         Porosity                      : 
TLFamily_PRMB      .         Permeability                  : 
TLFamily_PRMB_DGR  .         Permeability                  : 
TLFamily_RT        .         Formation Resistivity         : 
TLFamily_SOIL_ARCHIE .         Oil Saturation                : 
TLFamily_SOIL_DW   .         Oil Saturation                : 
TLFamily_SP        .         Spontaneous Potential         : 
TLFamily_VSH_FIN   .         Shale Volume                  : 
TLFamily_VSH_GR    .         Shale Volume                  : 
TLFamily_VSH_SP    .         Shale Volume                  : 
~Curve Information
#_______________________________________________________________________________
#
#LOGNAME           .UNIT     LOG_ID                        : DESCRIPTION
#_______________________________________________________________________________
DEPT               .м                                      : Колонка глубины 
CALI               .м                                      : Каверномер 
COLL               .unitless                               : Описание 
CSAT               .unitless                               :  
DT                 .мкс/м                                  : Интервальное время пробега продольной волны 
GR                 .uR/h                                   : Гамма каротаж 
LLS                .Ohmm                                   : Боковой каротаж 
NPHI               .v/v                                    : Водородосодержание по НКТ 
PHIE               .v/v                                    : Описание 
PHIEN              .v/v                                    :  
PHIES              .v/v                                    :  
PHIT               .v/v                                    : Описание 
PRMB               .mD                                     :  
PRMB_DGR           .mD                                     :  
RT                 .ohmm                                   : УЭС пласта 
SOIL_ARCHIE        .v/v                                    :  
SOIL_DW            .v/v                                    :  
SP                 .mV                                     : Потенциал самополяризации 
VSH_FIN            .v/v                                    : Описание 
VSH_GR             .v/v                                    : Shale volume 
VSH_SP             .v/v                                    : Shale Volume 
~Ascii
# ...
1116       0.22       0          0          405.371    14.318     1.586      0.354      0.1566301  0.1445075  0.1687528  0.3608947  2.230119   0.9247818  1.586      0.09479967 0.4307972  29.861     0.6348259  0.6492977  0.5997959 
1116.2     0.221      0          0          411.977    14.383     1.638      0.361      0.1616528  0.1507486  0.172557   0.3666573  2.76287    0.8708937  1.638      0.1325769  0.4519231  29.723     0.6371254  0.6439711  0.58777   
1116.4     0.222      0          0          420.784    14.007     1.69       0.336      0.1685625  0.1426747  0.1944503  0.3570633  3.709751   1.232518   1.69       0.1758053  0.459985   29.585     0.5858341  0.5822236  0.575951  
1116.6     0.223      0          0          420.626    13.452     1.706      0.319      0.179981   0.1461554  0.2138067  0.3485122  6.037311   2.057904   1.706      0.2249724  0.4679603  29.447     0.5237715  0.4929672  0.5643371 
1116.8     0.224      0          0          419.762    12.841     1.733      0.322      0.1990372  0.167448   0.2306264  0.3497323  13.6085    3.618434   1.733      0.2952262  0.4935871  29.309     0.4683393  0.4242215  0.5529259 
1117       0.225      0          0          419.683    12.906     1.751      0.332      0.2042828  0.1777261  0.2308394  0.3547066  17.02043   3.407584   1.751      0.314347   0.5055951  29.171     0.4674966  0.4012282  0.5417162 
1117.2     0.226      0          0          416.459    12.982     1.759      0.341      0.2076592  0.1866559  0.2286624  0.3581516  19.65665   3.176581   1.759      0.3255111  0.5127676  29.033     0.4677095  0.4068234  0.5307059 
1117.4     0.227      0          0          368.197    13.095     1.769      0.314      0.1750606  0.1585325  0.1915888  0.3266484  4.89447    2.861748   1.769      0.2194305  0.4505255  28.895     0.4711137  0.4172143  0.5198931 
1117.6     0.226      0          0          323.463    13.146     1.787      0.287      0.1406858  0.1321579  0.1492136  0.2916637  1.129796   2.730067   1.787      0.06020075 0.3623322  28.732     0.4692184  0.4179212  0.5079004 
1117.8     0.223      0          0          299.225    12.986     1.796      0.299      0.1390231  0.1509899  0.1270563  0.2833395  1.052454   3.164868   1.796      0.05265491 0.3494986  28.486     0.4485153  0.403809   0.4917067 
1118       0.219      0          0          303.959    12.825     1.806      0.299      0.1483723  0.157525   0.1392196  0.2863168  1.568097   3.672307   1.806      0.1071913  0.3714122  28.24      0.4287122  0.3827518  0.4759804 
1118.2     0.216      0          0          320.107    12.665     1.862      0.294      0.1614232  0.1587379  0.1641084  0.2933097  2.735942   4.25717    1.862      0.1822006  0.4097164  27.993     0.4098852  0.3652443  0.460664  
1118.4     0.215      8          2          336.255    12.576     1.96       0.295      0.1589316  0.1478688  0.1699943  0.302391   2.460118   4.621919   1.96       0.1907602  0.4318101  27.747     0.445852   0.3612158  0.4458525 
1118.6     0.215      8          2          338.646    12.743     2.051      0.309      0.1858651  0.1810808  0.1906494  0.3105921  7.759446   3.961249   2.051      0.3087834  0.4861964  27.5       0.387634   0.3757167  0.3876344 
1118.8     0.219      8          2          335.884    12.992     2.182      0.324      0.1958184  0.2000213  0.1916154  0.3167031  11.86286   3.147378   2.182      0.3584002  0.5178291  27.254     0.375693   0.3980756  0.3756934 
1119       0.22       8          2          331.749    13.106     2.133      0.332      0.1985996  0.2089483  0.1882509  0.3185805  13.35685   2.832819   2.133      0.359442   0.516792   27.008     0.372884   0.4101967  0.3728837 
1119.2     0.218      8          2          327.615    12.955     2.052      0.324      0.1915201  0.2000213  0.1830188  0.3124048  9.875846   3.256799   2.052      0.3267472  0.4942186  26.772     0.375693   0.4110017  0.3756934 
1119.4     0.216      8          2          327.203    13.03      1.921      0.322      0.1893961  0.197094   0.1816981  0.311185   9.020544   3.038824   1.921      0.2988017  0.4736818  26.944     0.378503   0.4157591  0.378503  
1119.6     0.215      8          2          327.278    13.144     1.834      0.329      0.1927103  0.2038624  0.1815582  0.314725   10.3901    2.735115   1.834      0.2941303  0.4686897  27.116     0.379205   0.4261169  0.3792054 
1119.8     0.217      8          2          328.304    13.182     1.747      0.318      0.1875302  0.1926304  0.1824301  0.3097712  8.330542   2.640782   1.747      0.2605047  0.4443855  27.288     0.379908   0.4329056  0.3799078 
1120       0.218      8          2          329.405    13.196     1.695      0.311      0.1832567  0.1842397  0.1822736  0.3068536  6.942501   2.606852   1.695      0.2347325  0.4274606  27.461     0.384122   0.4307909  0.3841223 
1120.2     0.219      0          0          330.506    13.073     1.656      0.307      0.1709692  0.1690957  0.1728427  0.3054321  4.110755   2.920495   1.656      0.178118   0.4029159  27.633     0.417892   0.4218215  0.4178924 
1120.4     0.218      0          0          331.607    12.966     1.63       0.322      0.1806714  0.1857649  0.1755778  0.3135067  6.217704   3.223877   1.63       0.2108555  0.4203798  27.805     0.4128336  0.4224476  0.4233893 
1120.6     0.217      0          0          330.16     13.166     1.604      0.336      0.1809492  0.193646   0.1682523  0.3197507  6.291814   2.680097   1.604      0.2059419  0.4229735  27.977     0.4313757  0.4538737  0.428955  
1120.8     0.216      0          0          329.578    13.55      1.578      0.325      0.1633604  0.1705616  0.1561592  0.3139447  2.971589   1.879808   1.578      0.1252948  0.3876892  28.149     0.4679952  0.521435   0.4345902 
1121       0.215      0          0          328.997    14.201     1.539      0.312      0.1342344  0.1346708  0.1337979  0.3071382  0.858034   1.030321   1.539      0          0.3227983  28.185     0.5373611  0.5949255  0.4337827 
1121.2     0.214      0          0          328.415    14.223     1.501      0.315      0.1347502  0.1369775  0.132523   0.3083301  0.8771211  1.009596   1.501      0          0.3169209  28.214     0.5394621  0.6283859  0.4326445 
1121.4     0.213      0          0          328.021    14.106     1.475      0.335      0.1492045  0.1617603  0.1366487  0.3181209  1.624755   1.124814   1.475      0.022981   0.3496056  28.244     0.5249687  0.6297858  0.4315564 
1121.6     0.212      0          0          327.672    14.135     1.454      0.344      0.1526069  0.1698251  0.1353887  0.3224352  1.878484   1.095084   1.454      0.03551176 0.3559102  28.273     0.5278028  0.6334674  0.4304237 
1121.8     0.212      0          0          327.323    14.275     1.454      0.336      0.138081   0.1512207  0.1249413  0.318249   1.011005   0.9622511  1.454      0          0.3257867  28.949     0.5599372  0.6365904  0.4607946 
1122       0.211      0          0          326.974    14.209     1.454      0.325      0.1269555  0.1346425  0.1192685  0.3125625  0.6290444  1.022736   1.454      0          0.2966461  29.95      0.576841   0.6061911  0.5108057 
1122.2     0.21       0          0          326.625    13.679     1.454      0.331      0.1409097  0.1520687  0.1297506  0.3153756  1.140636   1.668655   1.454      0          0.3270444  30.825     0.5422159  0.5399865  0.5580336 
1122.4     0.211      0          0          326.276    13.242     1.454      0.342      0.1584644  0.1756241  0.1413047  0.3206883  2.411592   2.498414   1.454      0.06663791 0.3629583  30.943     0.5041693  0.4875027  0.5619279 
1122.6     0.211      0          0          324.454    13.411     1.454      0.354      0.1581228  0.1821299  0.1341157  0.3257038  2.376711   2.13733    1.454      0.06488193 0.3685127  31.061     0.5208185  0.478188   0.5658456 
1122.8     0.212      0          0          321.936    13.546     1.836      0.336      0.1431212  0.1593889  0.1268536  0.3153249  1.253461   1.886767   1.836      0.08582331 0.4045557  31.178     0.5351852  0.4835721  0.5697261 
