~Version
 VERS              .         2.0                           : CWLS LOG ASCII STANDARD - VERSION 2.0
 WRAP              .         NO                            : ONE LINE PER DEPTH STEP
 DLM               .         SPACE                         : DELIMITING CHARACTER(SPACE TAB OR COMMA)
~Well Information
#_______________________________________________________________________________
#
#PARAMETER_NAME    .UNIT     VALUE                         : DESCRIPTION
#_______________________________________________________________________________
STRT               .м        906                           : First reference value
STOP               .м        1170                          : Last reference value
STEP               .м        0.2                           : Step increment
NULL               .         -9999                         : Missing value
COMP               .                                       : Company
WELL               .         3668                          : Well name
FLD                .         Узень                         : Field
LOC                .                                       : Location
CNTY               .                                       : County
STAT               .                                       : State
CTRY               .                                       : Country
SRVC               .                                       : Service Company
DATE               .                                       : Date
UWI                .                                       : Unique Well ID
Block              .         6а                            : 
Category           .         Нефтяная                      : 
Condition          .         В работе                      : 
Date               .         30.11.2006                    : 
EREF               .m        81.3                          : 100.8
Gorizont           .         13                            : 14
Interpretator      .         Танауова А.Б.                 : 
Kupol              .         Основной                      : osnovnoi
Mud                .         0                             : 
Mud_density        .         0                             : 
Mud_resistivity    .         0                             : 
NGDU               .         НГДУ-2                        : 
ORIGINALWELLNAME   .         3668                          : 
Spud_date          .         2007                          : 1961
Viscosity          .         0                             : 
X                  .m        44346.52                      : 46154
Y                  .m        85016.13                      : 85761.93
YEAR               .         2019                          : 
~Parameter Information Block
#_______________________________________________________________________________
#
#PARAMETER_NAME    .UNIT     VALUE                         : DESCRIPTION
#_______________________________________________________________________________
SET                .         LQC_KAZNIPI_Petrel            : 
TLFamily_CALI      .         Caliper                       : 
TLFamily_COLL      .         Net Reservoir Flag            : 
TLFamily_CSAT      .         Fluid Code                    : 
TLFamily_DEPT      .         Measured Depth                : 
TLFamily_DT        .         Compressional Slowness        : 
TLFamily_GR        .         Russian Gamma Ray             : 
TLFamily_LLS       .         Lateral Log Resistivity       : 
TLFamily_NPHI      .         Neutron Porosity              : 
TLFamily_PHIE      .         Effective Porosity            : 
TLFamily_PHIEN     .         Effective Porosity            : 
TLFamily_PHIES     .         Effective Porosity            : 
TLFamily_PHIT      .         Porosity                      : 
TLFamily_PRMB      .         Permeability                  : 
TLFamily_PRMB_DGR  .         Permeability                  : 
TLFamily_RT        .         Formation Resistivity         : 
TLFamily_SOIL_ARCHIE .         Oil Saturation                : 
TLFamily_SOIL_DW   .         Oil Saturation                : 
TLFamily_SP        .         Spontaneous Potential         : 
TLFamily_VSH_FIN   .         Shale Volume                  : 
TLFamily_VSH_GR    .         Shale Volume                  : 
TLFamily_VSH_SP    .         Shale Volume                  : 
~Curve Information
#_______________________________________________________________________________
#
#LOGNAME           .UNIT     LOG_ID                        : DESCRIPTION
#_______________________________________________________________________________
DEPT               .м                                      : Колонка глубины 
CALI               .м                                      : Каверномер 
COLL               .unitless                               : Описание 
CSAT               .unitless                               :  
DT                 .мкс/м                                  : Интервальное время пробега продольной волны 
GR                 .uR/h                                   : Гамма каротаж 
LLS                .Ohmm                                   : Боковой каротаж 
NPHI               .v/v                                    : Водородосодержание по НКТ 
PHIE               .v/v                                    : Описание 
PHIEN              .v/v                                    :  
PHIES              .v/v                                    :  
PHIT               .v/v                                    : Описание 
PRMB               .mD                                     :  
PRMB_DGR           .mD                                     :  
RT                 .ohmm                                   : УЭС пласта 
SOIL_ARCHIE        .v/v                                    :  
SOIL_DW            .v/v                                    :  
SP                 .mV                                     : Потенциал самополяризации 
VSH_FIN            .v/v                                    : Описание 
VSH_GR             .v/v                                    : Shale volume 
VSH_SP             .v/v                                    : Shale Volume 
~Ascii
# ...
941        0.219      0          0          305.695    5.576      4.903      0.307      0.1345128  0.1461124  0.1229132  0.2913854  0.8682843  67.79845   4.903      0.3914289  0.6081941  30.827     0.4875382  0.1145075  0.4875382 
941.2000000000001 0.22       0          0          302.11     5.538      4.058      0.305      0.1246247  0.137274   0.1119753  0.288165   0.5695206  70.09939   4.058      0.2892094  0.553758   31.216     0.5082605  0.1141679  0.5082605 
941.4      0.221      0          0          296.614    5.499      3.757      0.301      0.112197   0.1261774  0.09821656 0.2826568  0.3352114  72.54208   3.757      0.1924236  0.5120812  31.605     0.5297653  0.112447   0.5297653 
941.6      0.218      0          0          291.119    5.46       3.213      0.278      0.08986177 0.09579807 0.08392546 0.2675168  0.1293052  75.0699    3.213      0          0.4085887  31.995     0.5521271  0.109953   0.5521271 
941.8      0.216      0          0          289.63     5.234      3.34       0.268      0.07641326 0.07816931 0.07465722 0.2615066  0.07286467 91.55225   3.34       0          0.3780041  32.384     0.5752445  0.110697   0.5752445 
942        0.217      0          0          295.449    5.484      3.418      0.285      0.08109821 0.08726734 0.07492909 0.2738964  0.08898027 73.50407   3.418      0          0.415516   32.773     0.5991899  0.124864   0.5991899 
942.2000000000001 0.218      0          0          301.268    6.315      3.529      0.303      0.08573496 0.09695724 0.07451267 0.2866358  0.108437   35.42769   3.529      0          0.4521943  33.168     0.624372   0.1575347  0.624372  
942.4      0.218      0          0          302.781    7.166      3.718      0.32       0.08629234 0.1048383  0.06774638 0.2960846  0.1110457  16.7782    3.718      0          0.4788705  33.586     0.6520051  0.1996504  0.6520051 
942.6      0.217      0          0          295.43     7.649      3.695      0.297      0.06089758 0.0724089  0.04938627 0.2798839  0.0375949  10.97778   3.695      0          0.3940335  34.003     0.6805791  0.2349339  0.6805791 
942.8      0.215      0          0          288.08     7.935      3.67       0.264      0.02993377 0.02964121 0.03022633 0.258444   0.010037   8.539362   3.67       0          0.2258682  34.42      0.7101781  0.2490033  0.7101781 
943        0.214      0          0          274.806    7.598      3.557      0.226      0.01       0          0.001437075 0.2298532  0.004289259 11.48067   3.557      0          0          34.837     0.7408212  0.2384488  0.7408212 
943.2000000000001 0.213      0          0          261.483    7.273      3.498      0.189      0.01       0          0          0.2007477  0.004289259 15.27328   3.498      0          0          35.254     0.772526   0.2194362  0.772526  
943.4      0.213      0          0          264.707    7.121      3.444      0.186      0.01       0          0          0.201912   0.004289259 17.4546    3.444      0          0          35.58      0.7979749  0.2082175  0.7979749 
943.6      0.214      0          0          274.536    7.121      3.454      0.218      0.01       0          0          0.2256485  0.004289259 17.4546    3.454      0          0          35.41      0.784008   0.2103255  0.784008  
943.8      0.215      0          0          292.072    7.39       3.671      0.25       0.01       0          0.01626207 0.2541579  0.004289259 13.78177   3.671      0          0.06773009 35.24      0.7720286  0.2248366  0.7720286 
944        0.215      0          0          312.891    7.69       3.831      0.269      0.03205946 0.01810966 0.04600927 0.2766887  0.01098948 10.58951   3.831      0          0.2923313  35.071     0.7602738  0.2425147  0.7602738 
944.2000000000001 0.216      0          0          306.292    7.917      6.027      0.257      0.02588106 0.009966128 0.041796   0.2667501  0.008443804 8.675433   6.027      0          0.3929019  34.901     0.7485875  0.2443368  0.7485875 
944.4      0.216      0          0          293.037    7.505      7.412      0.216      0.01425991 0          0.02851983 0.2378028  0.005143825 12.45777   7.412      0          0.3340274  34.731     0.7370465  0.2131142  0.7370465 
944.6      0.217      0          0          279.783    6.198      8.224      0.219      0.01       0          0.01357554 0.2300558  0.004289259 39.26179   8.224      0          0.3192357  34.562     0.725725   0.1610192  0.725725  
944.8      0.217      0          0          268.047    5.387      9.266      0.238      0.01       0.002224404 0          0.2306046  0.004289259 80.04057   9.266      0          0.3600097  34.392     0.7144715  0.1197231  0.7144715 
945        0.217      0          0          262.29     4.848      8.235      0.251      0.01036405 0.0207281  0          0.2324208  0.004356376 128.4994   8.235      0          0.3285561  34.145     0.6977936  0.1025943  0.6977936 
945.2000000000001 0.217      0          0          257.236    5.236      6.758      0.217      0.01       0          0          0.2111361  0.004289259 91.39157   6.758      0          0.1898202  33.867     0.679248   0.1057363  0.679248  
945.4      0.217      0          0          252.183    5.641      5.22       0.233      0.01       0.01483335 0          0.2146806  0.004289259 64.03642   5.22       0          0.09158332 33.589     0.6611111  0.1178993  0.6611111 
945.6      0.217      0          0          251.237    6.023      5.003      0.252      0.01984262 0.03968524 0          0.2233265  0.006526667 45.78471   5.003      0          0.1906216  33.311     0.6433781  0.1265233  0.6433781 
945.8      0.217      0          0          251.237    5.857      5.819      0.255      0.02306728 0.04613456 0          0.2248265  0.007488934 52.97098   5.819      0          0.2750581  33.137     0.6329256  0.1237349  0.6329256 
946        0.217      0          0          253.626    5.481      6.636      0.246      0.01476167 0.02952334 0          0.2224711  0.005255088 73.69801   6.636      0          0.2588266  33.461     0.6559899  0.1126037  0.6559899 
946.2000000000001 0.217      0          0          259.362    5.038      6.717      0.25       0.01284135 0.02568271 0          0.2294588  0.004841847 108.75     6.717      0          0.267988   33.785     0.6797494  0.1030847  0.6797494 
946.4      0.217      0          0          265.098    5.12       5.726      0.265      0.0163046  0.03260919 0          0.2417307  0.005612531 101.1934   5.726      0          0.2675232  34.109     0.7042145  0.1023981  0.7042145 
946.6      0.217      0          0          270.834    5.417      5.398      0.28       0.01966207 0.03932413 0          0.2538005  0.006476602 77.95921   5.398      0          0.2974482  34.432     0.7293208  0.1087972  0.7293208 
946.8      0.217      0          0          276.559    5.569      5.272      0.29       0.03187711 0.05278478 0.01096944 0.2631725  0.01090434 68.21658   5.272      0          0.3719361  34.273     0.718834   0.1178465  0.718834  
947        0.218      0          0          279.687    5.869      5.145      0.296      0.04202361 0.06374183 0.02030538 0.2684857  0.01680882 52.41562   5.145      0          0.4138418  34.05      0.7038127  0.1277833  0.7038127 
947.2000000000001 0.218      0          0          276.701    6.136      4.978      0.302      0.04754395 0.07459017 0.02049772 0.2692786  0.02127097 41.45899   4.978      0          0.4243391  33.828     0.6891207  0.1337115  0.6891207 
947.4      0.218      0          0          267.972    5.955      4.804      0.282      0.03545607 0.05935502 0.01155712 0.2525449  0.01270254 48.60241   4.804      0          0.3374684  33.606     0.6746818  0.1314504  0.6746818 
947.6      0.218      0          0          260.045    5.682      4.63       0.257      0.02103653 0.03905965 0.003013406 0.2335381  0.006867609 61.7715    4.63       0          0.1974943  33.383     0.6604253  0.1278058  0.6604253 
947.8      0.218      0          0          260.045    5.82       4.339      0.257      0.02725676 0.04543909 0.009074442 0.2335381  0.008954048 54.72058   4.339      0          0.2134291  33.081     0.6410937  0.132932   0.6410937 
