~Version
 VERS              .         2.0                           : CWLS LOG ASCII STANDARD - VERSION 2.0
 WRAP              .         NO                            : ONE LINE PER DEPTH STEP
 DLM               .         SPACE                         : DELIMITING CHARACTER(SPACE TAB OR COMMA)
~Well Information
#_______________________________________________________________________________
#
#PARAMETER_NAME    .UNIT     VALUE                         : DESCRIPTION
#_______________________________________________________________________________
STRT               .м        906                           : First reference value
STOP               .м        1170                          : Last reference value
STEP               .м        0.2                           : Step increment
NULL               .         -9999                         : Missing value
COMP               .                                       : Company
WELL               .         3668                          : Well name
FLD                .         Узень                         : Field
LOC                .                                       : Location
CNTY               .                                       : County
STAT               .                                       : State
CTRY               .                                       : Country
SRVC               .                                       : Service Company
DATE               .                                       : Date
UWI                .                                       : Unique Well ID
Block              .         6а                            : 
Category           .         Нефтяная                      : 
Condition          .         В работе                      : 
Date               .         30.11.2006                    : 
EREF               .m        81.3                          : 100.8
Gorizont           .         13                            : 14
Interpretator      .         Танауова А.Б.                 : 
Kupol              .         Основной                      : osnovnoi
Mud                .         0                             : 
Mud_density        .         0                             : 
Mud_resistivity    .         0                             : 
NGDU               .         НГДУ-2                        : 
ORIGINALWELLNAME   .         3668                          : 
Spud_date          .         2007                          : 1961
Viscosity          .         0                             : 
X                  .m        44346.52                      : 46154
Y                  .m        85016.13                      : 85761.93
YEAR               .         2019                          : 
~Parameter Information Block
#_______________________________________________________________________________
#
#PARAMETER_NAME    .UNIT     VALUE                         : DESCRIPTION
#_______________________________________________________________________________
SET                .         LQC_KAZNIPI_Petrel            : 
TLFamily_CALI      .         Caliper                       : 
TLFamily_COLL      .         Net Reservoir Flag            : 
TLFamily_CSAT      .         Fluid Code                    : 
TLFamily_DEPT      .         Measured Depth                : 
TLFamily_DT        .         Compressional Slowness        : 
TLFamily_GR        .         Russian Gamma Ray             : 
TLFamily_LLS       .         Lateral Log Resistivity       : 
TLFamily_NPHI      .         Neutron Porosity              : 
TLFamily_PHIE      .         Effective Porosity            : 
TLFamily_PHIEN     .         Effective Porosity            : 
TLFamily_PHIES     .         Effective Porosity            : 
TLFamily_PHIT      .         Porosity                      : 
TLFamily_PRMB      .         Permeability                  : 
TLFamily_PRMB_DGR  .         Permeability                  : 
TLFamily_RT        .         Formation Resistivity         : 
TLFamily_SOIL_ARCHIE .         Oil Saturation                : 
TLFamily_SOIL_DW   .         Oil Saturation                : 
TLFamily_SP        .         Spontaneous Potential         : 
TLFamily_VSH_FIN   .         Shale Volume                  : 
TLFamily_VSH_GR    .         Shale Volume                  : 
TLFamily_VSH_SP    .         Shale Volume                  : 
~Curve Information
#_______________________________________________________________________________
#
#LOGNAME           .UNIT     LOG_ID                        : DESCRIPTION
#_______________________________________________________________________________
DEPT               .м                                      : Колонка глубины 
CALI               .м                                      : Каверномер 
COLL               .unitless                               : Описание 
CSAT               .unitless                               :  
DT                 .мкс/м                                  : Интервальное время пробега продольной волны 
GR                 .uR/h                                   : Гамма каротаж 
LLS                .Ohmm                                   : Боковой каротаж 
NPHI               .v/v                                    : Водородосодержание по НКТ 
PHIE               .v/v                                    : Описание 
PHIEN              .v/v                                    :  
PHIES              .v/v                                    :  
PHIT               .v/v                                    : Описание 
PRMB               .mD                                     :  
PRMB_DGR           .mD                                     :  
RT                 .ohmm                                   : УЭС пласта 
SOIL_ARCHIE        .v/v                                    :  
SOIL_DW            .v/v                                    :  
SP                 .mV                                     : Потенциал самополяризации 
VSH_FIN            .v/v                                    : Описание 
VSH_GR             .v/v                                    : Shale volume 
VSH_SP             .v/v                                    : Shale Volume 
~Ascii
# ...
920        0.21       1          3          320.598    3.788      1.67       0.32       0.2855115  0.2983887  0.2726342  0.3065834  543.9057   326        1.67       0.4762457  0.5200352  2.053      0.06548862 0.06153346 0.06989942
920.2000000000001 0.21       1          3          318.89     3.826      1.876      0.32       0.2844405  0.2982704  0.2706106  0.3056278  519.6202   315.2995   1.876      0.5024421  0.5456129  2.048      0.06584726 0.06157825 0.06977863
920.4      0.21       1          3          312.891    3.826      1.974      0.32       0.2810209  0.2982904  0.2637514  0.3021887  449.1036   315.2995   1.974      0.5090456  0.5518442  2.043      0.06578673 0.06131998 0.06965756
920.6      0.21       1          3          311.79     3.75       1.834      0.308      0.2746627  0.2865851  0.2627403  0.2955432  342.4342   337.0637   1.834      0.4815708  0.5244662  2.038      0.06489373 0.06052344 0.06953635
920.8      0.21       1          3          311.79     3.712      1.694      0.31       0.2758115  0.2887377  0.2628853  0.2965432  359.6301   348.5028   1.694      0.4638409  0.5070435  2.034      0.06443124 0.05996354 0.0694269 
921        0.21       1          3          316.194    3.722      1.553      0.315      0.2808519  0.2937225  0.2679813  0.3015984  445.8792   345.4554   1.553      0.4502636  0.4940438  2.029      0.06447716 0.06036267 0.0693052 
921.2000000000001 0.211      1          3          319.497    3.809      1.509      0.306      0.2779376  0.2844307  0.2714445  0.2989686  393.7645   320.0424   1.509      0.4377138  0.4818324  2.024      0.06536141 0.06182609 0.06918326
921.4      0.211      1          3          317.295    3.919      1.514      0.308      0.2772872  0.2860124  0.268562   0.2987261  382.9918   290.5696   1.514      0.4374392  0.4819275  2.034      0.06662919 0.063669   0.06924263
921.6      0.211      1          3          317.295    4.015      1.52       0.309      0.2773395  0.2865532  0.2681258  0.2992261  383.8476   267.0748   1.52       0.4385746  0.4834854  2.084      0.06802058 0.06449163 0.06978306
921.8      0.21       1          3          317.295    3.902      1.525      0.311      0.2786767  0.288899   0.2684543  0.3002261  406.374    294.9406   1.525      0.4417825  0.4863761  2.134      0.06697276 0.06352077 0.07031885
922        0.21       1          3          317.295    3.788      1.531      0.307      0.2770013  0.2852319  0.2687706  0.2982261  378.3498   326        1.531      0.4398761  0.4840909  2.184      0.06596395 0.06214304 0.07085006
922.2000000000001 0.21       1          3          320.415    3.788      1.536      0.314      0.282172   0.292145   0.2721989  0.3034815  471.7017   326        1.536      0.449669   0.4940742  2.234      0.06622721 0.06209735 0.07137657
922.4      0.209      1          3          325.001    3.902      1.542      0.32       0.2871969  0.2976383  0.2767555  0.3090006  584.4429   294.9406   1.542      0.4590554  0.503999   2.284      0.06776261 0.06339877 0.07189855
922.6      0.209      1          3          330.165    3.966      1.547      0.312      0.2856288  0.2893092  0.2819483  0.3077533  546.6336   278.8193   1.547      0.4572948  0.5024881  2.334      0.06875996 0.06488584 0.07241598
922.8      0.209      1          3          342.616    4.03       1.553      0.304      0.287599   0.2809752  0.2942229  0.3100492  594.5519   263.5793   1.553      0.4615133  0.5070087  2.384      0.06977219 0.06558903 0.07292888
923        0.208      1          3          342.616    3.977      1.559      0.3        0.2858303  0.2772124  0.2944482  0.3080493  551.3507   276.1387   1.559      0.459591   0.5048281  2.373      0.06905348 0.06499234 0.07274567
923.2000000000001 0.208      1          3          338.213    3.917      1.564      0.297      0.2824582  0.2745215  0.2903951  0.3043758  477.4964   291.0804   1.564      0.4547963  0.4996815  2.336      0.06811671 0.06313103 0.07226355
923.4      0.208      1          3          333.365    3.75       1.57       0.291      0.2776752  0.2692153  0.2861352  0.2989163  389.3827   337.0637   1.57       0.4476193  0.4917412  2.299      0.06601432 0.06040257 0.07177752
923.6      0.208      1          3          327.939    3.583      1.575      0.286      0.2729786  0.2648741  0.2810831  0.2935773  318.7015   390.3111   1.575      0.4401871  0.4835344  2.262      0.06401801 0.05818919 0.07128749
923.8      0.209      1          3          329.405    3.567      1.581      0.286      0.2738866  0.2650092  0.282764   0.2943536  331.2849   395.8346   1.581      0.4427989  0.4860252  2.225      0.06360862 0.05822502 0.07079338
924        0.209      1          3          329.198    3.767      1.58       0.297      0.2786825  0.2753991  0.2819659  0.2997444  406.4753   332.0684   1.58       0.4509968  0.4949377  2.188      0.0654574  0.06051553 0.07029524
924.2000000000001 0.21       1          3          321.698    3.939      1.562      0.307      0.2790919  0.2848455  0.2733382  0.3006935  413.6348   285.5102   1.562      0.4487423  0.4932702  2.151      0.06713483 0.06297384 0.06979307
924.4      0.21       1          3          321.748    3.903      1.544      0.318      0.284834   0.2960655  0.2736025  0.3062211  528.4152   294.6816   1.544      0.4554803  0.4999878  2.114      0.06646813 0.06438409 0.06928677
924.6      0.21       1          3          347.02     4.015      1.564      0.322      0.2994453  0.2997213  0.2991692  0.321168   985.3964   267.0748   1.564      0.4818343  0.5267987  2.076      0.06751118 0.06520872 0.06876425
924.8      0.21       1          3          385.669    3.977      1.697      0.316      0.3131906  0.2939542  0.3324271  0.3346863  1770.959   276.1387   1.697      0.5204216  0.5647538  2.039      0.06680547 0.06526913 0.06824967
925        0.21       1          3          388.206    3.964      1.83       0.294      0.3031893  0.2719843  0.3343942  0.3246555  1156.003   279.3095   1.83       0.5238342  0.5675416  2.054      0.06671421 0.06461553 0.06837117
925.2000000000001 0.21       1          3          358.625    3.87       1.855      0.28       0.2842574  0.2582117  0.310303   0.3055019  515.5781   303.3474   1.855      0.4995261  0.5428143  2.123      0.06602506 0.06406399 0.06914947
925.4      0.209      1          3          331.607    3.915      1.68       0.294      0.2779738  0.271916   0.2840316  0.2995067  394.3731   291.5923   1.68       0.4653974  0.5094413  2.192      0.06692115 0.06468453 0.0699183 
925.6      0.209      1          3          329.405    4.052      1.504      0.308      0.2831806  0.2852595  0.2811017  0.3053536  492.4365   258.5353   1.504      0.4459296  0.4912901  2.261      0.06891044 0.06602223 0.07067772
925.8      0.209      1          3          329.405    4.033      1.486      0.321      0.2898439  0.298427   0.2812608  0.3118536  654.2888   262.8858   1.486      0.4539635  0.4993584  2.219      0.06840313 0.06708139 0.07011906
926        0.209      1          3          325.001    4.033      1.587      0.328      0.2911242  0.3055637  0.2766846  0.3130006  691.0102   262.8858   1.587      0.4725841  0.5174794  2.155      0.0679887  0.06906327 0.06929018
926.2000000000001 0.209      1          3          326.102    4.333      1.657      0.318      0.2856368  0.2944545  0.2768191  0.3085948  546.8199   201.9937   1.657      0.4745223  0.5200384  2.09       0.07135013 0.07237697 0.06843806
926.4      0.209      1          3          328.304    4.393      1.585      0.308      0.2816904  0.2843284  0.2790523  0.3047712  462.1117   191.625    1.585      0.4569119  0.5027927  2.026      0.07173217 0.07439215 0.06758687
926.6      0.209      1          3          318.833    4.336      1.513      0.304      0.2745078  0.2803211  0.2686945  0.2975957  340.1797   201.4623   1.513      0.4323056  0.4783802  2.16       0.07175411 0.07412304 0.06916609
926.8      0.21       1          3          310.746    4.278      1.442      0.301      0.2683031  0.2772844  0.2593218  0.2914268  261.0853   211.9906   1.442      0.4076784  0.4539334  2.312      0.0718653  0.07281939 0.07091884
