~Version
 VERS              .         2.0                           : CWLS LOG ASCII STANDARD - VERSION 2.0
 WRAP              .         NO                            : ONE LINE PER DEPTH STEP
 DLM               .         SPACE                         : DELIMITING CHARACTER(SPACE TAB OR COMMA)
~Well Information
#_______________________________________________________________________________
#
#PARAMETER_NAME    .UNIT     VALUE                         : DESCRIPTION
#_______________________________________________________________________________
STRT               .м        906                           : First reference value
STOP               .м        1170                          : Last reference value
STEP               .м        0.2                           : Step increment
NULL               .         -9999                         : Missing value
COMP               .                                       : Company
WELL               .         3668                          : Well name
FLD                .         Узень                         : Field
LOC                .                                       : Location
CNTY               .                                       : County
STAT               .                                       : State
CTRY               .                                       : Country
SRVC               .                                       : Service Company
DATE               .                                       : Date
UWI                .                                       : Unique Well ID
Block              .         6а                            : 
Category           .         Нефтяная                      : 
Condition          .         В работе                      : 
Date               .         30.11.2006                    : 
EREF               .m        81.3                          : 100.8
Gorizont           .         13                            : 14
Interpretator      .         Танауова А.Б.                 : 
Kupol              .         Основной                      : osnovnoi
Mud                .         0                             : 
Mud_density        .         0                             : 
Mud_resistivity    .         0                             : 
NGDU               .         НГДУ-2                        : 
ORIGINALWELLNAME   .         3668                          : 
Spud_date          .         2007                          : 1961
Viscosity          .         0                             : 
X                  .m        44346.52                      : 46154
Y                  .m        85016.13                      : 85761.93
YEAR               .         2019                          : 
~Parameter Information Block
#_______________________________________________________________________________
#
#PARAMETER_NAME    .UNIT     VALUE                         : DESCRIPTION
#_______________________________________________________________________________
SET                .         LQC_KAZNIPI_Petrel            : 
TLFamily_CALI      .         Caliper                       : 
TLFamily_COLL      .         Net Reservoir Flag            : 
TLFamily_CSAT      .         Fluid Code                    : 
TLFamily_DEPT      .         Measured Depth                : 
TLFamily_DT        .         Compressional Slowness        : 
TLFamily_GR        .         Russian Gamma Ray             : 
TLFamily_LLS       .         Lateral Log Resistivity       : 
TLFamily_NPHI      .         Neutron Porosity              : 
TLFamily_PHIE      .         Effective Porosity            : 
TLFamily_PHIEN     .         Effective Porosity            : 
TLFamily_PHIES     .         Effective Porosity            : 
TLFamily_PHIT      .         Porosity                      : 
TLFamily_PRMB      .         Permeability                  : 
TLFamily_PRMB_DGR  .         Permeability                  : 
TLFamily_RT        .         Formation Resistivity         : 
TLFamily_SOIL_ARCHIE .         Oil Saturation                : 
TLFamily_SOIL_DW   .         Oil Saturation                : 
TLFamily_SP        .         Spontaneous Potential         : 
TLFamily_VSH_FIN   .         Shale Volume                  : 
TLFamily_VSH_GR    .         Shale Volume                  : 
TLFamily_VSH_SP    .         Shale Volume                  : 
~Curve Information
#_______________________________________________________________________________
#
#LOGNAME           .UNIT     LOG_ID                        : DESCRIPTION
#_______________________________________________________________________________
DEPT               .м                                      : Колонка глубины 
CALI               .м                                      : Каверномер 
COLL               .unitless                               : Описание 
CSAT               .unitless                               :  
DT                 .мкс/м                                  : Интервальное время пробега продольной волны 
GR                 .uR/h                                   : Гамма каротаж 
LLS                .Ohmm                                   : Боковой каротаж 
NPHI               .v/v                                    : Водородосодержание по НКТ 
PHIE               .v/v                                    : Описание 
PHIEN              .v/v                                    :  
PHIES              .v/v                                    :  
PHIT               .v/v                                    : Описание 
PRMB               .mD                                     :  
PRMB_DGR           .mD                                     :  
RT                 .ohmm                                   : УЭС пласта 
SOIL_ARCHIE        .v/v                                    :  
SOIL_DW            .v/v                                    :  
SP                 .mV                                     : Потенциал самополяризации 
VSH_FIN            .v/v                                    : Описание 
VSH_GR             .v/v                                    : Shale volume 
VSH_SP             .v/v                                    : Shale Volume 
~Ascii
# ...
976        0.234      0          0          375.948    8.317      2.186      0.325      0.1442922  0.1290509  0.1595335  0.3353513  1.317647   6.105466   2.186      0.1636491  0.4765615  29.841     0.5937852  0.310903   0.5937852 
976.2000000000001 0.231      0          0          376.892    8.081      2.355      0.315      0.1347401  0.1139915  0.1554887  0.3307324  0.8767415  7.511669   2.355      0.1427263  0.4782719  30.064     0.6091168  0.2926807  0.6091168 
976.4      0.228      0          0          377.836    7.987      2.524      0.321      0.1330998  0.1148435  0.1513561  0.3341116  0.8175016  8.158138   2.524      0.1612578  0.4970509  30.286     0.6247168  0.2885579  0.6247168 
976.6      0.226      0          0          378.779    8.218      2.693      0.34       0.1494484  0.1404809  0.158416   0.3439885  1.641744   6.660094   2.693      0.2644724  0.5418909  29.958     0.6046034  0.3023374  0.6046034 
976.8      0.223      0          0          379.723    8.449      2.77       0.372      0.1730164  0.1798576  0.1661753  0.3603639  4.485822   5.437132   2.77       0.3610535  0.5847324  29.585     0.5822498  0.3281336  0.5822498 
977        0.232      0          0          383.356    8.684      2.576      0.391      0.1909074  0.2059992  0.1758156  0.3712914  9.621118   4.423173   2.576      0.3932053  0.5929016  29.212     0.5606086  0.3648071  0.5606086 
977.2000000000001 0.241      0          0          388.41     9.108      2.149      0.373      0.1905868  0.1949095  0.1862641  0.364233   9.490478   3.047948   2.149      0.3383735  0.5487243  28.839     0.539668   0.4134105  0.539668  
977.4      0.242      0          0          389.908    9.532      1.721      0.367      0.1946691  0.1955928  0.1937453  0.3617987  11.2954    2.100298   1.721      0.2791257  0.497817   28.466     0.5194157  0.4572128  0.5194157 
977.6      0.241      0          0          381.179    9.624      1.494      0.363      0.1956083  0.1980527  0.1931639  0.3564393  11.75706   1.937266   1.494      0.2328754  0.4571223  28.093     0.4998402  0.4692669  0.4998402 
977.8      0.239      0          0          372.45     9.341      1.601      0.355      0.190174   0.1921887  0.1881594  0.3489223  9.324862   2.483901   1.601      0.2389276  0.4628362  27.955     0.4933677  0.446652   0.4933677 
978        0.237      0          0          363.722    9.057      1.669      0.359      0.1863774  0.1940233  0.1787315  0.347237   7.930861   3.187574   1.669      0.2404149  0.4681608  28.059     0.4999293  0.4156183  0.4999293 
978.2000000000001 0.236      0          0          363.922    8.939      1.59       0.367      0.1883451  0.1998503  0.1768398  0.3513235  8.625127   3.535649   1.59       0.2300077  0.4611946  28.162     0.5065143  0.3994752  0.5065143 
978.4      0.235      0          0          374.029    9.024      1.362      0.374      0.1939307  0.2046334  0.183228   0.3590707  10.94524   3.281311   1.362      0.1928099  0.4320486  28.266     0.5132321  0.399177   0.5132321 
978.6      0.235      0          0          382.697    9.124      1.266      0.358      0.1872256  0.186409   0.1880422  0.3545345  8.22299    3.005415   1.266      0.1386468  0.3981175  28.369     0.5199729  0.3965615  0.5199729 
978.8      0.234      0          0          374.26     8.882      1.377      0.336      0.1706437  0.1621398  0.1791475  0.3401651  4.054088   3.717155   1.377      0.1023013  0.3864348  28.473     0.5268489  0.3777647  0.5268489 
979        0.233      0          0          365.822    8.623      1.724      0.329      0.1613986  0.1528633  0.169934   0.3331398  2.733082   4.666606   1.724      0.1519966  0.4325634  28.576     0.5337476  0.3533098  0.5337476 
979.2000000000001 0.233      0          0          357.384    8.448      2.053      0.336      0.1586811  0.1572728  0.1600894  0.3329481  2.433976   5.441912   2.053      0.2070857  0.4764544  28.694     0.5415976  0.3430907  0.5415976 
979.4      0.232      0          0          351.424    8.667      2.033      0.338      0.1531154  0.1553229  0.1509078  0.3312337  1.919668   4.48971    2.033      0.1782747  0.4650112  28.88      0.5535669  0.3552698  0.5535669 
979.6      0.231      0          0          351.424    8.887      2.018      0.327      0.1437097  0.1403173  0.1471022  0.3257337  1.28532    3.700867   2.018      0.1286042  0.4443217  29.065     0.565705   0.3793011  0.565705  
979.8      0.23       0          0          351.424    9.106      2.018      0.323      0.1377105  0.1322158  0.1432053  0.3237337  0.9951552  3.053306   2.018      0.09563293 0.4332672  29.251     0.5781341  0.399166   0.5781341 
980        0.229      0          0          351.424    9.092      2.018      0.328      0.1361562  0.1330576  0.1392547  0.3262337  0.9313232  3.091081   2.018      0.08664761 0.4336502  29.436     0.5907345  0.405684   0.5907345 
980.2000000000001 0.228      0          0          351.437    9.05       2.018      0.343      0.1395327  0.1438224  0.1352429  0.3337397  1.075578   3.207232   2.018      0.1059278  0.4467436  29.621     0.6035684  0.4022934  0.6035684 
980.4      0.229      0          0          353.931    9.009      1.875      0.365      0.1474532  0.1614879  0.1334185  0.3458866  1.507818   3.324827   1.875      0.1180022  0.4501494  29.807     0.6167035  0.3934544  0.6167035 
980.6      0.231      0          0          356.425    8.918      1.758      0.368      0.1458015  0.1600957  0.1315072  0.3485174  1.405255   3.601464   1.758      0.08196438 0.4325052  29.992     0.630013   0.3761157  0.630013  
980.8      0.233      0          0          347.805    8.673      1.879      0.338      0.1224643  0.1256243  0.1193042  0.32954    0.5193898  4.466112   1.879      0          0.3940478  30.177     0.6435627  0.3462667  0.6435627 
981        0.232      0          0          292.847    8.285      2.219      0.324      0.08014026 0.10705    0.05323049 0.2916762  0.08541814 6.279494   2.219      0          0.3019354  30.363     0.6574242  0.3072194  0.6574242 
981.2000000000001 0.232      0          0          208.677    7.872      2.559      0.319      0.04870867 0.09741733 0          0.2103922  0.02235428 9.025169   2.559      0          0.04917536 30.548     0.6714627  0.2677205  0.6714627 
981.4      0.231      0          0          147.363    7.459      2.6        0.315      0.04501811 0.09003623 0          0.1575     0.01909865 12.97138   2.6        0          0          30.676     0.6817084  0.2354586  0.6817084 
981.6      0.23       0          0          143.344    7.24       2.583      0.311      0.04134176 0.08268351 0          0.1555     0.01632705 15.72243   2.583      0          0          30.801     0.6918681  0.213408   0.6918681 
981.8      0.227      0          0          143.344    7.062      2.661      0.29       0.02914493 0.05828987 0          0.145      0.009704941 18.38291   2.661      0          0          30.926     0.7021519  0.1977895  0.7021519 
982        0.224      0          0          143.344    6.884      2.95       0.304      0.0344275  0.068855   0          0.152      0.01215735 21.49358   2.95       0          0          31.051     0.7125606  0.1826449  0.7125606 
982.2000000000001 0.221      0          0          143.344    6.579      3.24       0.297      0.02918933 0.05837866 0          0.1485     0.009723335 28.09604   3.24       0          0          31.176     0.7230949  0.1646252  0.7230949 
982.4      0.218      0          0          145.898    6.136      3.519      0.282      0.01993031 0.03986062 0          0.141      0.006551123 41.45899   3.519      0          0          31.301     0.7337557  0.1462974  0.7337557 
982.6      0.215      0          0          165.879    5.871      3.77       0.271      0.01263776 0.02527553 0          0.1355     0.004799987 52.32364   3.77       0          0          31.427     0.7446196  0.1342675  0.7446196 
982.8      0.216      0          0          272.806    5.8        3.599      0.281      0.01583647 0.03167294 0          0.2558272  0.005501586 55.69028   3.599      0          0.1156732  31.552     0.7555365  0.1330608  0.7555365 
