~Version
 VERS              .         2.0                           : CWLS LOG ASCII STANDARD - VERSION 2.0
 WRAP              .         NO                            : ONE LINE PER DEPTH STEP
 DLM               .         SPACE                         : DELIMITING CHARACTER(SPACE TAB OR COMMA)
~Well Information
#_______________________________________________________________________________
#
#PARAMETER_NAME    .UNIT     VALUE                         : DESCRIPTION
#_______________________________________________________________________________
STRT               .м        906                           : First reference value
STOP               .м        1170                          : Last reference value
STEP               .м        0.2                           : Step increment
NULL               .         -9999                         : Missing value
COMP               .                                       : Company
WELL               .         3668                          : Well name
FLD                .         Узень                         : Field
LOC                .                                       : Location
CNTY               .                                       : County
STAT               .                                       : State
CTRY               .                                       : Country
SRVC               .                                       : Service Company
DATE               .                                       : Date
UWI                .                                       : Unique Well ID
Block              .         6а                            : 
Category           .         Нефтяная                      : 
Condition          .         В работе                      : 
Date               .         30.11.2006                    : 
EREF               .m        81.3                          : 100.8
Gorizont           .         13                            : 14
Interpretator      .         Танауова А.Б.                 : 
Kupol              .         Основной                      : osnovnoi
Mud                .         0                             : 
Mud_density        .         0                             : 
Mud_resistivity    .         0                             : 
NGDU               .         НГДУ-2                        : 
ORIGINALWELLNAME   .         3668                          : 
Spud_date          .         2007                          : 1961
Viscosity          .         0                             : 
X                  .m        44346.52                      : 46154
Y                  .m        85016.13                      : 85761.93
YEAR               .         2019                          : 
~Parameter Information Block
#_______________________________________________________________________________
#
#PARAMETER_NAME    .UNIT     VALUE                         : DESCRIPTION
#_______________________________________________________________________________
SET                .         LQC_KAZNIPI_Petrel            : 
TLFamily_CALI      .         Caliper                       : 
TLFamily_COLL      .         Net Reservoir Flag            : 
TLFamily_CSAT      .         Fluid Code                    : 
TLFamily_DEPT      .         Measured Depth                : 
TLFamily_DT        .         Compressional Slowness        : 
TLFamily_GR        .         Russian Gamma Ray             : 
TLFamily_LLS       .         Lateral Log Resistivity       : 
TLFamily_NPHI      .         Neutron Porosity              : 
TLFamily_PHIE      .         Effective Porosity            : 
TLFamily_PHIEN     .         Effective Porosity            : 
TLFamily_PHIES     .         Effective Porosity            : 
TLFamily_PHIT      .         Porosity                      : 
TLFamily_PRMB      .         Permeability                  : 
TLFamily_PRMB_DGR  .         Permeability                  : 
TLFamily_RT        .         Formation Resistivity         : 
TLFamily_SOIL_ARCHIE .         Oil Saturation                : 
TLFamily_SOIL_DW   .         Oil Saturation                : 
TLFamily_SP        .         Spontaneous Potential         : 
TLFamily_VSH_FIN   .         Shale Volume                  : 
TLFamily_VSH_GR    .         Shale Volume                  : 
TLFamily_VSH_SP    .         Shale Volume                  : 
~Curve Information
#_______________________________________________________________________________
#
#LOGNAME           .UNIT     LOG_ID                        : DESCRIPTION
#_______________________________________________________________________________
DEPT               .м                                      : Колонка глубины 
CALI               .м                                      : Каверномер 
COLL               .unitless                               : Описание 
CSAT               .unitless                               :  
DT                 .мкс/м                                  : Интервальное время пробега продольной волны 
GR                 .uR/h                                   : Гамма каротаж 
LLS                .Ohmm                                   : Боковой каротаж 
NPHI               .v/v                                    : Водородосодержание по НКТ 
PHIE               .v/v                                    : Описание 
PHIEN              .v/v                                    :  
PHIES              .v/v                                    :  
PHIT               .v/v                                    : Описание 
PRMB               .mD                                     :  
PRMB_DGR           .mD                                     :  
RT                 .ohmm                                   : УЭС пласта 
SOIL_ARCHIE        .v/v                                    :  
SOIL_DW            .v/v                                    :  
SP                 .mV                                     : Потенциал самополяризации 
VSH_FIN            .v/v                                    : Описание 
VSH_GR             .v/v                                    : Shale volume 
VSH_SP             .v/v                                    : Shale Volume 
~Ascii
# ...
1025       0.243      0          0          413.559    10.531     1.059      0.385      0.209243   0.210705   0.207781   0.3791884  21.03033   0.8734375  1.059      0.1498173  0.3951889  25.184     0.5281667  0.7136399  0.5281667 
1025.2     0.239      0          0          382.298    10.417     1.132      0.394      0.1989214  0.2161034  0.1817394  0.3723785  13.54143   0.9654171  1.132      0.1388848  0.3966978  25.354     0.5390806  0.6864769  0.5390806 
1025.4     0.236      0          0          373.11     10.562     1.206      0.395      0.1972945  0.2187009  0.1758881  0.369194   12.63372   0.8499774  1.206      0.1580966  0.410545   25.25      0.5342397  0.6975678  0.5342397 
1025.6     0.236      0          0          363.922    10.758     1.323      0.385      0.189951   0.210267   0.169635   0.3603235  9.236591   0.7155613  1.323      0.1668186  0.4202919  25.147     0.5294939  0.7109347  0.5294939 
1025.8     0.235      0          0          364.636    10.618     1.488      0.361      0.179792   0.1878395  0.1717446  0.3486312  5.988843   0.8091841  1.488      0.1728628  0.430206   25.043     0.5247287  0.6896505  0.5247287 
1026       0.234      0          0          364.636    10.279     1.619      0.37       0.1801507  0.1925922  0.1677092  0.3531312  6.081156   1.089813   1.619      0.2063516  0.4584422  25.248     0.5375994  0.6470267  0.5375994 
1026.2     0.236      0          0          363.535    10.172     1.441      0.385      0.1787049  0.1989047  0.1585052  0.3601561  5.71751    1.197197   1.441      0.1558636  0.4311192  25.674     0.5639251  0.6198615  0.5639251 
1026.4     0.237      0          0          355.082    10.303     1.477      0.36       0.1536523  0.1648724  0.1424323  0.3439105  1.964138   1.067082   1.477      0.04826511 0.3876944  26.099     0.5912958  0.6009561  0.5912958 
1026.6     0.232      0          0          324.532    10.06      2.126      0.326      0.1123188  0.1214684  0.1031691  0.3117462  0.3369565  1.320947   2.126      0          0.3911746  26.524     0.6197928  0.5487812  0.6197928 
1026.8     0.227      0          0          293.981    9.343      2.82       0.292      0.06744099 0.07766251 0.05721948 0.2764296  0.04969685 2.47954    2.82       0          0.3215989  26.95      0.6495075  0.4630793  0.6495075 
1027       0.223      0          0          276.559    8.75       2.933      0.263      0.04109659 0.04908576 0.03310743 0.2496725  0.01615722 4.174068   2.933      0          0.1759393  26.911     0.648225   0.3889833  0.648225  
1027.2     0.221      0          0          268.641    8.561      2.749      0.269      0.04695346 0.06426785 0.02963907 0.2465764  0.02074197 4.927765   2.749      0          0.1714048  26.473     0.6204004  0.3517141  0.6204004 
1027.4     0.227      0          0          273.124    8.636      2.596      0.294      0.07011175 0.09661461 0.0436089  0.2625713  0.05569264 4.61363    2.596      0          0.2764581  26.107     0.5981376  0.3316627  0.5981376 
1027.6     0.227      0          0          266.597    8.411      2.87       0.295      0.0711396  0.1034146  0.03886465 0.2579439  0.05818836 5.621658   2.87       0          0.3067659  25.806     0.5805619  0.291162   0.5805619 
1027.8     0.222      0          0          252.363    7.229      3.544      0.256      0.04503074 0.07004785 0.02001362 0.2263424  0.01910894 15.87505   3.544      0          0.2147596  25.506     0.5634914  0.2235353  0.5634914 
1028       0.217      0          0          237.444    6.262      4.239      0.202      0.01076864 0.02153728 0          0.1851011  0.0044322  37.11577   4.239      0          0          25.206     0.5468568  0.1593539  0.5468568 
1028.2     0.213      0          0          233.092    5.294      4.938      0.195      0.01       0.01990352 0          0.1771033  0.004289259 86.85268   4.938      0          0          24.905     0.5305954  0.1166545  0.5305954 
1028.4     0.213      0          0          232.521    4.84       5.356      0.194      0.01205525 0.02411049 0          0.1760007  0.004682205 129.4055   5.356      0          0          24.605     0.5148167  0.09354623 0.5148167 
1028.6     0.214      0          0          228.512    4.508      5.727      0.195      0.01425515 0.0285103  0          0.1721849  0.00514278 173.2159   5.727      0          0.00615442 24.398     0.5045142  0.08284298 0.5045142 
1028.8     0.214      0          0          225.457    4.47       6.076      0.191      0.0108192  0.0216384  0          0.1667931  0.004441768 179.0944   6.076      0          0          24.536     0.513217   0.07932924 0.513217  
1029       0.215      0          0          224.443    4.432      5.909      0.184      0.01       0.01172243 0          0.1621469  0.004289259 185.1724   5.909      0          0          24.674     0.5220532  0.08258955 0.5220532 
1029.2     0.216      0          0          250.965    4.716      4.663      0.185      0.01871505 0.009762148 0.02766796 0.1895798  0.006220227 144.2946   4.663      0          0.03215215 24.812     0.5310238  0.09953634 0.5310238 
1029.4     0.217      0          0          277.487    5.836      3.416      0.22       0.0550695  0.04175715 0.06838185 0.2288642  0.029321   53.95701   3.416      0          0.2523273  24.95      0.5401298  0.1383791  0.5401298 
1029.6     0.221      0          0          304.008    6.957      2.819      0.281      0.1005595  0.09968769 0.1014313  0.277347   0.2040626  20.15878   2.819      0          0.407028   25.089     0.5494312  0.1939308  0.5494312 
1029.8     0.222      0          0          292.849    8.077      3.118      0.281      0.09037149 0.096592   0.08415097 0.2701775  0.132147   7.53811    3.118      0          0.4046884  25.227     0.5588121  0.2336441  0.5588121 
1030       0.221      0          0          271.651    7.526      3.532      0.251      0.05706673 0.06345063 0.05068282 0.2399357  0.03192805 12.23011   3.532      0          0.296131   25.365     0.5683314  0.2249     0.5683314 
1030.2     0.22       0          0          253.286    6.802      4.545      0.241      0.05218592 0.06923102 0.03514082 0.2196683  0.02592793 23.09862   4.545      0          0.3220207  24.526     0.520512   0.189811   0.520512  
1030.4     0.219      0          0          259.603    6.174      4.623      0.243      0.05746458 0.06998331 0.04494584 0.2261636  0.03247442 40.09816   4.623      0          0.3605394  24.573     0.524293   0.1732382  0.524293  
1030.6     0.222      0          0          314.703    6.671      3.805      0.278      0.1122997  0.1037088  0.1208905  0.2822413  0.3366822  25.91514   3.805      0.1978595  0.5148748  24.621     0.5281551  0.2076444  0.5281551 
1030.8     0.23       0          0          366.513    7.995      2.987      0.333      0.1734668  0.1668867  0.1800468  0.3354346  4.572814   8.101018   2.987      0.3846669  0.5824641  24.156     0.5033735  0.3048128  0.5033735 
1031       0.235      0          0          375.458    9.319      2.169      0.374      0.2053557  0.2157539  0.1949575  0.3596528  17.81738   2.53236    2.169      0.3827033  0.5603947  23.689     0.4795338  0.4504442  0.4795338 
1031.2     0.233      0          0          387.778    10.254     1.424      0.37       0.2155506  0.2192968  0.2118044  0.3624929  27.5219    1.114007   1.424      0.2790177  0.4703159  23.221     0.4566763  0.6088307  0.4566763 
1031.4     0.234      0          0          434.04     10.93      1.377      0.37       0.2353591  0.2234879  0.2472303  0.3782149  64.05893   0.6152347  1.377      0.3215621  0.4930654  22.943     0.443976   0.7272318  0.443976  
1031.6     0.237      0          0          439.727    11.212     1.419      0.372      0.2310576  0.2183028  0.2438125  0.3809193  53.3219    0.4802614  1.419      0.320227   0.4990508  23.361     0.4657492  0.7581651  0.4657492 
1031.8     0.233      0          0          414.268    10.737     1.525      0.346      0.2027429  0.1847948  0.220691   0.3599251  15.93852   0.7288817  1.525      0.2635727  0.4733082  23.779     0.4885006  0.7001524  0.4885006 
