~Version
 VERS              .         2.0                           : CWLS LOG ASCII STANDARD - VERSION 2.0
 WRAP              .         NO                            : ONE LINE PER DEPTH STEP
 DLM               .         SPACE                         : DELIMITING CHARACTER(SPACE TAB OR COMMA)
~Well Information
#_______________________________________________________________________________
#
#PARAMETER_NAME    .UNIT     VALUE                         : DESCRIPTION
#_______________________________________________________________________________
STRT               .м        906                           : First reference value
STOP               .м        1170                          : Last reference value
STEP               .м        0.2                           : Step increment
NULL               .         -9999                         : Missing value
COMP               .                                       : Company
WELL               .         3668                          : Well name
FLD                .         Узень                         : Field
LOC                .                                       : Location
CNTY               .                                       : County
STAT               .                                       : State
CTRY               .                                       : Country
SRVC               .                                       : Service Company
DATE               .                                       : Date
UWI                .                                       : Unique Well ID
Block              .         6а                            : 
Category           .         Нефтяная                      : 
Condition          .         В работе                      : 
Date               .         30.11.2006                    : 
EREF               .m        81.3                          : 100.8
Gorizont           .         13                            : 14
Interpretator      .         Танауова А.Б.                 : 
Kupol              .         Основной                      : osnovnoi
Mud                .         0                             : 
Mud_density        .         0                             : 
Mud_resistivity    .         0                             : 
NGDU               .         НГДУ-2                        : 
ORIGINALWELLNAME   .         3668                          : 
Spud_date          .         2007                          : 1961
Viscosity          .         0                             : 
X                  .m        44346.52                      : 46154
Y                  .m        85016.13                      : 85761.93
YEAR               .         2019                          : 
~Parameter Information Block
#_______________________________________________________________________________
#
#PARAMETER_NAME    .UNIT     VALUE                         : DESCRIPTION
#_______________________________________________________________________________
SET                .         LQC_KAZNIPI_Petrel            : 
TLFamily_CALI      .         Caliper                       : 
TLFamily_COLL      .         Net Reservoir Flag            : 
TLFamily_CSAT      .         Fluid Code                    : 
TLFamily_DEPT      .         Measured Depth                : 
TLFamily_DT        .         Compressional Slowness        : 
TLFamily_GR        .         Russian Gamma Ray             : 
TLFamily_LLS       .         Lateral Log Resistivity       : 
TLFamily_NPHI      .         Neutron Porosity              : 
TLFamily_PHIE      .         Effective Porosity            : 
TLFamily_PHIEN     .         Effective Porosity            : 
TLFamily_PHIES     .         Effective Porosity            : 
TLFamily_PHIT      .         Porosity                      : 
TLFamily_PRMB      .         Permeability                  : 
TLFamily_PRMB_DGR  .         Permeability                  : 
TLFamily_RT        .         Formation Resistivity         : 
TLFamily_SOIL_ARCHIE .         Oil Saturation                : 
TLFamily_SOIL_DW   .         Oil Saturation                : 
TLFamily_SP        .         Spontaneous Potential         : 
TLFamily_VSH_FIN   .         Shale Volume                  : 
TLFamily_VSH_GR    .         Shale Volume                  : 
TLFamily_VSH_SP    .         Shale Volume                  : 
~Curve Information
#_______________________________________________________________________________
#
#LOGNAME           .UNIT     LOG_ID                        : DESCRIPTION
#_______________________________________________________________________________
DEPT               .м                                      : Колонка глубины 
CALI               .м                                      : Каверномер 
COLL               .unitless                               : Описание 
CSAT               .unitless                               :  
DT                 .мкс/м                                  : Интервальное время пробега продольной волны 
GR                 .uR/h                                   : Гамма каротаж 
LLS                .Ohmm                                   : Боковой каротаж 
NPHI               .v/v                                    : Водородосодержание по НКТ 
PHIE               .v/v                                    : Описание 
PHIEN              .v/v                                    :  
PHIES              .v/v                                    :  
PHIT               .v/v                                    : Описание 
PRMB               .mD                                     :  
PRMB_DGR           .mD                                     :  
RT                 .ohmm                                   : УЭС пласта 
SOIL_ARCHIE        .v/v                                    :  
SOIL_DW            .v/v                                    :  
SP                 .mV                                     : Потенциал самополяризации 
VSH_FIN            .v/v                                    : Описание 
VSH_GR             .v/v                                    : Shale volume 
VSH_SP             .v/v                                    : Shale Volume 
~Ascii
# ...
1060       0.25       0          0          360.855    12.38      1.3        0.462      0.2047687  0.2643487  0.1451887  0.3974876  17.37686   1.284347   1.3        0.2131326  0.4651031  24.645     0.5989435  0.5999455  0.6121057 
1060.2     0.246      0          0          359.131    12.083     1.363      0.403      0.1826866  0.2137368  0.1516364  0.3672267  6.775758   1.588658   1.363      0.1500006  0.4269013  24.625     0.5735247  0.5569213  0.6099846 
1060.4     0.243      0          0          355.508    12.132     1.485      0.349      0.1520876  0.1577104  0.1464648  0.3386035  1.837337   1.533892   1.485      0.04217346 0.3810079  24.708     0.5796655  0.5327027  0.6145175 
1060.6     0.239      0          0          351.424    11.945     1.607      0.332      0.1456366  0.1447295  0.1465437  0.3282337  1.395409   1.753637   1.607      0.04150433 0.3833535  24.792     0.5674862  0.501022   0.6191439 
1060.8     0.237      0          0          347.959    11.45      1.729      0.326      0.1514582  0.1494392  0.1534772  0.3236128  1.788674   2.499502   1.729      0.1049405  0.4089952  24.875     0.5350327  0.4588202  0.6237341 
1061       0.239      0          0          344.819    11.084     1.758      0.326      0.1564941  0.1561393  0.1568489  0.3221159  2.217216   3.248301   1.758      0.1368427  0.4194652  24.959     0.5147295  0.439314   0.6284189 
1061.2     0.242      0          0          348.121    11.534     1.758      0.344      0.157248   0.1640684  0.1504276  0.3326893  2.289667   2.353611   1.758      0.1404481  0.4320045  25.042     0.5452473  0.4623626  0.6330668 
1061.4     0.244      0          0          349.297    11.948     1.758      0.347      0.1490695  0.1565749  0.1415642  0.3347425  1.615428   1.749875   1.758      0.09951832 0.422685   25.126     0.5770457  0.5018947  0.6378103 
1061.6     0.248      0          0          349.222    12.084     1.785      0.34       0.1414083  0.1453432  0.1374734  0.3312073  1.165152   1.587522   1.785      0.06389242 0.4118094  25.209     0.5898691  0.5268279  0.6425164 
1061.8     0.251      0          0          344.819    12.106     1.861      0.339      0.1374974  0.14299    0.1320048  0.3286158  0.9861497  1.562713   1.861      0.0593309  0.4150631  25.292     0.5939698  0.5298774  0.6472514 
1062       0.253      0          0          340.415    11.956     1.938      0.338      0.137806   0.1450203  0.1305917  0.3259698  0.9992175  1.73988    1.938      0.07885882 0.4243417  25.376     0.5847869  0.5174051  0.6520836 
1062.2     0.248      0          0          339.314    11.806     1.969      0.331      0.1365616  0.1408928  0.1322304  0.3219246  0.9475689  1.937136   1.969      0.07844089 0.4224433  25.459     0.5760823  0.5040942  0.6568773 
1062.4     0.243      0          0          341.516    11.78      1.931      0.335      0.139886   0.1451363  0.1346356  0.3250115  1.091907   1.973533   1.931      0.08925395 0.4254184  25.505     0.5753444  0.505768   0.6591522 
1062.6     0.242      0          0          350.323    11.979     1.77       0.349      0.1465017  0.1544239  0.1385796  0.3362221  1.447858   1.711465   1.77       0.08870117 0.4225071  25.505     0.5896245  0.528605   0.6582676 
1062.8     0.244      0          0          360.705    12.265     1.608      0.366      0.152534   0.1640732  0.1409949  0.3494217  1.872658   1.394569   1.608      0.07963403 0.4174018  25.505     0.6118994  0.5625381  0.6573841 
1063       0.246      0          0          363.535    12.529     1.459      0.363      0.1450989  0.15372    0.1364777  0.3491561  1.363769   1.154391   1.459      0          0.3766793  25.505     0.6341817  0.5830694  0.6565016 
1063.2     0.247      0          0          355.828    12.329     1.58       0.356      0.1439233  0.1525992  0.1352474  0.3422482  1.297081   1.33211    1.58       0.02384323 0.3915888  25.505     0.6163661  0.575263   0.65562   
1063.4     0.247      0          0          344.819    12.128     1.7        0.348      0.1402314  0.1501788  0.130284   0.3331159  1.108111   1.53829    1.7        0.03521538 0.39761    25.505     0.5994582  0.5605691  0.6547394 
1063.6     0.251      0          0          336.011    12.149     1.851      0.346      0.1344853  0.147771   0.1211997  0.3277675  0.8672668  1.515335   1.851      0.0385803  0.4077319  25.505     0.600694   0.5684361  0.6538599 
1063.8     0.253      0          0          331.607    12.506     2.029      0.349      0.1241754  0.1409775  0.1073734  0.3270066  0.558712   1.173558   2.029      0.01287981 0.4168715  25.505     0.6303713  0.597603   0.6529813 
1064       0.249      0          0          331.607    12.679     2.132      0.328      0.1087441  0.11492    0.1025683  0.3165067  0.2893099  1.036842   2.132      0          0.3911311  25.505     0.6456971  0.6179717  0.6521037 
1064.2     0.245      0          0          334.91     12.55      2.012      0.333      0.1168929  0.1239686  0.1098172  0.3207079  0.4095423  1.137164   2.012      0          0.3941353  25.505     0.6334285  0.6155815  0.651227  
1064.4     0.241      0          0          336.011    12.421     1.96       0.339      0.1242591  0.1338726  0.1146457  0.3242674  0.5607107  1.247195   1.96       0          0.4036304  25.505     0.6215981  0.6103444  0.6503513 
1064.6     0.237      0          0          332.708    12.587     1.981      0.343      0.119792   0.1329732  0.1066108  0.3245775  0.4634435  1.107436   1.981      0          0.3993617  25.521     0.6364447  0.6138401  0.6505643 
1064.8     0.233      0          0          325.317    12.679     2.148      0.322      0.1020409  0.1085425  0.09553935 0.3101715  0.217372   1.036842   2.148      0          0.3716629  25.59      0.6468409  0.5976508  0.6543913 
1065       0.23       0          0          318.79     12.103     2.342      0.302      0.1037619  0.1042556  0.1032683  0.2965716  0.233927   1.566073   2.342      0          0.3839334  25.659     0.5992255  0.5403463  0.658237  
1065.2     0.23       0          0          316.821    11.527     2.535      0.302      0.1154944  0.117432   0.1135568  0.2954564  0.3858282  2.365435   2.535      0.05287511 0.4285834  25.728     0.559297   0.4705272  0.6621014 
1065.4     0.234      0          0          329.405    11.061     2.399      0.319      0.1396205  0.1433844  0.1358566  0.3108536  1.079614   3.302234   2.399      0.1760731  0.4695162  25.797     0.5321686  0.4256598  0.6659847 
1065.6     0.237      0          0          371.241    11.134     2.189      0.335      0.1651789  0.1573227  0.1730351  0.3384222  3.211238   3.134075   2.189      0.2570257  0.505689   25.866     0.538416   0.4195761  0.6698865 
1065.8     0.238      0          0          382.251    11.374     1.98       0.352      0.1727274  0.1687953  0.1766594  0.3513601  4.430864   2.639275   1.98       0.2509301  0.5007637  25.935     0.5551656  0.4403618  0.6738076 
1066       0.238      0          0          366.526    11.703     1.911      0.343      0.1540832  0.1518734  0.156293   0.3404401  2.000565   2.085386   1.911      0.158691   0.4588385  26.004     0.5791715  0.4640136  0.6777475 
1066.2     0.238      0          0          349.222    11.672     1.962      0.339      0.144411   0.1479356  0.1408864  0.3307073  1.324342   2.132188   1.962      0.1207556  0.4427927  26.073     0.5789831  0.4732763  0.6817065 
1066.4     0.238      0          0          336.958    11.641     2.013      0.325      0.1315009  0.1339882  0.1290136  0.3177459  0.7636128  2.18004    2.013      0.05745333 0.415996   26.142     0.5788237  0.4714389  0.6856846 
1066.6     0.238      0          0          332.783    11.61      2.064      0.315      0.1244132  0.1240312  0.1247951  0.3106162  0.564406   2.228967   2.064      0.02240039 0.4029298  26.211     0.5786932  0.4655603  0.6896816 
1066.8     0.239      0          0          334.91     11.544     2.103      0.314      0.1263608  0.124422   0.1282997  0.3112079  0.6132923  2.336821   2.103      0.04397229 0.4125398  26.231     0.5744788  0.4561582  0.6901907 
