~Version
 VERS              .         2.0                           : CWLS LOG ASCII STANDARD - VERSION 2.0
 WRAP              .         NO                            : ONE LINE PER DEPTH STEP
 DLM               .         SPACE                         : DELIMITING CHARACTER(SPACE TAB OR COMMA)
~Well Information
#_______________________________________________________________________________
#
#PARAMETER_NAME    .UNIT     VALUE                         : DESCRIPTION
#_______________________________________________________________________________
STRT               .м        906                           : First reference value
STOP               .м        1170                          : Last reference value
STEP               .м        0.2                           : Step increment
NULL               .         -9999                         : Missing value
COMP               .                                       : Company
WELL               .         3668                          : Well name
FLD                .         Узень                         : Field
LOC                .                                       : Location
CNTY               .                                       : County
STAT               .                                       : State
CTRY               .                                       : Country
SRVC               .                                       : Service Company
DATE               .                                       : Date
UWI                .                                       : Unique Well ID
Block              .         6а                            : 
Category           .         Нефтяная                      : 
Condition          .         В работе                      : 
Date               .         30.11.2006                    : 
EREF               .m        81.3                          : 100.8
Gorizont           .         13                            : 14
Interpretator      .         Танауова А.Б.                 : 
Kupol              .         Основной                      : osnovnoi
Mud                .         0                             : 
Mud_density        .         0                             : 
Mud_resistivity    .         0                             : 
NGDU               .         НГДУ-2                        : 
ORIGINALWELLNAME   .         3668                          : 
Spud_date          .         2007                          : 1961
Viscosity          .         0                             : 
X                  .m        44346.52                      : 46154
Y                  .m        85016.13                      : 85761.93
YEAR               .         2019                          : 
~Parameter Information Block
#_______________________________________________________________________________
#
#PARAMETER_NAME    .UNIT     VALUE                         : DESCRIPTION
#_______________________________________________________________________________
SET                .         LQC_KAZNIPI_Petrel            : 
TLFamily_CALI      .         Caliper                       : 
TLFamily_COLL      .         Net Reservoir Flag            : 
TLFamily_CSAT      .         Fluid Code                    : 
TLFamily_DEPT      .         Measured Depth                : 
TLFamily_DT        .         Compressional Slowness        : 
TLFamily_GR        .         Russian Gamma Ray             : 
TLFamily_LLS       .         Lateral Log Resistivity       : 
TLFamily_NPHI      .         Neutron Porosity              : 
TLFamily_PHIE      .         Effective Porosity            : 
TLFamily_PHIEN     .         Effective Porosity            : 
TLFamily_PHIES     .         Effective Porosity            : 
TLFamily_PHIT      .         Porosity                      : 
TLFamily_PRMB      .         Permeability                  : 
TLFamily_PRMB_DGR  .         Permeability                  : 
TLFamily_RT        .         Formation Resistivity         : 
TLFamily_SOIL_ARCHIE .         Oil Saturation                : 
TLFamily_SOIL_DW   .         Oil Saturation                : 
TLFamily_SP        .         Spontaneous Potential         : 
TLFamily_VSH_FIN   .         Shale Volume                  : 
TLFamily_VSH_GR    .         Shale Volume                  : 
TLFamily_VSH_SP    .         Shale Volume                  : 
~Curve Information
#_______________________________________________________________________________
#
#LOGNAME           .UNIT     LOG_ID                        : DESCRIPTION
#_______________________________________________________________________________
DEPT               .м                                      : Колонка глубины 
CALI               .м                                      : Каверномер 
COLL               .unitless                               : Описание 
CSAT               .unitless                               :  
DT                 .мкс/м                                  : Интервальное время пробега продольной волны 
GR                 .uR/h                                   : Гамма каротаж 
LLS                .Ohmm                                   : Боковой каротаж 
NPHI               .v/v                                    : Водородосодержание по НКТ 
PHIE               .v/v                                    : Описание 
PHIEN              .v/v                                    :  
PHIES              .v/v                                    :  
PHIT               .v/v                                    : Описание 
PRMB               .mD                                     :  
PRMB_DGR           .mD                                     :  
RT                 .ohmm                                   : УЭС пласта 
SOIL_ARCHIE        .v/v                                    :  
SOIL_DW            .v/v                                    :  
SP                 .mV                                     : Потенциал самополяризации 
VSH_FIN            .v/v                                    : Описание 
VSH_GR             .v/v                                    : Shale volume 
VSH_SP             .v/v                                    : Shale Volume 
~Ascii
# ...
1151       0.212      0          0          390.445    12.159     1.372      0.338      0.2635244  0.2518745  0.2751741  0.3475005  212.9455   6.793552   1.372      0.3841193  0.4903067  26.157     0.2609862  0.3024997  0.2252562 
1151.2     0.212      0          0          389.195    12.115     1.3        0.342      0.2668811  0.2577486  0.2760136  0.34903    245.7218   7.075338   1.3        0.3752666  0.4804729  25.888     0.2553073  0.3028006  0.2187818 
1151.4     0.211      0          0          388.367    12.315     1.326      0.345      0.2653891  0.2580014  0.2727769  0.3502166  230.5732   5.881926   1.326      0.3780156  0.4854046  25.618     0.263632   0.315648   0.2125663 
1151.6     0.211      0          0          384.582    12.515     1.352      0.348      0.2606349  0.2560737  0.265196   0.3502671  188.2557   4.889806   1.352      0.373877   0.4865679  25.892     0.2785645  0.329712   0.2177746 
1151.8     0.211      0          0          380.085    12.538     1.396      0.358      0.2618574  0.2640043  0.2597104  0.3535073  198.3317   4.787024   1.396      0.3857252  0.4984119  26.352     0.2848354  0.3303709  0.2273599 
1152       0.211      0          0          375.589    12.29      1.444      0.357      0.2646724  0.2682518  0.261093   0.3512059  223.6315   6.019327   1.444      0.4009976  0.5071331  26.323     0.268934   0.3185755  0.2261236 
1152.2     0.21       0          0          371.092    12.249     1.78       0.353      0.2652035  0.2687405  0.2616666  0.3473603  228.7552   6.251649   1.78       0.4579537  0.5535977  25.274     0.2553319  0.3064239  0.2037029 
1152.4     0.21       1          2          358.981    12.159     2.185      0.326      0.2511941  0.2465513  0.2558368  0.3286601  125.8584   6.793552   2.185      0.4838387  0.5743522  24.226     0.2407536  0.2949505  0.184791  
1152.6     0.209      1          2          358.468    12.087     2.54       0.317      0.2481019  0.239229   0.2569748  0.3239321  110.308    7.260708   2.54       0.5138289  0.5998061  24.112     0.2356696  0.275489   0.1825722 
1152.8     0.209      1          2          358.03     11.625     2.624      0.328      0.2597472  0.2567318  0.2627625  0.3292369  181.2617   11.12512   2.624      0.5399466  0.6173859  24.553     0.2159643  0.2434661  0.1893385 
1153       0.208      1          2          358.03     11.163     2.708      0.339      0.2722186  0.2748816  0.2695555  0.3347368  308.5366   17.04633   2.708      0.5648411  0.6342545  24.303     0.1942981  0.2091628  0.184799  
1153.2     0.207      1          2          356.397    10.701     2.792      0.349      0.282429   0.2909761  0.2738818  0.3390048  476.9007   26.11901   2.792      0.5845733  0.6479461  24.052     0.1758299  0.1882091  0.180452  
1153.4     0.207      1          2          349.996    10.876     2.686      0.351      0.2792786  0.2917299  0.2668273  0.3370696  416.9413   22.22068   2.686      0.5728057  0.6381655  23.802     0.1796063  0.1885464  0.1763235 
1153.6     0.206      1          2          344.863    11.141     2.553      0.347      0.2716742  0.2844769  0.2588715  0.332637   301.4558   17.39627   2.553      0.5518564  0.6216235  23.861     0.189464   0.2019008  0.1768149 
1153.8     0.206      1          2          344.541    11.432     2.421      0.364      0.2758546  0.2972057  0.2545035  0.340982   360.2913   13.29611   2.421      0.5466219  0.6194309  24.05      0.2024071  0.2106538  0.1792552 
1154       0.206      1          2          344.26     11.28      2.288      0.347      0.2686503  0.2816735  0.2556271  0.3323465  264.9801   15.30022   2.288      0.523585   0.5982167  24.313     0.197959   0.1989899  0.1829264 
1154.2     0.206      1          2          343.978    10.619     2.169      0.334      0.2689573  0.2757945  0.2621202  0.3257103  268.4727   28.1741    2.169      0.5119788  0.5827066  24.577     0.1763804  0.169124   0.1867669 
1154.4     0.206      1          2          343.718    9.958      2.076      0.332      0.2736753  0.2797878  0.2675627  0.3245845  328.3129   51.88029   2.076      0.5093269  0.5757468  24.621     0.1582188  0.1419698  0.1870713 
1154.6     0.206      1          2          343.718    9.663      1.983      0.355      0.2809911  0.2984965  0.2634856  0.3360845  448.5331   68.13001   1.983      0.5100472  0.5792635  26.68      0.1712227  0.1420959  0.2267008 
1154.8     0.206      1          2          344.834    10.459     1.89       0.347      0.2602286  0.2727527  0.2477046  0.3326231  185.0221   32.66123   1.89       0.4642295  0.5521883  29.182     0.2249919  0.1921152  0.2937108 
1155       0.206      0          0          350.944    11.944     1.873      0.342      0.2270288  0.2333053  0.2207524  0.333011   44.90377   8.285938   1.873      0.3940384  0.5242994  31.685     0.329378   0.2990765  0.3851506 
1155.2     0.206      0          0          361.88     13.384     1.862      0.343      0.183586   0.1841861  0.1829858  0.3384365  7.040692   2.191304   1.862      0.2688886  0.4855171  33.938     0.4812541  0.4245354  0.4915375 
1155.4     0.206      0          0          411.835    13.709     1.851      0.349      0.1808508  0.1646407  0.197061   0.3606094  6.265479   1.623053   1.851      0.2572053  0.5007452  35.582     0.5586647  0.5054896  0.5849414 
1155.6     0.206      0          0          420.733    13.864     1.84       0.354      0.1704645  0.153412   0.1875171  0.3660468  4.023226   1.406553   1.84       0.2157487  0.4925548  36.626     0.6078426  0.5158934  0.651246  
1155.8     0.206      0          0          418.206    13.373     1.829      0.36       0.1826779  0.1697037  0.1956522  0.3682253  6.773243   2.21368    1.829      0.2595371  0.5060856  37.127     0.5766554  0.4667475  0.6842901 
1156       0.206      0          0          415.679    12.735     1.817      0.362      0.1934476  0.1825762  0.204319   0.3683938  10.72204   3.990631   1.817      0.293393   0.5154347  37.628     0.5437084  0.4134545  0.7187036 
1156.2     0.206      0          0          413.152    12.864     1.796      0.343      0.1776743  0.1580055  0.1973431  0.3580522  5.471641   3.542372   1.796      0.2348988  0.487455   37.86      0.5605893  0.4073735  0.7340823 
1156.4     0.206      0          0          410.626    13.247     1.774      0.348      0.1682176  0.1516162  0.1848189  0.3597005  3.655576   2.486902   1.774      0.1929161  0.4749221  38.003     0.5951023  0.4337368  0.7429512 
1156.6     0.206      0          0          408.674    13.413     1.753      0.372      0.1734623  0.1693705  0.1775542  0.3710352  4.571951   2.133386   1.753      0.2098083  0.4878601  38.146     0.6140288  0.4443476  0.7519072 
1156.8     0.206      0          0          408.674    13.081     1.731      0.332      0.1607062  0.1367997  0.1846126  0.3510351  2.653546   2.898994   1.731      0.1504321  0.4509245  38.289     0.5915159  0.4232935  0.7629216 
1157       0.207      0          0          408.674    12.749     1.762      0.323      0.1629721  0.1347388  0.1912053  0.3465351  2.92278    3.939358   1.762      0.1676907  0.4542806  38.384     0.5704886  0.4083515  0.7703118 
1157.2     0.208      0          0          408.674    13.061     1.802      0.34       0.1640252  0.1441013  0.1839491  0.3550351  3.05705    2.953046   1.802      0.1810195  0.4697367  38.384     0.5936324  0.4340912  0.7703118 
1157.4     0.21       0          0          400.398    13.641     1.843      0.352      0.1507295  0.1392788  0.1621802  0.3581421  1.733941   1.728263   1.843      0.1277053  0.4618308  38.384     0.6446097  0.4692931  0.7703118 
1157.6     0.212      0          0          394.428    13.42      1.883      0.345      0.1517436  0.1391261  0.1643611  0.3524799  1.81058    2.119637   1.883      0.1414787  0.4635308  38.384     0.6238604  0.4626358  0.7703118 
1157.8     0.213      0          0          392.242    13.013     1.89       0.339      0.1588652  0.1443356  0.1733948  0.3486717  2.453165   3.086918   1.89       0.1765316  0.4700167  38.384     0.5898921  0.4289349  0.7703118 
