~Version
 VERS              .         2.0                           : CWLS LOG ASCII STANDARD - VERSION 2.0
 WRAP              .         NO                            : ONE LINE PER DEPTH STEP
 DLM               .         SPACE                         : DELIMITING CHARACTER(SPACE TAB OR COMMA)
~Well Information
#_______________________________________________________________________________
#
#PARAMETER_NAME    .UNIT     VALUE                         : DESCRIPTION
#_______________________________________________________________________________
STRT               .M        884                           : First reference value
STOP               .M        1232                          : Last reference value
STEP               .M        0.2                           : Step increment
NULL               .         -9999                         : Missing value
COMP               .                                       : Company
WELL               .         3894                          : Well name
FLD                .         Узень                         : Field
LOC                .                                       : Location
CNTY               .                                       : County
STAT               .                                       : State
CTRY               .                                       : Country
SRVC               .                                       : Service Company
DATE               .                                       : Date
UWI                .                                       : Unique Well ID
123                .         1                             : 
4_кв_для_Заказчика .         1                             : 
Block              .         6а                            : 
Category           .         Нефтяная                      : 
Condition          .         В ожидании ликвидации         : 
Date               .         16.05.1989                    : 
EREF               .m        86.6                          : 100.8
Gor                .         15                            : 
Gorizont           .         15                            : 14
Interpretator      .         Кайсанов Е.К                  : 
KUST               .                                       : 
Kupol              .         Основной                      : osnovnoi
Mud                .                                       : 
Mud_density        .                                       : 
Mud_resistivity    .                                       : 
NGDU               .         НГДУ-2                        : 
ORIGINALWELLNAME   .         3894                          : 
Otmetka            .                                       : 
Spud_date          .         1989                          : 1961
Viscosity          .                                       : 
X                  .m        44340.1                       : 46154
Y                  .m        85688.83                      : 85761.93
YEAR               .         2018                          : 
~Parameter Information Block
#_______________________________________________________________________________
#
#PARAMETER_NAME    .UNIT     VALUE                         : DESCRIPTION
#_______________________________________________________________________________
SET                .         LQC_KAZNIPI_Petrel            : 
TLFamily_CALI      .         Caliper                       : 
TLFamily_CILD      .         Conductivity                  : 
TLFamily_COLL      .         Net Reservoir Flag            : 
TLFamily_CSAT      .         Fluid Code                    : 
TLFamily_DEPT      .         Measured Depth                : 
TLFamily_GR        .         Russian Gamma Ray             : 
TLFamily_GZ1       .         Gradient 045                  : 
TLFamily_GZ2       .         Gradient 105                  : 
TLFamily_GZ3       .         Gradient 225                  : 
TLFamily_GZ4       .         Gradient 425                  : 
TLFamily_GZ5       .         Gradient 850                  : 
TLFamily_LLS       .         Lateral Log Resistivity       : 
TLFamily_MINV      .         Micro Gradient Resistivity    : 
TLFamily_MNOR      .         Micro Resistivity             : 
TLFamily_NGLD      .         Neutron Far                   : 
TLFamily_OGZ3      .         Gradient Inverted 225         : 
TLFamily_PHIE      .         Effective Porosity            : 
TLFamily_PHIEN     .         Effective Porosity            : 
TLFamily_PHIT      .         Porosity                      : 
TLFamily_PRMB      .         Permeability                  : 
TLFamily_PRMB_DGR  .         Permeability                  : 
TLFamily_RT        .         Formation Resistivity         : 
TLFamily_SOIL_ARCHIE .         Oil Saturation                : 
TLFamily_SOIL_DW   .         Oil Saturation                : 
TLFamily_SP        .         Spontaneous Potential         : 
TLFamily_VSH_FIN   .         Shale Volume                  : 
TLFamily_VSH_GR    .         Shale Volume                  : 
TLFamily_VSH_SP    .         Shale Volume                  : 
~Curve Information
#_______________________________________________________________________________
#
#LOGNAME           .UNIT     LOG_ID                        : DESCRIPTION
#_______________________________________________________________________________
DEPT               .M                                      : Колонка глубины 
CALI               .м                                      : Каверномер 
CILD               .мСм/м                                  : Индукционный каротаж зондом 6Ф1 
COLL               .unitless                               :  
CSAT               .unitless                               :  
GR                 .uR/h                                   : Гамма каротаж 
GZ1                .Ohmm                                   : 2 
GZ2                .Ohmm                                   : 3 
GZ3                .Ohmm                                   : 3 
GZ4                .Ohmm                                   : 4 
GZ5                .Ohmm                                   : 5 
LLS                .Ohmm                                   : Боковой каротаж 
MINV               .Ohmm                                   : Микро-градиент зонд 
MNOR               .Ohmm                                   : Микро-потенциал зонд 
NGLD               .у.е.                                   : Показания зонда НГК-60 аппаратуры ДРСТ-3-90 
OGZ3               .Ohmm                                   : 2 
PHIE               .v/v                                    : Описание 
PHIEN              .v/v                                    :  
PHIT               .v/v                                    : Описание 
PRMB               .mD                                     :  
PRMB_DGR           .mD                                     :  
RT                 .ohmm                                   : УЭС пласта 
SOIL_ARCHIE        .v/v                                    :  
SOIL_DW            .v/v                                    :  
SP                 .мВ                                     : Потенциал самополяризации 
VSH_FIN            .v/v                                    : Описание 
VSH_GR             .v/v                                    : Shale volume 
VSH_SP             .v/v                                    : Shale Volume 
~Ascii
# ...
1154.4     0.216      396.5      -9999      -9999      8.55755    5.2138     7.428599   2.9295     1.6642     1.2583     2.034      0.901      2.734      1.061805   1.0184     0.2312738  0.2312738  0.3011309  53.81592   9.654093   2.288      0.4571869  0.5469372  42.187     0.211688   0.2570536  0.1663224 
1154.6     0.227      430.8      -9999      -9999      8.565505   5.4558     7.205      2.0709     1.4787     1.0511     1.472      0.732      2.134      1.062138   0.888      0.2213637  0.2213637  0.3009273  35.26553   9.526801   2.105      0.4135849  0.5187666  45.663     0.241102   0.2584505  0.2237535 
1154.8     0.24       461.7      -9999      -9999      8.567594   4.2759     3.9988     1.8436     1.3785     1.0916     1.271      0.577      1.533      1.061695   0.8378     0.2157206  0.2157206  0.3011985  27.72211   9.493657   1.965      0.3805606  0.4968285  47.091     0.259024   0.2588186  0.2592295 
1155       0.248      484.6      -9999      -9999      8.555165   1.9312     2.942      1.6517     1.4537     0.9551     1.291      0.64       0.932      1.058962   0.8127     0.2154602  0.2154602  0.302868   27.41595   9.692591   1.872      0.3656386  0.4858951  47.495     0.2648723  0.2566362  0.2731084 
1155.2     0.247      496.3      -9999      -9999      8.515958   1.1597     2.505      1.6264     1.7645     0.8692     1.29       0.838      1.13       1.053982   1.5853     0.217646   0.217646   0.3059117  30.09476   10.34789   1.828      0.3641333  0.4849411  47.799     0.2674718  0.2498712  0.2850724 
1155.4     0.247      504.9      -9999      -9999      8.458319   1.1295     2.2967     1.98       3.569      1.6475     1.236      0.979      0.992      1.048104   2.5636     0.220753   0.220753   0.3095036  34.35883   11.39254   1.796      0.3667082  0.4869332  48.102     0.2689412  0.2402485  0.2976338 
1155.6     0.251      513.8      -9999      -9999      8.388755   1.0791     1.8953     2.9295     5.3736     2.3904     1.32       1.251      1.648      1.044549   3.7827     0.2233521  0.2233521  0.3116761  38.38669   12.79472   1.765      0.3679888  0.4870538  48.254     0.2676486  0.2291272  0.30617   
1155.8     0.252      493.7      -9999      -9999      8.284345   1.6236     2.1188     4.3539     4.2006     2.5925     1.661      1.88       1.695      1.048878   5.428199   0.2218485  0.2218485  0.3090307  36.0024    15.22975   1.837      0.3760768  0.4932732  48.406     0.2641885  0.2133936  0.3149835 
1156       0.24       470.6      -9999      -9999      8.117738   2.1329     3.0944     4.8438     2.8823     2.7997     2.436      1.41       1.132      1.066031   4.4951     0.2104202  0.2104202  0.2985486  22.11314   20.11063   1.927      0.3611654  0.4839774  49.138     0.2670558  0.1904943  0.3436173 
1156.2     0.229      457.2      -9999      -9999      7.896573   2.1632     3.4552     3.9195     2.6216     3.0726     2.336      0.941      1.696      1.095124   3.0854     0.1938757  0.1938757  0.2807695  10.91959   29.08675   1.984      0.3232595  0.4546642  49.543     0.2633145  0.163847   0.3627821 
1156.4     0.231      428        -9999      -9999      7.670499   1.548      2.007      2.6517     2.361      2.2994     1.99       1.149      2.26       1.127382   2.669      0.1722041  0.1722041  0.2610568  4.333064   42.41522   2.119      0.2724834  0.4217626  50.327     0.2692508  0.1404568  0.3980449 
1156.6     0.232      391.4      -9999      -9999      7.510444   1.78       1.4583     2.086      1.7494     1.6778     3.227      0.877      1.694      1.149374   2.7793     0.1479878  0.1479878  0.2476175  1.542594   55.39964   2.317      0.203911   0.3933324  52.007     0.3019082  0.1259454  0.4778711 
1156.8     0.23       365.8      -9999      -9999      7.473433   2.5817     1.8699     1.9749     1.6241     1.506      3.227      0.688      1.812      1.149744   2.8395     0.1343572  0.1343572  0.2473912  0.8625391  58.92873   2.48       0.1612047  0.3904259  53.511     0.3425274  0.1228091  0.5622457 
1157       0.228      330.7      -9999      -9999      7.576206   3.0607     3.7245     1.8941     1.3634     1.3746     1.842      0.575      1.433      1.126932   2.3629     0.138885   0.138885   0.2613321  1.046272   49.64232   2.743      0.2227199  0.4466393  54.219     0.3710518  0.1317168  0.6103867 
1157.2     0.228      355.4      -9999      -9999      7.806015   3.0658     4.1208     1.4597     1.2081     1.1926     1.584      0.671      1.052      1.091787   1.7158     0.1504453  0.1504453  0.2828088  1.713048   33.83129   2.552      0.2500292  0.4700733  54.851     0.4011015  0.1540431  0.6481598 
1157.4     0.231      369.6      -9999      -9999      8.152395   2.0573     2.6778     1.1617     0.9524     1.0537     1.434      0.604      0.67       1.059685   1.4047     0.1539794  0.1539794  0.3024266  1.991731   18.98064   2.454      0.2514138  0.4859824  55.736     0.4498398  0.1950461  0.7046337 
1157.6     0.245      383.8      -9999      -9999      8.593117   1.5329     2.3576     0.9799     0.8572     0.9147     1.363      0.545      0.885      1.039637   1.4047     0.1485351  0.1485351  0.3146777  1.579021   9.097831   2.363      0.2137529  0.4817772  56.317     0.5034625  0.2633588  0.7435662 
1157.8     0.249      405.75     -9999      -9999      9.063835   1.2404     2.2509     0.8738     0.9875     0.8541     1.494      0.859      1.03       1.031837   1.6556     0.1396048  0.1396048  0.3194444  1.078892   4.147892   2.236      0.1483305  0.4598066  56.09      0.5449682  0.3629398  0.7269967 
1158       0.261      393.4      -9999      -9999      9.481191   1.2152     2.5304     1.7173     1.0527     0.9349     1.576      1.005      0.992      1.032968   1.5452     0.1405215  0.1405215  0.3187531  1.121906   2.067221   2.306      0.1653327  0.4686415  54.067     0.5400958  0.4823155  0.5978761 
1158.2     0.239      414.3      -9999      -9999      9.793522   1.3463     2.566      2.2376     1.0727     1.0006     1.637      0.887      1.222      1.040882   1.4699     0.1264741  0.1264741  0.3139172  0.6162629  1.227589   2.189      0.06251728 0.4275457  53.031     0.5680091  0.5966928  0.5393255 
1158.4     0.226      437.6      -9999      -9999      10.00284   1.3665     2.4948     2.2729     0.8772     1.0208     1.629      1.112      1.21       1.05486    1.3947     0.1144579  0.1144579  0.3053753  0.3691444  0.8656971  2.073      0          0.3793396  51.641     0.5785375  0.6881605  0.4689144 
1158.6     0.219      449        -9999      -9999      10.13019   1.3161     1.9766     2.1972     0.802      1.041      1.597      0.951      1.249      1.073855   1.48       0.08873629 0.08873629 0.2937673  0.123245   0.6999733  2.02       0          0.2958248  52.134     0.6213062  0.7505378  0.4920745 
1158.8     0.216      447.3      -9999      -9999      10.16695   1.2152     1.8394     2.1163     0.777      1.0613     1.558      1.185      1.446      1.095783   1.5201     0.0622469  0.0622469  0.2803668  0.03982187 0.6583357  2.028      0          0.188347   53.309     0.6609694  0.7695699  0.5523688 
1159       0.214      422.9      -9999      -9999      10.082     1.3362     1.6514     2.1264     0.8171     1.0815     1.718      1.136      1.543      1.118284   1.5201     0.05180957 0.05180957 0.2666166  0.02551508 0.7585837  2.145      0          0.1373997  53.739     0.6509303  0.7262945  0.5755662 
1159.2     0.215      400.6      -9999      -9999      9.875636   1.2354     1.6006     2.1365     0.9875     1.2482     1.984      1.087      1.642      1.138866   2.1372     0.05123667 0.05123667 0.254039   0.02489921 1.070405   2.264      0          0.1280705  54.143     0.6145526  0.631028   0.5980772 
1159.4     0.216      358.7      -9999      -9999      9.61342    1.1547     1.5243     2.3335     1.3284     1.5919     2.532      1.97       2.9        1.154867   1.771      0.06053736 0.06053736 0.2442607  0.03702174 1.65793    2.529      0          0.1932317  53.941     0.5567373  0.5277862  0.5856884 
