~Version
 VERS              .         2.0                           : CWLS LOG ASCII STANDARD - VERSION 2.0
 WRAP              .         NO                            : ONE LINE PER DEPTH STEP
 DLM               .         SPACE                         : DELIMITING CHARACTER(SPACE TAB OR COMMA)
~Well Information
#_______________________________________________________________________________
#
#PARAMETER_NAME    .UNIT     VALUE                         : DESCRIPTION
#_______________________________________________________________________________
STRT               .M        884                           : First reference value
STOP               .M        1232                          : Last reference value
STEP               .M        0.2                           : Step increment
NULL               .         -9999                         : Missing value
COMP               .                                       : Company
WELL               .         3894                          : Well name
FLD                .         Узень                         : Field
LOC                .                                       : Location
CNTY               .                                       : County
STAT               .                                       : State
CTRY               .                                       : Country
SRVC               .                                       : Service Company
DATE               .                                       : Date
UWI                .                                       : Unique Well ID
123                .         1                             : 
4_кв_для_Заказчика .         1                             : 
Block              .         6а                            : 
Category           .         Нефтяная                      : 
Condition          .         В ожидании ликвидации         : 
Date               .         16.05.1989                    : 
EREF               .m        86.6                          : 100.8
Gor                .         15                            : 
Gorizont           .         15                            : 14
Interpretator      .         Кайсанов Е.К                  : 
KUST               .                                       : 
Kupol              .         Основной                      : osnovnoi
Mud                .                                       : 
Mud_density        .                                       : 
Mud_resistivity    .                                       : 
NGDU               .         НГДУ-2                        : 
ORIGINALWELLNAME   .         3894                          : 
Otmetka            .                                       : 
Spud_date          .         1989                          : 1961
Viscosity          .                                       : 
X                  .m        44340.1                       : 46154
Y                  .m        85688.83                      : 85761.93
YEAR               .         2018                          : 
~Parameter Information Block
#_______________________________________________________________________________
#
#PARAMETER_NAME    .UNIT     VALUE                         : DESCRIPTION
#_______________________________________________________________________________
SET                .         LQC_KAZNIPI_Petrel            : 
TLFamily_CALI      .         Caliper                       : 
TLFamily_CILD      .         Conductivity                  : 
TLFamily_COLL      .         Net Reservoir Flag            : 
TLFamily_CSAT      .         Fluid Code                    : 
TLFamily_DEPT      .         Measured Depth                : 
TLFamily_GR        .         Russian Gamma Ray             : 
TLFamily_GZ1       .         Gradient 045                  : 
TLFamily_GZ2       .         Gradient 105                  : 
TLFamily_GZ3       .         Gradient 225                  : 
TLFamily_GZ4       .         Gradient 425                  : 
TLFamily_GZ5       .         Gradient 850                  : 
TLFamily_LLS       .         Lateral Log Resistivity       : 
TLFamily_MINV      .         Micro Gradient Resistivity    : 
TLFamily_MNOR      .         Micro Resistivity             : 
TLFamily_NGLD      .         Neutron Far                   : 
TLFamily_OGZ3      .         Gradient Inverted 225         : 
TLFamily_PHIE      .         Effective Porosity            : 
TLFamily_PHIEN     .         Effective Porosity            : 
TLFamily_PHIT      .         Porosity                      : 
TLFamily_PRMB      .         Permeability                  : 
TLFamily_PRMB_DGR  .         Permeability                  : 
TLFamily_RT        .         Formation Resistivity         : 
TLFamily_SOIL_ARCHIE .         Oil Saturation                : 
TLFamily_SOIL_DW   .         Oil Saturation                : 
TLFamily_SP        .         Spontaneous Potential         : 
TLFamily_VSH_FIN   .         Shale Volume                  : 
TLFamily_VSH_GR    .         Shale Volume                  : 
TLFamily_VSH_SP    .         Shale Volume                  : 
~Curve Information
#_______________________________________________________________________________
#
#LOGNAME           .UNIT     LOG_ID                        : DESCRIPTION
#_______________________________________________________________________________
DEPT               .M                                      : Колонка глубины 
CALI               .м                                      : Каверномер 
CILD               .мСм/м                                  : Индукционный каротаж зондом 6Ф1 
COLL               .unitless                               :  
CSAT               .unitless                               :  
GR                 .uR/h                                   : Гамма каротаж 
GZ1                .Ohmm                                   : 2 
GZ2                .Ohmm                                   : 3 
GZ3                .Ohmm                                   : 3 
GZ4                .Ohmm                                   : 4 
GZ5                .Ohmm                                   : 5 
LLS                .Ohmm                                   : Боковой каротаж 
MINV               .Ohmm                                   : Микро-градиент зонд 
MNOR               .Ohmm                                   : Микро-потенциал зонд 
NGLD               .у.е.                                   : Показания зонда НГК-60 аппаратуры ДРСТ-3-90 
OGZ3               .Ohmm                                   : 2 
PHIE               .v/v                                    : Описание 
PHIEN              .v/v                                    :  
PHIT               .v/v                                    : Описание 
PRMB               .mD                                     :  
PRMB_DGR           .mD                                     :  
RT                 .ohmm                                   : УЭС пласта 
SOIL_ARCHIE        .v/v                                    :  
SOIL_DW            .v/v                                    :  
SP                 .мВ                                     : Потенциал самополяризации 
VSH_FIN            .v/v                                    : Описание 
VSH_GR             .v/v                                    : Shale volume 
VSH_SP             .v/v                                    : Shale Volume 
~Ascii
# ...
1092       0.216      244.2      -9999      -9999      6.395083   2.7876     3.8792     3.6893     2.4914     2.209      3.399      3.794      2.526      1.154267   3.7181     0.07137981 0.07137981 0.2346274  0.05878754 13.75154   3.714      0          0.3513287  60.644     0.4946896  0.2224781  0.7669011 
1092.2     0.219      244.2      -9999      -9999      6.398187   2.9737     4.9487     3.6233     2.6982     2.2695     3.809      3.007      2.38       1.158216   3.4746     0.06747255 0.06747255 0.2322144  0.04976377 13.70652   3.714      0          0.3345115  60.746     0.4992178  0.2227763  0.7756594 
1092.4     0.235      246.8      -9999      -9999      6.390611   3.2807     4.772099   3.3949     2.5267     2.2796     2.857      3.108      2.382      1.159959   3.3833     0.06260431 0.06260431 0.2311489  0.04043353 13.81668   3.675      0          0.3123542  61.051     0.5107413  0.2220493  0.7994334 
1092.6     0.239      249.5      -9999      -9999      6.358445   2.9763     4.2021     3.2275     2.33       2.3804     2.583      3.092      2.208      1.160572   3.4087     0.06264139 0.06264139 0.2307745  0.04049753 14.2944    3.635      0          0.307952   61.483     0.5094942  0.2189885  0.8       
1092.8     0.22       228.9      -9999      -9999      6.30096    2.6718     3.8893     3.2122     2.2443     2.2997     2.832      4.841      2.998      1.160991   3.3326     0.06549006 0.06549006 0.2305183  0.04572912 15.18965   3.963      0          0.3462092  60.873     0.5000855  0.2136234  0.7865477 
1093       0.216      216.7      -9999      -9999      6.245088   2.5108     3.8591     3.4863     2.2594     2.2846     3.684      4.053      3.184      1.157934   3.0993     0.08132559 0.08132559 0.2323865  0.08984736 16.11349   4.186      0          0.411966   59.755     0.4577603  0.2085347  0.7069859 
1093.2     0.215      230.2      -9999      -9999      6.227984   2.6165     4.6258     4.024199   2.3502     2.3653     4.257      3.264      2.997      1.14525    2.8406     0.09529822 0.09529822 0.2401378  0.1630468  16.40739   3.94       0.08958699 0.4391402  59.221     0.4389079  0.2070013  0.6708145 
1093.4     0.225      246.5      -9999      -9999      6.267459   2.6366     4.7267     3.7501     2.451      2.4208     2.998      2.476      2.762      1.120864   2.6833     0.1153165  0.1153165  0.2550398  0.3829127  15.73702   3.68       0.2037845  0.4792517  58.688     0.4234038  0.2105575  0.6362501 
1093.6     0.224      242.4      -9999      -9999      6.357055   3.326      4.3736     3.9227     2.5116     2.4611     2.87       3.375      2.546      1.090786   2.5058     0.1350443  0.1350443  0.2734209  0.8881919  14.31541   3.742      0.3115197  0.5341697  58.434     0.4193229  0.2188572  0.6197886 
1093.8     0.222      244.7      -9999      -9999      6.483668   3.3008     4.5804     4.0394     2.5721     2.4813     2.812      3.266      2.396      1.064159   2.5667     0.1507052  0.1507052  0.2896926  1.732144   12.52265   3.707      0.3715017  0.5670182  58.307     0.421174   0.2311469  0.6112011 
1094       0.223      253.6      -9999      -9999      6.631618   3.1951     4.878      3.9836     3.0159     2.4763     2.751      2.911      2.246      1.045294   2.6478     0.1603802  0.1603802  0.3012209  2.616905   10.71017   3.577      0.3945976  0.5798965  58.256     0.42679    0.2463848  0.6071953 
1094.2     0.225      266.6      -9999      -9999      6.770203   2.8932     4.6309     4.5418     3.2227     2.7436     3.557      3.254      2.895      1.032719   2.5464     0.1708012  0.1708012  0.3089053  4.081413   9.251133   3.402      0.4132476  0.5861066  57.723     0.4184974  0.261568   0.5754268 
1094.4     0.233      273.7      -9999      -9999      6.865311   3.0945     5.0899     4.623      3.379      2.678      3.826      2.866      2.418      1.024151   2.4449     0.1812584  0.1812584  0.3141413  6.375351   8.366551   3.314      0.4359483  0.5945173  56.96      0.4026752  0.2725258  0.5328247 
1094.6     0.237      272.7      -9999      -9999      6.914958   3.1046     4.1516     4.2322     3.026      2.7385     2.409      2.743      1.828      1.019043   2.3739     0.1859499  0.1859499  0.3172631  7.787546   7.938923   3.326      0.4492978  0.6017181  56.681     0.3979188  0.2784271  0.5174105 
1094.8     0.231      286.5      -9999      -9999      6.954196   2.8429     3.8187     4.0394     2.7083     2.7436     2.561      2.801      3.808      1.016059   2.5362     0.1882005  0.1882005  0.3190866  8.572109   7.616471   3.166      0.4422832  0.5951278  56.554     0.3966244  0.2831814  0.5100674 
1095       0.23       311.7      -9999      -9999      7.013552   2.5762     4.2273     4.0648     3.0966     2.6931     2.908      2.74       3.446      1.011353   2.5565     0.1931394  0.1931394  0.3219619  10.58203   7.15341    2.91       0.4327183  0.5842846  56.173     0.3903713  0.2905279  0.4902146 
1095.2     0.242      332        -9999      -9999      7.099216   2.697      4.5804     4.0648     2.9554     2.562      2.476      4.29       2.124      1.001817   2.871      0.199325   0.199325   0.3277896  13.77656   6.53429    2.732      0.4314898  0.580869   55.919     0.3892868  0.3014681  0.4771054 
1095.4     0.237      345.8      -9999      -9999      7.213863   2.8731     4.2122     3.74       2.7436     2.4863     2.356      2.943      1.811      0.9878536  2.4652     0.2064615  0.2064615  0.3363227  18.67782   5.788727   2.623      0.4380079  0.5846841  55.792     0.3935186  0.3167569  0.4702803 
1095.6     0.245      358.5      -9999      -9999      7.3606     2.4706     4.2071     3.471      2.2594     2.2544     3.096      2.343      2.283      0.9716718  1.9225     0.2114684  0.2114684  0.3462113  23.12411   4.957244   2.53       0.4402117  0.5883702  55.995     0.4083121  0.3374616  0.4791626 
1095.8     0.266      371.8      -9999      -9999      7.530115   2.8429     3.6068     3.2173     2.0778     1.982      1.998      2.485      1.453      0.9544905  1.7297     0.2162515  0.2162515  0.3567108  28.35704   4.144227   2.44       0.4416     0.5919583  56.198     0.4256343  0.3630708  0.4881977 
1096       0.286      382        -9999      -9999      7.706093   2.6517     3.0469     2.7606     1.861      1.6794     1.852      2.576      1.53       0.9379935  1.6384     0.2192503  0.2192503  0.3667922  32.22599   3.440968   2.374      0.4411122  0.5954199  56.503     0.4470965  0.3917144  0.5024786 
1096.2     0.278      398.8      -9999      -9999      7.873725   2.1485     2.835      2.4104     1.7248     1.513      1.799      2.666      1.605      0.9263796  1.5014     0.2146707  0.2146707  0.3738894  26.5082    2.882359   2.274      0.4191289  0.5879168  57.316     0.4824809  0.4210985  0.5438634 
1096.4     0.272      406.9      -9999      -9999      8.010742   1.741      2.4012     2.2024     1.6492     1.5231     1.762      2.558      1.466      0.9237754  1.4761     0.2094382  0.2094382  0.3754809  21.2061    2.493824   2.229      0.4009168  0.5807798  57.621     0.5031597  0.446746   0.5595734 
1096.6     0.269      412.05     -9999      -9999      8.092177   1.5548     2.4869     2.1872     1.6139     1.397      1.742      2.118      1.642      0.9299597  1.4507     0.1991753  0.1991753  0.3717017  13.68886   2.288189   2.201      0.3703954  0.567074   58.053     0.5228072  0.4627235  0.582891  
1096.8     0.268      415.8      -9999      -9999      8.109794   1.424      2.608      2.2836     1.7853     1.2558     1.753      2.308      1.513      0.939993   1.679      0.1802765  0.1802765  0.3655703  6.11387    2.245987   2.181      0.3103364  0.5433622  59.298     0.5614964  0.4662542  0.6567385 
1097       0.268      417.1      -9999      -9999      8.076115   1.7712     2.3356     2.2836     1.8257     1.3163     1.799      2.459      1.371      0.9487904  1.7652     0.1782887  0.1782887  0.3601942  5.616911   2.327362   2.175      0.3027435  0.5365704  59.094     0.5512286  0.4595274  0.6429299 
