~Version
 VERS              .         2.0                           : CWLS LOG ASCII STANDARD - VERSION 2.0
 WRAP              .         NO                            : ONE LINE PER DEPTH STEP
 DLM               .         SPACE                         : DELIMITING CHARACTER(SPACE TAB OR COMMA)
~Well Information
#_______________________________________________________________________________
#
#PARAMETER_NAME    .UNIT     VALUE                         : DESCRIPTION
#_______________________________________________________________________________
STRT               .M        884                           : First reference value
STOP               .M        1232                          : Last reference value
STEP               .M        0.2                           : Step increment
NULL               .         -9999                         : Missing value
COMP               .                                       : Company
WELL               .         3894                          : Well name
FLD                .         Узень                         : Field
LOC                .                                       : Location
CNTY               .                                       : County
STAT               .                                       : State
CTRY               .                                       : Country
SRVC               .                                       : Service Company
DATE               .                                       : Date
UWI                .                                       : Unique Well ID
123                .         1                             : 
4_кв_для_Заказчика .         1                             : 
Block              .         6а                            : 
Category           .         Нефтяная                      : 
Condition          .         В ожидании ликвидации         : 
Date               .         16.05.1989                    : 
EREF               .m        86.6                          : 100.8
Gor                .         15                            : 
Gorizont           .         15                            : 14
Interpretator      .         Кайсанов Е.К                  : 
KUST               .                                       : 
Kupol              .         Основной                      : osnovnoi
Mud                .                                       : 
Mud_density        .                                       : 
Mud_resistivity    .                                       : 
NGDU               .         НГДУ-2                        : 
ORIGINALWELLNAME   .         3894                          : 
Otmetka            .                                       : 
Spud_date          .         1989                          : 1961
Viscosity          .                                       : 
X                  .m        44340.1                       : 46154
Y                  .m        85688.83                      : 85761.93
YEAR               .         2018                          : 
~Parameter Information Block
#_______________________________________________________________________________
#
#PARAMETER_NAME    .UNIT     VALUE                         : DESCRIPTION
#_______________________________________________________________________________
SET                .         LQC_KAZNIPI_Petrel            : 
TLFamily_CALI      .         Caliper                       : 
TLFamily_CILD      .         Conductivity                  : 
TLFamily_COLL      .         Net Reservoir Flag            : 
TLFamily_CSAT      .         Fluid Code                    : 
TLFamily_DEPT      .         Measured Depth                : 
TLFamily_GR        .         Russian Gamma Ray             : 
TLFamily_GZ1       .         Gradient 045                  : 
TLFamily_GZ2       .         Gradient 105                  : 
TLFamily_GZ3       .         Gradient 225                  : 
TLFamily_GZ4       .         Gradient 425                  : 
TLFamily_GZ5       .         Gradient 850                  : 
TLFamily_LLS       .         Lateral Log Resistivity       : 
TLFamily_MINV      .         Micro Gradient Resistivity    : 
TLFamily_MNOR      .         Micro Resistivity             : 
TLFamily_NGLD      .         Neutron Far                   : 
TLFamily_OGZ3      .         Gradient Inverted 225         : 
TLFamily_PHIE      .         Effective Porosity            : 
TLFamily_PHIEN     .         Effective Porosity            : 
TLFamily_PHIT      .         Porosity                      : 
TLFamily_PRMB      .         Permeability                  : 
TLFamily_PRMB_DGR  .         Permeability                  : 
TLFamily_RT        .         Formation Resistivity         : 
TLFamily_SOIL_ARCHIE .         Oil Saturation                : 
TLFamily_SOIL_DW   .         Oil Saturation                : 
TLFamily_SP        .         Spontaneous Potential         : 
TLFamily_VSH_FIN   .         Shale Volume                  : 
TLFamily_VSH_GR    .         Shale Volume                  : 
TLFamily_VSH_SP    .         Shale Volume                  : 
~Curve Information
#_______________________________________________________________________________
#
#LOGNAME           .UNIT     LOG_ID                        : DESCRIPTION
#_______________________________________________________________________________
DEPT               .M                                      : Колонка глубины 
CALI               .м                                      : Каверномер 
CILD               .мСм/м                                  : Индукционный каротаж зондом 6Ф1 
COLL               .unitless                               :  
CSAT               .unitless                               :  
GR                 .uR/h                                   : Гамма каротаж 
GZ1                .Ohmm                                   : 2 
GZ2                .Ohmm                                   : 3 
GZ3                .Ohmm                                   : 3 
GZ4                .Ohmm                                   : 4 
GZ5                .Ohmm                                   : 5 
LLS                .Ohmm                                   : Боковой каротаж 
MINV               .Ohmm                                   : Микро-градиент зонд 
MNOR               .Ohmm                                   : Микро-потенциал зонд 
NGLD               .у.е.                                   : Показания зонда НГК-60 аппаратуры ДРСТ-3-90 
OGZ3               .Ohmm                                   : 2 
PHIE               .v/v                                    : Описание 
PHIEN              .v/v                                    :  
PHIT               .v/v                                    : Описание 
PRMB               .mD                                     :  
PRMB_DGR           .mD                                     :  
RT                 .ohmm                                   : УЭС пласта 
SOIL_ARCHIE        .v/v                                    :  
SOIL_DW            .v/v                                    :  
SP                 .мВ                                     : Потенциал самополяризации 
VSH_FIN            .v/v                                    : Описание 
VSH_GR             .v/v                                    : Shale volume 
VSH_SP             .v/v                                    : Shale Volume 
~Ascii
# ...
899.6      0.289      241.3      -9999      -9999      9.749571   -9999      -9999      3.7124     -9999      -9999      2.348      1.082      1.363      0.9474244  2.9902     -9999      -9999      -9999      -9999      -9999      3.759      -9999      -9999      54.094     -9999      0.8        0.8       
899.8      0.264      230.8      -9999      -9999      9.737709   -9999      -9999      3.9094     -9999      -9999      2.274      0.852      0.832      0.9596343  3.4195     -9999      -9999      -9999      -9999      -9999      3.93       -9999      -9999      53.968     -9999      0.7423912  0.8       
900        0.238      238.3      -9999      -9999      9.689306   -9999      -9999      4.2125     -9999      -9999      2.505      0.61       1.38       0.9745864  3.2932     -9999      -9999      -9999      -9999      -9999      3.806      -9999      -9999      54.674     -9999      0.6792396  0.8       
900.2      0.213      245.1      -9999      -9999      9.601814   -9999      -9999      4.3564     -9999      -9999      2.829      2.252      1.927      0.9914525  2.9447     0.1061021  0.1061021  0.3441234  0.25848    0.2466071  3.701      0.1461707  0.5589361  54.75      0.7212766  0.8        0.6425532 
900.4      0.233      250.7      -9999      -9999      9.45045    -9999      -9999      4.5004     -9999      -9999      2.591      2.741      2.248      1.008679   2.8108     0.1064338  0.1064338  0.333596   0.2621627  0.3027376  3.618      0.1393772  0.5451142  53.64      0.6883703  0.8        0.5767406 
900.6      0.234      254.4      -9999      -9999      9.219145   -9999      -9999      3.8488     -9999      -9999      2.341      2.475      2.253      1.022982   2.677      0.1052983  0.1052983  0.3248558  0.2497686  0.4141561  3.565      0.1252628  0.5319456  52.796     0.6653257  0.8        0.5306514 
900.8      0.222      253.4      -9999      -9999      8.925712   -9999      -9999      3.8034     -9999      -9999      2.366      1.672      1.764      1.032402   2.5457     0.1081702  0.1081702  0.319099   0.2823145  0.6163346  3.579      0.1470953  0.5317037  51.951     0.6391782  0.7905676  0.4877888 
901        0.218      259.5      -9999      -9999      8.596241   -9999      -9999      3.7276     -9999      -9999      2.814      1.385      1.63       1.038792   2.4952     0.1363115  0.1363115  0.315194   0.9375146  0.9631048  3.495      0.2948597  0.5603883  50.589     0.5420681  0.6588413  0.4252949 
901.2      0.211      283.9      -9999      -9999      8.238854   -9999      -9999      3.566      -9999      -9999      3.017      1.354      1.842      1.044927   2.3588     0.1558107  0.1558107  0.3114453  2.153528   1.562989   3.195      0.3453729  0.5595914  50.047     0.47162    0.5406491  0.402591  
901.4      0.209      297.3      -9999      -9999      7.868077   -9999      -9999      3.2629     -9999      -9999      2.366      1.493      2.001      1.050269   2.1214     0.1726472  0.1726472  0.3081809  4.415729   2.582958   3.051      0.3882398  0.5641718  49.504     0.4107083  0.4403854  0.3810312 
901.6      0.209      304.1      -9999      -9999      7.527361   -9999      -9999      2.8891     -9999      -9999      2.185      1.57       1.696      1.051787   2.0658     0.1868717  0.1868717  0.3072529  8.099806   4.098174   2.983      0.4229307  0.5721118  49.076     0.3647918  0.3647313  0.3648523 
901.8      0.21       309.6      -9999      -9999      7.263559   -9999      -9999      2.7401     -9999      -9999      2.314      1.481      1.6        1.049014   2.283      0.1942275  0.1942275  0.3089473  11.08469   5.8588     2.93       0.4372987  0.5763062  49.479     0.3476355  0.3152044  0.3800666 
902        0.211      312.1      -9999      -9999      7.095934   -9999      -9999      2.5911     -9999      -9999      2.247      1.529      1.702      1.045959   2.3285     0.1984161  0.1984161  0.3108146  13.25273   7.352541   2.906      0.4455226  0.579724   49.832     0.3406016  0.2872889  0.3939143 
902.2      0.213      309.9      -9999      -9999      7.016192   -9999      -9999      2.8588     -9999      -9999      2.182      1.496      1.657      1.047236   2.3184     0.1996815  0.1996815  0.3100343  13.98762   8.191376   2.927      0.4504443  0.581686   49.832     0.3344025  0.2748907  0.3939143 
902.4      0.216      303.8      -9999      -9999      7.000391   -9999      -9999      3.1013     -9999      -9999      2.39       1.415      1.723      1.05312    2.7881     0.198924   0.198924   0.3064384  13.54293   8.368619   2.986      0.4537616  0.582314   49.454     0.3258014  0.2724984  0.3791044 
902.6      0.216      309.4      -9999      -9999      7.017885   -9999      -9999      3.3437     -9999      -9999      2.751      1.603      1.934      1.059244   2.9497     0.1963223  0.1963223  0.3026962  12.1206    8.172608   2.932      0.4427101  0.573122   49.202     0.322345   0.2751483  0.3695417 
902.8      0.213      315.9      -9999      -9999      7.049553   -9999      -9999      3.566      -9999      -9999      2.494      1.86       2.208      1.061471   2.6719     0.195696   0.195696   0.3013348  11.80112   7.829381   2.871      0.4356162  0.5668927  48.95      0.3201174  0.2800112  0.3602237 
903        0.213      321        -9999      -9999      7.0986     -9999      -9999      3.22       -9999      -9999      2.257      1.51       1.702      1.059732   2.2527     0.1957946  0.1957946  0.3023979  11.85086   7.326027   2.826      0.431666   0.5644596  48.899     0.3230401  0.287713   0.3583672 
903.2      0.216      324.7      -9999      -9999      7.165762   -9999      -9999      2.874      -9999      -9999      2.221      1.43       1.669      1.057423   2.0103     0.1957071  0.1957071  0.3038087  11.8067    6.688845   2.793      0.4283022  0.5630254  48.849     0.3275805  0.2986041  0.3565568 
903.4      0.217      327.3      -9999      -9999      7.222912   -9999      -9999      2.581      -9999      -9999      2.189      1.332      1.606      1.058281   2.1719     0.1923841  0.1923841  0.3032847  10.24656   6.190493   2.771      0.4175538  0.5577886  49.051     0.3360623  0.3081956  0.3639291 
903.6      0.215      319.7      -9999      -9999      7.231848   -9999      -9999      2.4699     -9999      -9999      2.202      1.307      1.538      1.063689   2.8386     0.187591   0.187591   0.2999795  8.352155   6.115995   2.837      0.4111539  0.5555949  49.252     0.3405713  0.309723   0.3714195 
903.8      0.214      314.4      -9999      -9999      7.181646   -9999      -9999      2.4447     -9999      -9999      2.241      1.469      1.668      1.071628   3.1922     0.1835086  0.1835086  0.2951281  7.017503   6.546447   2.885      0.4044681  0.5510339  49.353     0.3382408  0.3012395  0.3752422 
904        0.212      308.6      -9999      -9999      7.095585   -9999      -9999      3.0104     -9999      -9999      2.461      1.841      1.887      1.078541   3.5053     0.1830035  0.1830035  0.2909035  6.86795    7.35602    2.939      0.4082092  0.5508339  49.126     0.3269697  0.2872334  0.3667059 
904.2      0.215      311.6      -9999      -9999      7.00709    -9999      -9999      3.1543     -9999      -9999      2.9        2.041      2.056      1.083671   3.6922     0.1844063  0.1844063  0.2877687  7.291385   8.293018   2.911      0.4094853  0.547156   48.748     0.3132193  0.27351    0.3529287 
904.4      0.218      314.7      -9999      -9999      6.941692   -9999      -9999      3.2983     -9999      -9999      2.328      1.63       1.919      1.090636   3.3033     0.1817533  0.1817533  0.2835121  6.511326   9.061324   2.882      0.3991687  0.5381272  48.748     0.3083601  0.2637916  0.3529287 
904.6      0.216      318.7      -9999      -9999      6.916995   -9999      -9999      2.8588     -9999      -9999      2.359      1.496      1.635      1.102844   3.0912     0.1729165  0.1729165  0.2760521  4.466748   9.369655   2.846      0.3688004  0.5181637  49.076     0.3125321  0.2602118  0.3648523 
