~Version
 VERS              .         2.0                           : CWLS LOG ASCII STANDARD - VERSION 2.0
 WRAP              .         NO                            : ONE LINE PER DEPTH STEP
 DLM               .         SPACE                         : DELIMITING CHARACTER(SPACE TAB OR COMMA)
~Well Information
#_______________________________________________________________________________
#
#PARAMETER_NAME    .UNIT     VALUE                         : DESCRIPTION
#_______________________________________________________________________________
STRT               .M        884                           : First reference value
STOP               .M        1232                          : Last reference value
STEP               .M        0.2                           : Step increment
NULL               .         -9999                         : Missing value
COMP               .                                       : Company
WELL               .         3894                          : Well name
FLD                .         Узень                         : Field
LOC                .                                       : Location
CNTY               .                                       : County
STAT               .                                       : State
CTRY               .                                       : Country
SRVC               .                                       : Service Company
DATE               .                                       : Date
UWI                .                                       : Unique Well ID
123                .         1                             : 
4_кв_для_Заказчика .         1                             : 
Block              .         6а                            : 
Category           .         Нефтяная                      : 
Condition          .         В ожидании ликвидации         : 
Date               .         16.05.1989                    : 
EREF               .m        86.6                          : 100.8
Gor                .         15                            : 
Gorizont           .         15                            : 14
Interpretator      .         Кайсанов Е.К                  : 
KUST               .                                       : 
Kupol              .         Основной                      : osnovnoi
Mud                .                                       : 
Mud_density        .                                       : 
Mud_resistivity    .                                       : 
NGDU               .         НГДУ-2                        : 
ORIGINALWELLNAME   .         3894                          : 
Otmetka            .                                       : 
Spud_date          .         1989                          : 1961
Viscosity          .                                       : 
X                  .m        44340.1                       : 46154
Y                  .m        85688.83                      : 85761.93
YEAR               .         2018                          : 
~Parameter Information Block
#_______________________________________________________________________________
#
#PARAMETER_NAME    .UNIT     VALUE                         : DESCRIPTION
#_______________________________________________________________________________
SET                .         LQC_KAZNIPI_Petrel            : 
TLFamily_CALI      .         Caliper                       : 
TLFamily_CILD      .         Conductivity                  : 
TLFamily_COLL      .         Net Reservoir Flag            : 
TLFamily_CSAT      .         Fluid Code                    : 
TLFamily_DEPT      .         Measured Depth                : 
TLFamily_GR        .         Russian Gamma Ray             : 
TLFamily_GZ1       .         Gradient 045                  : 
TLFamily_GZ2       .         Gradient 105                  : 
TLFamily_GZ3       .         Gradient 225                  : 
TLFamily_GZ4       .         Gradient 425                  : 
TLFamily_GZ5       .         Gradient 850                  : 
TLFamily_LLS       .         Lateral Log Resistivity       : 
TLFamily_MINV      .         Micro Gradient Resistivity    : 
TLFamily_MNOR      .         Micro Resistivity             : 
TLFamily_NGLD      .         Neutron Far                   : 
TLFamily_OGZ3      .         Gradient Inverted 225         : 
TLFamily_PHIE      .         Effective Porosity            : 
TLFamily_PHIEN     .         Effective Porosity            : 
TLFamily_PHIT      .         Porosity                      : 
TLFamily_PRMB      .         Permeability                  : 
TLFamily_PRMB_DGR  .         Permeability                  : 
TLFamily_RT        .         Formation Resistivity         : 
TLFamily_SOIL_ARCHIE .         Oil Saturation                : 
TLFamily_SOIL_DW   .         Oil Saturation                : 
TLFamily_SP        .         Spontaneous Potential         : 
TLFamily_VSH_FIN   .         Shale Volume                  : 
TLFamily_VSH_GR    .         Shale Volume                  : 
TLFamily_VSH_SP    .         Shale Volume                  : 
~Curve Information
#_______________________________________________________________________________
#
#LOGNAME           .UNIT     LOG_ID                        : DESCRIPTION
#_______________________________________________________________________________
DEPT               .M                                      : Колонка глубины 
CALI               .м                                      : Каверномер 
CILD               .мСм/м                                  : Индукционный каротаж зондом 6Ф1 
COLL               .unitless                               :  
CSAT               .unitless                               :  
GR                 .uR/h                                   : Гамма каротаж 
GZ1                .Ohmm                                   : 2 
GZ2                .Ohmm                                   : 3 
GZ3                .Ohmm                                   : 3 
GZ4                .Ohmm                                   : 4 
GZ5                .Ohmm                                   : 5 
LLS                .Ohmm                                   : Боковой каротаж 
MINV               .Ohmm                                   : Микро-градиент зонд 
MNOR               .Ohmm                                   : Микро-потенциал зонд 
NGLD               .у.е.                                   : Показания зонда НГК-60 аппаратуры ДРСТ-3-90 
OGZ3               .Ohmm                                   : 2 
PHIE               .v/v                                    : Описание 
PHIEN              .v/v                                    :  
PHIT               .v/v                                    : Описание 
PRMB               .mD                                     :  
PRMB_DGR           .mD                                     :  
RT                 .ohmm                                   : УЭС пласта 
SOIL_ARCHIE        .v/v                                    :  
SOIL_DW            .v/v                                    :  
SP                 .мВ                                     : Потенциал самополяризации 
VSH_FIN            .v/v                                    : Описание 
VSH_GR             .v/v                                    : Shale volume 
VSH_SP             .v/v                                    : Shale Volume 
~Ascii
# ...
1196       0.228      494        0          0          9.429076   2.2943     2.9572     2.3386     1.3133     1.1952     1.633      3.68       2.637      1.136291   1.2066     0.05033569 0.05033569 0.2556128  0.02396057 1.353984   1.836      0          0.04057534 48.102     0.6220518  0.5732869  0.6220518 
1196.2     0.239      497.8      0          0          9.470385   1.9363     2.8048     2.1618     1.3835     1.1573     1.493      2.486      1.707      1.140258   1.1288     0.01140482 0.01140482 0.2531886  0.004554105 1.25846    1.822      0          0          49.644     0.7326781  0.5906721  0.7326781 
1196.4     0.247      500.6      0          0          9.491774   1.9111     2.632      2.3689     1.4737     1.1067     1.445      1.293      0.776      1.149089   1.2893     0.01       0          0.2477918  0.004289259 1.211677   1.812      0          0          50.074     0.7749789  0.5998801  0.7749789 
1196.6     0.248      500.6      0          0          9.464938   1.8606     2.4694     2.2477     1.4787     1.1067     1.39       1.079      1.234      1.158773   1.5803     0.01       0.007307358 0.2418739  0.004289259 1.270658   1.812      0          0          48.987     0.7108076  0.58835    0.7108076 
1196.8     0.233      453.75     0          0          9.384637   1.427      2.2814     2.0103     1.8447     1.2179     1.545      1.592      1.133      1.165956   2.6188     0.05071541 0.05071541 0.2374841  0.02435177 1.464859   2.006      0          0.03522174 46.687     0.5659656  0.5551549  0.5659656 
1197       0.222      382        8          2          9.288511   1.2051     1.6209     1.9547     2.4863     1.6626     2.529      1.865      1.299      1.172316   3.4315     0.1184061  0.1184061  0.2335978  0.4368444  1.736741   2.374      0.05750716 0.3311742  41.935     0.3490657  0.5178719  0.3490657 
1197.2     0.216      375.973    8          2          9.231781   1.2858     1.3922     3.2831     5.774601   3.0423     4.139      2.478      4.062      1.180448   4.0586     0.1332209  0.1332209  0.2286281  0.8217369  1.92031    2.413      0.1559542  0.3584427  40.115     0.2891125  0.4970546  0.2891125 
1197.4     0.213      370.1      8          2          9.250491   1.9464     2.6371     4.2983     5.6292     3.8812     3.188      1.734      2.489      1.188551   3.7476     0.1441682  0.1441682  0.2236767  1.310701   1.857718   2.451      0.2178134  0.3753327  38.295     0.2409346  0.5038262  0.2409346 
1197.6     0.212      378.7      8          2          9.341799   2.4708     3.6178     4.5054     5.138      4.24       2.455      1.914      2.437      1.191251   2.985      0.1555673  0.1555673  0.2220266  2.131284   1.580325   2.395      0.2599911  0.3848565  36.374     0.201392   0.5382193  0.201392  
1197.8     0.21       395        8          2          9.470532   3.1565     3.3993     4.566      4.2557     3.775      2.3        2.121      2.377      1.18333    2.4733     0.1723093  0.1723093  0.2268669  4.352557   1.25813    2.296      0.3094769  0.4054679  33.922     0.1653261  0.5907352  0.1653261 
1198       0.204      403.1      8          2          9.593221   2.8742     2.8835     3.1619     3.1931     2.83       2.621      2.509      2.432      1.16336    1.9817     0.1871734  0.1871734  0.2390707  8.204724   1.012406   2.25       0.3513586  0.4373089  33.239     0.1572645  0.6455467  0.1572645 
1198.2     0.207      405.6      8          2          9.673006   2.9599     2.3678     2.4851     2.6367     2.4207     2.615      2.397      2.68       1.135961   1.7208     0.1935568  0.1935568  0.2558145  10.77209   0.8789908  2.236      0.3681821  0.4648625  35.767     0.1886596  0.6838915  0.1886596 
1198.4     0.21       421.4      8          2          9.691755   2.8994     2.256      1.7173     2.0803     2.1933     1.948      2.162      3.113      1.109062   1.6455     0.2053913  0.2053913  0.2722522  17.84444   0.8502811  2.152      0.3891311  0.4868225  36.671     0.202609   0.693228   0.202609  
1198.6     0.212      451.3      8          2          9.665044   2.622      3.2062     1.3991     1.7294     1.6273     1.871      2.877      2.813      1.087389   1.6857     0.2135117  0.2135117  0.2854964  25.2297    0.8914741  2.01       0.3901916  0.4917832  37.562     0.2181357  0.6799647  0.2181357 
1198.8     0.213      453.9      8          2          9.629478   2.3548     2.9725     1.3183     1.6091     1.5161     1.804      2.785      2.275      1.070759   1.791      0.2004923  0.2004923  0.2956594  14.4798    0.9494368  1.998      0.3540312  0.4873616  40.544     0.2883852  0.6626977  0.2883852 
1199       0.218      457.7      -9999      -9999      9.604153   2.264      2.8099     1.293      1.5088     1.511      2.184      2.496      2.314      1.058223   1.8613     0.1931612  0.1931612  0.3033197  10.59185   0.9929919  1.982      0.3302074  0.4852221  42.061     0.3338137  0.6506707  0.3338137 
1199.2     0.218      472.7      -9999      -9999      9.577621   2.3296     3.0639     1.3334     1.4587     1.4858     1.866      2.514      2.551      1.049421   1.7785     0.1845361  0.1845361  0.308699   7.331867   1.040769   1.919      0.2923772  0.4726287  43.3       0.3762512  0.6383044  0.3762512 
1199.4     0.218      488.9      -9999      -9999      9.532595   2.1682     2.9928     1.4951     1.193      1.3038     1.628      2.533      2.803      1.042155   1.6957     0.1756768  0.1756768  0.3131393  5.024803   1.127165   1.855      0.2495459  0.457627   44.361     0.4165531  0.6178539  0.4165531 
1199.6     0.218      496.3      -9999      -9999      9.458333   1.9363     2.3424     1.687      0.9574     1.324      1.639      2.49       2.112      1.033672   1.5954     0.1684923  0.1684923  0.3183231  3.698661   1.28561    1.828      0.2163783  0.4500498  45.271     0.4540327  0.5855462  0.4540327 
1199.8     0.218      499.1      -9999      -9999      9.355708   1.6438     2.0782     1.8183     0.9173     1.1017     1.594      2.479      2.456      1.024778   1.5703     0.1637985  0.1637985  0.3237579  3.027641   1.54187    1.817      0.1945786  0.4479974  45.979     0.4847254  0.5436608  0.4847254 
1200       0.218      500.3      -9999      -9999      9.247485   1.4572     2.0172     1.7931     1.0176     1.1649     1.672      3.061      2.232      1.019118   1.8111     0.1530502  0.1530502  0.327217   1.914339   1.867635   1.813      0.1446484  0.4364562  46.889     0.5277781  0.502732   0.5277781 
1200.2     0.22       500.3      -9999      -9999      9.166137   1.8001     1.8546     2.2073     1.178      1.228      1.674      2.962      2.005      1.017954   2.072      0.1258857  0.1258857  0.3279283  0.6009886  2.157072   1.813      0          0.3947707  48.456     0.6122504  0.4740085  0.6122504 
1200.4     0.228      496.3      -9999      -9999      9.119433   1.6942     2.317      2.086      1.2732     1.41       1.562      2.704      2.114      1.019536   2.072      0.1091505  0.1091505  0.3269618  0.2943676  2.343087   1.828      0          0.3646925  49.29      0.6600344  0.4582655  0.6600344 
1200.6     0.234      475.7      -9999      -9999      9.088927   1.5001     2.1442     1.7981     1.188      1.3796     1.579      2.952      1.631      1.022643   2.1372     0.09548002 0.09548002 0.3250626  0.1643159  2.473168   1.907      0          0.34641    49.897     0.6957048  0.4482658  0.6957048 
1200.8     0.252      451.1      -9999      -9999      9.064158   1.306      1.7835     1.7173     1.0903     1.2331     1.631      2.745      1.388      1.027057   1.9967     0.09101313 0.09101313 0.3223657  0.1358132  2.584078   2.011      0          0.3497138  49.998     0.7010685  0.4403074  0.7010685 
1201       0.256      451.1      -9999      -9999      9.0509     1.3211     1.7377     1.7173     0.9925     1.1775     1.649      2.542      1.149      1.0314     1.8312     0.08880492 0.08880492 0.3197115  0.1236063  2.645475   2.011      0          0.3407892  49.998     0.6997169  0.4361058  0.6997169 
