~Version
 VERS              .         2.0                           : CWLS LOG ASCII STANDARD - VERSION 2.0
 WRAP              .         NO                            : ONE LINE PER DEPTH STEP
 DLM               .         SPACE                         : DELIMITING CHARACTER(SPACE TAB OR COMMA)
~Well Information
#_______________________________________________________________________________
#
#PARAMETER_NAME    .UNIT     VALUE                         : DESCRIPTION
#_______________________________________________________________________________
STRT               .M        884                           : First reference value
STOP               .M        1232                          : Last reference value
STEP               .M        0.2                           : Step increment
NULL               .         -9999                         : Missing value
COMP               .                                       : Company
WELL               .         3894                          : Well name
FLD                .         Узень                         : Field
LOC                .                                       : Location
CNTY               .                                       : County
STAT               .                                       : State
CTRY               .                                       : Country
SRVC               .                                       : Service Company
DATE               .                                       : Date
UWI                .                                       : Unique Well ID
123                .         1                             : 
4_кв_для_Заказчика .         1                             : 
Block              .         6а                            : 
Category           .         Нефтяная                      : 
Condition          .         В ожидании ликвидации         : 
Date               .         16.05.1989                    : 
EREF               .m        86.6                          : 100.8
Gor                .         15                            : 
Gorizont           .         15                            : 14
Interpretator      .         Кайсанов Е.К                  : 
KUST               .                                       : 
Kupol              .         Основной                      : osnovnoi
Mud                .                                       : 
Mud_density        .                                       : 
Mud_resistivity    .                                       : 
NGDU               .         НГДУ-2                        : 
ORIGINALWELLNAME   .         3894                          : 
Otmetka            .                                       : 
Spud_date          .         1989                          : 1961
Viscosity          .                                       : 
X                  .m        44340.1                       : 46154
Y                  .m        85688.83                      : 85761.93
YEAR               .         2018                          : 
~Parameter Information Block
#_______________________________________________________________________________
#
#PARAMETER_NAME    .UNIT     VALUE                         : DESCRIPTION
#_______________________________________________________________________________
SET                .         LQC_KAZNIPI_Petrel            : 
TLFamily_CALI      .         Caliper                       : 
TLFamily_CILD      .         Conductivity                  : 
TLFamily_COLL      .         Net Reservoir Flag            : 
TLFamily_CSAT      .         Fluid Code                    : 
TLFamily_DEPT      .         Measured Depth                : 
TLFamily_GR        .         Russian Gamma Ray             : 
TLFamily_GZ1       .         Gradient 045                  : 
TLFamily_GZ2       .         Gradient 105                  : 
TLFamily_GZ3       .         Gradient 225                  : 
TLFamily_GZ4       .         Gradient 425                  : 
TLFamily_GZ5       .         Gradient 850                  : 
TLFamily_LLS       .         Lateral Log Resistivity       : 
TLFamily_MINV      .         Micro Gradient Resistivity    : 
TLFamily_MNOR      .         Micro Resistivity             : 
TLFamily_NGLD      .         Neutron Far                   : 
TLFamily_OGZ3      .         Gradient Inverted 225         : 
TLFamily_PHIE      .         Effective Porosity            : 
TLFamily_PHIEN     .         Effective Porosity            : 
TLFamily_PHIT      .         Porosity                      : 
TLFamily_PRMB      .         Permeability                  : 
TLFamily_PRMB_DGR  .         Permeability                  : 
TLFamily_RT        .         Formation Resistivity         : 
TLFamily_SOIL_ARCHIE .         Oil Saturation                : 
TLFamily_SOIL_DW   .         Oil Saturation                : 
TLFamily_SP        .         Spontaneous Potential         : 
TLFamily_VSH_FIN   .         Shale Volume                  : 
TLFamily_VSH_GR    .         Shale Volume                  : 
TLFamily_VSH_SP    .         Shale Volume                  : 
~Curve Information
#_______________________________________________________________________________
#
#LOGNAME           .UNIT     LOG_ID                        : DESCRIPTION
#_______________________________________________________________________________
DEPT               .M                                      : Колонка глубины 
CALI               .м                                      : Каверномер 
CILD               .мСм/м                                  : Индукционный каротаж зондом 6Ф1 
COLL               .unitless                               :  
CSAT               .unitless                               :  
GR                 .uR/h                                   : Гамма каротаж 
GZ1                .Ohmm                                   : 2 
GZ2                .Ohmm                                   : 3 
GZ3                .Ohmm                                   : 3 
GZ4                .Ohmm                                   : 4 
GZ5                .Ohmm                                   : 5 
LLS                .Ohmm                                   : Боковой каротаж 
MINV               .Ohmm                                   : Микро-градиент зонд 
MNOR               .Ohmm                                   : Микро-потенциал зонд 
NGLD               .у.е.                                   : Показания зонда НГК-60 аппаратуры ДРСТ-3-90 
OGZ3               .Ohmm                                   : 2 
PHIE               .v/v                                    : Описание 
PHIEN              .v/v                                    :  
PHIT               .v/v                                    : Описание 
PRMB               .mD                                     :  
PRMB_DGR           .mD                                     :  
RT                 .ohmm                                   : УЭС пласта 
SOIL_ARCHIE        .v/v                                    :  
SOIL_DW            .v/v                                    :  
SP                 .мВ                                     : Потенциал самополяризации 
VSH_FIN            .v/v                                    : Описание 
VSH_GR             .v/v                                    : Shale volume 
VSH_SP             .v/v                                    : Shale Volume 
~Ascii
# ...
1003.6     0.27       368.5      -9999      -9999      6.766079   -9999      -9999      2.1489     -9999      -9999      1.97       2.066      1.715      0.9587277  1.7737     0.1538661  0.1538661  0.3541215  1.982123   1.127786   2.461      0.2519339  0.5345137  61.869     0.6068348  0.6177152  0.5959544 
1003.8     0.285      368.7      -9999      -9999      6.9532     -9999      -9999      1.9968     -9999      -9999      1.886      1.966      1.487      0.9275793  1.9441     0.1630241  0.1630241  0.3731563  2.929273   0.8786687  2.46       0.2885342  0.5590639  61.767     0.6367642  0.6839938  0.5895347 
1004       0.281      363.4      -9999      -9999      7.085509   -9999      -9999      2.0121     -9999      -9999      1.853      1.817      1.44       0.9055727  1.924      0.1681224  0.1681224  0.3866045  3.640773   0.7365078  2.496      0.3120685  0.5767577  61.767     0.6620669  0.7351061  0.5890276 
1004.2     0.281      374.1      -9999      -9999      7.164412   -9999      -9999      1.9968     -9999      -9999      1.82       1.789      1.462      0.8975618  1.9867     0.1668017  0.1668017  0.3915     3.441364   0.6629304  2.425      0.2978829  0.5727476  61.869     0.6809037  0.7673875  0.5944199 
1004.4     0.277      388.3      -9999      -9999      7.214204   -9999      -9999      1.9462     -9999      -9999      1.787      1.383      1.257      0.902933   2.0493     0.1581525  0.1581525  0.3882176  2.379722   0.6203303  2.336      0.2515373  0.5537155  62.073     0.6971671  0.7884843  0.6058499 
1004.6     0.28       395.6      -9999      -9999      7.255748   -9999      -9999      1.9664     -9999      -9999      1.717      1.445      1.096      0.9157628  2.0593     0.1408246  0.1408246  0.3803773  1.136505   0.5868893  2.293      0.1646847  0.5241438  62.837     0.7259173  0.8        0.6518347 
1004.8     0.269      385.7      -9999      -9999      7.295795   -9999      -9999      2.2249     -9999      -9999      1.641      1.872      1.41       0.9292563  2.0092     0.1366938  0.1366938  0.3721315  0.9529237  0.5563612  2.352      0.1529009  0.5183974  62.442     0.7134476  0.8        0.6268952 
1005       0.266      384.7      -9999      -9999      7.329137   -9999      -9999      2.382      -9999      -9999      1.911      2.198      1.754      0.9399095  2.0293     0.1341653  0.1341653  0.3656213  0.8555108  0.5321587  2.358      0.1400425  0.5102688  62.047     0.7013818  0.8        0.6027636 
1005.2     0.261      386.7      -9999      -9999      7.34784    -9999      -9999      2.6202     -9999      -9999      1.945      1.964      1.621      0.947879   2.1195     0.1306047  0.1306047  0.3607512  0.7349778  0.5190465  2.346      0.1175486  0.5000086  61.92      0.6974135  0.8        0.5948271 
1005.4     0.26       390        -9999      -9999      7.348862   -9999      -9999      2.2097     -9999      -9999      1.916      1.919      1.633      0.9536991  2.0593     0.1231562  0.1231562  0.3571945  0.5349448  0.5183396  2.326      0.0675033  0.4841079  62.328     0.7092071  0.8        0.6184142 
1005.6     0.259      393.3      -9999      -9999      7.325606   -9999      -9999      2.2908     -9999      -9999      2.056      2.111      1.821      0.9561803  2.1896     0.1196999  0.1196999  0.3556782  0.4616267  0.5346716  2.306      0.04021447 0.4752791  62.531     0.7150858  0.8        0.6301717 
1005.8     0.261      393.3      -9999      -9999      7.260282   -9999      -9999      2.3313     -9999      -9999      1.952      2.28       1.707      0.9540851  2.3099     0.1210688  0.1210688  0.3569586  0.4893798  0.5833507  2.306      0.04967297 0.4785661  62.531     0.7148175  0.8        0.629635  
1006       0.263      393.3      -9999      -9999      7.149561   -9999      -9999      2.1134     -9999      -9999      1.982      1.944      1.617      0.9493767  2.365      0.1260051  0.1260051  0.3598359  0.6040566  0.6761943  2.306      0.08218101 0.4884532  62.964     0.7085783  0.7612049  0.6559517 
1006.2     0.262      389.3      -9999      -9999      7.027299   -9999      -9999      2.0627     -9999      -9999      1.93       2.223      1.611      0.9471475  2.1195     0.1394647  0.1394647  0.3611982  1.072464   0.7959743  2.33       0.1638993  0.5102894  62.582     0.6719196  0.7121646  0.6316746 
1006.4     0.261      385.7      -9999      -9999      6.932902   -9999      -9999      2.0729     -9999      -9999      1.848      1.587      1.586      0.9514949  2.0493     0.1383432  0.1383432  0.3585415  1.022373   0.9027854  2.352      0.161704   0.5088512  63.015     0.6672675  0.6764731  0.658062  
1006.6     0.263      387        -9999      -9999      6.863424   -9999      -9999      1.9664     -9999      -9999      1.869      1.986      1.487      0.9627417  2.1094     0.1246374  0.1246374  0.3516685  0.5698308  0.9904518  2.344      0.08049539 0.4830195  64.034     0.687973   0.6513516  0.7245944 
1006.8     0.266      388.3      -9999      -9999      6.790923   -9999      -9999      1.9158     -9999      -9999      1.905      2.268      1.423      0.9780762  2.1395     0.1215237  0.1215237  0.3422977  0.4989665  1.091025   2.336      0.05849988 0.4682768  63.856     0.6690121  0.6261308  0.7118934 
1007       0.262      390.5      -9999      -9999      6.711203   -9999      -9999      2.1337     -9999      -9999      1.928      1.997      1.593      0.9921172  2.0142     0.1193988  0.1193988  0.3337172  0.4557358  1.213436   2.323      0.0414162  0.4545688  63.678     0.6494498  0.5995249  0.6993747 
1007.2     0.257      386.2      -9999      -9999      6.649098   -9999      -9999      2.0222     -9999      -9999      1.907      1.958      1.624      0.9989204  1.9892     0.1175158  0.1175158  0.3295597  0.4205668  1.318241   2.349      0.03311544 0.4501036  63.779     0.6425576  0.5795839  0.7055312 
1007.4     0.254      385.2      -9999      -9999      6.631433   -9999      -9999      2.0931     -9999      -9999      1.878      2.156      1.551      0.9965764  2.0343     0.1042766  0.1042766  0.3309922  0.2391188  1.349673   2.355      0          0.4293026  65.231     0.6870169  0.5740338  0.8       
1007.6     0.256      385        -9999      -9999      6.664942   -9999      -9999      1.9411     -9999      -9999      1.965      2.392      1.475      0.9896255  2.1896     0.1105474  0.1105474  0.3352399  0.3124382  1.290673   2.356      0          0.4453511  64.824     0.6808862  0.5846073  0.7771652 
1007.8     0.254      374.8      -9999      -9999      6.728284   -9999      -9999      2.007      -9999      -9999      1.982      2.163      1.541      0.9844344  2.0944     0.1164177  0.1164177  0.3384121  0.4013248  1.1861     2.42       0.03870442 0.4657367  64.314     0.6727104  0.6051289  0.7402919 
1008       0.252      374.6      -9999      -9999      6.787973   -9999      -9999      1.9462     -9999      -9999      1.972      1.725      1.697      0.9833339  2.0293     0.1138919  0.1138919  0.3390847  0.3603396  1.095326   2.421      0.02035297 0.4624684  64.314     0.6824024  0.6251256  0.7396791 
1008.2     0.256      375.8      -9999      -9999      6.83085    -9999      -9999      2.2756     -9999      -9999      1.981      1.558      1.866      0.9846775  2.0693     0.105371   0.105371   0.3382636  0.2505446  1.034437   2.414      0          0.4463294  64.773     0.705735   0.6398969  0.7715731 
1008.4     0.253      370        -9999      -9999      6.87206    -9999      -9999      2.1692     -9999      -9999      2.019      1.475      1.656      0.9867355  2.1094     0.09891984 0.09891984 0.3370059  0.1902801  0.9791083  2.451      0          0.4374166  65.015     0.721473   0.6544225  0.7885234 
1008.6     0.249      364.2      -9999      -9999      6.922474   -9999      -9999      2.083      -9999      -9999      2.071      2.193      1.539      0.9891302  2.0543     0.09255663 0.09255663 0.3355425  0.1450546  0.9154302  2.49       0          0.4278959  65.257     0.7363209  0.6726418  0.8       
