~Version
 VERS              .         2.0                           : CWLS LOG ASCII STANDARD - VERSION 2.0
 WRAP              .         NO                            : ONE LINE PER DEPTH STEP
 DLM               .         SPACE                         : DELIMITING CHARACTER(SPACE TAB OR COMMA)
~Well Information
#_______________________________________________________________________________
#
#PARAMETER_NAME    .UNIT     VALUE                         : DESCRIPTION
#_______________________________________________________________________________
STRT               .M        884                           : First reference value
STOP               .M        1232                          : Last reference value
STEP               .M        0.2                           : Step increment
NULL               .         -9999                         : Missing value
COMP               .                                       : Company
WELL               .         3894                          : Well name
FLD                .         Узень                         : Field
LOC                .                                       : Location
CNTY               .                                       : County
STAT               .                                       : State
CTRY               .                                       : Country
SRVC               .                                       : Service Company
DATE               .                                       : Date
UWI                .                                       : Unique Well ID
123                .         1                             : 
4_кв_для_Заказчика .         1                             : 
Block              .         6а                            : 
Category           .         Нефтяная                      : 
Condition          .         В ожидании ликвидации         : 
Date               .         16.05.1989                    : 
EREF               .m        86.6                          : 100.8
Gor                .         15                            : 
Gorizont           .         15                            : 14
Interpretator      .         Кайсанов Е.К                  : 
KUST               .                                       : 
Kupol              .         Основной                      : osnovnoi
Mud                .                                       : 
Mud_density        .                                       : 
Mud_resistivity    .                                       : 
NGDU               .         НГДУ-2                        : 
ORIGINALWELLNAME   .         3894                          : 
Otmetka            .                                       : 
Spud_date          .         1989                          : 1961
Viscosity          .                                       : 
X                  .m        44340.1                       : 46154
Y                  .m        85688.83                      : 85761.93
YEAR               .         2018                          : 
~Parameter Information Block
#_______________________________________________________________________________
#
#PARAMETER_NAME    .UNIT     VALUE                         : DESCRIPTION
#_______________________________________________________________________________
SET                .         LQC_KAZNIPI_Petrel            : 
TLFamily_CALI      .         Caliper                       : 
TLFamily_CILD      .         Conductivity                  : 
TLFamily_COLL      .         Net Reservoir Flag            : 
TLFamily_CSAT      .         Fluid Code                    : 
TLFamily_DEPT      .         Measured Depth                : 
TLFamily_GR        .         Russian Gamma Ray             : 
TLFamily_GZ1       .         Gradient 045                  : 
TLFamily_GZ2       .         Gradient 105                  : 
TLFamily_GZ3       .         Gradient 225                  : 
TLFamily_GZ4       .         Gradient 425                  : 
TLFamily_GZ5       .         Gradient 850                  : 
TLFamily_LLS       .         Lateral Log Resistivity       : 
TLFamily_MINV      .         Micro Gradient Resistivity    : 
TLFamily_MNOR      .         Micro Resistivity             : 
TLFamily_NGLD      .         Neutron Far                   : 
TLFamily_OGZ3      .         Gradient Inverted 225         : 
TLFamily_PHIE      .         Effective Porosity            : 
TLFamily_PHIEN     .         Effective Porosity            : 
TLFamily_PHIT      .         Porosity                      : 
TLFamily_PRMB      .         Permeability                  : 
TLFamily_PRMB_DGR  .         Permeability                  : 
TLFamily_RT        .         Formation Resistivity         : 
TLFamily_SOIL_ARCHIE .         Oil Saturation                : 
TLFamily_SOIL_DW   .         Oil Saturation                : 
TLFamily_SP        .         Spontaneous Potential         : 
TLFamily_VSH_FIN   .         Shale Volume                  : 
TLFamily_VSH_GR    .         Shale Volume                  : 
TLFamily_VSH_SP    .         Shale Volume                  : 
~Curve Information
#_______________________________________________________________________________
#
#LOGNAME           .UNIT     LOG_ID                        : DESCRIPTION
#_______________________________________________________________________________
DEPT               .M                                      : Колонка глубины 
CALI               .м                                      : Каверномер 
CILD               .мСм/м                                  : Индукционный каротаж зондом 6Ф1 
COLL               .unitless                               :  
CSAT               .unitless                               :  
GR                 .uR/h                                   : Гамма каротаж 
GZ1                .Ohmm                                   : 2 
GZ2                .Ohmm                                   : 3 
GZ3                .Ohmm                                   : 3 
GZ4                .Ohmm                                   : 4 
GZ5                .Ohmm                                   : 5 
LLS                .Ohmm                                   : Боковой каротаж 
MINV               .Ohmm                                   : Микро-градиент зонд 
MNOR               .Ohmm                                   : Микро-потенциал зонд 
NGLD               .у.е.                                   : Показания зонда НГК-60 аппаратуры ДРСТ-3-90 
OGZ3               .Ohmm                                   : 2 
PHIE               .v/v                                    : Описание 
PHIEN              .v/v                                    :  
PHIT               .v/v                                    : Описание 
PRMB               .mD                                     :  
PRMB_DGR           .mD                                     :  
RT                 .ohmm                                   : УЭС пласта 
SOIL_ARCHIE        .v/v                                    :  
SOIL_DW            .v/v                                    :  
SP                 .мВ                                     : Потенциал самополяризации 
VSH_FIN            .v/v                                    : Описание 
VSH_GR             .v/v                                    : Shale volume 
VSH_SP             .v/v                                    : Shale Volume 
~Ascii
# ...
1133.6     0.203      220.7      1          2          9.095432   3.3204     5.2691     3.5573     3.1129     1.3443     3.263      2.481      3.031      1.116898   3.1348     0.1618252  0.1618252  0.2674637  2.783262   3.93487    4.11       0.4372131  0.5803617  52.845     0.3201164  0.370838   0.2693948 
1133.8     0.204      234.9      -9999      -9999      9.349107   3.217      5.1523     3.6436     3.1229     1.3443     3.263      2.469      3.011      1.11776    2.8152     0.1414021  0.1414021  0.266937   1.164844   2.57693    3.861      0.3482062  0.5427996  54.547     0.380409   0.4408057  0.3200123 
1134       0.204      249        -9999      -9999      9.56122    3.4389     5.3047     3.8212     2.9124     1.5515     3.485      2.34       2.76       1.117359   2.6022     0.1112223  0.1112223  0.2671821  0.3215623  1.808809   3.643      0.1744115  0.4848306  57.57      0.4726054  0.5093451  0.4358658 
1134.2     0.204      251.6      -9999      -9999      9.689326   3.6557     5.2132     3.9328     2.6417     1.9608     3.289      2.113      2.581      1.112088   2.2877     0.09984186 0.09984186 0.2704031  0.1979117  1.460695   3.605      0.08855545 0.4656309  58.454     0.5168521  0.5558007  0.4779035 
1134.4     0.205      247.2      -9999      -9999      9.742803   2.9599     4.573      3.7831     2.4261     2.1832     2.845      2.555      2.874      1.102325   2.2116     0.09564233 0.09564233 0.2763694  0.1654573  1.336002   3.669      0.06157818 0.4697943  59.247     0.5476577  0.576425   0.5188903 
1134.6     0.209      250.3      -9999      -9999      9.752481   2.6422     4.2377     3.6334     2.6617     2.3398     2.461      2.491      2.395      1.092512   2.1355     0.08757793 0.08757793 0.282366   0.1173043  1.314599   3.624      0          0.4578699  60.695     0.5902668  0.5802389  0.6002947 
1134.8     0.211      267.4      -9999      -9999      9.730721   2.7582     4.3393     3.7806     2.6818     2.5824     2.959      1.865      1.886      1.086682   2.2319     0.08747874 0.08747874 0.2859287  0.1168091  1.36321    3.392      0          0.4440715  61.178     0.6013634  0.5716994  0.6310274 
1135       0.21       282.4      -9999      -9999      9.671637   2.3598     3.7702     3.9988     2.4913     3.0625     2.465      1.928      1.565      1.084547   2.2319     0.09065014 0.09065014 0.2872334  0.1337268  1.504452   3.212      0          0.4372213  61.33      0.5957068  0.5491419  0.6422716 
1135.2     0.212      295.6      -9999      -9999      9.578114   2.2439     3.8515     3.6943     2.4788     3.4364     2.282      2.678      2.795      1.083163   2.2065     0.09519593 0.09519593 0.2880789  0.1623371  1.758534   3.068      0          0.434792   61.483     0.5844939  0.5152416  0.6537462 
1135.4     0.211      309.1      -9999      -9999      9.472461   2.8792     3.9328     3.5396     2.4662     3.1737     2.502      1.837      2.606      1.081272   2.2116     0.1052055  0.1052055  0.2892349  0.2487822  2.097553   2.934      0.04079714 0.443284   61.165     0.5576648  0.4794551  0.6358745 
1135.6     0.21       326.2      -9999      -9999      9.379952   2.2842     3.9277     3.3848     2.3559     2.9412     2.206      1.763      2.278      1.079832   2.1203     0.1137988  0.1137988  0.2901149  0.3589127  2.447654   2.781      0.0814006  0.4450898  60.847     0.5342911  0.4501679  0.6184142 
1135.8     0.21       329        -9999      -9999      9.317451   2.1632     3.3586     3.1767     2.2407     3.0322     2.039      2.456      2.261      1.078397   1.9022     0.1245618  0.1245618  0.2909914  0.5679965  2.716702   2.757      0.1474691  0.4618286  60.111     0.5043321  0.4314002  0.5772639 
1136       0.212      323.1      -9999      -9999      9.300324   1.8354     2.8302     3.1209     2.1504     3.017      1.966      2.318      2.022      1.074188   1.9428     0.1293281  0.1293281  0.2935636  0.6960292  2.79546    2.807      0.1818292  0.4769307  59.933     0.4976836  0.4263953  0.5689719 
1136.2     0.213      327.2      -9999      -9999      9.34029    2.1531     3.1046     3.3235     2.3309     2.643      2.553      1.797      1.784      1.066154   2.1609     0.1320122  0.1320122  0.2984736  0.7804477  2.615121   2.772      0.191591   0.4830605  59.933     0.5044285  0.4381656  0.5706914 
1136.4     0.212      343.9      -9999      -9999      9.433542   2.4758     2.9877     3.172      2.3509     2.5268     2.637      2.274      2.78       1.057634   2.0594     0.1321912  0.1321912  0.3036796  0.7864293  2.238286   2.637      0.1734034  0.4759793  59.933     0.519662   0.4669086  0.5724154 
1136.6     0.211      362.5      -9999      -9999      9.553364   2.3497     2.7184     2.7376     2.2356     2.8351     2.229      1.99       2.284      1.05389    1.9123     0.1233072  0.1233072  0.305968   0.5384015  1.832677   2.502      0.09984228 0.4506953  60.39      0.5535178  0.5066259  0.6004096 
1136.8     0.21       371.1      -9999      -9999      9.661867   2.0875     2.3526     2.6012     2.0903     2.6405     2.01       1.839      1.789      1.057458   1.8362     0.106796   0.106796   0.3037874  0.2662435  1.529178   2.444      0          0.4122351  61.152     0.5969436  0.5454988  0.6483884 
1137       0.213      372.4      -9999      -9999      9.731719   1.6438     2.3322     2.5507     2.2757     2.4459     1.879      2.019      1.75       1.067015   1.9529     0.09170775 0.09170775 0.297947   0.1398969  1.360941   2.436      0          0.3717288  61.584     0.6249673  0.5720884  0.6778462 
1137.2     0.214      364.8      -9999      -9999      9.762187   1.79       2.7032     2.7528     2.3359     2.4611     2.036      2.293      1.533      1.079151   2.1609     0.0875798  0.0875798  0.2905307  0.1173136  1.293481   2.486      0          0.3577371  61.051     0.6150028  0.5840886  0.645917  
1137.4     0.213      379.2      -9999      -9999      9.773897   1.8556     2.8251     2.576      2.2306     2.4611     2.055      2.474      2.046      1.089852   2.1101     0.08516    0.08516    0.2839912  0.1058103  1.268453   2.392      0          0.3289881  60.517     0.6025187  0.5887675  0.6162698 
1137.6     0.213      394.2      -9999      -9999      9.789302   1.8102     2.4745     2.3436     2.1805     2.4611     1.78       3.515      2.874      1.095361   2.0848     0.07825601 0.07825601 0.2806249  0.07882232 1.236264   2.301      0          0.2909057  60.72      0.613239   0.5949796  0.6314985 
1137.8     0.213      398        -9999      -9999      9.82109    2.022      2.1341     2.2376     2.2206     2.355      1.67       3.015      2.172      1.094017   2.029      0.06737623 0.06737623 0.281446   0.04955976 1.1724     2.279      0          0.2544721  61.584     0.6486964  0.6080065  0.6893863 
1138       0.213      373.9      -9999      -9999      9.87171    1.6489     2.0579     2.5255     2.1855     2.1781     2.198      2.514      2.135      1.087452   1.9225     0.06622359 0.06622359 0.2854582  0.04718236 1.077441   2.426      0          0.2807062  61.686     0.6643473  0.6293421  0.6993524 
1138.2     0.216      384        -9999      -9999      9.929171   2.0069     2.3272     2.4068     2.1078     2.072      2.341      2.48       1.808      1.078847   1.7348     0.08011521 0.08011521 0.2907169  0.08532694 0.9789352  2.362      0          0.3218177  60.416     0.6381868  0.6544698  0.6219038 
1138.4     0.219      397.5      -9999      -9999      9.972501   1.8808     2.2154     2.2881     2.0301     2.1983     2.098      2.422      1.685      1.069849   1.7409     0.08189205 0.08189205 0.296215   0.09204443 0.9106559  2.282      0          0.3235402  60.416     0.6494634  0.6740795  0.6248474 
1138.6     0.221      402.1      -9999      -9999      9.99449    1.8556     2.19       2.2376     2.0051     2.1983     1.865      2.091      1.865      1.060111   1.9215     0.08567678 0.08567678 0.3021662  0.1081683  0.8778492  2.256      0          0.3385159  60.416     0.6560286  0.6842545  0.6278027 
