~Version
 VERS              .         2.0                           : CWLS LOG ASCII STANDARD - VERSION 2.0
 WRAP              .         NO                            : ONE LINE PER DEPTH STEP
 DLM               .         SPACE                         : DELIMITING CHARACTER(SPACE TAB OR COMMA)
~Well Information
#_______________________________________________________________________________
#
#PARAMETER_NAME    .UNIT     VALUE                         : DESCRIPTION
#_______________________________________________________________________________
STRT               .M        884                           : First reference value
STOP               .M        1232                          : Last reference value
STEP               .M        0.2                           : Step increment
NULL               .         -9999                         : Missing value
COMP               .                                       : Company
WELL               .         3894                          : Well name
FLD                .         Узень                         : Field
LOC                .                                       : Location
CNTY               .                                       : County
STAT               .                                       : State
CTRY               .                                       : Country
SRVC               .                                       : Service Company
DATE               .                                       : Date
UWI                .                                       : Unique Well ID
123                .         1                             : 
4_кв_для_Заказчика .         1                             : 
Block              .         6а                            : 
Category           .         Нефтяная                      : 
Condition          .         В ожидании ликвидации         : 
Date               .         16.05.1989                    : 
EREF               .m        86.6                          : 100.8
Gor                .         15                            : 
Gorizont           .         15                            : 14
Interpretator      .         Кайсанов Е.К                  : 
KUST               .                                       : 
Kupol              .         Основной                      : osnovnoi
Mud                .                                       : 
Mud_density        .                                       : 
Mud_resistivity    .                                       : 
NGDU               .         НГДУ-2                        : 
ORIGINALWELLNAME   .         3894                          : 
Otmetka            .                                       : 
Spud_date          .         1989                          : 1961
Viscosity          .                                       : 
X                  .m        44340.1                       : 46154
Y                  .m        85688.83                      : 85761.93
YEAR               .         2018                          : 
~Parameter Information Block
#_______________________________________________________________________________
#
#PARAMETER_NAME    .UNIT     VALUE                         : DESCRIPTION
#_______________________________________________________________________________
SET                .         LQC_KAZNIPI_Petrel            : 
TLFamily_CALI      .         Caliper                       : 
TLFamily_CILD      .         Conductivity                  : 
TLFamily_COLL      .         Net Reservoir Flag            : 
TLFamily_CSAT      .         Fluid Code                    : 
TLFamily_DEPT      .         Measured Depth                : 
TLFamily_GR        .         Russian Gamma Ray             : 
TLFamily_GZ1       .         Gradient 045                  : 
TLFamily_GZ2       .         Gradient 105                  : 
TLFamily_GZ3       .         Gradient 225                  : 
TLFamily_GZ4       .         Gradient 425                  : 
TLFamily_GZ5       .         Gradient 850                  : 
TLFamily_LLS       .         Lateral Log Resistivity       : 
TLFamily_MINV      .         Micro Gradient Resistivity    : 
TLFamily_MNOR      .         Micro Resistivity             : 
TLFamily_NGLD      .         Neutron Far                   : 
TLFamily_OGZ3      .         Gradient Inverted 225         : 
TLFamily_PHIE      .         Effective Porosity            : 
TLFamily_PHIEN     .         Effective Porosity            : 
TLFamily_PHIT      .         Porosity                      : 
TLFamily_PRMB      .         Permeability                  : 
TLFamily_PRMB_DGR  .         Permeability                  : 
TLFamily_RT        .         Formation Resistivity         : 
TLFamily_SOIL_ARCHIE .         Oil Saturation                : 
TLFamily_SOIL_DW   .         Oil Saturation                : 
TLFamily_SP        .         Spontaneous Potential         : 
TLFamily_VSH_FIN   .         Shale Volume                  : 
TLFamily_VSH_GR    .         Shale Volume                  : 
TLFamily_VSH_SP    .         Shale Volume                  : 
~Curve Information
#_______________________________________________________________________________
#
#LOGNAME           .UNIT     LOG_ID                        : DESCRIPTION
#_______________________________________________________________________________
DEPT               .M                                      : Колонка глубины 
CALI               .м                                      : Каверномер 
CILD               .мСм/м                                  : Индукционный каротаж зондом 6Ф1 
COLL               .unitless                               :  
CSAT               .unitless                               :  
GR                 .uR/h                                   : Гамма каротаж 
GZ1                .Ohmm                                   : 2 
GZ2                .Ohmm                                   : 3 
GZ3                .Ohmm                                   : 3 
GZ4                .Ohmm                                   : 4 
GZ5                .Ohmm                                   : 5 
LLS                .Ohmm                                   : Боковой каротаж 
MINV               .Ohmm                                   : Микро-градиент зонд 
MNOR               .Ohmm                                   : Микро-потенциал зонд 
NGLD               .у.е.                                   : Показания зонда НГК-60 аппаратуры ДРСТ-3-90 
OGZ3               .Ohmm                                   : 2 
PHIE               .v/v                                    : Описание 
PHIEN              .v/v                                    :  
PHIT               .v/v                                    : Описание 
PRMB               .mD                                     :  
PRMB_DGR           .mD                                     :  
RT                 .ohmm                                   : УЭС пласта 
SOIL_ARCHIE        .v/v                                    :  
SOIL_DW            .v/v                                    :  
SP                 .мВ                                     : Потенциал самополяризации 
VSH_FIN            .v/v                                    : Описание 
VSH_GR             .v/v                                    : Shale volume 
VSH_SP             .v/v                                    : Shale Volume 
~Ascii
# ...
920.4      0.294      210.6      -9999      -9999      8.716166   -9999      -9999      5.1469     -9999      -9999      3.266      1.278      1.351      1.000146   3.6998     0.09724259 0.09724259 0.3388107  0.1771441  0.8186744  4.307      0.1420772  0.5747335  56.515     0.7320246  0.7040341  0.7600151 
920.6      0.298      220.9      -9999      -9999      8.914351   -9999      -9999      4.7479     -9999      -9999      3.041      1.263      1.306      1.001087   3.6468     0.08141144 0.08141144 0.3382358  0.09017691 0.6258951  4.106      0          0.538599   56.667     0.7782558  0.7856143  0.7708972 
920.8      0.281      196.2      -9999      -9999      9.09699    -9999      -9999      4.515501   -9999      -9999      3.195      0.989      0.987      1.00863    3.6114     0.08203146 0.08203146 0.3336262  0.09259333 0.4886958  4.623      0.03758721 0.5620481  56.011     0.7624083  0.8        0.7248165 
921        0.244      233        -9999      -9999      9.234221   -9999      -9999      4.9752     -9999      -9999      3.776      1.904      0.85       1.020097   4.0155     0.07819895 0.07819895 0.3266186  0.07863075 0.405782   3.893      0          0.508489   55.727     0.7527867  0.8        0.7055734 
921.2      0.257      243.6      -9999      -9999      9.29029    -9999      -9999      5.2429     -9999      -9999      2.648      3.395      1.328      1.030489   4.1468     0.07316911 0.07316911 0.320268   0.0634494  0.3760995  3.723      0          0.4800676  55.607     0.7487844  0.8        0.6975688 
921.4      0.307      249.4      -9999      -9999      9.244593   -9999      -9999      4.6418     -9999      -9999      2.662      1.698      1.54       1.035365   3.9296     0.06795914 0.06795914 0.3172883  0.05080732 0.4001204  3.637      0          0.4587224  55.809     0.7555429  0.8        0.7110859 
921.6      0.274      249.4      -9999      -9999      9.122973   -9999      -9999      4.4246     -9999      -9999      2.896      0.822      1.293      1.033898   3.8892     0.06941079 0.06941079 0.3181846  0.0540523  0.4717914  3.637      0          0.4631536  55.759     0.7538602  0.8        0.7077203 
921.8      0.241      249.9      -9999      -9999      8.974971   -9999      -9999      4.6822     -9999      -9999      2.892      0.798      0.905      1.02908    4.1594     0.07291939 0.07291939 0.3211291  0.06277722 0.5765448  3.63       0          0.4738953  55.708     0.7521505  0.8        0.7043009 
922        0.251      250.4      -9999      -9999      8.828273   -9999      -9999      4.4044     -9999      -9999      2.763      1.368      0.972      1.025625   4.4297     0.08550404 0.08550404 0.3232405  0.1073743  0.7033128  3.622      0          0.5009239  55.519     0.7204135  0.7490804  0.6917466 
922.2      0.248      250.4      -9999      -9999      8.684497   -9999      -9999      4.0812     -9999      -9999      3.373      1.168      1.321      1.027488   4.9701     0.09585682 0.09585682 0.3221022  0.1669779  0.8545642  3.622      0.05772367 0.5180016  55.33      0.6855919  0.6918071  0.6793767 
922.4      0.246      250.4      -9999      -9999      8.539536   -9999      -9999      4.0508     -9999      -9999      3.608      0.791      1.363      1.035964   5.5207     0.09947386 0.09947386 0.3169225  0.1948298  1.040012   3.622      0.08763593 0.518787   55.33      0.6589354  0.638494   0.6793767 
922.6      0.24       235.3      -9999      -9999      8.387582   -9999      -9999      4.182199   -9999      -9999      3.348      0.893      1.206      1.049473   6.0712     0.08758873 0.08758873 0.3086668  0.1173583  1.277751   3.855      0.01009859 0.5047536  56.414     0.6699336  0.5870141  0.752853  
922.8      0.253      237.3      -9999      -9999      8.204637   -9999      -9999      4.2024     -9999      -9999      3.157      0.673      1.585      1.065194   7.1824     0.08343419 0.08343419 0.2990601  0.09830183 1.637153   3.822      0          0.4837956  56.742     0.6534118  0.530511   0.7763126 
923        0.241      239.3      -9999      -9999      7.95674    -9999      -9999      4.0054     -9999      -9999      3.368      0.898      1.627      1.081223   7.5057     0.09278692 0.09278692 0.2892645  0.1464863  2.290597   3.79       0.05103512 0.4883776  56.061     0.5953865  0.4625249  0.7282481 
923.2      0.241      226        -9999      -9999      7.64391    -9999      -9999      3.8614     -9999      -9999      3.55       1.361      1.757      1.097205   7.5916     0.1007572  0.1007572  0.2794981  0.2057908  3.499568   4.013      0.1401404  0.5058312  55.557     0.5416392  0.3890226  0.6942558 
923.4      0.246      194.7      -9999      -9999      7.32207    -9999      -9999      3.7175     -9999      -9999      3.338      0.893      2.101      1.113922   7.525899   0.09766459 0.09766459 0.2692822  0.1803613  5.412294   4.659      0.1762413  0.5249872  55.86      0.5200533  0.3255742  0.7145324 
923.6      0.248      186.2      -9999      -9999      7.052969   -9999      -9999      3.6417     -9999      -9999      5.055      0.908      1.59       1.133141   8.127      0.08993698 0.08993698 0.2575376  0.1297206  7.793228   4.871      0.1332169  0.5077515  56.162     0.5078806  0.2805409  0.7352203 
923.8      0.224      185.1      -9999      -9999      6.840806   -9999      -9999      3.9599     -9999      -9999      4.844      0.979      1.565      1.156626   7.7633     0.07955237 0.07955237 0.243186   0.08330305 10.38848   4.9        0.03814513 0.46836    56.263     0.4958595  0.2494722  0.7422469 
924        0.229      188.9      -9999      -9999      6.642357   -9999      -9999      4.2781     -9999      -9999      3.812      3.536      2.798      1.185565   6.0914     0.07667048 0.07667048 0.2255012  0.07366841 13.59306   4.802      0          0.4284979  55.38      0.4510021  0.2235337  0.6784705 
924.2      0.248      192.2      -9999      -9999      6.419481   -9999      -9999      4.2478     -9999      -9999      3.134      4.353      4.031      1.222493   5.7076     0.06813759 0.06813759 0.2029347  0.05119548 18.38462   4.719      0          0.3565994  54.498     0.4084761  0.1976037  0.6193485 
924.4      0.266      195.5      -9999      -9999      6.158815   -9999      -9999      4.0635     -9999      -9999      3.002      3.431      4.189      1.271363   5.5409     0.05665759 0.05665759 0.1730698  0.03137575 26.17145   4.64       0          0.2325262  53.06      0.3527644  0.1710676  0.5344612 
924.6      0.25       187.2      6          6          5.859206   -9999      -9999      3.8791     -9999      -9999      2.837      3.203      3.271      1.333122   6.096499   0.03395274 0.03395274 0.1353294  0.01191366 39.27487   4.845      0          0          51.825     0.3072019  0.1449386  0.4694651 
924.8      0.234      172.8      6          6          5.524265   -9999      -9999      4.0357     -9999      -9999      4.553      3.671      2.353      1.402415   8.1674     0.01       0.004128111 0.09298403 0.004289259 61.82866   5.249      0          0          50.74      0.2692603  0.1204236  0.4180971 
925        0.218      134.3      6          6          5.172738   -9999      -9999      5.5598     -9999      -9999      8.47       4.139      2.398      1.470999   10.1625    0.01       0          0.05107222 0.004289259 99.54626   6.754      0          0          49.706     0.2366085  0.09914116 0.3740759 
925.2      0.214      110.6      6          6          4.839293   -9999      -9999      7.0839     -9999      -9999      15.756     4.766      3.405      1.530303   8.0562     0.01       0          0.01483191 0.004289259 156.3941   8.201      0          0          48.748     0.2098732  0.08244055 0.3373059 
925.4      0.214      94.9       6          6          4.553717   -9999      -9999      8.6081     -9999      -9999      29.31      4.866      4.413      1.568106   6.147      0.01       0          0.01       0.004289259 230.2767   9.558      0          0          47.815     0.1877581  0.07039288 0.3051234 
