~Version
 VERS              .         2.0                           : CWLS LOG ASCII STANDARD - VERSION 2.0
 WRAP              .         NO                            : ONE LINE PER DEPTH STEP
 DLM               .         SPACE                         : DELIMITING CHARACTER(SPACE TAB OR COMMA)
~Well Information
#_______________________________________________________________________________
#
#PARAMETER_NAME    .UNIT     VALUE                         : DESCRIPTION
#_______________________________________________________________________________
STRT               .M        884                           : First reference value
STOP               .M        1232                          : Last reference value
STEP               .M        0.2                           : Step increment
NULL               .         -9999                         : Missing value
COMP               .                                       : Company
WELL               .         3894                          : Well name
FLD                .         Узень                         : Field
LOC                .                                       : Location
CNTY               .                                       : County
STAT               .                                       : State
CTRY               .                                       : Country
SRVC               .                                       : Service Company
DATE               .                                       : Date
UWI                .                                       : Unique Well ID
123                .         1                             : 
4_кв_для_Заказчика .         1                             : 
Block              .         6а                            : 
Category           .         Нефтяная                      : 
Condition          .         В ожидании ликвидации         : 
Date               .         16.05.1989                    : 
EREF               .m        86.6                          : 100.8
Gor                .         15                            : 
Gorizont           .         15                            : 14
Interpretator      .         Кайсанов Е.К                  : 
KUST               .                                       : 
Kupol              .         Основной                      : osnovnoi
Mud                .                                       : 
Mud_density        .                                       : 
Mud_resistivity    .                                       : 
NGDU               .         НГДУ-2                        : 
ORIGINALWELLNAME   .         3894                          : 
Otmetka            .                                       : 
Spud_date          .         1989                          : 1961
Viscosity          .                                       : 
X                  .m        44340.1                       : 46154
Y                  .m        85688.83                      : 85761.93
YEAR               .         2018                          : 
~Parameter Information Block
#_______________________________________________________________________________
#
#PARAMETER_NAME    .UNIT     VALUE                         : DESCRIPTION
#_______________________________________________________________________________
SET                .         LQC_KAZNIPI_Petrel            : 
TLFamily_CALI      .         Caliper                       : 
TLFamily_CILD      .         Conductivity                  : 
TLFamily_COLL      .         Net Reservoir Flag            : 
TLFamily_CSAT      .         Fluid Code                    : 
TLFamily_DEPT      .         Measured Depth                : 
TLFamily_GR        .         Russian Gamma Ray             : 
TLFamily_GZ1       .         Gradient 045                  : 
TLFamily_GZ2       .         Gradient 105                  : 
TLFamily_GZ3       .         Gradient 225                  : 
TLFamily_GZ4       .         Gradient 425                  : 
TLFamily_GZ5       .         Gradient 850                  : 
TLFamily_LLS       .         Lateral Log Resistivity       : 
TLFamily_MINV      .         Micro Gradient Resistivity    : 
TLFamily_MNOR      .         Micro Resistivity             : 
TLFamily_NGLD      .         Neutron Far                   : 
TLFamily_OGZ3      .         Gradient Inverted 225         : 
TLFamily_PHIE      .         Effective Porosity            : 
TLFamily_PHIEN     .         Effective Porosity            : 
TLFamily_PHIT      .         Porosity                      : 
TLFamily_PRMB      .         Permeability                  : 
TLFamily_PRMB_DGR  .         Permeability                  : 
TLFamily_RT        .         Formation Resistivity         : 
TLFamily_SOIL_ARCHIE .         Oil Saturation                : 
TLFamily_SOIL_DW   .         Oil Saturation                : 
TLFamily_SP        .         Spontaneous Potential         : 
TLFamily_VSH_FIN   .         Shale Volume                  : 
TLFamily_VSH_GR    .         Shale Volume                  : 
TLFamily_VSH_SP    .         Shale Volume                  : 
~Curve Information
#_______________________________________________________________________________
#
#LOGNAME           .UNIT     LOG_ID                        : DESCRIPTION
#_______________________________________________________________________________
DEPT               .M                                      : Колонка глубины 
CALI               .м                                      : Каверномер 
CILD               .мСм/м                                  : Индукционный каротаж зондом 6Ф1 
COLL               .unitless                               :  
CSAT               .unitless                               :  
GR                 .uR/h                                   : Гамма каротаж 
GZ1                .Ohmm                                   : 2 
GZ2                .Ohmm                                   : 3 
GZ3                .Ohmm                                   : 3 
GZ4                .Ohmm                                   : 4 
GZ5                .Ohmm                                   : 5 
LLS                .Ohmm                                   : Боковой каротаж 
MINV               .Ohmm                                   : Микро-градиент зонд 
MNOR               .Ohmm                                   : Микро-потенциал зонд 
NGLD               .у.е.                                   : Показания зонда НГК-60 аппаратуры ДРСТ-3-90 
OGZ3               .Ohmm                                   : 2 
PHIE               .v/v                                    : Описание 
PHIEN              .v/v                                    :  
PHIT               .v/v                                    : Описание 
PRMB               .mD                                     :  
PRMB_DGR           .mD                                     :  
RT                 .ohmm                                   : УЭС пласта 
SOIL_ARCHIE        .v/v                                    :  
SOIL_DW            .v/v                                    :  
SP                 .мВ                                     : Потенциал самополяризации 
VSH_FIN            .v/v                                    : Описание 
VSH_GR             .v/v                                    : Shale volume 
VSH_SP             .v/v                                    : Shale Volume 
~Ascii
# ...
1175.2     0.255      467.8      -9999      -9999      9.455214   1.4018     1.9359     1.8688     1.4236     0.9804     1.722      2.095      1.247      0.9789715  1.9465     0.1830027  0.1830027  0.3517505  6.867714   2.158795   1.939      0.2806686  0.5069597  53.183     0.511357   0.4738539  0.5488601 
1175.4     0.258      462.5      -9999      -9999      9.526586   1.7648     1.8394     1.8133     1.6742     0.758      1.755      2.25       1.21       0.9909638  2.1372     0.1707637  0.1707637  0.344422   4.074889   1.916421   1.961      0.2400022  0.4899119  53.284     0.5262374  0.4974663  0.5550085 
1175.6     0.255      461.6      -9999      -9999      9.56757    1.5732     1.8343     1.8335     2.1454     0.6014     1.792      2.189      1.191      1.000583   2.3379     0.1467843  0.1467843  0.3385439  1.465412   1.789746   1.965      0.1337716  0.454666   54.902     0.5810897  0.5115534  0.6506259 
1175.8     0.256      460.7      -9999      -9999      9.599886   1.6337     1.8953     1.9699     2.3158     0.5761     1.834      1.92       1.125      1.007918   2.7442     0.0725679  0.0725679  0.3340614  0.06184316 1.000525   1.969      0          0.311244   55.837     0.7924047  0.648666   0.7924047 
1176       0.26       460.7      -9999      -9999      9.621758   1.6287     2.0121     1.788      2.1554     0.8692     1.845      1.899      1.051      1.01442    3.1707     0.06608798 0.06608798 0.330088   0.04691026 0.962508   1.969      0          0.2859987  56.494     0.8        0.659008   0.8       
1176.2     0.245      459.7      -9999      -9999      9.624301   1.5783     2.0528     1.7375     2.0051     0.8692     1.806      1.855      1.201      1.020915   3.4315     0.06211889 0.06211889 0.3261189  0.03960506 0.9581817  1.973      0          0.2676543  56.974     0.8        0.6602214  0.8       
1176.4     0.228      458.7      -9999      -9999      9.60686    1.664      2.1442     1.8032     1.8547     0.8692     1.768      1.8        1.308      1.026559   3.6222     0.05866994 0.05866994 0.32267    0.03418753 0.9882416  1.977      0          0.2508624  57.177     0.8        0.651946   0.8       
1176.6     0.221      454.6      -9999      -9999      9.575548   1.7497     2.1646     1.6466     1.579      0.6923     1.732      1.991      1.314      1.030169   3.7626     0.05646357 0.05646357 0.3204636  0.03111719 1.044596   1.995      0          0.2425669  56.924     0.8        0.6373485  0.8       
1176.8     0.218      446.2      -9999      -9999      9.5328     1.669      1.9257     1.5102     1.3584     0.4953     1.821      2.816      1.237      1.032266   3.9784     0.05518252 0.05518252 0.3191825  0.02946268 1.126756   2.033      0          0.2427647  56.393     0.8        0.6179456  0.8       
1177       0.218      436.1      -9999      -9999      9.467496   1.7951     1.9003     1.485      1.2431     0.5711     1.806      2.277      1.591      1.035036   4.1113     0.08370864 0.08370864 0.3174896  0.09945922 1.264915   2.08       0          0.3361183  54.447     0.7084271  0.5894394  0.7084271 
1177.2     0.217      416.8      -9999      -9999      9.364042   1.548      1.9512     1.6112     1.2331     0.7025     1.768      2.328      1.715      1.04146    4.2443     0.08729152 0.08729152 0.313564   0.1158801  1.519277   2.176      0          0.354323   54.067     0.6856741  0.5469475  0.6856741 
1177.4     0.217      401.3      -9999      -9999      9.21809    1.5934     1.8902     1.5607     1.2231     0.6216     1.758      1.917      1.597      1.054996   4.3045     0.07875927 0.07875927 0.3052922  0.08053242 1.967445   2.26       0          0.3330129  54.042     0.6864633  0.4921573  0.6864633 
1177.6     0.215      387.6      -9999      -9999      9.036783   1.5808     1.7784     1.4547     1.1429     0.5963     1.763      1.808      1.48       1.078768   4.4299     0.0829711  0.0829711  0.2907651  0.09637939 2.712454   2.34       0          0.3339934  53.107     0.6296787  0.4316759  0.6296787 
1177.8     0.215      371.1      -9999      -9999      8.830227   1.5682     1.9156     1.384      0.9825     0.5963     1.877      2.196      1.967      1.112992   4.515201   0.07947501 0.07947501 0.2698503  0.08302866 3.910605   2.444      0          0.3051592  52.172     0.5768949  0.3717758  0.5768949 
1178       0.215      299        -9999      -9999      8.610446   1.5127     1.4989     1.3688     1.2281     0.7378     2.119      2.705      2.327      1.153865   4.8112     0.08374541 0.08374541 0.2448733  0.09961532 5.771625   3.034      0          0.3470914  50.453     0.4882664  0.3171398  0.4882664 
1178.2     0.215      268.8      -9999      -9999      8.388633   1.4875     1.6514     1.3435     1.6792     0.9905     2.41       2.612      2.761      1.19573    6.5972     0.07613693 0.07613693 0.2192894  0.07201098 8.548996   3.374      0          0.3122901  49.24      0.4337954  0.2701358  0.4337954 
1178.4     0.216      222.1      6          6          8.16654    2.0472     1.6209     2.0557     2.1304     1.4302     2.563      1.917      2.669      1.233602   7.4651     0.06809129 0.06809129 0.1961458  0.05109447 12.66914   4.084      0          0.3011297  48.102     0.3880439  0.2300518  0.3880439 
1178.6     0.212      167.2      6          6          7.935795   3.1656     1.5853     2.6315     3.0076     2.8502     3.9        2.038      2.578      1.264609   7.731      0.06973107 0.06973107 0.1771974  0.05479572 19.0649    5.425      0          0.3583165  46.333     0.3256555  0.1946936  0.3256555 
1178.8     0.209      144.6      6          6          7.693825   4.284      2.9623     3.1215     3.3535     3.2697     7.578      2.296      3.308      1.287987   6.9082     0.06666201 0.06666201 0.1629113  0.04807288 29.26554   6.273      0.01474072 0.3601693  45.195     0.2916645  0.1634376  0.2916645 
1179       0.206      139.6      6          6          7.463582   5.4024     4.749199   5.4298     4.2407     4.0934     19.371     2.434      4.038      1.302739   6.2523     0.05912523 0.05912523 0.1538965  0.03485787 44.00056   6.497      0          0.3189377  45.002     0.2871856  0.1383679  0.2871856 
1179.2     0.204      131.2      6          6          7.293278   6.5208     6.536      5.6267     4.8372     4.523      14.875     3.393      4.117      1.305324   5.596301   0.05893201 0.05893201 0.1523165  0.03457179 59.49145   6.913      0          0.3346034  44.816     0.2829834  0.1223334  0.2829834 
1179.4     0.215      138.3      6          6          7.225099   7.6392     10.1877    5.7631     5.158      4.760499   10.233     2.683      3.698      1.292337   4.9404     0.06652538 0.06652538 0.1602526  0.04779358 67.12704   6.558      0.03334486 0.3672225  44.816     0.2840219  0.1164477  0.2840219 
1179.6     0.219      157.6      -9999      -9999      7.265836   6.6635     12.0677    5.9702     3.9299     4.9677     7.154      2.54       3.145      1.265888   4.2844     0.04273475 0.04273475 0.1764159  0.01732644 62.45435   5.755      0          0.262145   48.304     0.4050945  0.1199295  0.4050945 
1179.8     0.221      188.6      -9999      -9999      7.391418   5.6878     15.4466    6.0914     3.4637     5.1243     5.113      2.964      3.012      1.233379   3.6284     0.04109275 0.04109275 0.1962818  0.01615457 49.99946   4.809      0          0.2416422  49.745     0.4702699  0.1313318  0.4702699 
1180       0.219      225.1      -9999      -9999      7.572977   4.7121     16.2088    5.7732     2.757      3.8306     3.649      3.388      2.325      1.201241   2.9725     0.04185842 0.04185842 0.2159216  0.01669082 36.25035   4.029      0          0.2298303  50.857     0.5274642  0.1497597  0.5274642 
1180.2     0.217      242.9      -9999      -9999      7.791122   3.7364     13.2363    5.253      2.2306     3.5628     2.894      2.977      2.117      1.17138    2.3165     0.0495902  0.0495902  0.2341699  0.02321074 24.63292   3.734      0          0.2810638  51.413     0.5593325  0.1753524  0.5593325 
