~Version
 VERS              .         2.0                           : CWLS LOG ASCII STANDARD - VERSION 2.0
 WRAP              .         NO                            : ONE LINE PER DEPTH STEP
 DLM               .         SPACE                         : DELIMITING CHARACTER(SPACE TAB OR COMMA)
~Well Information
#_______________________________________________________________________________
#
#PARAMETER_NAME    .UNIT     VALUE                         : DESCRIPTION
#_______________________________________________________________________________
STRT               .M        884                           : First reference value
STOP               .M        1232                          : Last reference value
STEP               .M        0.2                           : Step increment
NULL               .         -9999                         : Missing value
COMP               .                                       : Company
WELL               .         3894                          : Well name
FLD                .         Узень                         : Field
LOC                .                                       : Location
CNTY               .                                       : County
STAT               .                                       : State
CTRY               .                                       : Country
SRVC               .                                       : Service Company
DATE               .                                       : Date
UWI                .                                       : Unique Well ID
123                .         1                             : 
4_кв_для_Заказчика .         1                             : 
Block              .         6а                            : 
Category           .         Нефтяная                      : 
Condition          .         В ожидании ликвидации         : 
Date               .         16.05.1989                    : 
EREF               .m        86.6                          : 100.8
Gor                .         15                            : 
Gorizont           .         15                            : 14
Interpretator      .         Кайсанов Е.К                  : 
KUST               .                                       : 
Kupol              .         Основной                      : osnovnoi
Mud                .                                       : 
Mud_density        .                                       : 
Mud_resistivity    .                                       : 
NGDU               .         НГДУ-2                        : 
ORIGINALWELLNAME   .         3894                          : 
Otmetka            .                                       : 
Spud_date          .         1989                          : 1961
Viscosity          .                                       : 
X                  .m        44340.1                       : 46154
Y                  .m        85688.83                      : 85761.93
YEAR               .         2018                          : 
~Parameter Information Block
#_______________________________________________________________________________
#
#PARAMETER_NAME    .UNIT     VALUE                         : DESCRIPTION
#_______________________________________________________________________________
SET                .         LQC_KAZNIPI_Petrel            : 
TLFamily_CALI      .         Caliper                       : 
TLFamily_CILD      .         Conductivity                  : 
TLFamily_COLL      .         Net Reservoir Flag            : 
TLFamily_CSAT      .         Fluid Code                    : 
TLFamily_DEPT      .         Measured Depth                : 
TLFamily_GR        .         Russian Gamma Ray             : 
TLFamily_GZ1       .         Gradient 045                  : 
TLFamily_GZ2       .         Gradient 105                  : 
TLFamily_GZ3       .         Gradient 225                  : 
TLFamily_GZ4       .         Gradient 425                  : 
TLFamily_GZ5       .         Gradient 850                  : 
TLFamily_LLS       .         Lateral Log Resistivity       : 
TLFamily_MINV      .         Micro Gradient Resistivity    : 
TLFamily_MNOR      .         Micro Resistivity             : 
TLFamily_NGLD      .         Neutron Far                   : 
TLFamily_OGZ3      .         Gradient Inverted 225         : 
TLFamily_PHIE      .         Effective Porosity            : 
TLFamily_PHIEN     .         Effective Porosity            : 
TLFamily_PHIT      .         Porosity                      : 
TLFamily_PRMB      .         Permeability                  : 
TLFamily_PRMB_DGR  .         Permeability                  : 
TLFamily_RT        .         Formation Resistivity         : 
TLFamily_SOIL_ARCHIE .         Oil Saturation                : 
TLFamily_SOIL_DW   .         Oil Saturation                : 
TLFamily_SP        .         Spontaneous Potential         : 
TLFamily_VSH_FIN   .         Shale Volume                  : 
TLFamily_VSH_GR    .         Shale Volume                  : 
TLFamily_VSH_SP    .         Shale Volume                  : 
~Curve Information
#_______________________________________________________________________________
#
#LOGNAME           .UNIT     LOG_ID                        : DESCRIPTION
#_______________________________________________________________________________
DEPT               .M                                      : Колонка глубины 
CALI               .м                                      : Каверномер 
CILD               .мСм/м                                  : Индукционный каротаж зондом 6Ф1 
COLL               .unitless                               :  
CSAT               .unitless                               :  
GR                 .uR/h                                   : Гамма каротаж 
GZ1                .Ohmm                                   : 2 
GZ2                .Ohmm                                   : 3 
GZ3                .Ohmm                                   : 3 
GZ4                .Ohmm                                   : 4 
GZ5                .Ohmm                                   : 5 
LLS                .Ohmm                                   : Боковой каротаж 
MINV               .Ohmm                                   : Микро-градиент зонд 
MNOR               .Ohmm                                   : Микро-потенциал зонд 
NGLD               .у.е.                                   : Показания зонда НГК-60 аппаратуры ДРСТ-3-90 
OGZ3               .Ohmm                                   : 2 
PHIE               .v/v                                    : Описание 
PHIEN              .v/v                                    :  
PHIT               .v/v                                    : Описание 
PRMB               .mD                                     :  
PRMB_DGR           .mD                                     :  
RT                 .ohmm                                   : УЭС пласта 
SOIL_ARCHIE        .v/v                                    :  
SOIL_DW            .v/v                                    :  
SP                 .мВ                                     : Потенциал самополяризации 
VSH_FIN            .v/v                                    : Описание 
VSH_GR             .v/v                                    : Shale volume 
VSH_SP             .v/v                                    : Shale Volume 
~Ascii
# ...
982.8      0.248      250        -9999      -9999      5.596037   -9999      -9999      3.2284     -9999      -9999      2.71       3.469      2.365      1.037907   2.6856     0.1596542  0.1596542  0.3057349  2.537123   5.370857   3.628      0.3962252  0.5859033  61.946     0.4426687  0.3265976  0.5587397 
983        0.256      285.8      -9999      -9999      5.538019   -9999      -9999      3.1321     -9999      -9999      2.341      3.113      2.118      1.054584   2.6355     0.1508932  0.1508932  0.2955436  1.746087   5.803019   3.174      0.3247442  0.5379969  61.946     0.4383347  0.3164381  0.5602313 
983.2      0.258      298        -9999      -9999      5.514067   -9999      -9999      3.0814     -9999      -9999      2.053      2.757      1.883      1.069152   2.4852     0.1405514  0.1405514  0.286641   1.123342   5.991419   3.044      0.2674346  0.5059668  62.149     0.4426956  0.3123366  0.5730547 
983.4      0.253      304.8      -9999      -9999      5.524322   -9999      -9999      2.9294     -9999      -9999      1.878      3.25       2.415      1.079541   2.5203     0.1278173  0.1278173  0.2802925  0.6525955  5.910019   2.976      0.195782   0.4747764  62.761     0.462046   0.314086   0.6100059 
983.6      0.251      306.1      -9999      -9999      5.547096   -9999      -9999      2.8179     -9999      -9999      2.321      2.677      1.447      1.086158   2.6255     0.1226159  0.1226159  0.276249   0.5227603  5.73318    2.963      0.1644349  0.4604874  62.786     0.4655547  0.3180065  0.6131029 
983.8      0.252      306.1      -9999      -9999      5.557284   -9999      -9999      3.0155     -9999      -9999      1.928      2.633      1.665      1.090883   2.7257     0.1269399  0.1269399  0.2733612  0.6286279  5.655798   2.963      0.1892793  0.4639579  61.971     0.4437009  0.319776   0.5676259 
984        0.25       306.1      -9999      -9999      5.541878   -9999      -9999      2.9345     -9999      -9999      1.869      2.71       2.051      1.095687   2.7257     0.1285732  0.1285732  0.2704256  0.6739777  5.77323    2.963      0.1982562  0.4629567  61.487     0.4298557  0.3171038  0.5426076 
984.2      0.242      326.6      -9999      -9999      5.505341   -9999      -9999      2.7976     -9999      -9999      1.914      2.377      1.783      1.101083   2.7708     0.1258359  0.1258359  0.2671284  0.5997151  6.061571   2.777      0.1578533  0.4364411  61.513     0.4281589  0.3108555  0.5454623 
984.4      0.234      328.1      -9999      -9999      5.466042   -9999      -9999      2.7165     -9999      -9999      2.345      2.045      1.583      1.106469   2.9462     0.1199258  0.1199258  0.2638366  0.4660955  6.3878     2.764      0.1198838  0.4203118  61.895     0.4360932  0.3042722  0.5679141 
984.6      0.224      300.8      -9999      -9999      5.449624   -9999      -9999      3.1372     -9999      -9999      3.429      3.377      1.415      1.111037   3.2869     0.1137459  0.1137459  0.2610451  0.3581025  6.529235   3.015      0.1152153  0.4300995  62.277     0.4463614  0.3015635  0.5911593 
984.8      0.22       285.3      -9999      -9999      5.472064   -9999      -9999      3.0966     -9999      -9999      3.086      4.35       1.212      1.112552   3.4472     0.1109709  0.1109709  0.2601196  0.3181323  6.33669    3.179      0.1181689  0.4386365  62.379     0.4519658  0.305272   0.5986596 
985        0.229      276.7      -9999      -9999      5.527292   -9999      -9999      2.899      -9999      -9999      3.489      3.301      2.524      1.106605   3.317      0.1145225  0.1145225  0.2637537  0.3701623  5.886655   3.278      0.154294   0.4583449  62.2       0.4522157  0.3145945  0.5898368 
985.2      0.246      283        -9999      -9999      5.605808   -9999      -9999      2.6658     -9999      -9999      2.612      3.292      3.001      1.091082   2.7608     0.1231683  0.1231683  0.2732396  0.5352224  5.301311   3.205      0.1978051  0.478565   62.022     0.4547614  0.3283404  0.5811823 
985.4      0.24       289.3      -9999      -9999      5.712475   -9999      -9999      2.6152     -9999      -9999      2.333      2.873      2.565      1.070908   2.6305     0.1271024  0.1271024  0.2855681  0.6329997  4.598225   3.135      0.2113439  0.4931352  62.531     0.4801989  0.3479818  0.6124161 
985.6      0.229      281.2      -9999      -9999      5.844349   -9999      -9999      2.7115     -9999      -9999      2.183      2.659      2.128      1.055235   2.8159     0.1192024  0.1192024  0.2951459  0.4519338  3.856507   3.226      0.1771346  0.4989012  63.779     0.5331622  0.3738966  0.6924278 
985.8      0.218      277.7      -9999      -9999      5.966466   -9999      -9999      2.7064     -9999      -9999      2.504      2.691      1.91       1.049436   2.9913     0.1170906  0.1170906  0.2986895  0.4130095  3.276804   3.266      0.1690432  0.5025364  63.881     0.5502996  0.399612   0.7009872 
986        0.216      282.2      -9999      -9999      6.038172   -9999      -9999      2.7267     -9999      -9999      2.59       2.799      2.205      1.052325   3.0564     0.1066681  0.1066681  0.2969243  0.264795   2.977903   3.214      0.09194519 0.4795825  64.391     0.5765341  0.4155283  0.7375399 
986.2      0.232      277.2      -9999      -9999      6.048549   -9999      -9999      2.8635     -9999      -9999      2.714      2.759      2.044      1.061006   3.0213     0.09993815 0.09993815 0.291619   0.1987262  2.936968   3.272      0.04694533 0.4660965  64.454     0.580851   0.4178836  0.7438184 
986.4      0.24       282.2      -9999      -9999      6.015218   -9999      -9999      2.7115     -9999      -9999      2.605      3.067      2.37       1.074127   2.7558     0.09210606 0.09210606 0.283601   0.1422937  3.070491   3.214      0          0.4357186  64.518     0.5802878  0.4103656  0.7502099 
986.6      0.232      288.6      -9999      -9999      5.963597   -9999      -9999      2.6304     -9999      -9999      2.504      2.734      2.391      1.088345   2.6305     0.08820674 0.08820674 0.2749126  0.1204927  3.289366   3.143      0          0.4089038  64.238     0.5657752  0.3989881  0.7325624 
986.8      0.221      289.8      -9999      -9999      5.915072   -9999      -9999      2.9649     -9999      -9999      2.362      2.881      2.14       1.096567   2.5203     0.07528929 0.07528929 0.2698877  0.06945416 3.509321   3.13       0          0.3679059  65.028     0.5896921  0.3885808  0.7908033 
987        0.216      289.8      -9999      -9999      5.876725   -9999      -9999      3.1524     -9999      -9999      2.79       2.283      1.997      1.093679   2.6856     0.08560933 0.08560933 0.2716526  0.1078576  3.693504   3.13       0          0.3969043  64.391     0.5637676  0.3805486  0.7469867 
987.2      0.221      278.9      -9999      -9999      5.837643   -9999      -9999      3.3095     -9999      -9999      2.526      3.103      2.761      1.081992   2.3299     0.09596106 0.09596106 0.2787947  0.1677219  3.89116    3.252      0.009789099 0.4406721  64.2       0.5540414  0.3725334  0.7355495 
987.4      0.255      272.1      -9999      -9999      5.785753   -9999      -9999      3.3348     -9999      -9999      2.231      2.809      2.474      1.067919   2.0693     0.105815   0.105815   0.2873945  0.2553335  4.170031   3.333      0.1010407  0.4765838  64.213     0.5502409  0.3621518  0.73833   
987.6      0.248      290.1      -9999      -9999      5.725936   -9999      -9999      3.1499     -9999      -9999      1.975      2.419      2.205      1.056247   2.0142     0.113387   0.113387   0.2945275  0.352663   4.516394   3.127      0.1278333  0.4810397  64.314     0.5489106  0.3505425  0.7472786 
987.8      0.23       295.9      -9999      -9999      5.678266   -9999      -9999      2.9649     -9999      -9999      1.902      2.191      1.94       1.049105   2.1545     0.1218409  0.1218409  0.2988921  0.5057636  4.812907   3.065      0.1730466  0.4940677  64.06      0.5365186  0.3415579  0.7314792 
