~Version
 VERS              .         2.0                           : CWLS LOG ASCII STANDARD - VERSION 2.0
 WRAP              .         NO                            : ONE LINE PER DEPTH STEP
 DLM               .         SPACE                         : DELIMITING CHARACTER(SPACE TAB OR COMMA)
~Well Information
#_______________________________________________________________________________
#
#PARAMETER_NAME    .UNIT     VALUE                         : DESCRIPTION
#_______________________________________________________________________________
STRT               .M        884                           : First reference value
STOP               .M        1232                          : Last reference value
STEP               .M        0.2                           : Step increment
NULL               .         -9999                         : Missing value
COMP               .                                       : Company
WELL               .         3894                          : Well name
FLD                .         Узень                         : Field
LOC                .                                       : Location
CNTY               .                                       : County
STAT               .                                       : State
CTRY               .                                       : Country
SRVC               .                                       : Service Company
DATE               .                                       : Date
UWI                .                                       : Unique Well ID
123                .         1                             : 
4_кв_для_Заказчика .         1                             : 
Block              .         6а                            : 
Category           .         Нефтяная                      : 
Condition          .         В ожидании ликвидации         : 
Date               .         16.05.1989                    : 
EREF               .m        86.6                          : 100.8
Gor                .         15                            : 
Gorizont           .         15                            : 14
Interpretator      .         Кайсанов Е.К                  : 
KUST               .                                       : 
Kupol              .         Основной                      : osnovnoi
Mud                .                                       : 
Mud_density        .                                       : 
Mud_resistivity    .                                       : 
NGDU               .         НГДУ-2                        : 
ORIGINALWELLNAME   .         3894                          : 
Otmetka            .                                       : 
Spud_date          .         1989                          : 1961
Viscosity          .                                       : 
X                  .m        44340.1                       : 46154
Y                  .m        85688.83                      : 85761.93
YEAR               .         2018                          : 
~Parameter Information Block
#_______________________________________________________________________________
#
#PARAMETER_NAME    .UNIT     VALUE                         : DESCRIPTION
#_______________________________________________________________________________
SET                .         LQC_KAZNIPI_Petrel            : 
TLFamily_CALI      .         Caliper                       : 
TLFamily_CILD      .         Conductivity                  : 
TLFamily_COLL      .         Net Reservoir Flag            : 
TLFamily_CSAT      .         Fluid Code                    : 
TLFamily_DEPT      .         Measured Depth                : 
TLFamily_GR        .         Russian Gamma Ray             : 
TLFamily_GZ1       .         Gradient 045                  : 
TLFamily_GZ2       .         Gradient 105                  : 
TLFamily_GZ3       .         Gradient 225                  : 
TLFamily_GZ4       .         Gradient 425                  : 
TLFamily_GZ5       .         Gradient 850                  : 
TLFamily_LLS       .         Lateral Log Resistivity       : 
TLFamily_MINV      .         Micro Gradient Resistivity    : 
TLFamily_MNOR      .         Micro Resistivity             : 
TLFamily_NGLD      .         Neutron Far                   : 
TLFamily_OGZ3      .         Gradient Inverted 225         : 
TLFamily_PHIE      .         Effective Porosity            : 
TLFamily_PHIEN     .         Effective Porosity            : 
TLFamily_PHIT      .         Porosity                      : 
TLFamily_PRMB      .         Permeability                  : 
TLFamily_PRMB_DGR  .         Permeability                  : 
TLFamily_RT        .         Formation Resistivity         : 
TLFamily_SOIL_ARCHIE .         Oil Saturation                : 
TLFamily_SOIL_DW   .         Oil Saturation                : 
TLFamily_SP        .         Spontaneous Potential         : 
TLFamily_VSH_FIN   .         Shale Volume                  : 
TLFamily_VSH_GR    .         Shale Volume                  : 
TLFamily_VSH_SP    .         Shale Volume                  : 
~Curve Information
#_______________________________________________________________________________
#
#LOGNAME           .UNIT     LOG_ID                        : DESCRIPTION
#_______________________________________________________________________________
DEPT               .M                                      : Колонка глубины 
CALI               .м                                      : Каверномер 
CILD               .мСм/м                                  : Индукционный каротаж зондом 6Ф1 
COLL               .unitless                               :  
CSAT               .unitless                               :  
GR                 .uR/h                                   : Гамма каротаж 
GZ1                .Ohmm                                   : 2 
GZ2                .Ohmm                                   : 3 
GZ3                .Ohmm                                   : 3 
GZ4                .Ohmm                                   : 4 
GZ5                .Ohmm                                   : 5 
LLS                .Ohmm                                   : Боковой каротаж 
MINV               .Ohmm                                   : Микро-градиент зонд 
MNOR               .Ohmm                                   : Микро-потенциал зонд 
NGLD               .у.е.                                   : Показания зонда НГК-60 аппаратуры ДРСТ-3-90 
OGZ3               .Ohmm                                   : 2 
PHIE               .v/v                                    : Описание 
PHIEN              .v/v                                    :  
PHIT               .v/v                                    : Описание 
PRMB               .mD                                     :  
PRMB_DGR           .mD                                     :  
RT                 .ohmm                                   : УЭС пласта 
SOIL_ARCHIE        .v/v                                    :  
SOIL_DW            .v/v                                    :  
SP                 .мВ                                     : Потенциал самополяризации 
VSH_FIN            .v/v                                    : Описание 
VSH_GR             .v/v                                    : Shale volume 
VSH_SP             .v/v                                    : Shale Volume 
~Ascii
# ...
962        0.213      155.7      -9999      -9999      3.984054   -9999      -9999      6.3086     -9999      -9999      3.661      4.15       4.337      1.244535   5.3388     0.0848842  0.0848842  0.1794649  0.104573   46.11918   5.825      0.1618342  0.4217023  60.525     0.2866082  0.1357362  0.4374801 
962.2      0.211      167.5      -9999      -9999      3.994918   -9999      -9999      5.8591     -9999      -9999      5.292      3.376      3.561      1.238298   5.0358     0.09275644 0.09275644 0.1832761  0.146296   45.45565   5.415      0.1971069  0.4276855  59.933     0.2743019  0.1365418  0.4120619 
962.4      0.211      174.3      -9999      -9999      4.054753   -9999      -9999      5.6772     -9999      -9999      6.363      3.949      3.933      1.228376   4.4246     0.1020386  0.1020386  0.1893397  0.2173504  41.96867   5.204      0.2471949  0.4485091  59.34      0.2645488  0.1410651  0.3880324 
962.6      0.212      181.4      -9999      -9999      4.147707   -9999      -9999      6.4551     -9999      -9999      6.27       4.439      4.72       1.215873   4.2175     0.1085544  0.1085544  0.19698    0.2869786  37.07453   5          0.273194   0.4639075  59.327     0.2679563  0.1483912  0.3875213 
962.8      0.212      182.3      -9999      -9999      4.250687   -9999      -9999      6.3339     -9999      -9999      3.645      3.498      3.255      1.201235   4.0812     0.1161647  0.1161647  0.2059251  0.3970175  32.31608   4.975      0.3132306  0.4906121  59.315     0.2720013  0.1569525  0.3870501 
963        0.213      183.1      -9999      -9999      4.34049    -9999      -9999      5.9247     -9999      -9999      3.144      3.699      3.217      1.18594    4.0003     0.1227266  0.1227266  0.2152718  0.5252334  28.66782   4.954      0.3440238  0.5137308  59.542     0.2804401  0.1648205  0.3960596 
963.2      0.213      195        -9999      -9999      4.390234   -9999      -9999      5.4954     -9999      -9999      3.373      2.582      3.302      1.173194   4.1367     0.1297687  0.1297687  0.2230609  0.7092348  26.82733   4.651      0.3563556  0.5195385  59.542     0.2827035  0.1693473  0.3960596 
963.4      0.214      198        -9999      -9999      4.376965   -9999      -9999      5.0661     -9999      -9999      3.383      3.52       2.402      1.167535   4.717599   0.136051   0.136051   0.2265195  0.9271556  27.3064    4.581      0.3779081  0.5292942  59.138     0.2741471  0.1681278  0.3801664 
963.6      0.211      183.6      -9999      -9999      4.301285   -9999      -9999      5.1873     -9999      -9999      3.051      4.458      3.113      1.172361   4.657      0.1341393  0.1341393  0.2235703  0.8545598  30.20693   4.94       0.3921015  0.5405487  59.151     0.271003   0.1613382  0.3806678 
963.8      0.21       177.6      -9999      -9999      4.193017   -9999      -9999      5.409501   -9999      -9999      3.053      4.256      2.769      1.187097   4.5963     0.1265819  0.1265819  0.2145648  0.619101   34.90018   5.107      0.3705086  0.525976   59.163     0.266615   0.1520989  0.3811311 
964        0.211      195        -9999      -9999      4.098804   -9999      -9999      5.699999   -9999      -9999      4.394      2.913      2.962      1.205685   5.0358     0.1119849  0.1119849  0.2032061  0.3321921  39.57362   4.651      0.2681933  0.461187   59.844     0.276428   0.1444908  0.4083652 
964.2      0.211      197.5      -9999      -9999      4.062408   -9999      -9999      5.9904     -9999      -9999      6.325      4.231      3.891      1.21798    4.8034     0.1059622  0.1059622  0.1956927  0.2569421  41.54227   4.593      0.2275615  0.4330788  59.693     0.2719106  0.1416546  0.4021665 
964.4      0.212      193        -9999      -9999      4.10026    -9999      -9999      5.9652     -9999      -9999      3.488      4.436      4.069      1.214719   4.3691     0.1059246  0.1059246  0.1976853  0.2565301  39.49685   4.7        0.2356277  0.4429397  59.92      0.2780626  0.1446054  0.4115199 
964.6      0.212      193        -9999      -9999      4.197537   -9999      -9999      5.5358     -9999      -9999      3.888      3.527      3.495      1.193274   3.7579     0.1201162  0.1201162  0.21079    0.4698957  34.69035   4.7        0.3149114  0.4900565  59.567     0.2747692  0.1524739  0.3970644 
964.8      0.212      196.2      -9999      -9999      4.327595   -9999      -9999      4.9903     -9999      -9999      3.951      4.259      2.921      1.159227   3.6089     0.1349368  0.1349368  0.2315965  0.8841286  29.16519   4.623      0.3761144  0.5361236  60.172     0.2929082  0.1636669  0.4221494 
965        0.212      209.6      -9999      -9999      4.470342   -9999      -9999      4.8438     -9999      -9999      3.37       4.991      3.171      1.12324    3.4599     0.1516595  0.1516595  0.2535881  1.804101   24.10851   4.327      0.4187022  0.5666344  60.601     0.3088744  0.1769     0.4408488 
965.2      0.212      214.9      -9999      -9999      4.612169   -9999      -9999      4.6974     -9999      -9999      2.93       3.487      3.364      1.096274   3.3084     0.1678079  0.1678079  0.2700669  3.592263   19.95302   4.221      0.4615055  0.5942667  60.323     0.3098756  0.1911073  0.4286439 
965.4      0.212      190.9      -9999      -9999      4.733312   -9999      -9999      4.5458     -9999      -9999      3.473      4.153      2.674      1.084608   3.6922     0.1757009  0.1757009  0.2771959  5.029966   16.97576   4.751      0.5105708  0.6303819  59.907     0.3075607  0.2041427  0.4109787 
965.6      0.212      202.9      -9999      -9999      4.80215    -9999      -9999      5.0257     -9999      -9999      4.629      4.87       3.363      1.08653    3.6619     0.1760383  0.1760383  0.2760217  5.102862   15.4864    4.47       0.497207   0.6182725  59.491     0.30298    0.2119423  0.3940177 
965.8      0.212      214.9      -9999      -9999      4.791893   -9999      -9999      5.2833     -9999      -9999      3.545      4.428      2.796      1.095281   3.5205     0.1707206  0.1707206  0.2706741  4.067401   15.69974   4.221      0.4695159  0.5976112  59.516     0.3028894  0.2107615  0.3950173 
966        0.212      226.5      -9999      -9999      4.713344   -9999      -9999      4.9928     -9999      -9999      2.64       3.41       2.229      1.105419   3.7124     0.1646334  0.1646334  0.2644784  3.13739    17.434     4.005      0.4388091  0.5749779  59.718     0.3025604  0.2019344  0.4031864 
966.2      0.212      205.6      -9999      -9999      4.616415   -9999      -9999      4.7024     -9999      -9999      2.991      2.391      1.662      1.114872   3.8185     0.1622477  0.1622477  0.2587018  2.833865   19.84032   4.412      0.4568654  0.587261   59.466     0.2922851  0.1915498  0.3930205 
966.4      0.212      212.4      -9999      -9999      4.552922   -9999      -9999      4.5307     -9999      -9999      4.677      3.667      3.003      1.121031   3.3084     0.1613542  0.1613542  0.2549382  2.727907   21.59389   4.27       0.4458041  0.575827   59.189     0.2835879  0.1850386  0.3821372 
966.6      0.212      226.5      -9999      -9999      4.552491   -9999      -9999      5.0762     -9999      -9999      3.843      4.942      3.288      1.11886    3.1745     0.1548279  0.1548279  0.2562644  2.065122   21.60631   4.005      0.4079778  0.5560646  60.349     0.3073833  0.1849952  0.4297715 
966.8      0.212      234.5      -9999      -9999      4.626549   -9999      -9999      5.2328     -9999      -9999      3.737      4.263      2.903      1.104662   3.0407     0.1606111  0.1606111  0.2649412  2.642809   19.57392   3.868      0.4171455  0.5636553  60.575     0.3161518  0.1926101  0.4396936 
967        0.212      244.9      -9999      -9999      4.768204   -9999      -9999      4.7681     -9999      -9999      2.982      4.181      2.83       1.080538   2.8336     0.1755223  0.1755223  0.2796831  4.99179    16.20377   3.704      0.449435   0.583442   60.197     0.3156388  0.2080595  0.423218  
