~Version
 VERS              .         2.0                           : CWLS LOG ASCII STANDARD - VERSION 2.0
 WRAP              .         NO                            : ONE LINE PER DEPTH STEP
 DLM               .         SPACE                         : DELIMITING CHARACTER(SPACE TAB OR COMMA)
~Well Information
#_______________________________________________________________________________
#
#PARAMETER_NAME    .UNIT     VALUE                         : DESCRIPTION
#_______________________________________________________________________________
STRT               .M        884                           : First reference value
STOP               .M        1232                          : Last reference value
STEP               .M        0.2                           : Step increment
NULL               .         -9999                         : Missing value
COMP               .                                       : Company
WELL               .         3894                          : Well name
FLD                .         Узень                         : Field
LOC                .                                       : Location
CNTY               .                                       : County
STAT               .                                       : State
CTRY               .                                       : Country
SRVC               .                                       : Service Company
DATE               .                                       : Date
UWI                .                                       : Unique Well ID
123                .         1                             : 
4_кв_для_Заказчика .         1                             : 
Block              .         6а                            : 
Category           .         Нефтяная                      : 
Condition          .         В ожидании ликвидации         : 
Date               .         16.05.1989                    : 
EREF               .m        86.6                          : 100.8
Gor                .         15                            : 
Gorizont           .         15                            : 14
Interpretator      .         Кайсанов Е.К                  : 
KUST               .                                       : 
Kupol              .         Основной                      : osnovnoi
Mud                .                                       : 
Mud_density        .                                       : 
Mud_resistivity    .                                       : 
NGDU               .         НГДУ-2                        : 
ORIGINALWELLNAME   .         3894                          : 
Otmetka            .                                       : 
Spud_date          .         1989                          : 1961
Viscosity          .                                       : 
X                  .m        44340.1                       : 46154
Y                  .m        85688.83                      : 85761.93
YEAR               .         2018                          : 
~Parameter Information Block
#_______________________________________________________________________________
#
#PARAMETER_NAME    .UNIT     VALUE                         : DESCRIPTION
#_______________________________________________________________________________
SET                .         LQC_KAZNIPI_Petrel            : 
TLFamily_CALI      .         Caliper                       : 
TLFamily_CILD      .         Conductivity                  : 
TLFamily_COLL      .         Net Reservoir Flag            : 
TLFamily_CSAT      .         Fluid Code                    : 
TLFamily_DEPT      .         Measured Depth                : 
TLFamily_GR        .         Russian Gamma Ray             : 
TLFamily_GZ1       .         Gradient 045                  : 
TLFamily_GZ2       .         Gradient 105                  : 
TLFamily_GZ3       .         Gradient 225                  : 
TLFamily_GZ4       .         Gradient 425                  : 
TLFamily_GZ5       .         Gradient 850                  : 
TLFamily_LLS       .         Lateral Log Resistivity       : 
TLFamily_MINV      .         Micro Gradient Resistivity    : 
TLFamily_MNOR      .         Micro Resistivity             : 
TLFamily_NGLD      .         Neutron Far                   : 
TLFamily_OGZ3      .         Gradient Inverted 225         : 
TLFamily_PHIE      .         Effective Porosity            : 
TLFamily_PHIEN     .         Effective Porosity            : 
TLFamily_PHIT      .         Porosity                      : 
TLFamily_PRMB      .         Permeability                  : 
TLFamily_PRMB_DGR  .         Permeability                  : 
TLFamily_RT        .         Formation Resistivity         : 
TLFamily_SOIL_ARCHIE .         Oil Saturation                : 
TLFamily_SOIL_DW   .         Oil Saturation                : 
TLFamily_SP        .         Spontaneous Potential         : 
TLFamily_VSH_FIN   .         Shale Volume                  : 
TLFamily_VSH_GR    .         Shale Volume                  : 
TLFamily_VSH_SP    .         Shale Volume                  : 
~Curve Information
#_______________________________________________________________________________
#
#LOGNAME           .UNIT     LOG_ID                        : DESCRIPTION
#_______________________________________________________________________________
DEPT               .M                                      : Колонка глубины 
CALI               .м                                      : Каверномер 
CILD               .мСм/м                                  : Индукционный каротаж зондом 6Ф1 
COLL               .unitless                               :  
CSAT               .unitless                               :  
GR                 .uR/h                                   : Гамма каротаж 
GZ1                .Ohmm                                   : 2 
GZ2                .Ohmm                                   : 3 
GZ3                .Ohmm                                   : 3 
GZ4                .Ohmm                                   : 4 
GZ5                .Ohmm                                   : 5 
LLS                .Ohmm                                   : Боковой каротаж 
MINV               .Ohmm                                   : Микро-градиент зонд 
MNOR               .Ohmm                                   : Микро-потенциал зонд 
NGLD               .у.е.                                   : Показания зонда НГК-60 аппаратуры ДРСТ-3-90 
OGZ3               .Ohmm                                   : 2 
PHIE               .v/v                                    : Описание 
PHIEN              .v/v                                    :  
PHIT               .v/v                                    : Описание 
PRMB               .mD                                     :  
PRMB_DGR           .mD                                     :  
RT                 .ohmm                                   : УЭС пласта 
SOIL_ARCHIE        .v/v                                    :  
SOIL_DW            .v/v                                    :  
SP                 .мВ                                     : Потенциал самополяризации 
VSH_FIN            .v/v                                    : Описание 
VSH_GR             .v/v                                    : Shale volume 
VSH_SP             .v/v                                    : Shale Volume 
~Ascii
# ...
1024.4     0.251      386.5      -9999      -9999      7.172369   -9999      -9999      2.2046     -9999      -9999      1.853      2.206      1.539      0.9892277  2.1245     0.09889578 0.09889578 0.335483   0.190085   0.6559317  2.347      0          0.4232956  62.659     0.7169308  0.7707204  0.6631412 
1024.6     0.251      384.5      -9999      -9999      7.094298   -9999      -9999      2.1438     -9999      -9999      1.914      2.078      1.764      0.9911961  2.0994     0.1018856  0.1018856  0.3342801  0.2159369  0.7279235  2.359      0          0.4290734  62.735     0.7042256  0.7386337  0.6698175 
1024.8     0.251      383.4      -9999      -9999      7.000963   -9999      -9999      2.083      -9999      -9999      1.942      2.034      1.759      0.9910255  2.1245     0.1119818  0.1119818  0.3343843  0.3321486  0.8244345  2.366      0          0.4480507  62.328     0.673947   0.7020215  0.6458725 
1025       0.253      384.7      -9999      -9999      6.908694   -9999      -9999      2.0323     -9999      -9999      1.988      2.502      1.665      0.9911538  2.1946     0.1229386  0.1229386  0.3343059  0.5300052  0.9324127  2.358      0.07203566 0.4648034  61.767     0.6405068  0.667612   0.6134016 
1025.2     0.256      391.3      -9999      -9999      6.84447    -9999      -9999      2.2351     -9999      -9999      1.997      2.184      1.455      0.9937899  2.2547     0.1253367  0.1253367  0.332695   0.5870809  1.015813   2.318      0.0801629  0.4622358  61.716     0.6283585  0.6446616  0.6120555 
1025.4     0.258      396.4      -9999      -9999      6.826957   -9999      -9999      2.2148     -9999      -9999      1.722      1.866      1.393      0.9999223  2.3149     0.1208034  0.1208034  0.3289475  0.4838721  1.039823   2.288      0.0443472  0.4475606  61.869     0.6307395  0.6385413  0.6229377 
1025.6     0.256      397.6      -9999      -9999      6.851739   -9999      -9999      1.9918     -9999      -9999      1.637      1.874      1.504      1.010565   2.5103     0.1158479  0.1158479  0.3224436  0.39169    1.006011   2.281      0.007414021 0.4311627  61.538     0.6260476  0.6472192  0.604876  
1025.8     0.253      395.6      -9999      -9999      6.893517   -9999      -9999      2.0475     -9999      -9999      1.761      1.939      1.435      1.026887   2.8109     0.09278006 0.09278006 0.3124692  0.1464434  0.9514811  2.293      0          0.3750716  62.557     0.6657246  0.662116   0.6693332 
1026       0.253      387.8      -9999      -9999      6.921903   -9999      -9999      1.9968     -9999      -9999      1.698      2.128      1.086      1.048369   3.0564     0.07353401 0.07353401 0.2993418  0.06444457 0.9161277  2.339      0          0.3135802  62.939     0.6842661  0.6724325  0.6960996 
1026.2     0.251      370        -9999      -9999      6.919806   -9999      -9999      2.0374     -9999      -9999      2.005      2.223      1.424      1.071881   3.2568     0.07226165 0.07226165 0.2849734  0.06104064 0.9186934  2.451      0          0.3025761  61.665     0.6445809  0.6716651  0.6174967 
1026.4     0.249      363.9      -9999      -9999      6.88659    -9999      -9999      1.9664     -9999      -9999      1.867      2.318      1.759      1.093682   3.2418     0.06276906 0.06276906 0.2716512  0.04071864 0.9603146  2.493      0          0.2534693  61.449     0.6329762  0.6596222  0.6063302 
1026.6     0.243      354        -9999      -9999      6.824188   -9999      -9999      1.9766     -9999      -9999      1.813      2.088      1.509      1.11152    3.2418     0.05732884 0.05732884 0.26075    0.03228696 1.04367    2.562      0          0.2212843  61.232     0.6164278  0.6375791  0.5952765 
1026.8     0.236      343.1      -9999      -9999      6.732894   -9999      -9999      1.9867     -9999      -9999      2.092      1.981      1.94       1.124573   3.5024     0.05418244 0.05418244 0.2527733  0.02823243 1.178829   2.644      0          0.2033163  61.232     0.6017905  0.6066503  0.5969307 
1027       0.233      336        -9999      -9999      6.619934   -9999      -9999      2.007      -9999      -9999      2.287      2.672      2.182      1.132942   3.6176     0.05278451 0.05278451 0.2476592  0.02659838 1.370535   2.699      0          0.1938455  61.436     0.5905295  0.5704497  0.6106092 
1027.2     0.246      325.1      -9999      -9999      6.49411    -9999      -9999      1.931      -9999      -9999      2.183      2.512      2.185      1.138287   3.7479     0.05671575 0.05671575 0.2443931  0.03145367 1.620993   2.79       0          0.2166436  61.309     0.5687191  0.5326642  0.6047742 
1027.4     0.234      299        -9999      -9999      6.353369   -9999      -9999      1.9107     -9999      -9999      2.095      2.659      1.922      1.143697   3.818      0.06060883 0.06060883 0.241087   0.03713477 1.955752   3.034      0          0.2570434  61.207     0.5469034  0.4933567  0.6004503 
1027.6     0.227      278.9      -9999      -9999      6.182346   -9999      -9999      1.931      -9999      -9999      2.324      2.482      1.918      1.152523   3.9082     0.06582359 0.06582359 0.2356933  0.04638426 2.456909   3.252      0          0.2901655  60.825     0.5147567  0.4494747  0.5800388 
1027.8     0.22       260.4      -9999      -9999      5.964227   -9999      -9999      1.9715     -9999      -9999      2.254      2.41       2.062      1.167647   3.9533     0.07358779 0.07358779 0.2264511  0.06459256 3.286606   3.483      0          0.3212818  59.831     0.4632223  0.3991249  0.5273196 
1028       0.217      247.2      -9999      -9999      5.691516   -9999      -9999      1.9715     -9999      -9999      3.106      2.157      2.078      1.191306   3.798      0.07090008 0.07090008 0.2119929  0.05759696 4.728593   3.669      0          0.3005511  59.488     0.427554   0.3440318  0.5110762 
1028.2     0.217      243.2      -9999      -9999      5.373957   -9999      -9999      2.1844     -9999      -9999      3.632      3.272      2.943      1.222708   3.3921     0.06334146 0.06334146 0.1928034  0.04172493 7.222654   3.73       0          0.2325536  59.144     0.392309   0.2893874  0.4952307 
1028.4     0.218      237.8      -9999      -9999      5.048838   -9999      -9999      2.23       -9999      -9999      3.394      4.387      3.13       1.25475    3.0564     0.06186374 0.06186374 0.1732226  0.0391764  11.14402   3.814      0          0.17941    57.768     0.337451   0.2424221  0.4324799 
1028.6     0.218      232.8      -9999      -9999      4.778393   -9999      -9999      2.2503     -9999      -9999      3.079      3.817      2.639      1.276219   2.9061     0.05795825 0.05795825 0.1601026  0.03316541 15.98502   3.896      0          0.1257442  57.208     0.3095284  0.2092175  0.4098394 
1028.8     0.218      226.9      -9999      -9999      4.617126   -9999      -9999      2.4555     -9999      -9999      2.924      3.484      2.492      1.280112   2.856      0.06186599 0.06186599 0.1577238  0.03918016 19.82152   3.997      0          0.1486     56.673     0.2904783  0.191624   0.3893326 
1029       0.218      220.6      -9999      -9999      4.572639   -9999      -9999      2.6608     -9999      -9999      2.873      3.397      2.672      1.269136   2.846      0.07635907 0.07635907 0.1644309  0.07269646 21.03334   4.112      0          0.2435407  55.501     0.2668845  0.1870366  0.3467323 
1029.2     0.218      209.2      -9999      -9999      4.608254   -9999      -9999      2.7064     -9999      -9999      2.958      3.998      2.751      1.25158    2.6907     0.08919469 0.08919469 0.1751597  0.1256783  20.05749   4.336      0.07794557 0.3323752  54.992     0.2605     0.1907002  0.3302996 
1029.4     0.218      204.4      -9999      -9999      4.688003   -9999      -9999      3.1473     -9999      -9999      3.341      4.299      3.412      1.232249   2.5203     0.1037524  0.1037524  0.1869724  0.2338326  18.03337   4.438      0.2004756  0.4021416  54.177     0.2521817  0.1991664  0.305197  
