~Version
 VERS              .         2.0                           : CWLS LOG ASCII STANDARD - VERSION 2.0
 WRAP              .         NO                            : ONE LINE PER DEPTH STEP
 DLM               .         SPACE                         : DELIMITING CHARACTER(SPACE TAB OR COMMA)
~Well Information
#_______________________________________________________________________________
#
#PARAMETER_NAME    .UNIT     VALUE                         : DESCRIPTION
#_______________________________________________________________________________
STRT               .M        884                           : First reference value
STOP               .M        1232                          : Last reference value
STEP               .M        0.2                           : Step increment
NULL               .         -9999                         : Missing value
COMP               .                                       : Company
WELL               .         3894                          : Well name
FLD                .         Узень                         : Field
LOC                .                                       : Location
CNTY               .                                       : County
STAT               .                                       : State
CTRY               .                                       : Country
SRVC               .                                       : Service Company
DATE               .                                       : Date
UWI                .                                       : Unique Well ID
123                .         1                             : 
4_кв_для_Заказчика .         1                             : 
Block              .         6а                            : 
Category           .         Нефтяная                      : 
Condition          .         В ожидании ликвидации         : 
Date               .         16.05.1989                    : 
EREF               .m        86.6                          : 100.8
Gor                .         15                            : 
Gorizont           .         15                            : 14
Interpretator      .         Кайсанов Е.К                  : 
KUST               .                                       : 
Kupol              .         Основной                      : osnovnoi
Mud                .                                       : 
Mud_density        .                                       : 
Mud_resistivity    .                                       : 
NGDU               .         НГДУ-2                        : 
ORIGINALWELLNAME   .         3894                          : 
Otmetka            .                                       : 
Spud_date          .         1989                          : 1961
Viscosity          .                                       : 
X                  .m        44340.1                       : 46154
Y                  .m        85688.83                      : 85761.93
YEAR               .         2018                          : 
~Parameter Information Block
#_______________________________________________________________________________
#
#PARAMETER_NAME    .UNIT     VALUE                         : DESCRIPTION
#_______________________________________________________________________________
SET                .         LQC_KAZNIPI_Petrel            : 
TLFamily_CALI      .         Caliper                       : 
TLFamily_CILD      .         Conductivity                  : 
TLFamily_COLL      .         Net Reservoir Flag            : 
TLFamily_CSAT      .         Fluid Code                    : 
TLFamily_DEPT      .         Measured Depth                : 
TLFamily_GR        .         Russian Gamma Ray             : 
TLFamily_GZ1       .         Gradient 045                  : 
TLFamily_GZ2       .         Gradient 105                  : 
TLFamily_GZ3       .         Gradient 225                  : 
TLFamily_GZ4       .         Gradient 425                  : 
TLFamily_GZ5       .         Gradient 850                  : 
TLFamily_LLS       .         Lateral Log Resistivity       : 
TLFamily_MINV      .         Micro Gradient Resistivity    : 
TLFamily_MNOR      .         Micro Resistivity             : 
TLFamily_NGLD      .         Neutron Far                   : 
TLFamily_OGZ3      .         Gradient Inverted 225         : 
TLFamily_PHIE      .         Effective Porosity            : 
TLFamily_PHIEN     .         Effective Porosity            : 
TLFamily_PHIT      .         Porosity                      : 
TLFamily_PRMB      .         Permeability                  : 
TLFamily_PRMB_DGR  .         Permeability                  : 
TLFamily_RT        .         Formation Resistivity         : 
TLFamily_SOIL_ARCHIE .         Oil Saturation                : 
TLFamily_SOIL_DW   .         Oil Saturation                : 
TLFamily_SP        .         Spontaneous Potential         : 
TLFamily_VSH_FIN   .         Shale Volume                  : 
TLFamily_VSH_GR    .         Shale Volume                  : 
TLFamily_VSH_SP    .         Shale Volume                  : 
~Curve Information
#_______________________________________________________________________________
#
#LOGNAME           .UNIT     LOG_ID                        : DESCRIPTION
#_______________________________________________________________________________
DEPT               .M                                      : Колонка глубины 
CALI               .м                                      : Каверномер 
CILD               .мСм/м                                  : Индукционный каротаж зондом 6Ф1 
COLL               .unitless                               :  
CSAT               .unitless                               :  
GR                 .uR/h                                   : Гамма каротаж 
GZ1                .Ohmm                                   : 2 
GZ2                .Ohmm                                   : 3 
GZ3                .Ohmm                                   : 3 
GZ4                .Ohmm                                   : 4 
GZ5                .Ohmm                                   : 5 
LLS                .Ohmm                                   : Боковой каротаж 
MINV               .Ohmm                                   : Микро-градиент зонд 
MNOR               .Ohmm                                   : Микро-потенциал зонд 
NGLD               .у.е.                                   : Показания зонда НГК-60 аппаратуры ДРСТ-3-90 
OGZ3               .Ohmm                                   : 2 
PHIE               .v/v                                    : Описание 
PHIEN              .v/v                                    :  
PHIT               .v/v                                    : Описание 
PRMB               .mD                                     :  
PRMB_DGR           .mD                                     :  
RT                 .ohmm                                   : УЭС пласта 
SOIL_ARCHIE        .v/v                                    :  
SOIL_DW            .v/v                                    :  
SP                 .мВ                                     : Потенциал самополяризации 
VSH_FIN            .v/v                                    : Описание 
VSH_GR             .v/v                                    : Shale volume 
VSH_SP             .v/v                                    : Shale Volume 
~Ascii
# ...
1045.2     0.22       226.4      -9999      -9999      5.493281   -9999      -9999      4.226799   -9999      -9999      3.333      4.112      4.144      1.127152   3.3721     0.07662817 0.07662817 0.2511971  0.07353561 6.159869   4.006      0          0.4171454  62.608     0.5289969  0.3088203  0.7491735 
1045.4     0.218      251.5      -9999      -9999      5.635062   -9999      -9999      4.2826     -9999      -9999      3.479      3.149      2.399      1.091932   3.3721     0.09699219 0.09699219 0.2727202  0.1752624  5.098423   3.606      0.06539799 0.4631809  62.353     0.532509   0.3336141  0.7314039 
1045.6     0.218      279.4      -9999      -9999      5.771003   -9999      -9999      3.8619     -9999      -9999      2.277      2.186      1.744      1.064302   3.322      0.1168029  0.1168029  0.2896048  0.4079726  4.25289    3.246      0.1648571  0.490633   61.665     0.5236421  0.3592539  0.6880302 
1045.8     0.223      287.3      -9999      -9999      5.877666   -9999      -9999      3.5781     -9999      -9999      2.044      2.452      1.908      1.046055   3.7629     0.1239342  0.1239342  0.3007559  0.5529926  3.688871   3.157      0.1964543  0.5065398  61.665     0.5358236  0.3807436  0.6909037 
1046       0.235      293.1      -9999      -9999      5.919903   -9999      -9999      3.4362     -9999      -9999      2.218      2.101      1.803      1.038801   4.3441     0.1406326  0.1406326  0.3051884  1.127234   3.486785   3.095      0.2734894  0.528844   60.29      0.4986542  0.3896044  0.6077039 
1046.2     0.254      303.3      -9999      -9999      5.873271   -9999      -9999      3.4615     -9999      -9999      1.991      1.66       1.534      1.044062   4.8803     0.1437311  0.1437311  0.3019738  1.28649    3.71056    2.991      0.2756234  0.5215203  59.755     0.4795233  0.3798333  0.5792133 
1046.4     0.25       308.6      -9999      -9999      5.739256   -9999      -9999      3.1828     -9999      -9999      1.842      1.605      1.391      1.063905   5.226      0.1372685  0.1372685  0.2898476  0.9765694  4.436859   2.939      0.2397783  0.4961523  59.577     0.4623612  0.353095   0.5716273 
1046.6     0.24       292.4      -9999      -9999      5.538575   -9999      -9999      3.0764     -9999      -9999      1.991      2.619      1.608      1.099672   5.7471     0.1226815  0.1226815  0.2679905  0.5242248  5.798716   3.102      0.1825995  0.4627218  59.399     0.4403303  0.3165339  0.5641267 
1046.8     0.229      273.9      -9999      -9999      5.2941     -9999      -9999      3.2081     -9999      -9999      2.541      2.589      2.091      1.148212   6.077799   0.10483    0.10483    0.2383275  0.2448299  8.034502   3.312      0.09099677 0.406506   58.762     0.4045379  0.2770698  0.532006  
1047       0.218      249        -9999      -9999      5.026072   -9999      -9999      3.3399     -9999      -9999      3.459      2.831      2.337      1.199912   6.0126     0.08635109 0.08635109 0.2067338  0.1113242  11.48762   3.643      0          0.3350252  57.896     0.3647961  0.2394345  0.4901577 
1047.2     0.216      239.1      -9999      -9999      4.76335    2.7725     -9999      3.4489     -9999      -9999      3.434      3.053      2.563      1.243795   5.3512     0.07178802 0.07178802 0.1799171  0.05981999 16.30902   3.794      0          0.238645   56.953     0.327664   0.2075102  0.4478179 
1047.4     0.216      229.7      -9999      -9999      4.551825   2.702      -9999      3.5578     -9999      -9999      3.911      2.906      3.36       1.275264   5.0556     0.06407595 0.06407595 0.1606863  0.04305268 21.62551   3.949      0          0.16424    55.807     0.2927586  0.1849281  0.4005891 
1047.6     0.217      227.7      -9999      -9999      4.431775   2.6316     3.9398     3.72       -9999      -9999      3.876      4.115      2.974      1.298136   4.3842     0.05947684 0.05947684 0.146709   0.03538454 25.38123   3.983      0          0.09399336 54.584     0.2643399  0.1732227  0.3554572 
1047.8     0.219      222.4      -9999      -9999      4.399252   3.0291     3.9145     3.6339     2.3956     2.3956     2.894      3.264      2.588      1.320193   4.1036     0.05374078 0.05374078 0.1332302  0.02770561 26.50654   4.078      0          0.01220878 53.234     0.2408769  0.1701812  0.3115727 
1048       0.219      211.095    -9999      -9999      4.402121   3.1549     3.8893     3.3298     2.3956     2.3956     2.706      2.412      2.202      1.346956   3.5124     0.03644819 0.03644819 0.1168753  0.01325156 26.40533   4.304      0          0          53.362     0.2437186  0.1704473  0.3169899 
1048.2     0.218      203.9      -9999      -9999      4.381514   2.9335     3.9095     3.1879     2.4309     2.4309     3.762      3.519      3.553      1.375528   3.1917     0.01201356 0.01201356 0.09941471 0.004673888 27.14122   4.448      0          0          54.61      0.264852   0.1685448  0.3611591 
1048.4     0.215      190.7      -9999      -9999      4.317339   2.7222     3.9297     3.35       2.4561     2.4561     4.557      3.091      3.109      1.394135   2.8961     0.01       0          0.08804432 0.004289259 29.56694   4.756      0          0          55.731     0.2845845  0.1627552  0.4064139 
1048.6     0.214      178.5      -9999      -9999      4.233782   3.1398     4.4694     3.5528     2.7335     2.7335     4.038      2.664      3.161      1.39139    2.7959     0.01       0          0.08972152 0.004289259 33.05305   5.081      0          0          56.125     0.2901679  0.155514   0.4248219 
1048.8     0.213      177.099    -9999      -9999      4.173466   3.2203     5.0496     3.9836     2.7536     2.7536     5.05       3.215      3.71       1.367919   2.6907     0.01       0.005963237 0.1040649  0.004289259 35.82232   5.122      0          0          56.52      0.2972777  0.1504878  0.4440675 
1049       0.213      176.2      -9999      -9999      4.17413    3.648      5.3018     4.2319     2.7536     2.7536     4.122      3.706      4.258      1.336665   3.0464     0.02949116 0.02949116 0.1231643  0.009849311 35.79058   5.148      0          0          55.858     0.283858   0.1505423  0.4171737 
1049.2     0.215      180.5      -9999      -9999      4.257014   4.3826     6.3813     4.6475     3.838      3.3639     3.469      3.159      3.499      1.311814   3.7278     0.04515762 0.04515762 0.1383506  0.01921262 32.04449   5.025      0          0.07650328 55.578     0.2824031  0.1574943  0.4073119 
1049.4     0.217      184.8      -9999      -9999      4.416059   3.6631     5.7911     4.8299     4.5894     3.9539     2.932      2.611      2.74       1.299182   4.1437     0.04017998 0.04017998 0.1460701  0.01553777 25.91893   4.908      0          0.06308454 56.953     0.3208793  0.1717462  0.4700123 
1049.6     0.217      181.276    -9999      -9999      4.61167    3.1599     5.442999   5.073201   5.2501     5.1643     2.98       3.336      3.003      1.294899   3.803      0.0302592  0.0302592  0.1486871  0.01017728 19.96628   5.005      0          0.0006339055 58.049     0.3588724  0.1910554  0.5266893 
1049.8     0.216      179        -9999      -9999      4.802829   2.7825     5.2412     5.8486     5.9107     5.9057     5.152      4.517      4.288      1.287886   2.8059     0.04363611 0.04363611 0.1529727  0.01800548 73.97681   5.067      0          0.1298575  58.456     0.331323   0.111918   0.550728  
1050       0.216      168.3      -9999      -9999      4.997346   2.9989     7.6677     8.0077     8.2004     6.2789     12.887     4.692      4.594      1.263603   2.3449     0.05531564 0.05531564 0.1678121  0.02963042 60.23162   5.389      0          0.2672735  58.583     0.3408983  0.1217173  0.5600793 
1050.2     0.227      162.3      -9999      -9999      5.253536   6.6871     8.1065     7.3336     7.040401   5.7191     5.541      4.622      4.392      1.211365   1.8339     0.08541137 0.08541137 0.1997349  0.1069508  45.94619   5.589      0.1500039  0.4491134  58.482     0.3464348  0.1359447  0.5569249 
