~Version
 VERS              .         2.0                           : CWLS LOG ASCII STANDARD - VERSION 2.0
 WRAP              .         NO                            : ONE LINE PER DEPTH STEP
 DLM               .         SPACE                         : DELIMITING CHARACTER(SPACE TAB OR COMMA)
~Well Information
#_______________________________________________________________________________
#
#PARAMETER_NAME    .UNIT     VALUE                         : DESCRIPTION
#_______________________________________________________________________________
STRT               .M        884                           : First reference value
STOP               .M        1232                          : Last reference value
STEP               .M        0.2                           : Step increment
NULL               .         -9999                         : Missing value
COMP               .                                       : Company
WELL               .         3894                          : Well name
FLD                .         Узень                         : Field
LOC                .                                       : Location
CNTY               .                                       : County
STAT               .                                       : State
CTRY               .                                       : Country
SRVC               .                                       : Service Company
DATE               .                                       : Date
UWI                .                                       : Unique Well ID
123                .         1                             : 
4_кв_для_Заказчика .         1                             : 
Block              .         6а                            : 
Category           .         Нефтяная                      : 
Condition          .         В ожидании ликвидации         : 
Date               .         16.05.1989                    : 
EREF               .m        86.6                          : 100.8
Gor                .         15                            : 
Gorizont           .         15                            : 14
Interpretator      .         Кайсанов Е.К                  : 
KUST               .                                       : 
Kupol              .         Основной                      : osnovnoi
Mud                .                                       : 
Mud_density        .                                       : 
Mud_resistivity    .                                       : 
NGDU               .         НГДУ-2                        : 
ORIGINALWELLNAME   .         3894                          : 
Otmetka            .                                       : 
Spud_date          .         1989                          : 1961
Viscosity          .                                       : 
X                  .m        44340.1                       : 46154
Y                  .m        85688.83                      : 85761.93
YEAR               .         2018                          : 
~Parameter Information Block
#_______________________________________________________________________________
#
#PARAMETER_NAME    .UNIT     VALUE                         : DESCRIPTION
#_______________________________________________________________________________
SET                .         LQC_KAZNIPI_Petrel            : 
TLFamily_CALI      .         Caliper                       : 
TLFamily_CILD      .         Conductivity                  : 
TLFamily_COLL      .         Net Reservoir Flag            : 
TLFamily_CSAT      .         Fluid Code                    : 
TLFamily_DEPT      .         Measured Depth                : 
TLFamily_GR        .         Russian Gamma Ray             : 
TLFamily_GZ1       .         Gradient 045                  : 
TLFamily_GZ2       .         Gradient 105                  : 
TLFamily_GZ3       .         Gradient 225                  : 
TLFamily_GZ4       .         Gradient 425                  : 
TLFamily_GZ5       .         Gradient 850                  : 
TLFamily_LLS       .         Lateral Log Resistivity       : 
TLFamily_MINV      .         Micro Gradient Resistivity    : 
TLFamily_MNOR      .         Micro Resistivity             : 
TLFamily_NGLD      .         Neutron Far                   : 
TLFamily_OGZ3      .         Gradient Inverted 225         : 
TLFamily_PHIE      .         Effective Porosity            : 
TLFamily_PHIEN     .         Effective Porosity            : 
TLFamily_PHIT      .         Porosity                      : 
TLFamily_PRMB      .         Permeability                  : 
TLFamily_PRMB_DGR  .         Permeability                  : 
TLFamily_RT        .         Formation Resistivity         : 
TLFamily_SOIL_ARCHIE .         Oil Saturation                : 
TLFamily_SOIL_DW   .         Oil Saturation                : 
TLFamily_SP        .         Spontaneous Potential         : 
TLFamily_VSH_FIN   .         Shale Volume                  : 
TLFamily_VSH_GR    .         Shale Volume                  : 
TLFamily_VSH_SP    .         Shale Volume                  : 
~Curve Information
#_______________________________________________________________________________
#
#LOGNAME           .UNIT     LOG_ID                        : DESCRIPTION
#_______________________________________________________________________________
DEPT               .M                                      : Колонка глубины 
CALI               .м                                      : Каверномер 
CILD               .мСм/м                                  : Индукционный каротаж зондом 6Ф1 
COLL               .unitless                               :  
CSAT               .unitless                               :  
GR                 .uR/h                                   : Гамма каротаж 
GZ1                .Ohmm                                   : 2 
GZ2                .Ohmm                                   : 3 
GZ3                .Ohmm                                   : 3 
GZ4                .Ohmm                                   : 4 
GZ5                .Ohmm                                   : 5 
LLS                .Ohmm                                   : Боковой каротаж 
MINV               .Ohmm                                   : Микро-градиент зонд 
MNOR               .Ohmm                                   : Микро-потенциал зонд 
NGLD               .у.е.                                   : Показания зонда НГК-60 аппаратуры ДРСТ-3-90 
OGZ3               .Ohmm                                   : 2 
PHIE               .v/v                                    : Описание 
PHIEN              .v/v                                    :  
PHIT               .v/v                                    : Описание 
PRMB               .mD                                     :  
PRMB_DGR           .mD                                     :  
RT                 .ohmm                                   : УЭС пласта 
SOIL_ARCHIE        .v/v                                    :  
SOIL_DW            .v/v                                    :  
SP                 .мВ                                     : Потенциал самополяризации 
VSH_FIN            .v/v                                    : Описание 
VSH_GR             .v/v                                    : Shale volume 
VSH_SP             .v/v                                    : Shale Volume 
~Ascii
# ...
1071.2     0.249      476.7      -9999      -9999      8.814025   1.3837     1.695      1.7406     1.4777     1.4121     1.529      2.414      1.441      0.9907411  2.0645     0.1132569  0.1132569  0.3345581  0.3507124  1.067111   1.903      0          0.3871699  58.637     0.6706097  0.6318226  0.7093968 
1071.4     0.245      451        -9999      -9999      8.638718   1.3938     1.9724     1.6822     1.4777     1.3314     1.778      2.293      1.838      0.9875472  2.1862     0.1155186  0.1155186  0.3365099  0.3862278  1.284294   2.011      0          0.4101731  59.323     0.6696706  0.5857911  0.7535501 
1071.6     0.25       439.5      -9999      -9999      8.512009   1.6655     2.0077     1.6239     1.4525     1.3062     2.045      2.098      1.845      0.986918   2.0848     0.1318428  0.1318428  0.3368944  0.7748295  1.468304   2.064      0.07055925 0.4448533  58.409     0.6213686  0.5546227  0.6881146 
1071.8     0.257      419.7      -9999      -9999      8.455239   1.7661     2.0077     2.0197     1.4474     1.3869     1.949      2.054      1.739      0.9874249  2.1406     0.1356202  0.1356202  0.3365846  0.9102747  1.559084   2.161      0.1124815  0.4626697  58.281     0.6089833  0.5412016  0.676765  
1072       0.254      417.1      -9999      -9999      8.469377   1.8064     2.154      1.8421     1.5079     1.5533     1.849      1.977      1.913      0.9878529  2.0746     0.1366487  0.1366487  0.3363231  0.9510953  1.535966   2.175      0.1209704  0.4656108  58.154     0.6050738  0.5445131  0.6656344 
1072.2     0.245      417.2      -9999      -9999      8.546747   1.7812     2.1792     1.7609     1.5281     1.4525     1.82       1.879      1.823      0.9886642  1.9986     0.1443223  0.1443223  0.3358274  1.319341   1.41538    2.174      0.1616383  0.475628   57.087     0.5803183  0.5629989  0.5976377 
1072.4     0.242      417.4      -9999      -9999      8.671264   1.9825     2.1742     1.8878     1.5685     1.4525     1.872      2.039      2.04       0.9907141  2.0797     0.1395961  0.1395961  0.3345746  1.078492   1.240875   2.173      0.1367845  0.4677712  56.96      0.590844   0.5940758  0.5876122 
1072.6     0.24       405.9      -9999      -9999      8.810034   1.8466     2.265      1.837      1.5634     1.4878     2.013      2.069      2.05       0.9935523  2.0797     0.1334432  0.1334432  0.3328402  0.8295652  1.071621   2.235      0.1139947  0.4647241  56.833     0.6042333  0.6307355  0.577731  
1072.8     0.237      393.7      -9999      -9999      8.923771   1.7611     2.4415     1.7863     1.5634     1.4878     1.978      2.076      2.037      0.9954995  2.0543     0.1264939  0.1264939  0.3316503  0.6167824  0.9502615  2.304      0.08489841 0.4612891  56.935     0.6216859  0.6624628  0.580909  
1073       0.237      385.5      -9999      -9999      8.993615   1.9171     2.4289     1.8878     1.5836     1.4121     1.904      1.982      2.077      0.9949746  2.0036     0.1222237  0.1222237  0.331971   0.514087   0.882651   2.353      0.06637995 0.460692   57.113     0.6355982  0.682732   0.5884644 
1073.2     0.238      392.9      -9999      -9999      9.0312     1.8919     2.4163     1.8624     1.6239     1.3869     2.033      1.96       2.038      0.9919839  2.0087     0.127814   0.127814   0.3337986  0.652503   0.8482813  2.309      0.09405743 0.4660885  56.554     0.6241961  0.6938949  0.5544972 
1073.4     0.246      396.9      -9999      -9999      9.052521   1.9121     2.4819     2.106      1.6845     1.4424     1.896      2.098      1.9        0.9886369  2.2826     0.1292161  0.1292161  0.335844   0.6927128  0.8293829  2.285      0.09821454 0.4674798  56.554     0.6261452  0.7003081  0.5519823 
1073.6     0.245      400.8      -9999      -9999      9.059217   2.1083     2.4163     1.9994     1.6895     1.4777     1.785      2.385      1.751      0.9881783  2.2623     0.1268079  0.1268079  0.3361242  0.6250966  0.8235343  2.263      0.07914566 0.461565   56.859     0.6342921  0.7023346  0.5662495 
1073.8     0.241      402.1      -9999      -9999      9.056525   1.8768     2.2297     1.9081     1.6643     1.4474     1.729      2.274      1.59       0.9933307  2.237      0.1232877  0.1232877  0.3329756  0.5379538  0.8258808  2.256      0.05491473 0.4519818  56.96      0.6354181  0.7015192  0.5693169 
1074       0.24       394.7      -9999      -9999      9.063249   1.7158     2.2196     1.8827     1.5584     1.3617     1.801      2.535      1.811      1.004332   2.237      0.1166528  0.1166528  0.3262525  0.4053698  0.8200338  2.298      0.01681355 0.4389355  56.96      0.6351506  0.7035574  0.5667438 
1074.2     0.239      383.8      -9999      -9999      9.08208    1.585      2.2095     2.1161     1.634      1.5281     2.072      3.147      1.861      1.017078   2.3587     0.110642   0.110642   0.3184636  0.3137015  0.8038764  2.363      0          0.4274365  56.706     0.6297624  0.7092976  0.5502272 
1074.4     0.234      381.7      -9999      -9999      9.090271   1.5397     2.1969     2.0146     1.513      1.5685     2.216      2.641      2.188      1.024777   2.2928     0.1070628  0.1070628  0.3137586  0.2692905  0.7969484  2.376      0          0.4168012  56.579     0.6263509  0.711809   0.5408927 
1074.6     0.231      384.5      -9999      -9999      9.072815   1.9473     2.1843     1.9131     1.5584     1.5634     2.262      2.479      1.665      1.024164   2.1913     0.1043857  0.1043857  0.3141333  0.2402344  0.8117856  2.359      0          0.4100199  57.062     0.6355985  0.7064676  0.5647295 
1074.8     0.244      386.6      -9999      -9999      9.041143   2.1083     2.3659     1.837      1.5937     1.4474     1.965      2.454      1.431      1.018872   2.1659     0.107753   0.107753   0.3173672  0.2773355  0.8394148  2.346      0          0.4187489  57.265     0.6351944  0.6968784  0.5735102 
1075       0.247      388.6      -9999      -9999      9.008199   2.0429     2.2246     1.8446     1.6139     1.397      1.801      2.328      1.488      1.014505   2.1609     0.1124722  0.1124722  0.3200361  0.339169   0.8691528  2.334      0          0.4290169  57.265     0.6289814  0.6870419  0.5709208 
1075.2     0.242      386.8      -9999      -9999      8.970886   1.897      2.2852     1.8522     1.4676     1.4928     1.915      2.594      1.508      1.012749   2.2014     0.1157811  0.1157811  0.3211088  0.3905759  0.9041076  2.345      0.01972743 0.4373557  57.265     0.6222051  0.6760688  0.5683414 
1075.4     0.238      372.8      -9999      -9999      8.921048   1.8466     2.4113     1.7913     1.5231     1.3365     2.013      2.86       1.513      1.012177   2.3029     0.1189281  0.1189281  0.3214586  0.4466791  0.9529997  2.433      0.05877133 0.4532303  57.265     0.6137286  0.661685   0.5657722 
1075.6     0.233      362.9      -9999      -9999      8.855793   1.8265     2.3608     2.0958     1.5433     1.4474     2.583      3.126      2.005      1.01255    2.2623     0.1183649  0.1183649  0.3212305  0.4360762  1.021035   2.499      0.06666808 0.4593408  57.672     0.6147443  0.6433133  0.5861753 
1075.8     0.226      352.9      -9999      -9999      8.773178   1.746      2.5223     2.2887     1.6693     1.4474     2.401      2.96       2.233      1.014968   2.0696     0.1051785  0.1051785  0.319753   0.2484954  1.114181   2.57       0          0.4427485  59.247     0.6502258  0.620784   0.6796675 
1076       0.234      344        -9999      -9999      8.682889   2.1385     2.9309     2.2836     1.8509     1.4424     2.093      2.362      1.744      1.019209   2.0188     0.09975673 0.09975673 0.3171611  0.1971945  1.225724   2.637      0          0.4368512  59.907     0.6588013  0.5970634  0.7205391 
1076.2     0.239      353.4      -9999      -9999      8.615586   2.2794     2.6786     2.2075     1.75       1.5029     1.938      2.177      2.007      1.023024   2.0391     0.1021793  0.1021793  0.3148301  0.2186586  1.316075   2.567      0          0.4310977  59.78      0.6443962  0.5799732  0.7088192 
