~Version
 VERS              .         2.0                           : CWLS LOG ASCII STANDARD - VERSION 2.0
 WRAP              .         NO                            : ONE LINE PER DEPTH STEP
 DLM               .         SPACE                         : DELIMITING CHARACTER(SPACE TAB OR COMMA)
~Well Information
#_______________________________________________________________________________
#
#PARAMETER_NAME    .UNIT     VALUE                         : DESCRIPTION
#_______________________________________________________________________________
STRT               .M        884                           : First reference value
STOP               .M        1232                          : Last reference value
STEP               .M        0.2                           : Step increment
NULL               .         -9999                         : Missing value
COMP               .                                       : Company
WELL               .         3894                          : Well name
FLD                .         Узень                         : Field
LOC                .                                       : Location
CNTY               .                                       : County
STAT               .                                       : State
CTRY               .                                       : Country
SRVC               .                                       : Service Company
DATE               .                                       : Date
UWI                .                                       : Unique Well ID
123                .         1                             : 
4_кв_для_Заказчика .         1                             : 
Block              .         6а                            : 
Category           .         Нефтяная                      : 
Condition          .         В ожидании ликвидации         : 
Date               .         16.05.1989                    : 
EREF               .m        86.6                          : 100.8
Gor                .         15                            : 
Gorizont           .         15                            : 14
Interpretator      .         Кайсанов Е.К                  : 
KUST               .                                       : 
Kupol              .         Основной                      : osnovnoi
Mud                .                                       : 
Mud_density        .                                       : 
Mud_resistivity    .                                       : 
NGDU               .         НГДУ-2                        : 
ORIGINALWELLNAME   .         3894                          : 
Otmetka            .                                       : 
Spud_date          .         1989                          : 1961
Viscosity          .                                       : 
X                  .m        44340.1                       : 46154
Y                  .m        85688.83                      : 85761.93
YEAR               .         2018                          : 
~Parameter Information Block
#_______________________________________________________________________________
#
#PARAMETER_NAME    .UNIT     VALUE                         : DESCRIPTION
#_______________________________________________________________________________
SET                .         LQC_KAZNIPI_Petrel            : 
TLFamily_CALI      .         Caliper                       : 
TLFamily_CILD      .         Conductivity                  : 
TLFamily_COLL      .         Net Reservoir Flag            : 
TLFamily_CSAT      .         Fluid Code                    : 
TLFamily_DEPT      .         Measured Depth                : 
TLFamily_GR        .         Russian Gamma Ray             : 
TLFamily_GZ1       .         Gradient 045                  : 
TLFamily_GZ2       .         Gradient 105                  : 
TLFamily_GZ3       .         Gradient 225                  : 
TLFamily_GZ4       .         Gradient 425                  : 
TLFamily_GZ5       .         Gradient 850                  : 
TLFamily_LLS       .         Lateral Log Resistivity       : 
TLFamily_MINV      .         Micro Gradient Resistivity    : 
TLFamily_MNOR      .         Micro Resistivity             : 
TLFamily_NGLD      .         Neutron Far                   : 
TLFamily_OGZ3      .         Gradient Inverted 225         : 
TLFamily_PHIE      .         Effective Porosity            : 
TLFamily_PHIEN     .         Effective Porosity            : 
TLFamily_PHIT      .         Porosity                      : 
TLFamily_PRMB      .         Permeability                  : 
TLFamily_PRMB_DGR  .         Permeability                  : 
TLFamily_RT        .         Formation Resistivity         : 
TLFamily_SOIL_ARCHIE .         Oil Saturation                : 
TLFamily_SOIL_DW   .         Oil Saturation                : 
TLFamily_SP        .         Spontaneous Potential         : 
TLFamily_VSH_FIN   .         Shale Volume                  : 
TLFamily_VSH_GR    .         Shale Volume                  : 
TLFamily_VSH_SP    .         Shale Volume                  : 
~Curve Information
#_______________________________________________________________________________
#
#LOGNAME           .UNIT     LOG_ID                        : DESCRIPTION
#_______________________________________________________________________________
DEPT               .M                                      : Колонка глубины 
CALI               .м                                      : Каверномер 
CILD               .мСм/м                                  : Индукционный каротаж зондом 6Ф1 
COLL               .unitless                               :  
CSAT               .unitless                               :  
GR                 .uR/h                                   : Гамма каротаж 
GZ1                .Ohmm                                   : 2 
GZ2                .Ohmm                                   : 3 
GZ3                .Ohmm                                   : 3 
GZ4                .Ohmm                                   : 4 
GZ5                .Ohmm                                   : 5 
LLS                .Ohmm                                   : Боковой каротаж 
MINV               .Ohmm                                   : Микро-градиент зонд 
MNOR               .Ohmm                                   : Микро-потенциал зонд 
NGLD               .у.е.                                   : Показания зонда НГК-60 аппаратуры ДРСТ-3-90 
OGZ3               .Ohmm                                   : 2 
PHIE               .v/v                                    : Описание 
PHIEN              .v/v                                    :  
PHIT               .v/v                                    : Описание 
PRMB               .mD                                     :  
PRMB_DGR           .mD                                     :  
RT                 .ohmm                                   : УЭС пласта 
SOIL_ARCHIE        .v/v                                    :  
SOIL_DW            .v/v                                    :  
SP                 .мВ                                     : Потенциал самополяризации 
VSH_FIN            .v/v                                    : Описание 
VSH_GR             .v/v                                    : Shale volume 
VSH_SP             .v/v                                    : Shale Volume 
~Ascii
# ...
941.2      0.209      259.7      6          6          2.447569   -9999      -9999      5.1267     -9999      -9999      3.275      1.584      2.044      1.325709   2.2123     0.1049293  0.1049293  0.1398595  0.2458689  3994.696   3.493      0.1141433  0.2027529  47.764     0.1058489  0.02195373 0.1897441 
941.4      0.211      277.6      1          3          2.484795   -9999      -9999      4.2024     -9999      -9999      2.231      1.388      1.548      1.288357   1.9497     0.1267811  0.1267811  0.1626849  0.6243827  3798.221   3.267      0.2247532  0.3024622  48.168     0.1087994  0.02241053 0.1951883 
941.6      0.21       306.8      1          3          2.525769   -9999      -9999      3.5508     -9999      -9999      1.969      1.806      1.71       1.261464   1.8082     0.1440109  0.1440109  0.1791195  1.301938   3593.119   2.956      0.2728441  0.3426398  47.899     0.1063896  0.02292432 0.1898548 
941.8      0.21       332.3      1          3          2.551193   -9999      -9999      3.1972     -9999      -9999      2.147      1.922      2.031      1.247664   1.7628     0.1532067  0.1532067  0.1875523  1.927163   3471.466   2.732      0.2850524  0.3513286  47.638     0.1040773  0.02324902 0.1849056 
942        0.211      354.2      1          3          2.553214   -9999      -9999      2.8538     -9999      -9999      2.257      1.814      1.925      1.243025   1.783      0.1564959  0.1564959  0.1903872  2.217384   3461.972   2.561      0.2765435  0.3417357  47.512     0.1027009  0.02327504 0.1821269 
942.2      0.209      366.6      1          3          2.542427   -9999      -9999      2.7275     -9999      -9999      2.198      1.745      1.822      1.240804   1.7325     0.1562701  0.1562701  0.1917445  2.196134   3512.938   2.474      0.2637893  0.3325973  48.218     0.1074982  0.02313655 0.1918599 
942.4      0.212      364.5      1          3          2.536805   -9999      -9999      2.7022     -9999      -9999      2.108      1.8        1.834      1.238162   1.6567     0.1574951  0.1574951  0.1933591  2.313928   3539.795   2.488      0.2707131  0.3398744  48.433     0.1086787  0.02306471 0.1942927 
942.6      0.211      361.3      1          3          2.545002   -9999      -9999      2.7881     -9999      -9999      2.128      1.706      1.911      1.237947   1.8335     0.1572015  0.1572015  0.1934907  2.285131   3500.702   2.51       0.2725383  0.3425146  48.647     0.1099672  0.02316954 0.1967648 
942.8      0.209      362.5      1          3          2.553053   -9999      -9999      2.9043     -9999      -9999      2.261      1.884      1.986      1.24326    1.8436     0.1551131  0.1551131  0.1902439  2.0904     3462.725   2.502      0.262912   0.3312278  48.269     0.1064571  0.02327297 0.1896412 
943        0.211      365.3      1          3          2.537939   -9999      -9999      2.9447     -9999      -9999      2.47       1.838      2.059      1.252349   1.687      0.1516839  0.1516839  0.1846892  1.805973   3534.361   2.483      0.2457261  0.3106051  47.462     0.1000162  0.02307919 0.1769533 
943.2      0.21       368.1      1          3          2.497528   -9999      -9999      2.8639     -9999      -9999      2.537      1.765      2.039      1.260855   1.6567     0.1484375  0.1484375  0.1794917  1.572463   3733.264   2.464      0.2286032  0.2899903  46.629     0.09410364 0.02256894 0.1656383 
943.4      0.21       353.5      1          3          2.455927   -9999      -9999      2.8386     -9999      -9999      2.383      2.007      2.253      1.267334   1.8082     0.1462413  0.1462413  0.1755325  1.431863   3949.716   2.566      0.2332575  0.2907767  45.747     0.08876122 0.02205548 0.155467  
943.6      0.211      343.1      1          3          2.432038   -9999      -9999      2.8588     -9999      -9999      2.237      2.198      2.477      1.273886   1.8082     0.1425881  0.1425881  0.171528   1.225281   4079.642   2.644      0.2271135  0.2843323  45.621     0.08769661 0.02176591 0.1536273 
943.8      0.211      337.8      1          3          2.425102   -9999      -9999      2.879      -9999      -9999      2.598      2.36       2.706      1.281507   2.1163     0.1377251  0.1377251  0.1668708  0.9957746  4118.159   2.685      0.2091299  0.2677776  45.823     0.0883202  0.02168255 0.1549578 
944        0.212      357.2      1          3          2.434539   -9999      -9999      3.0104     -9999      -9999      3.071      2.225      2.901      1.2863     1.9547     0.1345125  0.1345125  0.1639419  0.8682722  4065.842   2.539      0.1712429  0.2316549  46.049     0.08917995 0.02179605 0.1565638 
944.2      0.212      366.3      1          3          2.468189   -9999      -9999      2.8437     -9999      -9999      2.596      1.591      1.874      1.281537   1.8108     0.1377658  0.1377658  0.1668526  0.9975038  3884.645   2.476      0.1786873  0.2375472  45.86      0.08814175 0.02220559 0.1540779 
944.4      0.212      375.4      1          3          2.517131   -9999      -9999      2.6517     -9999      -9999      2.235      1.545      1.895      1.264142   1.6668     0.1486869  0.1486869  0.1774831  1.589282   3635.418   2.416      0.2225866  0.2788177  45.671     0.08726104 0.02281503 0.1517071 
944.6      0.211      387        1          3          2.548907   -9999      -9999      2.4649     -9999      -9999      2.037      1.826      2.116      1.238257   1.5809     0.1649011  0.1649011  0.1933012  3.173415   3482.23    2.344      0.2794439  0.3328933  45.419     0.08606083 0.02321965 0.148902  
944.8      0.209      397.8      1          3          2.541183   -9999      -9999      2.3234     -9999      -9999      2.113      2.21       2.295      1.211132   1.5809     0.1814046  0.1814046  0.209877   6.41521    3518.863   2.28       0.3282143  0.3804823  45.545     0.08628004 0.02312064 0.1494394 
945        0.207      409.6      1          3          2.505818   -9999      -9999      2.2022     -9999      -9999      2.031      1.571      1.757      1.186787   1.5607     0.1963587  0.1963587  0.2247544  12.1394    3691.567   2.214      0.3642961  0.4156091  45.607     0.08604757 0.02267269 0.1494225 
945.2      0.208      422.5      1          3          2.475403   -9999      -9999      2.081      -9999      -9999      1.874      1.628      1.523      1.165972   1.4926     0.2091414  0.2091414  0.2374747  20.93937   3846.864   2.147      0.389533   0.4402663  45.671     0.08585866 0.02229439 0.1494229 
945.4      0.208      430.3      1          3          2.477628   -9999      -9999      1.9093     -9999      -9999      1.78       1.549      1.655      1.149819   1.4244     0.2190446  0.2190446  0.2473453  31.94449   3835.284   2.108      0.4085767  0.458937   45.709     0.08575965 0.02232185 0.1491974 
945.6      0.207      435.6      1          3          2.515661   -9999      -9999      1.9396     -9999      -9999      1.754      1.51       1.558      1.140423   1.3991     0.2247456  0.2247456  0.2530876  40.73732   3642.664   2.082      0.4182866  0.4685453  45.747     0.08588482 0.02279649 0.1489731 
945.8      0.207      440.9      1          3          2.562379   -9999      -9999      1.9598     -9999      -9999      1.764      1.563      1.637      1.137827   1.5102     0.2264823  0.2264823  0.2546739  43.86912   3419.249   2.057      0.4188885  0.468985   45.633     0.08542923 0.02339335 0.1474651 
946        0.208      445.7      1          3          2.58114    -9999      -9999      1.7981     -9999      -9999      1.766      1.618      1.618      1.138803   1.6011     0.2260845  0.2260845  0.2540775  43.13114   3333.437   2.035      0.415054   0.4650034  45.52      0.0848273  0.02363741 0.1460172 
946.2      0.209      446.9      1          3          2.56078    -9999      -9999      1.8537     -9999      -9999      1.849      1.62       1.565      1.140035   1.5885     0.2250156  0.2250156  0.2533245  41.20904   3426.667   2.03       0.4119561  0.4623457  45.848     0.08578466 0.02337266 0.1481967 
