~Version
 VERS              .         2.0                           : CWLS LOG ASCII STANDARD - VERSION 2.0
 WRAP              .         NO                            : ONE LINE PER DEPTH STEP
 DLM               .         SPACE                         : DELIMITING CHARACTER(SPACE TAB OR COMMA)
~Well Information
#_______________________________________________________________________________
#
#PARAMETER_NAME    .UNIT     VALUE                         : DESCRIPTION
#_______________________________________________________________________________
STRT               .M        884                           : First reference value
STOP               .M        1232                          : Last reference value
STEP               .M        0.2                           : Step increment
NULL               .         -9999                         : Missing value
COMP               .                                       : Company
WELL               .         3894                          : Well name
FLD                .         Узень                         : Field
LOC                .                                       : Location
CNTY               .                                       : County
STAT               .                                       : State
CTRY               .                                       : Country
SRVC               .                                       : Service Company
DATE               .                                       : Date
UWI                .                                       : Unique Well ID
123                .         1                             : 
4_кв_для_Заказчика .         1                             : 
Block              .         6а                            : 
Category           .         Нефтяная                      : 
Condition          .         В ожидании ликвидации         : 
Date               .         16.05.1989                    : 
EREF               .m        86.6                          : 100.8
Gor                .         15                            : 
Gorizont           .         15                            : 14
Interpretator      .         Кайсанов Е.К                  : 
KUST               .                                       : 
Kupol              .         Основной                      : osnovnoi
Mud                .                                       : 
Mud_density        .                                       : 
Mud_resistivity    .                                       : 
NGDU               .         НГДУ-2                        : 
ORIGINALWELLNAME   .         3894                          : 
Otmetka            .                                       : 
Spud_date          .         1989                          : 1961
Viscosity          .                                       : 
X                  .m        44340.1                       : 46154
Y                  .m        85688.83                      : 85761.93
YEAR               .         2018                          : 
~Parameter Information Block
#_______________________________________________________________________________
#
#PARAMETER_NAME    .UNIT     VALUE                         : DESCRIPTION
#_______________________________________________________________________________
SET                .         LQC_KAZNIPI_Petrel            : 
TLFamily_CALI      .         Caliper                       : 
TLFamily_CILD      .         Conductivity                  : 
TLFamily_COLL      .         Net Reservoir Flag            : 
TLFamily_CSAT      .         Fluid Code                    : 
TLFamily_DEPT      .         Measured Depth                : 
TLFamily_GR        .         Russian Gamma Ray             : 
TLFamily_GZ1       .         Gradient 045                  : 
TLFamily_GZ2       .         Gradient 105                  : 
TLFamily_GZ3       .         Gradient 225                  : 
TLFamily_GZ4       .         Gradient 425                  : 
TLFamily_GZ5       .         Gradient 850                  : 
TLFamily_LLS       .         Lateral Log Resistivity       : 
TLFamily_MINV      .         Micro Gradient Resistivity    : 
TLFamily_MNOR      .         Micro Resistivity             : 
TLFamily_NGLD      .         Neutron Far                   : 
TLFamily_OGZ3      .         Gradient Inverted 225         : 
TLFamily_PHIE      .         Effective Porosity            : 
TLFamily_PHIEN     .         Effective Porosity            : 
TLFamily_PHIT      .         Porosity                      : 
TLFamily_PRMB      .         Permeability                  : 
TLFamily_PRMB_DGR  .         Permeability                  : 
TLFamily_RT        .         Formation Resistivity         : 
TLFamily_SOIL_ARCHIE .         Oil Saturation                : 
TLFamily_SOIL_DW   .         Oil Saturation                : 
TLFamily_SP        .         Spontaneous Potential         : 
TLFamily_VSH_FIN   .         Shale Volume                  : 
TLFamily_VSH_GR    .         Shale Volume                  : 
TLFamily_VSH_SP    .         Shale Volume                  : 
~Curve Information
#_______________________________________________________________________________
#
#LOGNAME           .UNIT     LOG_ID                        : DESCRIPTION
#_______________________________________________________________________________
DEPT               .M                                      : Колонка глубины 
CALI               .м                                      : Каверномер 
CILD               .мСм/м                                  : Индукционный каротаж зондом 6Ф1 
COLL               .unitless                               :  
CSAT               .unitless                               :  
GR                 .uR/h                                   : Гамма каротаж 
GZ1                .Ohmm                                   : 2 
GZ2                .Ohmm                                   : 3 
GZ3                .Ohmm                                   : 3 
GZ4                .Ohmm                                   : 4 
GZ5                .Ohmm                                   : 5 
LLS                .Ohmm                                   : Боковой каротаж 
MINV               .Ohmm                                   : Микро-градиент зонд 
MNOR               .Ohmm                                   : Микро-потенциал зонд 
NGLD               .у.е.                                   : Показания зонда НГК-60 аппаратуры ДРСТ-3-90 
OGZ3               .Ohmm                                   : 2 
PHIE               .v/v                                    : Описание 
PHIEN              .v/v                                    :  
PHIT               .v/v                                    : Описание 
PRMB               .mD                                     :  
PRMB_DGR           .mD                                     :  
RT                 .ohmm                                   : УЭС пласта 
SOIL_ARCHIE        .v/v                                    :  
SOIL_DW            .v/v                                    :  
SP                 .мВ                                     : Потенциал самополяризации 
VSH_FIN            .v/v                                    : Описание 
VSH_GR             .v/v                                    : Shale volume 
VSH_SP             .v/v                                    : Shale Volume 
~Ascii
# ...
1216.8     -9999      744.8      1          3          8.09903    2.0036     2.0027     1.7916     1.8246     1.2546     1.342      0.802      1.612      1.183476   1.2392     0.1726326  0.1726326  0.2267777  4.412988   14.27829   1.218      0.07174154 0.1841787  31.546     0.164076   0.2190894  0.164076  
1217       -9999      752.9      1          3          8.269533   1.7804     1.8715     1.5392     2.0444     1.4822     1.47       1.157      1.803      1.163433   1.1112     0.1936022  0.1936022  0.2390258  10.79298   10.55664   1.205      0.155707   0.2419222  28.234     0.1376472  0.2478417  0.1376472 
1217.2     -9999      752.9      1          3          8.469434   1.6004     1.6344     1.3878     1.8553     1.4266     1.565      1.095      1.525      1.140778   0.9833     0.2096284  0.2096284  0.2528707  21.37883   7.409068   1.205      0.2122094  0.2904599  26.768     0.1310375  0.2863919  0.1310375 
1217.4     -9999      752.9      1          3          8.65924    1.4203     1.5815     1.2314     1.6253     1.3001     1.518      1.486      2.103      1.12169    0.9733     0.2226042  0.2226042  0.2645352  37.18159   5.293783   1.205      0.2523584  0.3260548  25.58      0.1270635  0.3285309  0.1270635 
1217.6     -9999      729.8      1          3          8.780781   1.6333     1.5285     1.1809     1.5282     0.9713     1.593      1.488      1.868      1.110422   0.9632     0.2303592  0.2303592  0.2714213  51.75705   4.268525   1.243      0.2848241  0.3556251  24.569     0.1244304  0.358716   0.1244304 
1217.8     -9999      730.35     1          3          8.781044   1.6384     1.6697     1.0951     1.3953     0.8701     1.619      1.298      1.445      1.105652   0.9532     0.23367    0.23367    0.274336   59.60638   4.266533   1.242      0.2933907  0.3631912  23.912     0.1232304  0.3587843  0.1232304 
1218       -9999      775.5      1          3          -9999      1.6181     1.6395     0.9589     1.2113     0.8195     1.529      1.048      1.637      1.101746   0.9628     0.2360383  0.2360383  0.2767228  65.9418    -9999      1.17       0.2796633  0.3499436  23.659     0.1232861  -9999      0.1232861 
1218.2     -9999      795.3      1          3          -9999      2.0746     1.5184     0.8781     1.1858     0.8398     1.492      1.186      1.651      1.095104   0.9501     0.2399513  0.2399513  0.2807818  77.91793   -9999      1.14       0.2811963  0.351487   23.533     0.123729   -9999      0.123729  
1218.4     -9999      832.9      1          3          -9999      2.0949     1.7252     0.8226     1.0784     0.865      1.476      1.199      1.724      1.087613   0.9373     0.2445099  0.2445099  0.2853596  94.64      -9999      1.089      0.2775311  0.347858   23.28      0.1237868  -9999      0.1237868 
1218.6     -9999      852.5      1          3          -9999      2.0645     1.6748     0.7772     0.9455     0.8195     1.431      1.092      1.675      1.082596   0.7896     0.2475566  0.2475566  0.2884254  107.7721   -9999      1.064      0.2774494  0.3477273  23.027     0.1238449  -9999      0.1238449 
1218.8     -9999      869.5      1          3          -9999      1.9428     1.3973     0.7772     0.8331     0.6475     1.311      1.228      1.527      1.079501   0.7387     0.2491593  0.2491593  0.290317   115.3967   -9999      1.043      0.2747465  0.3454627  23.027     0.1247201  -9999      0.1247201 
1219       -9999      920.1      1          3          -9999      1.5826     1.3418     0.7267     0.6951     0.5919     1.228      1.365      1.635      1.075185   0.7132     0.2443968  0.2443968  0.2929546  94.18465   -9999      0.986      0.242743   0.3247531  26.827     0.1471446  -9999      0.1471446 
1219.2     -9999      978.4      1          3          -9999      1.3899     1.2006     0.6006     0.6491     0.5362     1.158      1.134      1.473      1.069613   0.8456     0.2126086  0.2126086  0.2963592  24.27649   -9999      0.927      0.119917   0.2664608  33.426     0.2537896  -9999      0.2537896 
1219.4     -9999      1001.7     1          3          -9999      1.2225     1.0997     0.8024     0.5775     0.8802     1.119      1.139      1.435      1.063858   0.8864     0.2021778  0.2021778  0.2998766  15.559     -9999      0.905      0.07007772 0.2472188  34.725     0.2960569  -9999      0.2960569 
1219.6     -9999      898.8      -9999      -9999      -9999      1.1717     0.9988     0.9235     0.8331     0.7538     1.262      1.06       1.299      -9999      0.8354     -9999      -9999      -9999      -9999      -9999      1.009      -9999      -9999      37.426     0.39962    -9999      0.39962   
1219.8     -9999      849.3      -9999      -9999      -9999      1.2326     1.0341     0.9235     0.8459     0.6273     1.358      0.791      1.113      -9999      0.782      -9999      -9999      -9999      -9999      -9999      1.068      -9999      -9999      39.311     0.4966291  -9999      0.4966291 
1220       -9999      832.1      -9999      -9999      -9999      1.1819     1.0039     0.7873     0.8586     0.86       1.307      1.223      1.006      -9999      0.7285     -9999      -9999      -9999      -9999      -9999      1.09       -9999      -9999      41.477     0.6313618  -9999      0.6313618 
1220.2     -9999      768.2      -9999      -9999      -9999      1.2986     0.9358     0.762      0.8382     1.4316     1.491      1.654      1.488      -9999      0.703      -9999      -9999      -9999      -9999      -9999      1.181      -9999      -9999      42.164     0.6922684  -9999      0.6922684 
1220.4     -9999      704.2      -9999      -9999      -9999      1.2732     0.8677     1.1809     0.8944     1.5227     1.594      2.086      1.667      -9999      0.8711     -9999      -9999      -9999      -9999      -9999      1.288      -9999      -9999      41.884     0.6917189  -9999      0.6917189 
1220.6     -9999      640.3      -9999      -9999      -9999      1.2225     1.1602     1.297      1.0375     1.6137     1.802      2.394      1.712      -9999      0.8686     -9999      -9999      -9999      -9999      -9999      1.417      -9999      -9999      41.757     0.6832607  -9999      0.6832607 
1220.8     -9999      576.3      -9999      -9999      -9999      1.5826     1.3822     1.3575     1.1193     1.6745     1.816      2.398      2.22       -9999      0.866      -9999      -9999      -9999      -9999      -9999      1.574      -9999      -9999      42.623     0.7417336  -9999      0.7417336 
1221       -9999      551.5      -9999      -9999      -9999      1.7449     1.5184     1.1607     1.0375     1.6694     1.622      2.248      2.252      -9999      0.7845     -9999      -9999      -9999      -9999      -9999      1.645      -9999      -9999      42.011     0.7000056  -9999      0.7000056 
1221.2     -9999      521        -9999      -9999      -9999      1.5268     1.584      1.0876     0.9353     1.5581     1.529      2.044      1.811      -9999      0.9119     -9999      -9999      -9999      -9999      -9999      1.741      -9999      -9999      41.196     0.6474468  -9999      0.6474468 
1221.4     -9999      508.4      -9999      -9999      -9999      1.4862     1.584      1.0144     0.8535     1.5379     1.551      2.183      2.296      -9999      1.136      -9999      -9999      -9999      -9999      -9999      1.784      -9999      -9999      40.661     0.6147654  -9999      0.6147654 
1221.6     -9999      500.2      -9999      -9999      -9999      1.8159     1.6496     0.9841     0.874      1.5581     1.605      2.274      2.082      -9999      1.0316     -9999      -9999      -9999      -9999      -9999      1.813      -9999      -9999      40.445     0.6019708  -9999      0.6019708 
1221.8     -9999      494.9      -9999      -9999      -9999      1.75       2.0733     1.1304     0.9966     1.5783     1.474      2.487      1.732      -9999      0.9271     -9999      -9999      -9999      -9999      -9999      1.833      -9999      -9999      40.228     0.5893455  -9999      0.5893455 
