~Version
 VERS              .         2.0                           : CWLS LOG ASCII STANDARD - VERSION 2.0
 WRAP              .         NO                            : ONE LINE PER DEPTH STEP
 DLM               .         SPACE                         : DELIMITING CHARACTER(SPACE TAB OR COMMA)
~Well Information
#_______________________________________________________________________________
#
#PARAMETER_NAME    .UNIT     VALUE                         : DESCRIPTION
#_______________________________________________________________________________
STRT               .M        884                           : First reference value
STOP               .M        1232                          : Last reference value
STEP               .M        0.2                           : Step increment
NULL               .         -9999                         : Missing value
COMP               .                                       : Company
WELL               .         3894                          : Well name
FLD                .         Узень                         : Field
LOC                .                                       : Location
CNTY               .                                       : County
STAT               .                                       : State
CTRY               .                                       : Country
SRVC               .                                       : Service Company
DATE               .                                       : Date
UWI                .                                       : Unique Well ID
123                .         1                             : 
4_кв_для_Заказчика .         1                             : 
Block              .         6а                            : 
Category           .         Нефтяная                      : 
Condition          .         В ожидании ликвидации         : 
Date               .         16.05.1989                    : 
EREF               .m        86.6                          : 100.8
Gor                .         15                            : 
Gorizont           .         15                            : 14
Interpretator      .         Кайсанов Е.К                  : 
KUST               .                                       : 
Kupol              .         Основной                      : osnovnoi
Mud                .                                       : 
Mud_density        .                                       : 
Mud_resistivity    .                                       : 
NGDU               .         НГДУ-2                        : 
ORIGINALWELLNAME   .         3894                          : 
Otmetka            .                                       : 
Spud_date          .         1989                          : 1961
Viscosity          .                                       : 
X                  .m        44340.1                       : 46154
Y                  .m        85688.83                      : 85761.93
YEAR               .         2018                          : 
~Parameter Information Block
#_______________________________________________________________________________
#
#PARAMETER_NAME    .UNIT     VALUE                         : DESCRIPTION
#_______________________________________________________________________________
SET                .         LQC_KAZNIPI_Petrel            : 
TLFamily_CALI      .         Caliper                       : 
TLFamily_CILD      .         Conductivity                  : 
TLFamily_COLL      .         Net Reservoir Flag            : 
TLFamily_CSAT      .         Fluid Code                    : 
TLFamily_DEPT      .         Measured Depth                : 
TLFamily_GR        .         Russian Gamma Ray             : 
TLFamily_GZ1       .         Gradient 045                  : 
TLFamily_GZ2       .         Gradient 105                  : 
TLFamily_GZ3       .         Gradient 225                  : 
TLFamily_GZ4       .         Gradient 425                  : 
TLFamily_GZ5       .         Gradient 850                  : 
TLFamily_LLS       .         Lateral Log Resistivity       : 
TLFamily_MINV      .         Micro Gradient Resistivity    : 
TLFamily_MNOR      .         Micro Resistivity             : 
TLFamily_NGLD      .         Neutron Far                   : 
TLFamily_OGZ3      .         Gradient Inverted 225         : 
TLFamily_PHIE      .         Effective Porosity            : 
TLFamily_PHIEN     .         Effective Porosity            : 
TLFamily_PHIT      .         Porosity                      : 
TLFamily_PRMB      .         Permeability                  : 
TLFamily_PRMB_DGR  .         Permeability                  : 
TLFamily_RT        .         Formation Resistivity         : 
TLFamily_SOIL_ARCHIE .         Oil Saturation                : 
TLFamily_SOIL_DW   .         Oil Saturation                : 
TLFamily_SP        .         Spontaneous Potential         : 
TLFamily_VSH_FIN   .         Shale Volume                  : 
TLFamily_VSH_GR    .         Shale Volume                  : 
TLFamily_VSH_SP    .         Shale Volume                  : 
~Curve Information
#_______________________________________________________________________________
#
#LOGNAME           .UNIT     LOG_ID                        : DESCRIPTION
#_______________________________________________________________________________
DEPT               .M                                      : Колонка глубины 
CALI               .м                                      : Каверномер 
CILD               .мСм/м                                  : Индукционный каротаж зондом 6Ф1 
COLL               .unitless                               :  
CSAT               .unitless                               :  
GR                 .uR/h                                   : Гамма каротаж 
GZ1                .Ohmm                                   : 2 
GZ2                .Ohmm                                   : 3 
GZ3                .Ohmm                                   : 3 
GZ4                .Ohmm                                   : 4 
GZ5                .Ohmm                                   : 5 
LLS                .Ohmm                                   : Боковой каротаж 
MINV               .Ohmm                                   : Микро-градиент зонд 
MNOR               .Ohmm                                   : Микро-потенциал зонд 
NGLD               .у.е.                                   : Показания зонда НГК-60 аппаратуры ДРСТ-3-90 
OGZ3               .Ohmm                                   : 2 
PHIE               .v/v                                    : Описание 
PHIEN              .v/v                                    :  
PHIT               .v/v                                    : Описание 
PRMB               .mD                                     :  
PRMB_DGR           .mD                                     :  
RT                 .ohmm                                   : УЭС пласта 
SOIL_ARCHIE        .v/v                                    :  
SOIL_DW            .v/v                                    :  
SP                 .мВ                                     : Потенциал самополяризации 
VSH_FIN            .v/v                                    : Описание 
VSH_GR             .v/v                                    : Shale volume 
VSH_SP             .v/v                                    : Shale Volume 
~Ascii
# ...
1112.8     0.275      392.9      -9999      -9999      8.404737   1.9724     2.376      2.9788     2.5267     2.0072     1.881      2.027      1.712      0.9294526  1.9478     0.1658588  0.1658588  0.3720115  3.30571    1.644549   2.309      0.2779895  0.5469184  61.584     0.6247053  0.5295355  0.7198752 
1113       0.268      386.8      -9999      -9999      8.416207   1.5347     2.3356     2.8164     2.5065     2.0425     1.752      2.402      1.774      0.930982   2.0746     0.1600355  0.1600355  0.3710769  2.578717   1.624736   2.345      0.2605486  0.5436677  61.991     0.6395195  0.5321628  0.7468761 
1113.2     0.271      385.8      -9999      -9999      8.459824   1.4743     2.6685     2.7606     2.6376     1.9871     1.94       1.489      1.602      0.9358159  2.0493     0.1660936  0.1660936  0.3681229  3.33899    1.551549   2.351      0.2849531  0.5482618  61.051     0.61221    0.5422732  0.6821468 
1113.4     0.274      384.8      -9999      -9999      8.51876    1.7661     2.497      2.7479     2.8091     2.1636     1.952      2.543      1.446      0.9442109  2.242      0.1604493  0.1604493  0.3629927  2.624626   1.457866   2.357      0.2639748  0.5389324  60.924     0.6137681  0.5562407  0.6712955 
1113.6     0.267      386.8      -9999      -9999      8.576875   1.746      2.5576     2.7352     2.9755     2.1384     1.924      2.636      1.928      0.9544452  2.1964     0.1506766  0.1506766  0.3567385  1.730033   1.371029   2.345      0.2207033  0.5216528  61.076     0.62443    0.5703657  0.6784943 
1113.8     0.266      390.9      -9999      -9999      8.606522   1.6655     2.4769     2.583      2.794      2.1131     2.112      2.636      1.692      0.9635773  2.2674     0.142686   0.142686   0.3511579  1.230408   1.328742   2.32       0.1787076  0.504451   61.228     0.631733   0.5777091  0.6857568 
1114       0.271      394.3      -9999      -9999      8.577071   1.7762     2.3911     2.5069     2.6175     2.2191     1.961      2.513      1.565      0.9689907  2.242      0.1470303  0.1470303  0.3478498  1.480866   1.370745   2.3        0.196626   0.5047878  60.657     0.6085438  0.5704141  0.6466736 
1114.2     0.271      397.8      -9999      -9999      8.484523   1.8768     2.3911     2.4764     2.5116     2.1182     1.901      2.382      1.53       0.9708945  2.2167     0.1586482  0.1586482  0.3466864  2.430571   1.511577   2.28       0.2450269  0.5154974  59.78      0.5698125  0.5480835  0.5915414 
1114.4     0.27       401.6      -9999      -9999      8.359663   2.0077     2.3306     2.4815     2.4964     2.0627     1.96       2.483      1.45       0.972099   2.2826     0.1654325  0.1654325  0.3459503  3.246157   1.724777   2.259      0.2688971  0.5202675  59.526     0.5470236  0.5193356  0.5747116 
1114.6     0.274      402.1      -9999      -9999      8.247251   1.8265     2.497      2.4307     2.4208     2.1283     1.932      2.585      1.287      0.9746804  2.3536     0.1678153  0.1678153  0.3443728  3.593385   1.942331   2.256      0.2774961  0.5212062  59.577     0.5350229  0.4947458  0.5752999 
1114.8     0.274      402.1      -9999      -9999      8.18482    1.8164     2.4113     2.38       2.3149     2.1232     1.911      2.306      1.493      0.9781138  2.3536     0.1677898  0.1677898  0.3422747  3.589479   2.074794   2.256      0.2774005  0.5193676  59.628     0.5287422  0.4815958  0.5758885 
1115       0.27       402.1      -9999      -9999      8.185286   1.7309     2.5021     2.243      2.1384     2.0678     1.904      2.195      1.332      0.9808909  2.4145     0.1635828  0.1635828  0.3405775  2.999913   2.073774   2.256      0.2612418  0.513193   59.933     0.5363477  0.4816926  0.5910028 
1115.2     0.266      401.6      -9999      -9999      8.232426   1.8014     2.3861     2.2328     1.9971     1.8206     1.935      2.669      1.689      0.982538   2.587      0.1603654  0.1603654  0.339571   2.615257   1.973      2.259      0.2488179  0.5089301  60.034     0.5430474  0.491591   0.5945037 
1115.4     0.267      401.1      -9999      -9999      8.291191   1.9271     2.2398     2.243      1.9467     1.9417     1.921      2.634      1.771      0.9837168  2.5996     0.1591569  0.1591569  0.3388507  2.483872   1.854203   2.261      0.2441663  0.5070885  59.907     0.5445267  0.5042159  0.5848374 
1115.6     0.262      383        -9999      -9999      8.331219   1.7812     2.1591     2.1313     2.0678     1.9114     2.036      2.891      1.814      0.985775   2.6123     0.1580224  0.1580224  0.3375929  2.366554   1.777409   2.368      0.2557674  0.5159302  59.78      0.544153   0.5130004  0.5753057 
1115.8     0.26       375.3      -9999      -9999      8.341863   1.59       2.4668     2.111      2.1031     1.9316     2.036      2.78       1.918      0.9903113  2.6123     0.1518819  0.1518819  0.3348207  1.821291   1.757528   2.417      0.2369975  0.5111454  60.136     0.5543602  0.515362   0.5933583 
1116       0.259      367.5      -9999      -9999      8.32931    1.7762     2.497      2.0501     2.0778     1.9518     2.09       2.894      2.174      0.997788   2.8862     0.1493646  0.1493646  0.3302518  1.635885   1.780996   2.468      0.2333588  0.5089821  60.009     0.5481429  0.5125781  0.5837076 
1116.2     0.259      359.6      -9999      -9999      8.301754   1.9724     2.5727     2.2024     1.9871     1.8711     2.162      2.76       2.079      1.006734   2.9725     0.1524469  0.1524469  0.3247849  1.865709   1.833621   2.522      0.2544873  0.5129533  59.221     0.5222365  0.5065193  0.5379537 
1116.4     0.26       355.2      -9999      -9999      8.257349   1.9221     2.7644     2.2836     2.093      1.9719     2.275      2.4        1.923      1.014859   2.9116     0.1485264  0.1485264  0.3198197  1.578434   1.921714   2.554      0.241876   0.5065172  59.323     0.5190707  0.4969064  0.541235  
1116.6     0.259      355.2      -9999      -9999      8.181854   1.9171     2.6635     2.243      2.0678     2.0274     2.174      2.472      2.089      1.02138    2.8558     0.1486396  0.1486396  0.3158347  1.586079   2.081306   2.554      0.2423792  0.5027986  59.196     0.5066518  0.4809799  0.5323237 
1116.8     0.258      354.7      -9999      -9999      8.065522   2.1385     2.8047     2.2328     1.9064     2.0476     2.128      2.777      1.982      1.027344   2.9116     0.1503291  0.1503291  0.3121898  1.704582   2.35356    2.557      0.2502135  0.5016455  59.069     0.4904869  0.4574318  0.523542  
1117       0.26       354.2      -9999      -9999      7.919476   2.0227     2.7795     2.3901     1.8509     1.9719     2.09       2.963      1.915      1.032982   2.9319     0.146717   0.146717   0.3087445  1.461209   2.746321   2.561      0.234723   0.4939389  59.653     0.4909927  0.4294943  0.5524911 
1117.2     0.259      351.4      -9999      -9999      7.769643   1.9976     2.7745     2.3039     1.7954     2.0375     2.19       2.894      2.166      1.036403   2.8507     0.1423591  0.1423591  0.3066542  1.21337    3.217474   2.581      0.217222   0.4879575  60.416     0.4978639  0.4026046  0.5931233 
1117.4     0.254      341.2      -9999      -9999      7.638677   2.0378     2.9107     2.3394     1.861      2.1434     2.245      2.579      1.982      1.036515   2.8812     0.1370105  0.1370105  0.3065856  0.965882   3.69505    2.658      0.2017614  0.4880423  61.356     0.5138641  0.3804835  0.6472446 
1117.6     0.246      334.8      -9999      -9999      7.537993   2.214      2.8098     2.2531     1.9165     2.1081     2.245      2.559      2.318      1.035148   2.8558     0.1388318  0.1388318  0.3074212  1.043901   4.109865   2.709      0.2178963  0.4962447  61.559     0.510877   0.3643073  0.6574468 
1117.8     0.243      334.8      -9999      -9999      7.469676   2.0177     2.9208     2.4003     1.8912     2.0577     2.259      3.08       2.529      1.034817   2.9623     0.140148   0.140148   0.3076231  1.104176   4.417542   2.709      0.2242973  0.498232   61.66      0.5075003  0.3537247  0.6612759 
