~Version
 VERS              .         2.0                           : CWLS LOG ASCII STANDARD - VERSION 2.0
 WRAP              .         NO                            : ONE LINE PER DEPTH STEP
 DLM               .         SPACE                         : DELIMITING CHARACTER(SPACE TAB OR COMMA)
~Well Information
#_______________________________________________________________________________
#
#PARAMETER_NAME    .UNIT     VALUE                         : DESCRIPTION
#_______________________________________________________________________________
STRT               .M        0.7                           : First reference value
STOP               .M        1248.1                        : Last reference value
STEP               .M        0.2                           : Step increment
NULL               .         -9999                         : Missing value
COMP               .                                       : Company
WELL               .         4055                          : Well name
FLD                .         Узень                         : Field
LOC                .                                       : Location
CNTY               .                                       : County
STAT               .                                       : State
CTRY               .                                       : Country
SRVC               .                                       : Service Company
DATE               .         20/2/2014                     : Date
UWI                .                                       : Unique Well ID
3кв_для_заказчика  .         5                             : 
Block              .         6а                            : 
Category           .         Нефтяная                      : 
Condition          .         В работе                      : 
Date               .         04.03.2014                    : 
EREF               .m        79.2                          : 100.8
GRP                .                                       : Group name
Gor                .         14                            : 
Gorizont           .         14                            : 14
ISS                .                                       : Well surveys
Interpretator      .         Кайсанов Е.К                  : 
Kupol              .         Основной                      : osnovnoi
Mud                .         полимерный                    : 
Mud_density        .         1,34                          : 
Mud_resistivity    .         0,35                          : 
NGDU               .         НГДУ-2                        : 
ORIGINALWELLNAME   .         4055                          : 
Spud_date          .         2014                          : 1961
TIME               .                                       : LOG TIME
Viscosity          .         40                            : 
X                  .m        44072.64                      : 46154
Y                  .m        85156.06                      : 85761.93
YEAR               .         2019                          : 
временно           .         \                             : 
~Parameter Information Block
#_______________________________________________________________________________
#
#PARAMETER_NAME    .UNIT     VALUE                         : DESCRIPTION
#_______________________________________________________________________________
SET                .         LQC_KAZNIPI_Petrel            : 
TLFamily_CALI      .         Caliper                       : 
TLFamily_CILD      .         Conductivity                  : 
TLFamily_COLL      .         Net Reservoir Flag            : 
TLFamily_CSAT      .         Fluid Code                    : 
TLFamily_DEPT      .         Measured Depth                : 
TLFamily_DT        .         Compressional Slowness        : 
TLFamily_GR        .         Russian Gamma Ray             : 
TLFamily_GZ3       .         Gradient 225                  : 
TLFamily_IK1       .         Resistivity 05                : 
TLFamily_IK2       .         Resistivity 07                : 
TLFamily_IK3       .         Resistivity 10                : 
TLFamily_IK4       .         Resistivity 14                : 
TLFamily_IK5       .         Resistivity 20                : 
TLFamily_LLS       .         Lateral Log Resistivity       : 
TLFamily_MBK       .         Micro Lateral Log Resistivity : 
TLFamily_MINV      .         Micro Gradient Resistivity    : 
TLFamily_MNOR      .         Micro Resistivity             : 
TLFamily_NGLD      .         Neutron Far                   : 
TLFamily_NNKTB_1   .         Neutron Far                   : 
TLFamily_NNKTM_1   .         Neutron Near                  : 
TLFamily_NPHI      .         Neutron Porosity              : 
TLFamily_OGZ3      .         Gradient Inverted 225         : 
TLFamily_PHIE      .         Effective Porosity            : 
TLFamily_PHIED     .         Effective Porosity            : 
TLFamily_PHIEN     .         Effective Porosity            : 
TLFamily_PHIES     .         Effective Porosity            : 
TLFamily_PHIT      .         Porosity                      : 
TLFamily_PRMB      .         Permeability                  : 
TLFamily_PRMB_DGR  .         Permeability                  : 
TLFamily_RHOB      .         Bulk Density                  : 
TLFamily_RT        .         Formation Resistivity         : 
TLFamily_SOIL_ARCHIE .         Oil Saturation                : 
TLFamily_SOIL_DW   .         Oil Saturation                : 
TLFamily_SP        .         Spontaneous Potential         : 
TLFamily_VSH_FIN   .         Shale Volume                  : 
TLFamily_VSH_GR    .         Shale Volume                  : 
TLFamily_VSH_SP    .         Shale Volume                  : 
TLFamily_W         .         Neutron Porosity              : 
~Curve Information
#_______________________________________________________________________________
#
#LOGNAME           .UNIT     LOG_ID                        : DESCRIPTION
#_______________________________________________________________________________
DEPT               .M                                      : Колонка глубины 
CALI               .м                                      : Каверномер 
CILD               .мСм/м                                  : Проводимость 
COLL               .unitless                               :  
CSAT               .unitless                               :  
DT                 .мкс/м                                  : Интервальное время пробега продольной волны 
GR                 .uR/h                                   : Гамма каротаж 
GZ3                .Ohmm                                   : Градиент-зонд  длиной 2.25м 
IK1                .Ohmm                                   : ИК1 
IK2                .Ohmm                                   : ИК2 
IK3                .Ohmm                                   : ИК3 
IK4                .Ohmm                                   : ИК4 
IK5                .Ohmm                                   : ИК5 
LLS                .Ohmm                                   : Боковой каротаж 
MBK                .Ohmm                                   : Микробоковой каротаж 
MINV               .Ohmm                                   : Микро-градиент зонд 
MNOR               .Ohmm                                   : Микро-потенциал зонд 
NGLD               .у.е.                                   : Показания зонда НГК-60 аппаратуры ДРСТ-3-90 
NNKTB_1            .у.е.                                   : Показания большого зонда 2ННКт аппаратуры СРК 
NNKTM_1            .у.е.                                   : Показания малого зонда 2ННКт аппаратуры СРК 
NPHI               .v/v                                    : Total porosity 
OGZ3               .Ohmm                                   : Обращенный градиент-зонд 
PHIE               .v/v                                    : Описание 
PHIED              .v/v                                    :  
PHIEN              .v/v                                    :  
PHIES              .v/v                                    :  
PHIT               .v/v                                    : Описание 
PRMB               .mD                                     :  
PRMB_DGR           .mD                                     :  
RHOB               .G/C3                                   : Плотность по ГГКп 
RT                 .ohmm                                   : Удельное электрическое сопротивление 
SOIL_ARCHIE        .v/v                                    :  
SOIL_DW            .v/v                                    :  
SP                 .мВ                                     : Потенциал самополяризации 
VSH_FIN            .v/v                                    : Описание 
VSH_GR             .v/v                                    : Shale volume 
VSH_SP             .v/v                                    : Shale Volume 
W                  .v/v                                    :  
~Ascii
# ...
919.5      0.199      448.43     1          3          302.034    3.039629   2.16       3.539999961853028 3.25       2.57       2.26       2.23       2.25       3.04       1.78       3.04       -9999      4.03       1.95       -9999      2.66       0.241846   0.239521   -9999      0.244171   0.2553778  84.47575   3834.367   2.27       2.384      0.487886   0.5212131  405.47     0.08631953 0.02232403 0.150315   0.1941457 
919.7      0.199      418.41     1          3          285.81     3.125537   2.54       4.03000020980835 3.660000085830688 2.93       2.51       2.39       2.73       3.17       1.75       3.05       -9999      4.06       1.97       -9999      2.86       0.2162662  0.2095809  -9999      0.2229514  0.2296575  28.37474   3402.02    2.32       2.691      0.4667082  0.4976611  405.04     0.0854231  0.02344166 0.1474045  0.1951903 
919.9      0.2        403.22     1          3          286.203    3.20017    2.58       3.920000076293945 3.599999904632568 2.99       2.58       2.48       2.94       3.92       1.65       3.1        -9999      4.2        1.95       -9999      2.81       0.2287849  0.233533   -9999      0.2240369  0.2419083  48.39601   3066.188   2.28       2.69       0.4921264  0.5238964  404.28     0.08371421 0.02445793 0.1429705  0.1792387 
920.1      0.2        411.52     1          3          298.361    3.252471   2.5        3.700000047683716 3.460000038146973 2.92       2.54       2.43       2.57       3.41       1.56       2.92       -9999      4.13       1.95       -9999      2.57       0.2282267  0.2155689  -9999      0.2408845  0.2410704  47.2574    2850.805   2.31       2.535      0.4766712  0.5080702  403.44     0.08192983 0.02519624 0.1386634  0.1851746 
920.3      0.2        421.94     1          3          304.637    3.288327   2.39       3.589999914169312 3.390000104904175 2.85       2.52       2.37       2.47       3.13       1.6        2.84       -9999      4.25       1.92       -9999      2.59       0.2533306  0.257485   -9999      0.2491762  0.265978   137.8655   2711.949   2.24       2.486      0.5177416  0.5509351  402.79     0.08067784 0.02571526 0.1356404  0.1699425 
920.5      0.198      432.9      1          3          307.219    3.317024   2.52       3.440000057220459 3.230000019073486 2.75       2.45       2.31       2.37       2.96       1.71       2.94       -9999      4.13       1.92       -9999      2.44       0.2370786  0.2215569  -9999      0.2526003  0.2495921  68.93339   2605.707   2.3        2.479      0.4883962  0.5202158  402.3      0.07982298 0.02613833 0.1335076  0.1796927 
920.7      0.199      444.44     1          3          308.329    3.340022   2.13       3.309999942779541 3.039999961853027 2.61       2.36       2.25       2.29       3.02       1.88       2.99       -9999      3.81       1.89       -9999      2.33       0.2318499  0.2095809  -9999      0.254119   0.2442743  55.15456   2523.576   2.32       2.226      0.4513341  0.4824908  401.95     0.07925492 0.02648241 0.1320274  0.2036511 
920.9      0.2        452.48     1          3          312.565    3.360573   2.27       3.200000047683716 2.900000095367432 2.48       2.29       2.21       2.22       2.97       1.86       2.94       -9999      3.95       1.86       -9999      2.23       0.2492256  0.239521   -9999      0.2589302  0.2617586  115.7233   2452.376   2.27       2.25       0.48739    0.5202907  402.32     0.07994754 0.0267937  0.1331014  0.1842126 
921.1      0.199      456.62     1          3          312.384    3.392463   2.18       3.180000066757203 2.880000114440918 2.44       2.25       2.19       2.17       2.88       1.85       2.92       -9999      3.81       1.85       -9999      2.14       0.2519899  0.245509   -9999      0.2584707  0.2646465  130.2033   2345.848   2.26       2.16       0.4824715  0.5157537  402.68     0.08073664 0.02728402 0.1341893  0.1954556 
921.3      0.199      456.62     1          3          308.652    3.44447    2.29       3.210000038146972 2.900000095367432 2.42       2.23       2.19       2.16       2.78       1.81       2.87       -9999      3.79       1.82       -9999      1.99       0.2705016  0.2874251  -9999      0.253578   0.2833906  286.7498   2181.957   2.19       2.129      0.510146   0.5449855  403.29     0.08221897 0.02810295 0.136335   0.1913261 
921.5      0.198      462.96     1          3          308.674    3.499599   2.27       3.200000047683716 2.900000095367432 2.38       2.16       2.16       2.17       2.74       1.78       2.7        -9999      3.86       1.84       -9999      2.04       0.2942143  0.3353294  -9999      0.2530992  0.3073559  788.3533   2020.713   2.11       2.149      0.5467096  0.5829349  403.9      0.08383038 0.02899789 0.1386629  0.1886236 
921.7      0.198      473.93     1          3          311.041    3.523714   2.33       3.210000038146972 2.890000104904175 2.34       2.11       2.11       2.08       2.53       1.4        2.15       -9999      3.6        1.85       -9999      1.95       0.2834938  0.3113772  -9999      0.2556104  0.29679    499.0584   1953.979   2.15       2.123      0.5291342  0.5650491  404.31     0.08481631 0.02939828 0.1402343  0.2178604 
921.9      0.162      485.43     1          3          313.354    3.497385   2.28       2.839999914169312 2.660000085830688 2.23       2.05       2.06       2.09       2.45       1.13       1.76       -9999      3.61       1.85       -9999      1.85       0.2638476  0.2694611  -9999      0.2582342  0.2771894  215.9017   2026.953   2.22       2.043      0.4896236  0.5245452  404.59     0.08510698 0.02896141 0.1412525  0.2167121 
922.1      0.169      487.8      1          3          314.751    3.434433   2.45       2.859999895095825 2.690000057220459 2.26       2.06       2.05       1.92       2.5        1.17       2.02       -9999      3.86       1.87       -9999      1.81       0.2917457  0.3233532  -9999      0.2601381  0.3049456  709.5705   2212.67    2.13       2.082      0.5365332  0.5728261  404.49     0.0842026  0.02794301 0.1404622  0.1945979 
922.3      0.188      483.09     1          3          314.772    3.362813   2.34       3.130000114440918 2.880000114440918 2.38       2.13       2.07       2.07       2.72       1.47       2.36       -9999      3.8        1.86       -9999      1.94       0.280039   0.2994012  -9999      0.2606768  0.2929817  430.6841   2444.741   2.17       2.121      0.5238682  0.559312   404.08     0.08256187 0.02682784 0.1382959  0.1984923 
922.5      0.187      483.09     1          3          311.731    3.297206   2.44       3.259999990463256 2.920000076293945 2.37       2.12       2.07       2.08       2.81       1.64       2.58       -9999      3.76       1.86       -9999      1.85       0.2845715  0.3113772  -9999      0.2577658  0.297197   522.5317   2678.622   2.15       2.104      0.5287036  0.5641446  403.41     0.08053824 0.02584542 0.135231   0.2025648 
922.7      0.184      480.76     1          3          306.678    3.238571   2.44       3.269999980926514 2.940000057220459 2.38       2.13       2.08       2.09       2.76       1.68       2.68       -9999      3.75       1.88       -9999      2.01       0.2699422  0.2874251  -9999      0.2524593  0.2821977  279.9899   2906.523   2.19       2.204      0.5171705  0.5513206  402.41     0.07817777 0.02499788 0.1313576  0.2078136 
922.9      0.183      456.62     1          3          303.174    3.192457   2.53       3.289999961853027 3.009999990463257 2.46       2.22       2.19       2.07       2.55       1.62       2.74       -9999      3.77       1.88       -9999      2.22       0.2559641  0.263473   -9999      0.2484552  0.268066   154.2532   3099.301   2.23       2.365      0.5107431  0.5436742  402.07     0.07719772 0.02435089 0.1300445  0.205709  
923.1      0.185      434.78     1          3          301.543    3.167013   2.71       3.460000038146973 3.240000009536743 2.68       2.38       2.3        2.28       2.87       1.56       2.79       -9999      4          1.91       -9999      2.28       0.2490112  0.251497   -9999      0.2465253  0.2610575  114.6698   3211.089   2.25       2.476      0.509537   0.5418399  402.02     0.07684319 0.0240011  0.1296853  0.1892475 
