~Version
 VERS              .         2.0                           : CWLS LOG ASCII STANDARD - VERSION 2.0
 WRAP              .         NO                            : ONE LINE PER DEPTH STEP
 DLM               .         SPACE                         : DELIMITING CHARACTER(SPACE TAB OR COMMA)
~Well Information
#_______________________________________________________________________________
#
#PARAMETER_NAME    .UNIT     VALUE                         : DESCRIPTION
#_______________________________________________________________________________
STRT               .M        0.7                           : First reference value
STOP               .M        1248.1                        : Last reference value
STEP               .M        0.2                           : Step increment
NULL               .         -9999                         : Missing value
COMP               .                                       : Company
WELL               .         4055                          : Well name
FLD                .         Узень                         : Field
LOC                .                                       : Location
CNTY               .                                       : County
STAT               .                                       : State
CTRY               .                                       : Country
SRVC               .                                       : Service Company
DATE               .         20/2/2014                     : Date
UWI                .                                       : Unique Well ID
3кв_для_заказчика  .         5                             : 
Block              .         6а                            : 
Category           .         Нефтяная                      : 
Condition          .         В работе                      : 
Date               .         04.03.2014                    : 
EREF               .m        79.2                          : 100.8
GRP                .                                       : Group name
Gor                .         14                            : 
Gorizont           .         14                            : 14
ISS                .                                       : Well surveys
Interpretator      .         Кайсанов Е.К                  : 
Kupol              .         Основной                      : osnovnoi
Mud                .         полимерный                    : 
Mud_density        .         1,34                          : 
Mud_resistivity    .         0,35                          : 
NGDU               .         НГДУ-2                        : 
ORIGINALWELLNAME   .         4055                          : 
Spud_date          .         2014                          : 1961
TIME               .                                       : LOG TIME
Viscosity          .         40                            : 
X                  .m        44072.64                      : 46154
Y                  .m        85156.06                      : 85761.93
YEAR               .         2019                          : 
временно           .         \                             : 
~Parameter Information Block
#_______________________________________________________________________________
#
#PARAMETER_NAME    .UNIT     VALUE                         : DESCRIPTION
#_______________________________________________________________________________
SET                .         LQC_KAZNIPI_Petrel            : 
TLFamily_CALI      .         Caliper                       : 
TLFamily_CILD      .         Conductivity                  : 
TLFamily_COLL      .         Net Reservoir Flag            : 
TLFamily_CSAT      .         Fluid Code                    : 
TLFamily_DEPT      .         Measured Depth                : 
TLFamily_DT        .         Compressional Slowness        : 
TLFamily_GR        .         Russian Gamma Ray             : 
TLFamily_GZ3       .         Gradient 225                  : 
TLFamily_IK1       .         Resistivity 05                : 
TLFamily_IK2       .         Resistivity 07                : 
TLFamily_IK3       .         Resistivity 10                : 
TLFamily_IK4       .         Resistivity 14                : 
TLFamily_IK5       .         Resistivity 20                : 
TLFamily_LLS       .         Lateral Log Resistivity       : 
TLFamily_MBK       .         Micro Lateral Log Resistivity : 
TLFamily_MINV      .         Micro Gradient Resistivity    : 
TLFamily_MNOR      .         Micro Resistivity             : 
TLFamily_NGLD      .         Neutron Far                   : 
TLFamily_NNKTB_1   .         Neutron Far                   : 
TLFamily_NNKTM_1   .         Neutron Near                  : 
TLFamily_NPHI      .         Neutron Porosity              : 
TLFamily_OGZ3      .         Gradient Inverted 225         : 
TLFamily_PHIE      .         Effective Porosity            : 
TLFamily_PHIED     .         Effective Porosity            : 
TLFamily_PHIEN     .         Effective Porosity            : 
TLFamily_PHIES     .         Effective Porosity            : 
TLFamily_PHIT      .         Porosity                      : 
TLFamily_PRMB      .         Permeability                  : 
TLFamily_PRMB_DGR  .         Permeability                  : 
TLFamily_RHOB      .         Bulk Density                  : 
TLFamily_RT        .         Formation Resistivity         : 
TLFamily_SOIL_ARCHIE .         Oil Saturation                : 
TLFamily_SOIL_DW   .         Oil Saturation                : 
TLFamily_SP        .         Spontaneous Potential         : 
TLFamily_VSH_FIN   .         Shale Volume                  : 
TLFamily_VSH_GR    .         Shale Volume                  : 
TLFamily_VSH_SP    .         Shale Volume                  : 
TLFamily_W         .         Neutron Porosity              : 
~Curve Information
#_______________________________________________________________________________
#
#LOGNAME           .UNIT     LOG_ID                        : DESCRIPTION
#_______________________________________________________________________________
DEPT               .M                                      : Колонка глубины 
CALI               .м                                      : Каверномер 
CILD               .мСм/м                                  : Проводимость 
COLL               .unitless                               :  
CSAT               .unitless                               :  
DT                 .мкс/м                                  : Интервальное время пробега продольной волны 
GR                 .uR/h                                   : Гамма каротаж 
GZ3                .Ohmm                                   : Градиент-зонд  длиной 2.25м 
IK1                .Ohmm                                   : ИК1 
IK2                .Ohmm                                   : ИК2 
IK3                .Ohmm                                   : ИК3 
IK4                .Ohmm                                   : ИК4 
IK5                .Ohmm                                   : ИК5 
LLS                .Ohmm                                   : Боковой каротаж 
MBK                .Ohmm                                   : Микробоковой каротаж 
MINV               .Ohmm                                   : Микро-градиент зонд 
MNOR               .Ohmm                                   : Микро-потенциал зонд 
NGLD               .у.е.                                   : Показания зонда НГК-60 аппаратуры ДРСТ-3-90 
NNKTB_1            .у.е.                                   : Показания большого зонда 2ННКт аппаратуры СРК 
NNKTM_1            .у.е.                                   : Показания малого зонда 2ННКт аппаратуры СРК 
NPHI               .v/v                                    : Total porosity 
OGZ3               .Ohmm                                   : Обращенный градиент-зонд 
PHIE               .v/v                                    : Описание 
PHIED              .v/v                                    :  
PHIEN              .v/v                                    :  
PHIES              .v/v                                    :  
PHIT               .v/v                                    : Описание 
PRMB               .mD                                     :  
PRMB_DGR           .mD                                     :  
RHOB               .G/C3                                   : Плотность по ГГКп 
RT                 .ohmm                                   : Удельное электрическое сопротивление 
SOIL_ARCHIE        .v/v                                    :  
SOIL_DW            .v/v                                    :  
SP                 .мВ                                     : Потенциал самополяризации 
VSH_FIN            .v/v                                    : Описание 
VSH_GR             .v/v                                    : Shale volume 
VSH_SP             .v/v                                    : Shale Volume 
W                  .v/v                                    :  
~Ascii
# ...
942.3      0.22       275.48     -9999      -9999      294.088    5.058934   6.93       2.640000104904175 2.869999885559082 3.07       3.4        3.63       3.33       4.34       5.22       4.09       -9999      4.19       1.99       -9999      4.58       0.1189115  0.106188   -9999      0.1316351  0.1835944  0.446363   15.56109   2.34       5.515      0.3588344  0.4865439  435.05     0.4126112  0.2115263  0.613696   0.1872929 
942.5      0.22       265.95     -9999      -9999      299.868    5.172928   6.32       3.049999952316284 3.559999942779541 3.53       3.73       3.76       3.07       3.42       4.01       3.75       -9999      3.74       1.82       -9999      4.56       0.08672023 0.04133885 -9999      0.1321016  0.1549188  0.1130907  13.35295   2.44       5.298      0.1398745  0.341865   435.8      0.435038   0.2251664  0.6449097  0.1962824 
942.7      0.22       274.72     -9999      -9999      302.677    5.218141   6.52       3.5        3.700000047683716 3.63       3.6        3.64       3.78       4.62       5.91       4.95       -9999      3.79       1.77       -9999      4.73       0.1019965  0.0735752  -9999      0.1304178  0.1728073  0.2169607  12.56656   2.38       5.483      0.2651559  0.4320804  436.44     0.4517008  0.2308168  0.6725849  0.1812919 
942.9      0.22       305.81     -9999      -9999      310.866    5.18773    6.67       2.559999942779541 2.759999990463257 2.85       3          3.27       3.85       4.62       8.7        6.32       -9999      3.8        1.79       -9999      4.73       0.0983545  0.04889349 -9999      0.1478155  0.1654446  0.1857471  13.09022   2.43       5.535      0.2448646  0.4112876  435.42     0.427967   0.2270008  0.6289333  0.1843387 
943.1      0.22       307.69     -9999      -9999      311.511    5.097374   6.26       2.339999914169312 2.680000066757202 2.81       3          3.25       2.8        3.16       8.6        5.38       -9999      3.48       1.82       -9999      4.56       0.1263629  0.09633269 -9999      0.1563931  0.1895452  0.6133457  14.77841   2.36       5.276      0.3791169  0.4974636  434.46     0.4030392  0.216031   0.5900474  0.2252565 
943.3      0.219      265.25     -9999      -9999      290.879    4.958295   5.61       3.230000019073486 3.700000047683716 3.72       3.73       3.77       2.8        4.44       4.97       4.12       -9999      3.27       1.78       -9999      4.93       0.1570248  0.1736526  -9999      0.1403971  0.215181   2.267978   17.81215   2.38       5.248      0.4848651  0.5723521  433.19     0.3709772  0.2001728  0.5417815  0.2429914 
943.5      0.218      232.55     -9999      -9999      266.414    4.788651   5.85       4.300000190734863 4.369999885559082 4.33       4.28       4.3        4.27       6.2        8.02       6.45       -9999      3.59       1.81       -9999      5.62       0.1291646  0.1437125  -9999      0.1146166  0.1821528  0.691193   22.36791   2.43       5.733      0.4141515  0.5108846  431.82     0.3380115  0.1823968  0.4936262  0.210074  
943.7      0.218      230.41     -9999      -9999      258.414    4.625802   5.9        3.339999914169312 3.609999895095825 3.8        4.01       4.34       5.11       5.72       10.88      7.67       -9999      4.29       1.9        -9999      5.59       0.1291453  0.1497006  -9999      0.10859    0.1785     0.690624   27.83381   2.42       5.741      0.4144585  0.5053504  430.88     0.3148335  0.1668196  0.4628474  0.1634644 
943.9      0.218      218.81     -9999      -9999      254.262    4.509758   6.13       4.71999979019165 4.920000076293945 4.69       4.64       4.57       3.73       3.58       6.69       5.4        -9999      4.65       1.94       -9999      5.06       0.1118863  0.1197605  -9999      0.1040121  0.1599154  0.3307984  32.52602   2.47       5.544      0.325572   0.4303153  430.67     0.3063773  0.156538   0.4562165  0.1452307 
944.1      0.215      215.51     -9999      -9999      249.562    4.467157   6.02       4.460000038146973 4.90999984741211 4.82       4.7        4.64       5.65       6.38       11.4       8.07       -9999      4.85       1.93       -9999      4.94       0.1345579  0.1736526  -9999      0.09546326 0.1826247  0.8699563  34.44041   2.38       5.427      0.4199159  0.5064727  430.8      0.3066175  0.1529248  0.4603103  0.1320586 
944.3      0.214      238.09     -9999      -9999      259.654    4.510095   6.14       3.940000057220459 4.260000228881836 4.34       4.19       4.2        5.31       5.79       8.2        6.82       -9999      4.88       1.98       -9999      4.54       0.1304287  0.1497006  -9999      0.1111569  0.1795571  0.7294825  32.5113    2.42       5.22       0.3929762  0.4851563  431.11     0.3133892  0.156567   0.4702114  0.137339  
944.5      0.214      268.09     -9999      -9999      279.69     4.625778   5.98       3.309999942779541 3.589999914169312 3.71       3.68       3.73       4.37       4.4        7.95       5.7        -9999      4.48       1.98       -9999      4.16       0.1548657  0.1676646  -9999      0.1420669  0.2043202  2.068461   27.83472   2.39       4.907      0.461916   0.5415263  430.92     0.3154691  0.1668174  0.4641208  0.1627937 
944.7      0.216      290.69     -9999      -9999      300.694    4.767392   5.48       2.599999904632568 2.940000057220459 3.15       3.34       3.44       3.58       4.03       7.42       4.9        -9999      4.31       1.93       -9999      3.68       0.1771278  0.1856288  -9999      0.1686269  0.2275878  5.345586   23.01548   2.36       4.403      0.496345   0.5702609  430.9      0.3218834  0.1802835  0.4634832  0.167034  
944.9      0.215      287.35     -9999      -9999      307.98     4.869866   5.23       2.799999952316284 3.309999942779541 3.49       3.57       3.48       2.75       2.74       7.38       4.32       -9999      3.82       1.87       -9999      3.98       0.2023147  0.2275449  -9999      0.1770844  0.2530461  15.65009   20.05736   2.29       4.52       0.5569028  0.6228184  430.68     0.3236152  0.1907007  0.4565296  0.1985353 
945.1      0.215      285.71     -9999      -9999      301.181    4.876232   5.44       3.569999933242798 3.710000038146973 3.68       3.6        3.5        3.43       3.35       6.3        4.88       -9999      3.5        1.81       -9999      4.29       0.1291089  0.08982037 -9999      0.1683975  0.1799912  0.6895543  19.88667   2.52       4.797      0.362801   0.4614343  430.72     0.3245772  0.1913674  0.4577869  0.2204941 
945.3      0.215      313.47     -9999      -9999      302.943    4.765098   5.45       2.410000085830688 2.539999961853027 2.64       2.91       3.19       3.9        4.93       8.24       5.63       -9999      3.6        1.82       -9999      4.13       0.1846635  0.1916168  -9999      0.1777103  0.231994   7.371825   23.08649   2.35       4.699      0.5288991  0.595751   429.6      0.3019204  0.1800569  0.4237839  0.2111717 
945.5      0.218      305.81     -9999      -9999      299.445    4.569841   4.92       2.559999942779541 2.849999904632568 2.94       3.07       3.27       2.48       2.89       4.58       3.72       -9999      3.8        1.85       -9999      4.06       0.2140483  0.245509   -9999      0.1825877  0.2567344  25.81384   30.00544   2.26       4.449      0.5749883  0.6318541  428.13     0.2722941  0.1617797  0.3828084  0.1964462 
945.7      0.218      265.95     -9999      -9999      278.871    4.370286   5.1        3.740000009536744 4.010000228881836 3.85       3.78       3.76       3.14       3.78       6.95       5.46       -9999      4          1.8        -9999      4.7        0.1677518  0.1736526  -9999      0.1618511  0.2067136  3.58368    39.22363   2.38       4.892      0.497378   0.5589569  426.92     0.2485362  0.1450158  0.3520565  0.168647  
945.9      0.217      270.27     -9999      -9999      271.993    4.254581   5.98       3.319999933242798 3.369999885559082 3.4        3.46       3.7        4.83       5.83       10.72      7.81       -9999      4.25       1.84       -9999      4.87       0.1468364  0.1377245  -9999      0.1559483  0.1835627  1.468673   45.81506   2.44       5.368      0.4596337  0.5229813  426.09     0.2342767  0.1361034  0.3324499  0.1563106 
