~Version
 VERS              .         2.0                           : CWLS LOG ASCII STANDARD - VERSION 2.0
 WRAP              .         NO                            : ONE LINE PER DEPTH STEP
 DLM               .         SPACE                         : DELIMITING CHARACTER(SPACE TAB OR COMMA)
~Well Information
#_______________________________________________________________________________
#
#PARAMETER_NAME    .UNIT     VALUE                         : DESCRIPTION
#_______________________________________________________________________________
STRT               .M        0.7                           : First reference value
STOP               .M        1248.1                        : Last reference value
STEP               .M        0.2                           : Step increment
NULL               .         -9999                         : Missing value
COMP               .                                       : Company
WELL               .         4055                          : Well name
FLD                .         Узень                         : Field
LOC                .                                       : Location
CNTY               .                                       : County
STAT               .                                       : State
CTRY               .                                       : Country
SRVC               .                                       : Service Company
DATE               .         20/2/2014                     : Date
UWI                .                                       : Unique Well ID
3кв_для_заказчика  .         5                             : 
Block              .         6а                            : 
Category           .         Нефтяная                      : 
Condition          .         В работе                      : 
Date               .         04.03.2014                    : 
EREF               .m        79.2                          : 100.8
GRP                .                                       : Group name
Gor                .         14                            : 
Gorizont           .         14                            : 14
ISS                .                                       : Well surveys
Interpretator      .         Кайсанов Е.К                  : 
Kupol              .         Основной                      : osnovnoi
Mud                .         полимерный                    : 
Mud_density        .         1,34                          : 
Mud_resistivity    .         0,35                          : 
NGDU               .         НГДУ-2                        : 
ORIGINALWELLNAME   .         4055                          : 
Spud_date          .         2014                          : 1961
TIME               .                                       : LOG TIME
Viscosity          .         40                            : 
X                  .m        44072.64                      : 46154
Y                  .m        85156.06                      : 85761.93
YEAR               .         2019                          : 
временно           .         \                             : 
~Parameter Information Block
#_______________________________________________________________________________
#
#PARAMETER_NAME    .UNIT     VALUE                         : DESCRIPTION
#_______________________________________________________________________________
SET                .         LQC_KAZNIPI_Petrel            : 
TLFamily_CALI      .         Caliper                       : 
TLFamily_CILD      .         Conductivity                  : 
TLFamily_COLL      .         Net Reservoir Flag            : 
TLFamily_CSAT      .         Fluid Code                    : 
TLFamily_DEPT      .         Measured Depth                : 
TLFamily_DT        .         Compressional Slowness        : 
TLFamily_GR        .         Russian Gamma Ray             : 
TLFamily_GZ3       .         Gradient 225                  : 
TLFamily_IK1       .         Resistivity 05                : 
TLFamily_IK2       .         Resistivity 07                : 
TLFamily_IK3       .         Resistivity 10                : 
TLFamily_IK4       .         Resistivity 14                : 
TLFamily_IK5       .         Resistivity 20                : 
TLFamily_LLS       .         Lateral Log Resistivity       : 
TLFamily_MBK       .         Micro Lateral Log Resistivity : 
TLFamily_MINV      .         Micro Gradient Resistivity    : 
TLFamily_MNOR      .         Micro Resistivity             : 
TLFamily_NGLD      .         Neutron Far                   : 
TLFamily_NNKTB_1   .         Neutron Far                   : 
TLFamily_NNKTM_1   .         Neutron Near                  : 
TLFamily_NPHI      .         Neutron Porosity              : 
TLFamily_OGZ3      .         Gradient Inverted 225         : 
TLFamily_PHIE      .         Effective Porosity            : 
TLFamily_PHIED     .         Effective Porosity            : 
TLFamily_PHIEN     .         Effective Porosity            : 
TLFamily_PHIES     .         Effective Porosity            : 
TLFamily_PHIT      .         Porosity                      : 
TLFamily_PRMB      .         Permeability                  : 
TLFamily_PRMB_DGR  .         Permeability                  : 
TLFamily_RHOB      .         Bulk Density                  : 
TLFamily_RT        .         Formation Resistivity         : 
TLFamily_SOIL_ARCHIE .         Oil Saturation                : 
TLFamily_SOIL_DW   .         Oil Saturation                : 
TLFamily_SP        .         Spontaneous Potential         : 
TLFamily_VSH_FIN   .         Shale Volume                  : 
TLFamily_VSH_GR    .         Shale Volume                  : 
TLFamily_VSH_SP    .         Shale Volume                  : 
TLFamily_W         .         Neutron Porosity              : 
~Curve Information
#_______________________________________________________________________________
#
#LOGNAME           .UNIT     LOG_ID                        : DESCRIPTION
#_______________________________________________________________________________
DEPT               .M                                      : Колонка глубины 
CALI               .м                                      : Каверномер 
CILD               .мСм/м                                  : Проводимость 
COLL               .unitless                               :  
CSAT               .unitless                               :  
DT                 .мкс/м                                  : Интервальное время пробега продольной волны 
GR                 .uR/h                                   : Гамма каротаж 
GZ3                .Ohmm                                   : Градиент-зонд  длиной 2.25м 
IK1                .Ohmm                                   : ИК1 
IK2                .Ohmm                                   : ИК2 
IK3                .Ohmm                                   : ИК3 
IK4                .Ohmm                                   : ИК4 
IK5                .Ohmm                                   : ИК5 
LLS                .Ohmm                                   : Боковой каротаж 
MBK                .Ohmm                                   : Микробоковой каротаж 
MINV               .Ohmm                                   : Микро-градиент зонд 
MNOR               .Ohmm                                   : Микро-потенциал зонд 
NGLD               .у.е.                                   : Показания зонда НГК-60 аппаратуры ДРСТ-3-90 
NNKTB_1            .у.е.                                   : Показания большого зонда 2ННКт аппаратуры СРК 
NNKTM_1            .у.е.                                   : Показания малого зонда 2ННКт аппаратуры СРК 
NPHI               .v/v                                    : Total porosity 
OGZ3               .Ohmm                                   : Обращенный градиент-зонд 
PHIE               .v/v                                    : Описание 
PHIED              .v/v                                    :  
PHIEN              .v/v                                    :  
PHIES              .v/v                                    :  
PHIT               .v/v                                    : Описание 
PRMB               .mD                                     :  
PRMB_DGR           .mD                                     :  
RHOB               .G/C3                                   : Плотность по ГГКп 
RT                 .ohmm                                   : Удельное электрическое сопротивление 
SOIL_ARCHIE        .v/v                                    :  
SOIL_DW            .v/v                                    :  
SP                 .мВ                                     : Потенциал самополяризации 
VSH_FIN            .v/v                                    : Описание 
VSH_GR             .v/v                                    : Shale volume 
VSH_SP             .v/v                                    : Shale Volume 
W                  .v/v                                    :  
~Ascii
# ...
896.7      0.28       -9999      -9999      -9999      -9999      9.149036   6.28       -9999      -9999      -9999      -9999      -9999      2.82       -9999      -9999      -9999      -9999      2.69       1.57       -9999      3.9        -9999      -9999      -9999      -9999      -9999      -9999      -9999      2.35       4.812      -9999      -9999      423.02     -9999      0.4905217  0.8        0.2770192 
896.9      0.287      -9999      -9999      -9999      377.236    9.592148   5.25       -9999      -9999      -9999      -9999      -9999      2.71       -9999      -9999      -9999      -9999      2.56       1.45       -9999      4.09       -9999      -9999      -9999      -9999      -9999      -9999      -9999      2.26       4.598      -9999      -9999      422.86     -9999      0.6596186  0.8        0.2618735 
897.1      0.259      -9999      -9999      -9999      381.876    9.87105    4.45       -9999      -9999      -9999      -9999      -9999      2.82       -9999      -9999      -9999      -9999      2.75       1.47       -9999      4.42       -9999      -9999      -9999      -9999      -9999      -9999      -9999      2.31       4.435      -9999      -9999      422.28     -9999      0.7947998  0.8        0.2347888 
897.3      0.24       -9999      -9999      -9999      389.346    9.907393   4.38       -9999      -9999      -9999      -9999      -9999      2.59       -9999      -9999      -9999      -9999      2.82       1.48       -9999      4.53       -9999      -9999      -9999      -9999      -9999      -9999      -9999      2.35       4.454      -9999      -9999      422.42     -9999      0.8        0.8        0.2267589 
897.5      0.249      -9999      -9999      -9999      379.56     9.696715   3.82       -9999      -9999      -9999      -9999      -9999      2.43       -9999      -9999      -9999      -9999      2.72       1.47       -9999      5.05       -9999      -9999      -9999      -9999      -9999      -9999      -9999      2.28       4.35       -9999      -9999      423.04     -9999      0.7073733  0.8        0.2397116 
897.7      0.233      -9999      -9999      -9999      343.706    9.336552   3.79       -9999      -9999      -9999      -9999      -9999      2.9        -9999      -9999      -9999      -9999      2.66       1.49       -9999      5.67       -9999      -9999      -9999      -9999      -9999      -9999      -9999      2.33       4.543      -9999      -9999      423.93     -9999      0.5560241  0.8        0.2564622 
897.9      0.228      -9999      -9999      -9999      309.504    9.002607   3.92       -9999      -9999      -9999      -9999      -9999      4.5        -9999      -9999      -9999      -9999      2.86       1.53       -9999      5.84       -9999      -9999      -9999      -9999      -9999      -9999      -9999      2.35       4.691      -9999      -9999      424.71     -9999      0.4447849  0.8        0.2351378 
898.1      0.244      -9999      -9999      -9999      315.04     8.840944   4.26       -9999      -9999      -9999      -9999      -9999      4.54       -9999      -9999      -9999      -9999      2.85       1.59       -9999      5.11       0.05831235 0.0417842  -9999      0.07484049 0.1643279  0.03367009 1.188673   2.35       4.646      0          0.2144965  425.58     0.6762716  0.6045938  0.7479493  0.2545222 
898.3      0.289      -9999      -9999      -9999      335.707    8.870502   4.15       -9999      -9999      -9999      -9999      -9999      3.23       -9999      -9999      -9999      -9999      2.72       1.6        -9999      4.37       0.06999622 0.04922074 -9999      0.09077169 0.1792237  0.05541888 1.140737   2.33       4.257      0          0.2728431  426.21     0.6967607  0.6148418  0.7786796  0.2811126 
898.5      0.278      -9999      -9999      -9999      351.155    8.987643   3.97       -9999      -9999      -9999      -9999      -9999      2.93       -9999      -9999      -9999      -9999      2.46       1.53       -9999      4.06       0.08659753 0.07430445 -9999      0.09889061 0.1992612  0.1125005  0.9690337  2.28       4.014      0.01902072 0.3523067  426.24     0.71868    0.6571922  0.7801678  0.3119186 
898.7      0.268      -9999      -9999      -9999      360.121    9.055894   4.11       -9999      -9999      -9999      -9999      -9999      2.77       -9999      -9999      -9999      -9999      2.51       1.5        -9999      4          0.08654889 0.06739709 -9999      0.1057007  0.199863   0.1122674  0.8811728  2.29       4.054      0.02309684 0.3565967  425.88     0.7228295  0.6831995  0.7624593  0.289545  
898.9      0.254      -9999      -9999      -9999      358.209    8.99074    3.78       -9999      -9999      -9999      -9999      -9999      2.8        2.81       1.96       2.21       -9999      2.69       1.51       -9999      4.28       0.1062981  0.09848835 -9999      0.1141079  0.2145609  0.2606496  0.964864   2.25       4.014      0.1794074  0.4275177  425.05     0.6906067  0.6583505  0.7228629  0.2574862 
899.1      0.236      -9999      -9999      -9999      337.758    8.789259   3.94       3.089999914169312 3.809999942779541 4.03       4.23       4.09       3.14       2.9        2.56       2.74       -9999      2.98       1.54       -9999      4.59       0.1136284  0.1160741  -9999      0.1111827  0.213685   0.3563127  1.277385   2.24       4.24       0.2453585  0.4557989  424.32     0.6382601  0.587083   0.6894372  0.2201986 
899.3      0.228      220.75     -9999      -9999      315.082    8.52076    4.31       4.039999961853027 4.639999866485596 4.6        4.71       4.530001   3.97       3.27       3.95       3.7        -9999      3.26       1.58       -9999      5.22       0.06722531 0.02809327 -9999      0.1063574  0.1575066  0.04924179 1.856564   2.41       4.722      0          0.2394505  423.37     0.5759031  0.5039541  0.6478521  0.1947577 
899.5      0.227      228.83     -9999      -9999      307.712    8.297077   4.88       3.240000009536743 3.75       3.94       4.19       4.37       5.54       3.75       5.62       4.3        -9999      3.32       1.65       -9999      4.9        0.05127803 -0.009581278 -9999      0.1121373  0.1343213  0.02494316 2.535087   2.49       4.89       0          0.08728404 422.6      0.5297317  0.4437623  0.6157011  0.2043793 
899.7      0.258      245.7      -9999      -9999      318.823    8.217223   4.97       3.25       3.859999895095826 3.98       3.94       4.07       3.81       1.69       1.65       2.38       -9999      3.29       1.66       -9999      4.63       0.09211911 0.05396149 -9999      0.1302767  0.1725709  0.142373   2.833274   2.39       4.794      0.1447563  0.3672255  422.27     0.5132006  0.4240623  0.6023389  0.2103774 
899.9      0.238      260.41     -9999      -9999      330.362    8.315066   4.99       3.160000085830688 3.809999942779541 3.91       3.79       3.84       3.82       2.13       1.54       2.54       -9999      3.23       1.62       -9999      4.03       0.08235544 0.02665212 -9999      0.1380588  0.1651827  0.09388162 2.472368   2.43       4.459      0.0244905  0.2961801  422.42     0.5283538  0.448325   0.6083825  0.2079839 
900.1      0.252      292.39     -9999      -9999      334.34     8.548867   5.21       2.460000038146973 3          3.22       3.28       3.42       3.56       2.03       1.87       2.46       -9999      3.15       1.58       -9999      3.99       0.1108369  0.09063577 -9999      0.1310381  0.1992346  0.3163201  1.785297   2.31       4.519      0.2515523  0.444542   422.6      0.5638874  0.5120736  0.6157011  0.208015  
900.3      0.267      319.48     -9999      -9999      350.112    8.824268   5.32       2.109999895095825 2.519999980926514 2.83       2.99       3.13       2.99       1.67       1.6        2.26       -9999      3.17       1.56       -9999      3.91       0.07827748 0.02922131 -9999      0.1273336  0.1762343  0.07889452 1.2166     2.39       4.507      0          0.3144776  423.44     0.6248657  0.5988877  0.6508437  0.200553  
