~Version
 VERS              .         2.0                           : CWLS LOG ASCII STANDARD - VERSION 2.0
 WRAP              .         NO                            : ONE LINE PER DEPTH STEP
 DLM               .         SPACE                         : DELIMITING CHARACTER(SPACE TAB OR COMMA)
~Well Information
#_______________________________________________________________________________
#
#PARAMETER_NAME    .UNIT     VALUE                         : DESCRIPTION
#_______________________________________________________________________________
STRT               .M        0.7                           : First reference value
STOP               .M        1248.1                        : Last reference value
STEP               .M        0.2                           : Step increment
NULL               .         -9999                         : Missing value
COMP               .                                       : Company
WELL               .         4055                          : Well name
FLD                .         Узень                         : Field
LOC                .                                       : Location
CNTY               .                                       : County
STAT               .                                       : State
CTRY               .                                       : Country
SRVC               .                                       : Service Company
DATE               .         20/2/2014                     : Date
UWI                .                                       : Unique Well ID
3кв_для_заказчика  .         5                             : 
Block              .         6а                            : 
Category           .         Нефтяная                      : 
Condition          .         В работе                      : 
Date               .         04.03.2014                    : 
EREF               .m        79.2                          : 100.8
GRP                .                                       : Group name
Gor                .         14                            : 
Gorizont           .         14                            : 14
ISS                .                                       : Well surveys
Interpretator      .         Кайсанов Е.К                  : 
Kupol              .         Основной                      : osnovnoi
Mud                .         полимерный                    : 
Mud_density        .         1,34                          : 
Mud_resistivity    .         0,35                          : 
NGDU               .         НГДУ-2                        : 
ORIGINALWELLNAME   .         4055                          : 
Spud_date          .         2014                          : 1961
TIME               .                                       : LOG TIME
Viscosity          .         40                            : 
X                  .m        44072.64                      : 46154
Y                  .m        85156.06                      : 85761.93
YEAR               .         2019                          : 
временно           .         \                             : 
~Parameter Information Block
#_______________________________________________________________________________
#
#PARAMETER_NAME    .UNIT     VALUE                         : DESCRIPTION
#_______________________________________________________________________________
SET                .         LQC_KAZNIPI_Petrel            : 
TLFamily_CALI      .         Caliper                       : 
TLFamily_CILD      .         Conductivity                  : 
TLFamily_COLL      .         Net Reservoir Flag            : 
TLFamily_CSAT      .         Fluid Code                    : 
TLFamily_DEPT      .         Measured Depth                : 
TLFamily_DT        .         Compressional Slowness        : 
TLFamily_GR        .         Russian Gamma Ray             : 
TLFamily_GZ3       .         Gradient 225                  : 
TLFamily_IK1       .         Resistivity 05                : 
TLFamily_IK2       .         Resistivity 07                : 
TLFamily_IK3       .         Resistivity 10                : 
TLFamily_IK4       .         Resistivity 14                : 
TLFamily_IK5       .         Resistivity 20                : 
TLFamily_LLS       .         Lateral Log Resistivity       : 
TLFamily_MBK       .         Micro Lateral Log Resistivity : 
TLFamily_MINV      .         Micro Gradient Resistivity    : 
TLFamily_MNOR      .         Micro Resistivity             : 
TLFamily_NGLD      .         Neutron Far                   : 
TLFamily_NNKTB_1   .         Neutron Far                   : 
TLFamily_NNKTM_1   .         Neutron Near                  : 
TLFamily_NPHI      .         Neutron Porosity              : 
TLFamily_OGZ3      .         Gradient Inverted 225         : 
TLFamily_PHIE      .         Effective Porosity            : 
TLFamily_PHIED     .         Effective Porosity            : 
TLFamily_PHIEN     .         Effective Porosity            : 
TLFamily_PHIES     .         Effective Porosity            : 
TLFamily_PHIT      .         Porosity                      : 
TLFamily_PRMB      .         Permeability                  : 
TLFamily_PRMB_DGR  .         Permeability                  : 
TLFamily_RHOB      .         Bulk Density                  : 
TLFamily_RT        .         Formation Resistivity         : 
TLFamily_SOIL_ARCHIE .         Oil Saturation                : 
TLFamily_SOIL_DW   .         Oil Saturation                : 
TLFamily_SP        .         Spontaneous Potential         : 
TLFamily_VSH_FIN   .         Shale Volume                  : 
TLFamily_VSH_GR    .         Shale Volume                  : 
TLFamily_VSH_SP    .         Shale Volume                  : 
TLFamily_W         .         Neutron Porosity              : 
~Curve Information
#_______________________________________________________________________________
#
#LOGNAME           .UNIT     LOG_ID                        : DESCRIPTION
#_______________________________________________________________________________
DEPT               .M                                      : Колонка глубины 
CALI               .м                                      : Каверномер 
CILD               .мСм/м                                  : Проводимость 
COLL               .unitless                               :  
CSAT               .unitless                               :  
DT                 .мкс/м                                  : Интервальное время пробега продольной волны 
GR                 .uR/h                                   : Гамма каротаж 
GZ3                .Ohmm                                   : Градиент-зонд  длиной 2.25м 
IK1                .Ohmm                                   : ИК1 
IK2                .Ohmm                                   : ИК2 
IK3                .Ohmm                                   : ИК3 
IK4                .Ohmm                                   : ИК4 
IK5                .Ohmm                                   : ИК5 
LLS                .Ohmm                                   : Боковой каротаж 
MBK                .Ohmm                                   : Микробоковой каротаж 
MINV               .Ohmm                                   : Микро-градиент зонд 
MNOR               .Ohmm                                   : Микро-потенциал зонд 
NGLD               .у.е.                                   : Показания зонда НГК-60 аппаратуры ДРСТ-3-90 
NNKTB_1            .у.е.                                   : Показания большого зонда 2ННКт аппаратуры СРК 
NNKTM_1            .у.е.                                   : Показания малого зонда 2ННКт аппаратуры СРК 
NPHI               .v/v                                    : Total porosity 
OGZ3               .Ohmm                                   : Обращенный градиент-зонд 
PHIE               .v/v                                    : Описание 
PHIED              .v/v                                    :  
PHIEN              .v/v                                    :  
PHIES              .v/v                                    :  
PHIT               .v/v                                    : Описание 
PRMB               .mD                                     :  
PRMB_DGR           .mD                                     :  
RHOB               .G/C3                                   : Плотность по ГГКп 
RT                 .ohmm                                   : Удельное электрическое сопротивление 
SOIL_ARCHIE        .v/v                                    :  
SOIL_DW            .v/v                                    :  
SP                 .мВ                                     : Потенциал самополяризации 
VSH_FIN            .v/v                                    : Описание 
VSH_GR             .v/v                                    : Shale volume 
VSH_SP             .v/v                                    : Shale Volume 
W                  .v/v                                    :  
~Ascii
# ...
1075.3     0.232      621.11     -9999      -9999      354.539    8.771194   2.25       1.399999976158142 1.519999980926514 1.57       1.59       1.61       1.65       1.7        2.29       1.88       -9999      2.56       1.51       -9999      1.51       0.11217    0.08717664 -9999      0.1371633  0.2072521  0.3348254  1.476393   2.3        1.807      0          0.1464179  429.88     0.6065272  0.5533797  0.6596748  0.2825522 
1075.5     0.239      636.94     -9999      -9999      357.588    8.850487   2.11       1.320000052452087 1.450000047683716 1.48       1.52       1.57       1.63       1.8        2.13       2          -9999      2.64       1.52       -9999      1.65       0.09794804 0.05320823 -9999      0.1426879  0.1916435  0.1825549  1.363791   2.36       1.852      0          0.06764759 429.07     0.5976821  0.5715998  0.6237643  0.2700474 
1075.7     0.23       653.59     -9999      -9999      357.747    8.797981   2.23       1.350000023841858 1.470000028610229 1.49       1.51       1.53       1.58       1.72       1.69       1.87       -9999      2.65       1.52       -9999      1.64       0.1022534  0.05671467 -9999      0.1477921  0.1934678  0.2193505  1.437351   2.36       1.89       0          0.09758457 428.63     0.5818557  0.559469   0.6042425  0.2681392 
1075.9     0.242      645.16     -9999      -9999      360.251    8.66613    2.11       1.360000014305115 1.490000009536743 1.51       1.5        1.55       1.59       1.75       2.09       2.04       -9999      2.56       1.51       -9999      1.9        0.1422403  0.1275031  -9999      0.1569775  0.2299734  1.207239   1.640042   2.25       2          0.1170644  0.3065258  428.29     0.5596482  0.5301291  0.5891673  0.2825522 
1076.1     0.234      625        -9999      -9999      352.493    8.492441   2.26       1.360000014305115 1.480000019073486 1.51       1.53       1.6        1.61       1.81       2.6        2.12       -9999      2.58       1.52       -9999      1.85       0.1195343  0.08703341 -9999      0.1520353  0.206244   0.4583783  1.951313   2.32       2.035      0          0.2132422  428.91     0.5531197  0.4938147  0.6124247  0.2819285 
1076.3     0.231      561.79     -9999      -9999      336.178    8.291998   2.31       1.460000038146973 1.649999976158142 1.72       1.73       1.78       1.6        1.82       2.84       2.22       -9999      2.76       1.53       -9999      2.34       0.1159172  0.09055962 -9999      0.1412748  0.2001319  0.3928495  2.384647   2.32       2.325      0.01678587 0.2412689  429.12     0.537204   0.4549873  0.6194207  0.2514837 
1076.5     0.229      507.61     -9999      -9999      327.618    8.086172   2.92       1.940000057220459 2.130000114440918 2.11       2.03       1.97       1.96       2.25       3.84       2.85       -9999      2.88       1.53       -9999      2.75       0.08599353 0.03437442 -9999      0.1376126  0.1675936  0.1096394  2.92995    2.42       2.832      0          0.139143   429.24     0.5205261  0.418292   0.6227601  0.2320548 
1076.7     0.226      507.61     -9999      -9999      332.278    7.915803   3.1        1.649999976158142 1.789999961853027 1.84       1.9        1.97       2.43       3.1        6.55       4.27       -9999      2.93       1.58       -9999      2.91       0.08154614 0.01813787 -9999      0.1449544  0.1619239  0.09069645 3.474477   2.45       3.002      0          0.1283342  429.58     0.5127289  0.3901674  0.6352906  0.238713  
1076.9     0.224      500        -9999      -9999      333.634    7.807094   3.05       1.590000033378601 1.789999961853027 1.88       1.96       2          1.87       2.08       2.95       2.27       -9999      2.87       1.61       -9999      2.71       0.1169344  0.08545907 -9999      0.1484096  0.1962842  0.4102665  3.873701   2.34       2.87       0.116055   0.3114696  429.71     0.5061715  0.373218   0.6391249  0.2571734 
1077.1     0.222      440.52     -9999      -9999      317.161    7.749769   2.85       1.789999961853027 2.220000028610229 2.34       2.35       2.27       1.94       2.08       2.91       2.41       -9999      3.01       1.6        -9999      2.89       0.1102453  0.08729383 -9999      0.1331967  0.1882969  0.3084379  4.102372   2.34       2.87       0.0695219  0.2772802  429.56     0.4978903  0.3645789  0.6312016  0.2323127 
1077.3     0.219      421.94     -9999      -9999      305.874    7.737485   2.74       2.259999990463257 2.559999942779541 2.61       2.49       2.37       2.46       2.53       3.92       2.97       -9999      3.02       1.62       -9999      3.04       0.0673398  0.01517065 -9999      0.119509   0.1455802  0.04948283 4.153101   2.46       2.882      0          0          429.7      0.4990945  0.3627538  0.6354352  0.2363528 
1077.5     0.217      465.11     -9999      -9999      311.554    7.790995   2.77       1.830000042915344 2.019999980926514 2.09       2.12       2.15       2.65       2.95       4.95       3.7        -9999      3.03       1.65       -9999      2.74       0.07910053 0.03261248 -9999      0.1255886  0.1577104  0.08171313 3.936603   2.43       2.755      0          0.0643196  429.66     0.5014516  0.3707713  0.6321319  0.2431701 
1077.7     0.227      497.51     -9999      -9999      326.709    7.909264   2.24       1.730000019073486 1.980000019073486 2          2.02       2.01       1.85       2.09       3.04       2.41       -9999      2.79       1.68       -9999      2.24       0.09476525 0.04554934 -9999      0.1439812  0.1726953  0.1593824  3.497283   2.41       2.24       0          0.08489419 429.04     0.4971149  0.3891264  0.6051034  0.2936665 
1077.9     0.226      495.04     -9999      -9999      330.252    8.050878   2.07       1.679999947547913 1.950000047683716 2          2.02       2.02       1.96       2.22       3.34       2.64       -9999      2.64       1.62       -9999      2.25       0.117829   0.08765386 -9999      0.1480041  0.1956259  0.426223   3.035264   2.34       2.156      0          0.2064161  428.45     0.4962652  0.4123037  0.5802268  0.3041984 
1078.1     0.221      505.05     -9999      -9999      330.756    8.200862   1.97       1.659999966621399 1.870000004768372 1.96       1.96       1.98       1.93       2.15       3.06       2.45       -9999      2.74       1.56       -9999      2.12       0.1054139  0.05961093 -9999      0.1512169  0.1818683  0.2510032  2.61231    2.39       2.042      0          0.1093482  427.34     0.4877017  0.4383581  0.5370454  0.2644296 
1078.3     0.227      531.91     -9999      -9999      331.724    8.398278   1.86       1.600000023841858 1.789999961853027 1.85       1.87       1.88       1.95       2.28       2.95       2.56       -9999      2.82       1.56       -9999      2.13       0.1204002  0.08914663 -9999      0.1516537  0.1971408  0.4756211  2.14409    2.34       1.986      0          0.1840497  426.44     0.4895276  0.4751783  0.5038769  0.2504962 
1078.5     0.232      574.71     -9999      -9999      340.226    8.654547   1.92       1.5        1.669999957084656 1.69       1.71       1.74       1.79       1.94       2.72       2.35       -9999      2.8        1.55       -9999      2.13       0.1022523  0.04949793 -9999      0.1550068  0.1816254  0.2193408  1.65916    2.4        2.02       0          0.09292176 425.92     0.5063199  0.5276263  0.4850135  0.2508205 
1078.7     0.234      628.93     -9999      -9999      351.784    8.901892   1.97       1.340000033378601 1.490000009536743 1.52       1.56       1.59       1.68       1.87       2.65       2.31       -9999      2.75       1.55       -9999      2.17       0.1109149  0.0626232  -9999      0.1592066  0.1937118  0.3173739  1.295422   2.37       2.065      0          0.1644339  425.58     0.5281605  0.5837312  0.4725898  0.2594719 
1078.9     0.233      645.16     -9999      -9999      355.426    9.056079   2.09       1.309999942779541 1.470000028610229 1.51       1.52       1.55       1.53       1.68       2.29       2.08       -9999      2.62       1.54       -9999      2.16       0.09711565 0.03929009 -9999      0.1549412  0.1837114  0.1761877  1.110231   2.4        2.124      0          0.1036039  425.94     0.5523931  0.621685   0.4831013  0.2807113 
