~Version
 VERS              .         2.0                           : CWLS LOG ASCII STANDARD - VERSION 2.0
 WRAP              .         NO                            : ONE LINE PER DEPTH STEP
 DLM               .         SPACE                         : DELIMITING CHARACTER(SPACE TAB OR COMMA)
~Well Information
#_______________________________________________________________________________
#
#PARAMETER_NAME    .UNIT     VALUE                         : DESCRIPTION
#_______________________________________________________________________________
STRT               .M        0.7                           : First reference value
STOP               .M        1248.1                        : Last reference value
STEP               .M        0.2                           : Step increment
NULL               .         -9999                         : Missing value
COMP               .                                       : Company
WELL               .         4055                          : Well name
FLD                .         Узень                         : Field
LOC                .                                       : Location
CNTY               .                                       : County
STAT               .                                       : State
CTRY               .                                       : Country
SRVC               .                                       : Service Company
DATE               .         20/2/2014                     : Date
UWI                .                                       : Unique Well ID
3кв_для_заказчика  .         5                             : 
Block              .         6а                            : 
Category           .         Нефтяная                      : 
Condition          .         В работе                      : 
Date               .         04.03.2014                    : 
EREF               .m        79.2                          : 100.8
GRP                .                                       : Group name
Gor                .         14                            : 
Gorizont           .         14                            : 14
ISS                .                                       : Well surveys
Interpretator      .         Кайсанов Е.К                  : 
Kupol              .         Основной                      : osnovnoi
Mud                .         полимерный                    : 
Mud_density        .         1,34                          : 
Mud_resistivity    .         0,35                          : 
NGDU               .         НГДУ-2                        : 
ORIGINALWELLNAME   .         4055                          : 
Spud_date          .         2014                          : 1961
TIME               .                                       : LOG TIME
Viscosity          .         40                            : 
X                  .m        44072.64                      : 46154
Y                  .m        85156.06                      : 85761.93
YEAR               .         2019                          : 
временно           .         \                             : 
~Parameter Information Block
#_______________________________________________________________________________
#
#PARAMETER_NAME    .UNIT     VALUE                         : DESCRIPTION
#_______________________________________________________________________________
SET                .         LQC_KAZNIPI_Petrel            : 
TLFamily_CALI      .         Caliper                       : 
TLFamily_CILD      .         Conductivity                  : 
TLFamily_COLL      .         Net Reservoir Flag            : 
TLFamily_CSAT      .         Fluid Code                    : 
TLFamily_DEPT      .         Measured Depth                : 
TLFamily_DT        .         Compressional Slowness        : 
TLFamily_GR        .         Russian Gamma Ray             : 
TLFamily_GZ3       .         Gradient 225                  : 
TLFamily_IK1       .         Resistivity 05                : 
TLFamily_IK2       .         Resistivity 07                : 
TLFamily_IK3       .         Resistivity 10                : 
TLFamily_IK4       .         Resistivity 14                : 
TLFamily_IK5       .         Resistivity 20                : 
TLFamily_LLS       .         Lateral Log Resistivity       : 
TLFamily_MBK       .         Micro Lateral Log Resistivity : 
TLFamily_MINV      .         Micro Gradient Resistivity    : 
TLFamily_MNOR      .         Micro Resistivity             : 
TLFamily_NGLD      .         Neutron Far                   : 
TLFamily_NNKTB_1   .         Neutron Far                   : 
TLFamily_NNKTM_1   .         Neutron Near                  : 
TLFamily_NPHI      .         Neutron Porosity              : 
TLFamily_OGZ3      .         Gradient Inverted 225         : 
TLFamily_PHIE      .         Effective Porosity            : 
TLFamily_PHIED     .         Effective Porosity            : 
TLFamily_PHIEN     .         Effective Porosity            : 
TLFamily_PHIES     .         Effective Porosity            : 
TLFamily_PHIT      .         Porosity                      : 
TLFamily_PRMB      .         Permeability                  : 
TLFamily_PRMB_DGR  .         Permeability                  : 
TLFamily_RHOB      .         Bulk Density                  : 
TLFamily_RT        .         Formation Resistivity         : 
TLFamily_SOIL_ARCHIE .         Oil Saturation                : 
TLFamily_SOIL_DW   .         Oil Saturation                : 
TLFamily_SP        .         Spontaneous Potential         : 
TLFamily_VSH_FIN   .         Shale Volume                  : 
TLFamily_VSH_GR    .         Shale Volume                  : 
TLFamily_VSH_SP    .         Shale Volume                  : 
TLFamily_W         .         Neutron Porosity              : 
~Curve Information
#_______________________________________________________________________________
#
#LOGNAME           .UNIT     LOG_ID                        : DESCRIPTION
#_______________________________________________________________________________
DEPT               .M                                      : Колонка глубины 
CALI               .м                                      : Каверномер 
CILD               .мСм/м                                  : Проводимость 
COLL               .unitless                               :  
CSAT               .unitless                               :  
DT                 .мкс/м                                  : Интервальное время пробега продольной волны 
GR                 .uR/h                                   : Гамма каротаж 
GZ3                .Ohmm                                   : Градиент-зонд  длиной 2.25м 
IK1                .Ohmm                                   : ИК1 
IK2                .Ohmm                                   : ИК2 
IK3                .Ohmm                                   : ИК3 
IK4                .Ohmm                                   : ИК4 
IK5                .Ohmm                                   : ИК5 
LLS                .Ohmm                                   : Боковой каротаж 
MBK                .Ohmm                                   : Микробоковой каротаж 
MINV               .Ohmm                                   : Микро-градиент зонд 
MNOR               .Ohmm                                   : Микро-потенциал зонд 
NGLD               .у.е.                                   : Показания зонда НГК-60 аппаратуры ДРСТ-3-90 
NNKTB_1            .у.е.                                   : Показания большого зонда 2ННКт аппаратуры СРК 
NNKTM_1            .у.е.                                   : Показания малого зонда 2ННКт аппаратуры СРК 
NPHI               .v/v                                    : Total porosity 
OGZ3               .Ohmm                                   : Обращенный градиент-зонд 
PHIE               .v/v                                    : Описание 
PHIED              .v/v                                    :  
PHIEN              .v/v                                    :  
PHIES              .v/v                                    :  
PHIT               .v/v                                    : Описание 
PRMB               .mD                                     :  
PRMB_DGR           .mD                                     :  
RHOB               .G/C3                                   : Плотность по ГГКп 
RT                 .ohmm                                   : Удельное электрическое сопротивление 
SOIL_ARCHIE        .v/v                                    :  
SOIL_DW            .v/v                                    :  
SP                 .мВ                                     : Потенциал самополяризации 
VSH_FIN            .v/v                                    : Описание 
VSH_GR             .v/v                                    : Shale volume 
VSH_SP             .v/v                                    : Shale Volume 
W                  .v/v                                    :  
~Ascii
# ...
987.9      0.232      571.42     -9999      -9999      359.523    7.252431   2.27       1.460000038146973 1.690000057220459 1.74       1.74       1.75       1.71       1.97       2.18       1.94       -9999      2.85       1.54       -9999      2.03       0.07409655 0.008182966 -9999      0.1400101  0.1699918  0.06600941 0.8187434  2.43       2.143      0          0          432.29     0.6117145  0.70401    0.5194191  0.2396359 
988.1      0.234      571.42     -9999      -9999      357.947    7.212801   2.1        1.429999947547913 1.659999966621399 1.72       1.73       1.75       1.73       1.87       2.31       1.95       -9999      2.76       1.54       -9999      2.19       0.09088428 0.04020841 -9999      0.1415601  0.185304   0.1350689  0.8634831  2.38       2.144      0          0.08950286 432.18     0.6023023  0.6888804  0.5157241  0.2545877 
988.3      0.239      571.42     -9999      -9999      359.355    7.140905   2.14       1.419999957084656 1.659999966621399 1.71       1.74       1.75       1.68       1.85       2.23       1.94       -9999      2.69       1.55       -9999      2.11       0.07996308 0.01661137 -9999      0.1433148  0.1741316  0.0847751  0.9509805  2.42       2.125      0          0.00213122 432.83     0.6006998  0.6622583  0.5391414  0.2704438 
988.5      0.239      564.97     -9999      -9999      362.301    7.059583   2.13       1.480000019073486 1.720000028610229 1.76       1.77       1.77       1.69       1.79       2.11       2.05       -9999      2.68       1.56       -9999      2.14       0.06773287 -0.008623018 -9999      0.1440888  0.1628087  0.05031936 1.060683   2.46       2.135      0          0          433.9      0.6064876  0.6333834  0.5795917  0.2756399 
988.7      0.235      568.18     -9999      -9999      364.47     6.976698   2.14       1.470000028610229 1.679999947547913 1.73       1.74       1.76       1.74       1.92       2.3        2.07       -9999      2.7        1.56       -9999      2.13       0.09423126 0.04412042 -9999      0.1443421  0.19012    0.1557936  1.185525   2.37       2.135      0          0.114271   434.86     0.611673   0.6052489  0.6180971  0.2718266 
988.9      0.236      578.03     -9999      -9999      365.825    6.886359   2.09       1.419999957084656 1.629999995231628 1.68       1.69       1.73       1.68       1.91       2.32       2.03       -9999      2.71       1.57       -9999      2.18       0.08614074 0.02641317 -9999      0.1458683  0.1818477  0.11033    1.338388   2.4        2.134      0          0.05762007 435.5      0.6105133  0.5760053  0.6450212  0.273202  
989.1      0.23       581.39     -9999      -9999      366.141    6.785668   1.98       1.409999966621399 1.620000004768372 1.67       1.69       1.72       1.66       1.77       2.23       1.99       -9999      2.64       1.56       -9999      2.28       0.09534474 0.04094068 -9999      0.1497488  0.1892464  0.1633707  1.532105   2.38       2.119      0          0.1124246  435.68     0.5989972  0.5450729  0.6529214  0.2835073 
989.3      0.232      571.42     -9999      -9999      364.145    6.686833   2.12       1.419999957084656 1.639999985694885 1.7        1.72       1.75       1.68       1.85       2.28       2.03       -9999      2.7        1.56       -9999      2.27       0.1029638  0.05497661 -9999      0.150951   0.195408   0.2260983  1.749496   2.36       2.192      0          0.1693852  435.91     0.5897005  0.5163268  0.6630741  0.2718266 
989.5      0.233      561.79     -9999      -9999      360.891    6.61833    2          1.480000019073486 1.690000057220459 1.74       1.76       1.78       1.73       1.9        2.36       2.12       -9999      2.89       1.59       -9999      2.32       0.1078121  0.0636731  -9999      0.1519511  0.1983399  0.2780354  1.918021   2.35       2.148      0          0.1833044  435.78     0.5774757  0.4972969  0.6576545  0.247926  
989.7      0.233      564.97     -9999      -9999      358.796    6.612792   1.96       1.480000019073486 1.679999947547913 1.73       1.75       1.77       1.76       2.01       2.43       2.17       -9999      2.9        1.61       -9999      2.08       0.0893444  0.02458557 -9999      0.1541032  0.1778707  0.1264833  1.932331   2.42       2.018      0          0.03119572 435.21     0.5647082  0.4957897  0.6336267  0.2521888 
989.9      0.235      574.71     -9999      -9999      361.206    6.684679   1.93       1.429999947547913 1.639999985694885 1.69       1.71       1.74       1.72       2.03       2.2        2.12       -9999      2.93       1.6        -9999      2.2        0.09085482 0.02144689 -9999      0.1602627  0.177365   0.1348993  1.754564   2.43       2.056      0          0.04470595 434.08     0.5518476  0.5157173  0.587978   0.2444536 
990.1      0.237      578.03     -9999      -9999      364.613    6.808738   1.99       1.429999947547913 1.639999985694885 1.69       1.7        1.73       1.7        2          2.09       2          -9999      2.96       1.58       -9999      2.17       0.08826892 0.01457144 -9999      0.1619664  0.1754071  0.1208127  1.485381   2.44       2.076      0          0.03209372 433.34     0.5558531  0.55201    0.5596962  0.2341558 
990.3      0.242      574.71     -9999      -9999      365.477    6.92479    1.97       1.419999957084656 1.649999976158142 1.69       1.72       1.74       1.68       1.92       2.27       2.08       -9999      2.86       1.58       -9999      2.15       0.1019487  0.04313591 -9999      0.1607614  0.1900602  0.2165184  1.271086   2.39       2.056      0          0.1243309  432.69     0.562062   0.5882691  0.5358549  0.2498618 
990.5      0.236      558.65     -9999      -9999      363.438    6.972883   2.04       1.490000009536743 1.730000019073486 1.77       1.78       1.79       1.69       1.9        2.15       2.14       -9999      2.8        1.57       -9999      2.18       0.09130953 0.0245267  -9999      0.1580923  0.1798775  0.1375409  1.191612   2.42       2.108      0          0.06647487 432.41     0.5649739  0.6039844  0.5259634  0.2569481 
990.7      0.235      540.54     -9999      -9999      359.134    6.925121   1.97       1.539999961853027 1.789999961853027 1.81       1.84       1.85       1.78       2.04       2.18       2.21       -9999      2.98       1.58       -9999      2.13       0.07418921 -0.009140735 -9999      0.1575191  0.1611576  0.06627079 1.270522   2.48       2.047      0          0          432.27     0.5547703  0.5883759  0.5211648  0.2311875 
990.9      0.232      529.1      -9999      -9999      354.918    6.797988   2.07       1.600000023841858 1.830000042915344 1.86       1.87       1.89       1.79       2.12       2.35       2.29       -9999      2.94       1.61       -9999      2.11       0.08316973 0.01038884 -9999      0.1559506  0.1690304  0.09719931 1.506973   2.45       2.09       0          0          432.97     0.5477043  0.5487666  0.5466419  0.2457596 
991.1      0.237      526.31     -9999      -9999      351.03     6.645201   2.11       1.590000033378601 1.830000042915344 1.86       1.88       1.9        1.86       2.16       2.43       2.32       -9999      2.96       1.61       -9999      2.25       0.09529377 0.0359417  -9999      0.1546458  0.1800218  0.1630158  1.850062   2.41       2.178      0          0.09711786 433.75     0.5404791  0.5046765  0.5762818  0.2426344 
991.3      0.235      520.83     -9999      -9999      351.402    6.534148   2.14       1.610000014305115 1.840000033378601 1.87       1.89       1.92       1.85       2          2.34       2.31       -9999      3.12       1.63       -9999      2.15       0.09589777 0.03629903 -9999      0.1554965  0.180373   0.1672698  2.147506   2.41       2.145      0          0.09351467 434.42     0.5388663  0.4748695  0.6028631  0.2248046 
991.5      0.237      520.83     -9999      -9999      353.83     6.515336   2.07       1.610000014305115 1.850000023841858 1.89       1.9        1.92       1.85       1.63       2.31       2.17       -9999      3          1.62       -9999      2.01       0.1078267  0.05928723 -9999      0.1563662  0.192984   0.2782088  2.202433   2.37       2.04       0          0.1479633  434.75     0.5432174  0.4699975  0.6164374  0.2393418 
