~Version
 VERS              .         2.0                           : CWLS LOG ASCII STANDARD - VERSION 2.0
 WRAP              .         NO                            : ONE LINE PER DEPTH STEP
 DLM               .         SPACE                         : DELIMITING CHARACTER(SPACE TAB OR COMMA)
~Well Information
#_______________________________________________________________________________
#
#PARAMETER_NAME    .UNIT     VALUE                         : DESCRIPTION
#_______________________________________________________________________________
STRT               .M        0.7                           : First reference value
STOP               .M        1248.1                        : Last reference value
STEP               .M        0.2                           : Step increment
NULL               .         -9999                         : Missing value
COMP               .                                       : Company
WELL               .         4055                          : Well name
FLD                .         Узень                         : Field
LOC                .                                       : Location
CNTY               .                                       : County
STAT               .                                       : State
CTRY               .                                       : Country
SRVC               .                                       : Service Company
DATE               .         20/2/2014                     : Date
UWI                .                                       : Unique Well ID
3кв_для_заказчика  .         5                             : 
Block              .         6а                            : 
Category           .         Нефтяная                      : 
Condition          .         В работе                      : 
Date               .         04.03.2014                    : 
EREF               .m        79.2                          : 100.8
GRP                .                                       : Group name
Gor                .         14                            : 
Gorizont           .         14                            : 14
ISS                .                                       : Well surveys
Interpretator      .         Кайсанов Е.К                  : 
Kupol              .         Основной                      : osnovnoi
Mud                .         полимерный                    : 
Mud_density        .         1,34                          : 
Mud_resistivity    .         0,35                          : 
NGDU               .         НГДУ-2                        : 
ORIGINALWELLNAME   .         4055                          : 
Spud_date          .         2014                          : 1961
TIME               .                                       : LOG TIME
Viscosity          .         40                            : 
X                  .m        44072.64                      : 46154
Y                  .m        85156.06                      : 85761.93
YEAR               .         2019                          : 
временно           .         \                             : 
~Parameter Information Block
#_______________________________________________________________________________
#
#PARAMETER_NAME    .UNIT     VALUE                         : DESCRIPTION
#_______________________________________________________________________________
SET                .         LQC_KAZNIPI_Petrel            : 
TLFamily_CALI      .         Caliper                       : 
TLFamily_CILD      .         Conductivity                  : 
TLFamily_COLL      .         Net Reservoir Flag            : 
TLFamily_CSAT      .         Fluid Code                    : 
TLFamily_DEPT      .         Measured Depth                : 
TLFamily_DT        .         Compressional Slowness        : 
TLFamily_GR        .         Russian Gamma Ray             : 
TLFamily_GZ3       .         Gradient 225                  : 
TLFamily_IK1       .         Resistivity 05                : 
TLFamily_IK2       .         Resistivity 07                : 
TLFamily_IK3       .         Resistivity 10                : 
TLFamily_IK4       .         Resistivity 14                : 
TLFamily_IK5       .         Resistivity 20                : 
TLFamily_LLS       .         Lateral Log Resistivity       : 
TLFamily_MBK       .         Micro Lateral Log Resistivity : 
TLFamily_MINV      .         Micro Gradient Resistivity    : 
TLFamily_MNOR      .         Micro Resistivity             : 
TLFamily_NGLD      .         Neutron Far                   : 
TLFamily_NNKTB_1   .         Neutron Far                   : 
TLFamily_NNKTM_1   .         Neutron Near                  : 
TLFamily_NPHI      .         Neutron Porosity              : 
TLFamily_OGZ3      .         Gradient Inverted 225         : 
TLFamily_PHIE      .         Effective Porosity            : 
TLFamily_PHIED     .         Effective Porosity            : 
TLFamily_PHIEN     .         Effective Porosity            : 
TLFamily_PHIES     .         Effective Porosity            : 
TLFamily_PHIT      .         Porosity                      : 
TLFamily_PRMB      .         Permeability                  : 
TLFamily_PRMB_DGR  .         Permeability                  : 
TLFamily_RHOB      .         Bulk Density                  : 
TLFamily_RT        .         Formation Resistivity         : 
TLFamily_SOIL_ARCHIE .         Oil Saturation                : 
TLFamily_SOIL_DW   .         Oil Saturation                : 
TLFamily_SP        .         Spontaneous Potential         : 
TLFamily_VSH_FIN   .         Shale Volume                  : 
TLFamily_VSH_GR    .         Shale Volume                  : 
TLFamily_VSH_SP    .         Shale Volume                  : 
TLFamily_W         .         Neutron Porosity              : 
~Curve Information
#_______________________________________________________________________________
#
#LOGNAME           .UNIT     LOG_ID                        : DESCRIPTION
#_______________________________________________________________________________
DEPT               .M                                      : Колонка глубины 
CALI               .м                                      : Каверномер 
CILD               .мСм/м                                  : Проводимость 
COLL               .unitless                               :  
CSAT               .unitless                               :  
DT                 .мкс/м                                  : Интервальное время пробега продольной волны 
GR                 .uR/h                                   : Гамма каротаж 
GZ3                .Ohmm                                   : Градиент-зонд  длиной 2.25м 
IK1                .Ohmm                                   : ИК1 
IK2                .Ohmm                                   : ИК2 
IK3                .Ohmm                                   : ИК3 
IK4                .Ohmm                                   : ИК4 
IK5                .Ohmm                                   : ИК5 
LLS                .Ohmm                                   : Боковой каротаж 
MBK                .Ohmm                                   : Микробоковой каротаж 
MINV               .Ohmm                                   : Микро-градиент зонд 
MNOR               .Ohmm                                   : Микро-потенциал зонд 
NGLD               .у.е.                                   : Показания зонда НГК-60 аппаратуры ДРСТ-3-90 
NNKTB_1            .у.е.                                   : Показания большого зонда 2ННКт аппаратуры СРК 
NNKTM_1            .у.е.                                   : Показания малого зонда 2ННКт аппаратуры СРК 
NPHI               .v/v                                    : Total porosity 
OGZ3               .Ohmm                                   : Обращенный градиент-зонд 
PHIE               .v/v                                    : Описание 
PHIED              .v/v                                    :  
PHIEN              .v/v                                    :  
PHIES              .v/v                                    :  
PHIT               .v/v                                    : Описание 
PRMB               .mD                                     :  
PRMB_DGR           .mD                                     :  
RHOB               .G/C3                                   : Плотность по ГГКп 
RT                 .ohmm                                   : Удельное электрическое сопротивление 
SOIL_ARCHIE        .v/v                                    :  
SOIL_DW            .v/v                                    :  
SP                 .мВ                                     : Потенциал самополяризации 
VSH_FIN            .v/v                                    : Описание 
VSH_GR             .v/v                                    : Shale volume 
VSH_SP             .v/v                                    : Shale Volume 
W                  .v/v                                    :  
~Ascii
# ...
1214.3     0.197      1298.7     1          3          277.929    8.022517   0.85       3.87       2.34       1.29       0.89       0.77       2          2.71       2.2        3.62       -9999      3          1.77       0.163      1.15       0.1500091  0.1377245  0.1173194  0.1949834  0.1797029  1.681476   32.98644   2.44       0.978      0          0          377.75     0.1384261  0.1556421  0.1212101  0.2826922 
1214.5     0.198      1369.86    1          3          289.547    8.056699   0.93       3.419999999999999 2.09       1.18       0.8        0.73       1.71       2.63       2.05       3.33       -9999      3.05       1.78       0.197      1.38       0.1880752  0.2035929  0.1501983  0.2104343  0.2184976  8.52641    31.04752   2.33       1.111      0.1004999  0.1584153  379.32     0.1418233  0.1595401  0.1241065  0.2769867 
1214.7     0.201      1333.33    1          3          298.096    8.21957    0.87       3.200000000000001 1.96       1.14       0.82       0.75       1.7        2.72       2.06       3.3        -9999      3.3        1.75       0.17       1.5        0.1843209  0.2155689  0.1193165  0.2180772  0.2172666  7.264877   23.26322   2.31       1.101      0.08067159 0.1445232  380.85     0.1535862  0.179497   0.1276754  0.2312715 
1214.9     0.2        1162.79    1          3          300.3      8.493517   1          3.32       2.07       1.25       0.94       0.86       1.88       2.99       2.12       3.4        -9999      3.13       1.71       0.185      1.53       0.1676635  0.1616766  0.1271905  0.2141234  0.2052414  3.570202   14.31599   2.4        1.209      0.04450627 0.1217844  382.18     0.1751803  0.2188536  0.131507   0.2446656 
1215.1     0.201      1030.92    1          3          298.029    8.814874   0.91       3.29       2.19       1.38       1.06       0.97       2.01       3.37       2.13       3.49       -9999      3.09       1.67       0.138      1.66       0.1465857  0.1676646  0.07028405 0.2018085  0.1906031  1.453053   8.099965   2.39       1.176      0          0.01639629 383.02     0.2051999  0.2761533  0.1342465  0.2397216 
1215.3     0.201      970.87     1          3          295.979    9.100608   1.02       3.1        2.19       1.43       1.12       1.03       1.86       3.23       2.08       3.44       -9999      3.14       1.68       0.084      1.75       0.1167806  0.1556886  0.005627823 0.1890256  0.1677249  0.4075857  4.881602   2.41       1.289      0          0          383.39     0.2374914  0.3395871  0.1353958  0.2351934 
1215.5     0.201      925.92     8          3          295.665    9.297374   1.1        3.06       2.2        1.49       1.18       1.08       1.92       3.25       2.13       3.4        -9999      3.05       1.68       0.117      1.67       0.1336529  0.1916168  0.02944823 0.1798936  0.1905641  0.8370163  3.444434   2.35       1.326      0          0.03717859 384.33     0.2653084  0.3915534  0.1390634  0.2484758 
1215.7     0.2        877.19     8          3          295.818    9.411352   1.05       3.13       2.25       1.55       1.24       1.14       2          3.59       2.11       3.4        -9999      3.06       1.69       0.088      1.76       0.1219402  0.1916168  0          0.1742037  0.1809642  0.5079093  2.814441   2.35       1.315      0          0          385.22     0.2840945  0.4252187  0.1429703  0.2497255 
1215.9     0.194      833.33     8          3          296.341    9.487361   1.09       3.200000000000001 2.33       1.6        1.3        1.2        2.04       3.9        2.12       3.32       -9999      3.07       1.7        0.101      1.74       0.1233703  0.1976048  0.002311044 0.1701949  0.187521   0.5398521  2.459748   2.34       1.34       0          0.0006995393 386.37     0.2990575  0.4492628  0.1488521  0.2509695 
1216.1     0.194      813        8          3          315.794    9.564764   1.08       3.259999999999999 2.38       1.62       1.33       1.23       2.07       4.21       2.14       3.32       -9999      3          1.68       0.114      1.82       0.1255686  0.1796408  0.009044091 0.1880211  0.1937931  0.5929171  2.144449   2.37       1.356      0          0.03275482 388.27     0.3180482  0.4751458  0.1609506  0.2563326 
1216.3     0.197      793.65     8          3          317.089    9.6436     1.04       3.200000000000001 2.39       1.65       1.35       1.26       2.02       4.21       2.13       3.23       -9999      3.01       1.68       0.07       1.78       0.1291196  0.2035929  0          0.1837659  0.1876036  0.6898686  1.864827   2.33       1.313      0          0.009464703 389.44     0.3363386  0.503041   0.1696362  0.2547325 
1216.5     0.2        787.4      8          3          318.224    9.690549   0.96       3.48       2.56       1.71       1.36       1.27       2.1        4.1        2.03       3.08       -9999      3.16       1.7        0.043      1.63       0.1397271  0.239521   0          0.1796602  0.1910086  1.084531   1.715944   2.27       1.208      0          0.01105964 391.33     0.3535381  0.5204257  0.1866505  0.2376472 
1216.7     0.2        793.65     8          3          317.195    9.680604   1.21       3.69       2.58       1.68       1.33       1.26       2.12       3.98       1.97       3.01       -9999      3.2        1.7        0.051      1.68       0.1357127  0.233533   0          0.1736051  0.1912905  0.9138743  1.746455   2.28       1.407      0          0.07327774 394.31     0.3691311  0.5166938  0.2215684  0.2320548 
1216.9     0.193      813        8          3          315.111    9.622446   0.97       3.450000000000001 2.45       1.61       1.29       1.23       2.11       3.35       2.1        3.18       -9999      3.08       1.71       0.079      1.74       0.09964842 0.1347848  0          0.1641605  0.1669127  0.1962857  1.936064   2.3        1.246      0          0          398.39     0.391647   0.4953991  0.2878949  0.252208  
1217.1     0.192      806.45     8          3          311.509    9.543365   1.12       3.02       2.2        1.51       1.26       1.24       2.11       3.74       2.1        3.18       -9999      3.09       1.72       0.093      1.67       0.08395278 0.1065004  0          0.145358   0.1607519  0.1005003  2.227339   2.33       1.341      0          0          403.55     0.4382282  0.4678443  0.4086121  0.2534408 
1217.3     0.205      781.25     8          3          308.515    9.467836   1.14       2.64       2.06       1.5        1.3        1.28       1.99       3.86       2.02       3.09       -9999      3          1.69       0.094      1.63       0.05650149 0.042299   0          0.1272055  0.1384968  0.03116755 2.54635    2.42       1.342      0          0          407.32     0.4847583  0.4429598  0.5265569  0.2592098 
1217.5     0.21       746.26     -9999      -9999      306.263    9.42784    1.26       2.45       1.99       1.53       1.35       1.34       1.95       3.77       1.98       2.95       -9999      3.04       1.69       0.114      1.67       0.05378021 0.05057357 0          0.1107671  0.1470128  0.02775224 2.733391   2.39       1.436      0          0          409.99     0.528492   0.4303227  0.6266613  0.2528296 
1217.7     0.211      719.42     -9999      -9999      304.758    9.466783   1.23       2.13       1.81       1.51       1.37       1.39       1.9        3.6        2.1        2.93       -9999      3.26       1.68       0.1        1.53       0.02992856 -0.006359591 0          0.09614527 0.1227535  0.01003477 2.55111    2.47       1.364      0          0          411.66     0.5692446  0.4426221  0.6958671  0.2190313 
1217.9     0.221      694.44     -9999      -9999      307.574    9.602785   1.39       1.79       1.67       1.51       1.42       1.44       1.63       3.29       2.71       3.24       -9999      3.22       1.64       0.084      1.63       0.0509343  0.06743108 0          0.08537184 0.1431627  0.02458017 2.004713   2.33       1.5        0          0          412.7      0.6145681  0.4884006  0.7407355  0.2141806 
1218.1     0.22       662.25     -9999      -9999      313.157    9.797778   1.47       1.84       1.81       1.64       1.54       1.51       1.59       3.02       2.93       3.2        -9999      3.11       1.62       0.025      1.7        0.0418881  0.04993984 0          0.07572446 0.119876   0.01671196 1.418966   2.34       1.577      0          0          413.39     0.666488   0.5624176  0.7705584  0.2235507 
