~Version
 VERS              .         2.0                           : CWLS LOG ASCII STANDARD - VERSION 2.0
 WRAP              .         NO                            : ONE LINE PER DEPTH STEP
 DLM               .         SPACE                         : DELIMITING CHARACTER(SPACE TAB OR COMMA)
~Well Information
#_______________________________________________________________________________
#
#PARAMETER_NAME    .UNIT     VALUE                         : DESCRIPTION
#_______________________________________________________________________________
STRT               .M        0.7                           : First reference value
STOP               .M        1248.1                        : Last reference value
STEP               .M        0.2                           : Step increment
NULL               .         -9999                         : Missing value
COMP               .                                       : Company
WELL               .         4055                          : Well name
FLD                .         Узень                         : Field
LOC                .                                       : Location
CNTY               .                                       : County
STAT               .                                       : State
CTRY               .                                       : Country
SRVC               .                                       : Service Company
DATE               .         20/2/2014                     : Date
UWI                .                                       : Unique Well ID
3кв_для_заказчика  .         5                             : 
Block              .         6а                            : 
Category           .         Нефтяная                      : 
Condition          .         В работе                      : 
Date               .         04.03.2014                    : 
EREF               .m        79.2                          : 100.8
GRP                .                                       : Group name
Gor                .         14                            : 
Gorizont           .         14                            : 14
ISS                .                                       : Well surveys
Interpretator      .         Кайсанов Е.К                  : 
Kupol              .         Основной                      : osnovnoi
Mud                .         полимерный                    : 
Mud_density        .         1,34                          : 
Mud_resistivity    .         0,35                          : 
NGDU               .         НГДУ-2                        : 
ORIGINALWELLNAME   .         4055                          : 
Spud_date          .         2014                          : 1961
TIME               .                                       : LOG TIME
Viscosity          .         40                            : 
X                  .m        44072.64                      : 46154
Y                  .m        85156.06                      : 85761.93
YEAR               .         2019                          : 
временно           .         \                             : 
~Parameter Information Block
#_______________________________________________________________________________
#
#PARAMETER_NAME    .UNIT     VALUE                         : DESCRIPTION
#_______________________________________________________________________________
SET                .         LQC_KAZNIPI_Petrel            : 
TLFamily_CALI      .         Caliper                       : 
TLFamily_CILD      .         Conductivity                  : 
TLFamily_COLL      .         Net Reservoir Flag            : 
TLFamily_CSAT      .         Fluid Code                    : 
TLFamily_DEPT      .         Measured Depth                : 
TLFamily_DT        .         Compressional Slowness        : 
TLFamily_GR        .         Russian Gamma Ray             : 
TLFamily_GZ3       .         Gradient 225                  : 
TLFamily_IK1       .         Resistivity 05                : 
TLFamily_IK2       .         Resistivity 07                : 
TLFamily_IK3       .         Resistivity 10                : 
TLFamily_IK4       .         Resistivity 14                : 
TLFamily_IK5       .         Resistivity 20                : 
TLFamily_LLS       .         Lateral Log Resistivity       : 
TLFamily_MBK       .         Micro Lateral Log Resistivity : 
TLFamily_MINV      .         Micro Gradient Resistivity    : 
TLFamily_MNOR      .         Micro Resistivity             : 
TLFamily_NGLD      .         Neutron Far                   : 
TLFamily_NNKTB_1   .         Neutron Far                   : 
TLFamily_NNKTM_1   .         Neutron Near                  : 
TLFamily_NPHI      .         Neutron Porosity              : 
TLFamily_OGZ3      .         Gradient Inverted 225         : 
TLFamily_PHIE      .         Effective Porosity            : 
TLFamily_PHIED     .         Effective Porosity            : 
TLFamily_PHIEN     .         Effective Porosity            : 
TLFamily_PHIES     .         Effective Porosity            : 
TLFamily_PHIT      .         Porosity                      : 
TLFamily_PRMB      .         Permeability                  : 
TLFamily_PRMB_DGR  .         Permeability                  : 
TLFamily_RHOB      .         Bulk Density                  : 
TLFamily_RT        .         Formation Resistivity         : 
TLFamily_SOIL_ARCHIE .         Oil Saturation                : 
TLFamily_SOIL_DW   .         Oil Saturation                : 
TLFamily_SP        .         Spontaneous Potential         : 
TLFamily_VSH_FIN   .         Shale Volume                  : 
TLFamily_VSH_GR    .         Shale Volume                  : 
TLFamily_VSH_SP    .         Shale Volume                  : 
TLFamily_W         .         Neutron Porosity              : 
~Curve Information
#_______________________________________________________________________________
#
#LOGNAME           .UNIT     LOG_ID                        : DESCRIPTION
#_______________________________________________________________________________
DEPT               .M                                      : Колонка глубины 
CALI               .м                                      : Каверномер 
CILD               .мСм/м                                  : Проводимость 
COLL               .unitless                               :  
CSAT               .unitless                               :  
DT                 .мкс/м                                  : Интервальное время пробега продольной волны 
GR                 .uR/h                                   : Гамма каротаж 
GZ3                .Ohmm                                   : Градиент-зонд  длиной 2.25м 
IK1                .Ohmm                                   : ИК1 
IK2                .Ohmm                                   : ИК2 
IK3                .Ohmm                                   : ИК3 
IK4                .Ohmm                                   : ИК4 
IK5                .Ohmm                                   : ИК5 
LLS                .Ohmm                                   : Боковой каротаж 
MBK                .Ohmm                                   : Микробоковой каротаж 
MINV               .Ohmm                                   : Микро-градиент зонд 
MNOR               .Ohmm                                   : Микро-потенциал зонд 
NGLD               .у.е.                                   : Показания зонда НГК-60 аппаратуры ДРСТ-3-90 
NNKTB_1            .у.е.                                   : Показания большого зонда 2ННКт аппаратуры СРК 
NNKTM_1            .у.е.                                   : Показания малого зонда 2ННКт аппаратуры СРК 
NPHI               .v/v                                    : Total porosity 
OGZ3               .Ohmm                                   : Обращенный градиент-зонд 
PHIE               .v/v                                    : Описание 
PHIED              .v/v                                    :  
PHIEN              .v/v                                    :  
PHIES              .v/v                                    :  
PHIT               .v/v                                    : Описание 
PRMB               .mD                                     :  
PRMB_DGR           .mD                                     :  
RHOB               .G/C3                                   : Плотность по ГГКп 
RT                 .ohmm                                   : Удельное электрическое сопротивление 
SOIL_ARCHIE        .v/v                                    :  
SOIL_DW            .v/v                                    :  
SP                 .мВ                                     : Потенциал самополяризации 
VSH_FIN            .v/v                                    : Описание 
VSH_GR             .v/v                                    : Shale volume 
VSH_SP             .v/v                                    : Shale Volume 
W                  .v/v                                    :  
~Ascii
# ...
1238.3     0.217      331.12     6          6          232.566    8.85613    2.02       3.73       3.69       3.48       3.29       3.02       3.08       3.99       2.96       3.76       -9999      3.59       1.8        0.026      1.52       0.05721581 0.08982037 0          0.08182706 0.09130566 0.03213169 7.52887    2.52       1.735      0          0          392.68     0.2432612  0.2845222  0.2020003  0.2078607 
1238.5     0.22       403.22     8          3          253.883    9.040931   1.9        2.49       2.8        2.65       2.58       2.48       2.25       3.72       1.64       2.72       -9999      3.2        1.72       0.055      1.58       0.08503783 0.1377245  0          0.117389   0.1307077  0.1052604  5.426178   2.44       1.725      0          0          392.33     0.2615696  0.3252338  0.1979054  0.2372507 
1238.7     0.216      473.93     8          3          271.789    9.194651   2.02       2.33       2.47       2.44       2.26       2.11       2.13       3.74       1.75       2.7        -9999      2.77       1.66       0.095      1.61       0.1146638  0.1976048  0.00387665 0.14251    0.1738967  0.3724003  4.132193   2.34       1.792      0          0.06902295 391.5      0.2761314  0.3635022  0.1887605  0.2910565 
1238.9     0.21       529.1      8          3          282.241    9.322803   1.78       2.01       1.94       2.03       1.93       1.89       1.85       3          1.77       2.59       -9999      2.83       1.64       0.134      1.59       0.1251467  0.1856288  0.0371524  0.1526588  0.1881005  0.5823416  3.292647   2.36       1.68       0          0.1143583  391.44     0.2934776  0.3988257  0.1881295  0.2733518 
1239.1     0.217      568.18     8          3          284.505    9.454722   2          2.04       1.85       1.82       1.8        1.76       1.79       2.99       1.68       2.57       -9999      2.88       1.62       0.173      1.69       0.1409474  0.2035929  0.06959514 0.1496543  0.2081637  1.142474   2.606222   2.33       1.832      0.08550823 0.2391447  391.42     0.3133481  0.4387759  0.1879202  0.2584893 
1239.3     0.209      588.23     8          3          283.827    9.57695    1.92       2.12       1.87       1.73       1.76       1.7        1.93       3.27       1.96       2.65       -9999      2.82       1.62       0.167      1.57       0.1297189  0.1916168  0.05603182 0.1415079  0.2018515  0.7077273  2.098634   2.35       1.727      0          0.1743725  391.91     0.3362672  0.4793544  0.19318    0.2689143 
1239.5     0.219      602.4      8          3          284.122    9.620151   2.01       1.82       1.68       1.55       1.61       1.66       1.76       2.85       1.88       2.55       -9999      2.92       1.61       0.161      1.68       0.1156024  0.1616766  0.0465306  0.1385999  0.1900109  0.3876097  1.943957   2.4        1.83       0          0.1288231  392.44     0.3468769  0.4945769  0.199177   0.2489439 
1239.7     0.221      591.71     8          3          282.397    9.517891   1.99       1.84       1.67       1.57       1.58       1.69       1.74       2.68       2.05       2.59       -9999      2.98       1.6        0.165      1.54       0.1293968  0.1916168  0.05560864 0.140965   0.2005045  0.6980736  2.330197   2.35       1.736      0          0.1724057  392.82     0.331489   0.459299   0.203679   0.2367606 
1239.9     0.221      564.97     8          3          278.45     9.280456   1.87       1.72       1.71       1.64       1.63       1.77       1.69       2.4        2.1        2.57       -9999      3.2        1.62       0.151      1.56       0.1194652  0.1616766  0.05180701 0.1449121  0.1839436  0.4570292  3.54927    2.4        1.701      0          0.09102131 393.67     0.3005848  0.3867889  0.2143807  0.211726  
1240.1     0.219      540.54     -9999      -9999      273.341    9.006241   2          1.85       1.84       1.8        1.74       1.85       2.03       2.51       1.79       2.42       -9999      3.4        1.63       0.126      1.37       0.1441927  0.245509   0.03861632 0.1484529  0.2009947  1.31207    5.77024    2.26       1.626      0.05184454 0.1833457  393.52     0.264799   0.3171709  0.2124272  0.1907124 
1240.3     0.22       510.2      -9999      -9999      271.956    8.803548   1.93       2.54       2.32       2.1        1.95       1.96       2.36       4.04       1.83       2.57       -9999      3.49       1.67       0.135      1.55       0.1458779  0.2275449  0.05589858 0.1541903  0.1972962  1.409845   8.264192   2.29       1.719      0.0855725  0.2009733  392.97     0.2397013  0.2738991  0.2055034  0.1900209 
1240.5     0.217      505.05     -9999      -9999      273.51     8.699882   1.96       2.67       2.34       2.12       2          1.98       2.37       4.45       2.14       2.99       -9999      3.54       1.71       0.114      1.56       0.1452331  0.233533   0.040379   0.1617873  0.1930889  1.371599   9.930908   2.28       1.737      0.08651349 0.1936032  391.81     0.2230939  0.2541033  0.1920846  0.1935126 
1240.7     0.211      537.63     -9999      -9999      274.113    8.638821   1.93       2.17       2.02       1.92       1.9        1.86       2.37       4.15       1.78       2.82       -9999      3.22       1.71       0.126      1.54       0.1436735  0.2095809  0.05563691 0.1658027  0.1894116  1.283334   11.06587   2.32       1.713      0.07184302 0.1751304  390.97     0.2132215  0.2431196  0.1833234  0.2318942 
1240.9     0.219      568.18     -9999      -9999      271.715    8.557417   1.93       2.51       2.28       2.06       1.9        1.76       2.35       4.43       1.68       2.74       -9999      3.38       1.71       0.142      1.61       0.1740519  0.2814371  0.07520711 0.1655114  0.2174692  4.688359   12.78321   2.2        1.756      0.2237231  0.3062741  390.16     0.2024027  0.2292114  0.175594   0.2114602 
1241.1     0.2        628.93     -9999      -9999      271.855    8.444602   2          3.12       2.5        2.23       1.84       1.59       2.36       3.91       1.89       2.87       -9999      3.5        1.73       -9999      -9999      -9999      0.2754491  -9999      1          -9999      -9999      -9999      2.21       -9999      -9999      -9999      -9999      -4999.395  0.2112422  -9999      0.2022547 
1241.3     0.201      775.19     -9999      -9999      272.32     8.32215    2.02       3.66       2.4        2          1.41       1.29       2.36       3.78       1.78       2.76       -9999      3.51       1.75       -9999      -9999      -9999      0.3113772  -9999      1          -9999      -9999      -9999      2.15       -9999      -9999      -9999      -9999      -4999.403  0.1933287  -9999      0.2056314 
1241.5     0.202      917.43     -9999      -9999      272.632    8.208517   1.88       3.87       2.45       1.54       1.24       1.09       2.36       3.7        1.73       2.69       -9999      3.8        1.76       -9999      -9999      -9999      0.2814371  -9999      1          -9999      -9999      -9999      2.2        -9999      -9999      -9999      -9999      -4999.411  0.178067   -9999      0.1783939 
1241.7     0.208      1020.4     -9999      -9999      -9999      8.119081   1.89       3.88       2.45       1.41       1.13       0.98       2.37       3.74       1.75       2.71       -9999      3.82       1.78       -9999      -9999      -9999      0.2994012  -9999      -9999      -9999      -9999      -9999      2.17       -9999      -9999      -9999      -9999      -4999.417  0.1669074  -9999      0.180502  
1241.9     0.21       1020.4     -9999      -9999      -9999      8.080016   1.95       3.88       2.45       1.41       1.21       0.98       2.36       4          2.01       2.99       -9999      4.03       1.82       -9999      -9999      -9999      0.3053892  -9999      -9999      -9999      -9999      -9999      2.16       -9999      -9999      -9999      -9999      -4999.419  0.162255   -9999      0.1698309 
1242.1     0.199      819.67     -9999      -9999      -9999      8.103598   1.9        3.88       2.44       1.41       1.28       1.22       2.36       -9999      -9999      -9999      -9999      4.19       1.9        -9999      -9999      -9999      0.3053892  -9999      -9999      -9999      -9999      -9999      2.16       -9999      -9999      -9999      -9999      -4999.417  0.1650476  -9999      0.171191  
