~Version
 VERS              .         2.0                           : CWLS LOG ASCII STANDARD - VERSION 2.0
 WRAP              .         NO                            : ONE LINE PER DEPTH STEP
 DLM               .         SPACE                         : DELIMITING CHARACTER(SPACE TAB OR COMMA)
~Well Information
#_______________________________________________________________________________
#
#PARAMETER_NAME    .UNIT     VALUE                         : DESCRIPTION
#_______________________________________________________________________________
STRT               .M        0.7                           : First reference value
STOP               .M        1248.1                        : Last reference value
STEP               .M        0.2                           : Step increment
NULL               .         -9999                         : Missing value
COMP               .                                       : Company
WELL               .         4055                          : Well name
FLD                .         Узень                         : Field
LOC                .                                       : Location
CNTY               .                                       : County
STAT               .                                       : State
CTRY               .                                       : Country
SRVC               .                                       : Service Company
DATE               .         20/2/2014                     : Date
UWI                .                                       : Unique Well ID
3кв_для_заказчика  .         5                             : 
Block              .         6а                            : 
Category           .         Нефтяная                      : 
Condition          .         В работе                      : 
Date               .         04.03.2014                    : 
EREF               .m        79.2                          : 100.8
GRP                .                                       : Group name
Gor                .         14                            : 
Gorizont           .         14                            : 14
ISS                .                                       : Well surveys
Interpretator      .         Кайсанов Е.К                  : 
Kupol              .         Основной                      : osnovnoi
Mud                .         полимерный                    : 
Mud_density        .         1,34                          : 
Mud_resistivity    .         0,35                          : 
NGDU               .         НГДУ-2                        : 
ORIGINALWELLNAME   .         4055                          : 
Spud_date          .         2014                          : 1961
TIME               .                                       : LOG TIME
Viscosity          .         40                            : 
X                  .m        44072.64                      : 46154
Y                  .m        85156.06                      : 85761.93
YEAR               .         2019                          : 
временно           .         \                             : 
~Parameter Information Block
#_______________________________________________________________________________
#
#PARAMETER_NAME    .UNIT     VALUE                         : DESCRIPTION
#_______________________________________________________________________________
SET                .         LQC_KAZNIPI_Petrel            : 
TLFamily_CALI      .         Caliper                       : 
TLFamily_CILD      .         Conductivity                  : 
TLFamily_COLL      .         Net Reservoir Flag            : 
TLFamily_CSAT      .         Fluid Code                    : 
TLFamily_DEPT      .         Measured Depth                : 
TLFamily_DT        .         Compressional Slowness        : 
TLFamily_GR        .         Russian Gamma Ray             : 
TLFamily_GZ3       .         Gradient 225                  : 
TLFamily_IK1       .         Resistivity 05                : 
TLFamily_IK2       .         Resistivity 07                : 
TLFamily_IK3       .         Resistivity 10                : 
TLFamily_IK4       .         Resistivity 14                : 
TLFamily_IK5       .         Resistivity 20                : 
TLFamily_LLS       .         Lateral Log Resistivity       : 
TLFamily_MBK       .         Micro Lateral Log Resistivity : 
TLFamily_MINV      .         Micro Gradient Resistivity    : 
TLFamily_MNOR      .         Micro Resistivity             : 
TLFamily_NGLD      .         Neutron Far                   : 
TLFamily_NNKTB_1   .         Neutron Far                   : 
TLFamily_NNKTM_1   .         Neutron Near                  : 
TLFamily_NPHI      .         Neutron Porosity              : 
TLFamily_OGZ3      .         Gradient Inverted 225         : 
TLFamily_PHIE      .         Effective Porosity            : 
TLFamily_PHIED     .         Effective Porosity            : 
TLFamily_PHIEN     .         Effective Porosity            : 
TLFamily_PHIES     .         Effective Porosity            : 
TLFamily_PHIT      .         Porosity                      : 
TLFamily_PRMB      .         Permeability                  : 
TLFamily_PRMB_DGR  .         Permeability                  : 
TLFamily_RHOB      .         Bulk Density                  : 
TLFamily_RT        .         Formation Resistivity         : 
TLFamily_SOIL_ARCHIE .         Oil Saturation                : 
TLFamily_SOIL_DW   .         Oil Saturation                : 
TLFamily_SP        .         Spontaneous Potential         : 
TLFamily_VSH_FIN   .         Shale Volume                  : 
TLFamily_VSH_GR    .         Shale Volume                  : 
TLFamily_VSH_SP    .         Shale Volume                  : 
TLFamily_W         .         Neutron Porosity              : 
~Curve Information
#_______________________________________________________________________________
#
#LOGNAME           .UNIT     LOG_ID                        : DESCRIPTION
#_______________________________________________________________________________
DEPT               .M                                      : Колонка глубины 
CALI               .м                                      : Каверномер 
CILD               .мСм/м                                  : Проводимость 
COLL               .unitless                               :  
CSAT               .unitless                               :  
DT                 .мкс/м                                  : Интервальное время пробега продольной волны 
GR                 .uR/h                                   : Гамма каротаж 
GZ3                .Ohmm                                   : Градиент-зонд  длиной 2.25м 
IK1                .Ohmm                                   : ИК1 
IK2                .Ohmm                                   : ИК2 
IK3                .Ohmm                                   : ИК3 
IK4                .Ohmm                                   : ИК4 
IK5                .Ohmm                                   : ИК5 
LLS                .Ohmm                                   : Боковой каротаж 
MBK                .Ohmm                                   : Микробоковой каротаж 
MINV               .Ohmm                                   : Микро-градиент зонд 
MNOR               .Ohmm                                   : Микро-потенциал зонд 
NGLD               .у.е.                                   : Показания зонда НГК-60 аппаратуры ДРСТ-3-90 
NNKTB_1            .у.е.                                   : Показания большого зонда 2ННКт аппаратуры СРК 
NNKTM_1            .у.е.                                   : Показания малого зонда 2ННКт аппаратуры СРК 
NPHI               .v/v                                    : Total porosity 
OGZ3               .Ohmm                                   : Обращенный градиент-зонд 
PHIE               .v/v                                    : Описание 
PHIED              .v/v                                    :  
PHIEN              .v/v                                    :  
PHIES              .v/v                                    :  
PHIT               .v/v                                    : Описание 
PRMB               .mD                                     :  
PRMB_DGR           .mD                                     :  
RHOB               .G/C3                                   : Плотность по ГГКп 
RT                 .ohmm                                   : Удельное электрическое сопротивление 
SOIL_ARCHIE        .v/v                                    :  
SOIL_DW            .v/v                                    :  
SP                 .мВ                                     : Потенциал самополяризации 
VSH_FIN            .v/v                                    : Описание 
VSH_GR             .v/v                                    : Shale volume 
VSH_SP             .v/v                                    : Shale Volume 
W                  .v/v                                    :  
~Ascii
# ...
1056.3     0.221      518.13     -9999      -9999      331.461    8.822375   2.31       1.710000038146973 1.950000047683716 1.98       1.95       1.93       1.77       1.51       1.49       2.15       -9999      2.72       1.58       -9999      2.13       0.09226996 0.07298211 -9999      0.1115578  0.1889217  0.1432919  1.402694   2.32       2.216      0          0.120153   428.46     0.6165404  0.5650727  0.6680081  0.2745701 
1056.5     0.221      529.1      -9999      -9999      334.067    8.751992   2.36       1.639999985694885 1.809999942779541 1.85       1.86       1.89       1.91       1.59       1.52       2.42       -9999      2.73       1.56       -9999      2.13       0.07109182 0.02626022 -9999      0.1159234  0.166907   0.05806988 1.505033   2.4        2.239      0          0          428.59     0.6112036  0.5490554  0.6733518  0.2662508 
1056.7     0.224      543.47     -9999      -9999      341.229    8.620791   2.03       1.5        1.659999966621399 1.71       1.78       1.84       1.64       1.35       1.57       1.85       -9999      2.77       1.56       -9999      2.1        0.07502476 0.01952383 -9999      0.1305257  0.1671326  0.068675   1.716152   2.42       2.064      0          0          428.17     0.5875544  0.5203999  0.6547089  0.2590744 
1056.9     0.22       518.13     -9999      -9999      336.121    8.477314   2.15       1.590000033378601 1.820000052452087 1.84       1.89       1.93       1.7        1.43       1.62       2.16       -9999      2.79       1.55       -9999      2.14       0.1027167  0.07263467 -9999      0.1327987  0.1911405  0.223728   1.981071   2.34       2.145      0          0.1481469  427.77     0.5640545  0.4907722  0.6373369  0.2525167 
1057.1     0.22       495.04     -9999      -9999      329.41     8.385443   2.23       1.649999976158142 1.860000014305115 1.9        1.97       2.02       1.87       1.53       1.97       2.46       -9999      2.7        1.56       -9999      2.08       0.08146207 0.02983532 -9999      0.1330888  0.1662739  0.09037186 2.171802   2.42       2.152      0          0          427.1      0.5410134  0.4726931  0.6093337  0.2718266 
1057.3     0.222      485.43     -9999      -9999      326.246    8.408057   2.29       1.710000038146973 1.919999957084656 1.96       2          2.06       1.9        1.32       2.04       2.32       -9999      2.71       1.61       -9999      2.11       0.05480199 -0.02242543 -9999      0.1320294  0.1384595  0.02898838 2.123214   2.51       2.196      0          0          426.63     0.5336499  0.4770806  0.5902193  0.2863724 
1057.5     0.224      495.04     -9999      -9999      327.981    8.580184   2.31       1.830000042915344 2.019999980926514 2.01       2          2.02       1.93       1.39       1.66       2.23       -9999      2.67       1.62       -9999      1.85       0.08716674 0.04220324 -9999      0.1321303  0.1717013  0.115265   1.787313   2.4        2.055      0          0.009523798 426.03     0.5392446  0.5118376  0.5666515  0.2978578 
1057.7     0.222      552.48     -9999      -9999      341.352    8.886909   2.42       1.549999952316284 1.679999947547913 1.76       1.79       1.81       1.93       1.42       1.46       2.25       -9999      2.56       1.61       -9999      1.93       0.08631962 0.0323359  -9999      0.1403033  0.173599   0.1111749  1.314988   2.41       2.147      0          0.0338845  425.14     0.5567539  0.5801688  0.5333391  0.3184381 
1057.9     0.223      641.02     -9999      -9999      361.72     9.262946   2.36       1.259999990463257 1.409999966621399 1.43       1.5        1.56       1.56       1.14       1.2        1.99       -9999      2.57       1.58       -9999      1.73       0.09719872 0.05107453 -9999      0.1433229  0.1924039  0.176813   0.9026611  2.36       1.996      0          0.1014326  425.28     0.6073126  0.676511   0.5381141  0.3052611 
1058.1     0.228      689.65     -9999      -9999      374.027    9.613469   2.16       1.179999947547913 1.340000033378601 1.38       1.4        1.45       1.38       1.02       1.19       1.74       -9999      2.47       1.51       -9999      1.82       0.1050491  0.07431848 -9999      0.1357798  0.2092291  0.2471286  0.6356449  2.3        1.975      0          0.1673366  425.57     0.6645626  0.7806714  0.5484539  0.3020768 
1058.3     0.225      675.67     -9999      -9999      369.561    9.858705   2.17       1.25       1.419999957084656 1.46       1.48       1.48       1.38       1.02       1.34       1.71       -9999      2.3        1.49       -9999      1.9        0.06418221 -0.0000973 -9999      0.1284617  0.1701731  0.04324823 0.4973406  2.42       2.026      0          0          425.68     0.6761146  0.8        0.5522292  0.336458  
1058.5     0.224      649.35     -9999      -9999      359.06     9.982279   2.12       1.340000033378601 1.460000038146973 1.5        1.53       1.54       1.5        1.16       1.44       1.99       -9999      2.56       1.49       -9999      1.9        0.07694265 0.0387789  -9999      0.1151064  0.1850846  0.07452855 0.4394993  2.35       2.004      0          0          426.41     0.689836   0.8        0.5796721  0.2755882 
1058.7     0.227      636.94     -9999      -9999      353.226    10.02512   1.85       1.379999995231628 1.5        1.51       1.54       1.57       1.54       1.28       1.31       2          -9999      2.63       1.51       -9999      1.82       0.06801929 0.03356819 -9999      0.1024704  0.1798481  0.05093781 0.4210601  2.35       1.835      0          0          427.59     0.7133546  0.8        0.6267093  0.2686301 
1058.9     0.225      636.94     -9999      -9999      352.239    10.03581   2.02       1.350000023841858 1.490000009536743 1.5        1.52       1.57       1.59       1.43       1.49       1.9        -9999      2.55       1.51       -9999      1.95       0.05014798 0.01212717 -9999      0.08816879 0.1686738  0.02376951 0.41658    2.37       1.984      0          0          429.55     0.756075   0.8        0.7121499  0.2846277 
1059.1     0.224      641.02     -9999      -9999      353.997    10.0337    1.93       1.340000033378601 1.480000019073486 1.51       1.51       1.56       1.56       1.3        1.63       1.89       -9999      2.54       1.5        -9999      2.04       0.04349974 0.005953821 -9999      0.08104566 0.1663936  0.01790106 0.4174599  2.37       1.983      0          0          430.73     0.7839385  0.8        0.7678769  0.2831863 
1059.3     0.226      641.02     -9999      -9999      355.799    10.024     2.08       1.340000033378601 1.490000009536743 1.53       1.52       1.56       1.56       1.18       1.87       1.91       -9999      2.53       1.52       -9999      2          0.03593604 -0.008004855 -9999      0.07987692 0.1602327  0.01296524 0.4215292  2.39       2.039      0          0          431.1      0.7928865  0.8        0.785773   0.2924296 
1059.5     0.221      632.91     -9999      -9999      354.473    10.01078   2.01       1.370000004768372 1.539999961853027 1.56       1.56       1.58       1.56       1.28       2.01       1.95       -9999      2.68       1.51       -9999      2.07       0.05313444 0.02427869 -9999      0.0819902  0.175773   0.02699832 0.4271439  2.34       2.04       0          0          430.68     0.7823099  0.8        0.7646199  0.2592958 
1059.7     0.222      617.28     -9999      -9999      351.188    9.982667   1.97       1.409999966621399 1.570000052452087 1.6        1.61       1.62       1.58       1.44       2.04       1.93       -9999      2.58       1.52       -9999      2.07       0.04158164 0.005435704 -9999      0.07772758 0.1648421  0.01649495 0.4393286  2.37       2.019      0          0          430.85     0.786277   0.8        0.772554   0.2819285 
1059.9     0.22       591.71     -9999      -9999      344.07     9.908915   2.01       1.440000057220459 1.590000033378601 1.63       1.66       1.69       1.64       1.41       2.12       2.06       -9999      2.52       1.55       -9999      2.1        0.05810021 0.04646576 -9999      0.06973466 0.1819876  0.03336683 0.4729733  2.3        2.054      0          0          431.02     0.7902763  0.8        0.7805526  0.3055325 
