~Version
 VERS              .         2.0                           : CWLS LOG ASCII STANDARD - VERSION 2.0
 WRAP              .         NO                            : ONE LINE PER DEPTH STEP
 DLM               .         SPACE                         : DELIMITING CHARACTER(SPACE TAB OR COMMA)
~Well Information
#_______________________________________________________________________________
#
#PARAMETER_NAME    .UNIT     VALUE                         : DESCRIPTION
#_______________________________________________________________________________
STRT               .M        0.7                           : First reference value
STOP               .M        1248.1                        : Last reference value
STEP               .M        0.2                           : Step increment
NULL               .         -9999                         : Missing value
COMP               .                                       : Company
WELL               .         4055                          : Well name
FLD                .         Узень                         : Field
LOC                .                                       : Location
CNTY               .                                       : County
STAT               .                                       : State
CTRY               .                                       : Country
SRVC               .                                       : Service Company
DATE               .         20/2/2014                     : Date
UWI                .                                       : Unique Well ID
3кв_для_заказчика  .         5                             : 
Block              .         6а                            : 
Category           .         Нефтяная                      : 
Condition          .         В работе                      : 
Date               .         04.03.2014                    : 
EREF               .m        79.2                          : 100.8
GRP                .                                       : Group name
Gor                .         14                            : 
Gorizont           .         14                            : 14
ISS                .                                       : Well surveys
Interpretator      .         Кайсанов Е.К                  : 
Kupol              .         Основной                      : osnovnoi
Mud                .         полимерный                    : 
Mud_density        .         1,34                          : 
Mud_resistivity    .         0,35                          : 
NGDU               .         НГДУ-2                        : 
ORIGINALWELLNAME   .         4055                          : 
Spud_date          .         2014                          : 1961
TIME               .                                       : LOG TIME
Viscosity          .         40                            : 
X                  .m        44072.64                      : 46154
Y                  .m        85156.06                      : 85761.93
YEAR               .         2019                          : 
временно           .         \                             : 
~Parameter Information Block
#_______________________________________________________________________________
#
#PARAMETER_NAME    .UNIT     VALUE                         : DESCRIPTION
#_______________________________________________________________________________
SET                .         LQC_KAZNIPI_Petrel            : 
TLFamily_CALI      .         Caliper                       : 
TLFamily_CILD      .         Conductivity                  : 
TLFamily_COLL      .         Net Reservoir Flag            : 
TLFamily_CSAT      .         Fluid Code                    : 
TLFamily_DEPT      .         Measured Depth                : 
TLFamily_DT        .         Compressional Slowness        : 
TLFamily_GR        .         Russian Gamma Ray             : 
TLFamily_GZ3       .         Gradient 225                  : 
TLFamily_IK1       .         Resistivity 05                : 
TLFamily_IK2       .         Resistivity 07                : 
TLFamily_IK3       .         Resistivity 10                : 
TLFamily_IK4       .         Resistivity 14                : 
TLFamily_IK5       .         Resistivity 20                : 
TLFamily_LLS       .         Lateral Log Resistivity       : 
TLFamily_MBK       .         Micro Lateral Log Resistivity : 
TLFamily_MINV      .         Micro Gradient Resistivity    : 
TLFamily_MNOR      .         Micro Resistivity             : 
TLFamily_NGLD      .         Neutron Far                   : 
TLFamily_NNKTB_1   .         Neutron Far                   : 
TLFamily_NNKTM_1   .         Neutron Near                  : 
TLFamily_NPHI      .         Neutron Porosity              : 
TLFamily_OGZ3      .         Gradient Inverted 225         : 
TLFamily_PHIE      .         Effective Porosity            : 
TLFamily_PHIED     .         Effective Porosity            : 
TLFamily_PHIEN     .         Effective Porosity            : 
TLFamily_PHIES     .         Effective Porosity            : 
TLFamily_PHIT      .         Porosity                      : 
TLFamily_PRMB      .         Permeability                  : 
TLFamily_PRMB_DGR  .         Permeability                  : 
TLFamily_RHOB      .         Bulk Density                  : 
TLFamily_RT        .         Formation Resistivity         : 
TLFamily_SOIL_ARCHIE .         Oil Saturation                : 
TLFamily_SOIL_DW   .         Oil Saturation                : 
TLFamily_SP        .         Spontaneous Potential         : 
TLFamily_VSH_FIN   .         Shale Volume                  : 
TLFamily_VSH_GR    .         Shale Volume                  : 
TLFamily_VSH_SP    .         Shale Volume                  : 
TLFamily_W         .         Neutron Porosity              : 
~Curve Information
#_______________________________________________________________________________
#
#LOGNAME           .UNIT     LOG_ID                        : DESCRIPTION
#_______________________________________________________________________________
DEPT               .M                                      : Колонка глубины 
CALI               .м                                      : Каверномер 
CILD               .мСм/м                                  : Проводимость 
COLL               .unitless                               :  
CSAT               .unitless                               :  
DT                 .мкс/м                                  : Интервальное время пробега продольной волны 
GR                 .uR/h                                   : Гамма каротаж 
GZ3                .Ohmm                                   : Градиент-зонд  длиной 2.25м 
IK1                .Ohmm                                   : ИК1 
IK2                .Ohmm                                   : ИК2 
IK3                .Ohmm                                   : ИК3 
IK4                .Ohmm                                   : ИК4 
IK5                .Ohmm                                   : ИК5 
LLS                .Ohmm                                   : Боковой каротаж 
MBK                .Ohmm                                   : Микробоковой каротаж 
MINV               .Ohmm                                   : Микро-градиент зонд 
MNOR               .Ohmm                                   : Микро-потенциал зонд 
NGLD               .у.е.                                   : Показания зонда НГК-60 аппаратуры ДРСТ-3-90 
NNKTB_1            .у.е.                                   : Показания большого зонда 2ННКт аппаратуры СРК 
NNKTM_1            .у.е.                                   : Показания малого зонда 2ННКт аппаратуры СРК 
NPHI               .v/v                                    : Total porosity 
OGZ3               .Ohmm                                   : Обращенный градиент-зонд 
PHIE               .v/v                                    : Описание 
PHIED              .v/v                                    :  
PHIEN              .v/v                                    :  
PHIES              .v/v                                    :  
PHIT               .v/v                                    : Описание 
PRMB               .mD                                     :  
PRMB_DGR           .mD                                     :  
RHOB               .G/C3                                   : Плотность по ГГКп 
RT                 .ohmm                                   : Удельное электрическое сопротивление 
SOIL_ARCHIE        .v/v                                    :  
SOIL_DW            .v/v                                    :  
SP                 .мВ                                     : Потенциал самополяризации 
VSH_FIN            .v/v                                    : Описание 
VSH_GR             .v/v                                    : Shale volume 
VSH_SP             .v/v                                    : Shale Volume 
W                  .v/v                                    :  
~Ascii
# ...
1190.3     0.207      286.53     1          2          322.18     8.06508    2.17       3.52       3.15       3.09       3.26       3.49       4.23       5.84       1.85       3.04       -9999      2.75       1.57       0.257      5.64       0.2295514  0.2275449  0.2104331  0.2506762  0.2598213  50.00429   30.58978   2.29       3.134      0.5351933  0.5832977  388.15     0.1411119  0.1605106  0.1217132  0.2657967 
1190.5     0.205      259.06     1          2          318.673    7.951444   2.52       3.67       3.09       3.27       3.52       3.86       4.26       5.64       1.91       3.11       -9999      2.8        1.61       0.244      5.26       0.2196517  0.2095809  0.2000855  0.2492886  0.2481974  32.78231   37.41437   2.32       3.408      0.5356283  0.581988   385.97     0.1330743  0.1478394  0.1183093  0.2693814 
1190.7     0.205      241.54     1          2          315.275    7.915144   3.08       3.51       3.13       3.48       3.84       4.14       4.02       5.44       1.67       2.99       -9999      2.94       1.61       0.227      5.06       0.2212078  0.233533   0.1838986  0.246192   0.249225   35.03192   39.90038   2.28       3.829      0.5630242  0.607757   385.15     0.1306103  0.1440064  0.1172142  0.2457596 
1190.9     0.206      227.79     1          2          314.65     7.877087   3.39       3.53       3.18       3.6        4.06       4.39       4.01       5.14       1.45       2.9        -9999      2.98       1.63       0.207      4.72       0.2127924  0.2275449  0.1646485  0.2461838  0.2403221  24.46751   42.68433   2.29       3.946      0.55435    0.598887   384.66     0.1283377  0.1400945  0.1165809  0.2452186 
1191.1     0.207      212.31     1          2          314.578    7.785415   3.53       3.51       3.13       3.75       4.4        4.71       3.96       5.36       1.61       3.13       -9999      2.96       1.63       0.229      4.18       0.2289516  0.251497   0.1879863  0.2473716  0.2556117  48.74134   50.21407   2.25       3.828      0.5758731  0.6190018  385.36     0.1242839  0.1311023  0.1174655  0.2483533 
1191.3     0.207      196.07     1          2          313.971    7.653532   3.45       3.33       3.15       3.83       4.79       5.1        3.92       5.42       1.9        3.21       -9999      2.92       1.64       0.247      3.45       0.231749   0.239521   0.2075612  0.2481648  0.2573854  54.91759   63.43546   2.27       3.45       0.559353   0.6023335  387.07     0.1195115  0.1191686  0.1198544  0.2577499 
1191.5     0.208      181.81     1          2          313.575    7.530621   3.59       3.57       3.359999999999999 4.05       5.27       5.5        4.29       5.39       1.85       3.21       -9999      2.87       1.62       0.256      2.89       0.2454203  0.2694611  0.2178607  0.2489392  0.270212   98.38703   78.87376   2.22       3.202      0.5658762  0.6082831  388.42     0.1155738  0.1090268  0.1221207  0.2601851 
1191.7     0.206      172.41     1          2          318.734    7.459937   3.82       3.44       3.359999999999999 4.12       5.41       5.800001   4.5        5.79       1.85       3.22       -9999      2.75       1.62       0.262      2.64       0.2412453  0.245509   0.2236155  0.2546113  0.2661963  82.33898   89.39967   2.26       3.122      0.5540767  0.5969322  391.35     0.1163167  0.1035902  0.1290432  0.281878  
1191.9     0.205      175.13     1          2          319.454    7.486512   4.13       3.44       3.46       4.33       5.37       5.71       4.28       5.61       1.96       3.31       -9999      2.62       1.61       0.263      2.51       0.2398989  0.245509   0.2216167  0.2525711  0.2667993  77.74426   85.2868    2.26       3.122      0.5518979  0.5964798  395.31     0.125404   0.1056017  0.1452064  0.3050001 
1192.1     0.202      199.6      1          2          309.911    7.673363   4.55       3.53       3.450000000000001 4.19       4.78       5.01       4.48       5.43       1.97       3.26       -9999      2.61       1.6        0.256      2.2        0.2379119  0.2754491  0.205451   0.2328357  0.2707703  71.42732   61.24472   2.21       2.966      0.5376514  0.5880076  400.59     0.1531788  0.1208911  0.1854665  0.3036357 
1192.3     0.201      272.47     1          2          304.583    8.071127   5.24       3.06       2.77       3.08       3.45       3.67       4.19       4.78       1.92       3.07       -9999      2.61       1.58       0.239      1.98       0.2152298  0.2754491  0.1655858  0.2046545  0.2629512  27.14789   30.2637    2.21       2.874      0.4879768  0.5557798  407.41     0.2224673  0.1612146  0.2837199  0.2965976 
1192.5     0.2        396.82     7          7          315.666    8.643864   5.44       1.55       1.51       1.81       2.15       2.52       2.75       3.52       2.03       2.89       -9999      2.54       1.57       0.22       1.81       0.1663191  0.2275449  0.09888798 0.1725244  0.2450455  3.371253   10.96741   2.29       2.716      0.3418493  0.4696915  415.36     0.3670061  0.2440085  0.4900038  0.3083424 
1192.7     0.223      452.48     7          7          351.951    9.225337   4.76       1.35       1.47       1.72       1.98       2.21       1.55       1.87       1.92       2.25       -9999      2.45       1.53       0.177      1.71       0.1067639  0.1699922  0          0.1502995  0.2239823  0.2658794  3.913473   2.18       2.516      0          0.3061691  421.62     0.5570619  0.3716646  0.7424591  0.3142917 
1192.9     0.22       425.53     7          7          373.865    9.595319   4.4        1.67       1.79       1.96       2.22       2.35       1.87       2.09       2.36       2.43       -9999      2.27       1.46       0.145      2          0.1137753  0.198882   0          0.142444   0.2292964  0.3585527  2.031416   2.1        2.75       0.08923803 0.361669   423.39     0.6428844  0.4857688  0.8        0.3319865 
1193.1     0.221      409.83     7          7          373.789    9.649038   5.13       1.74       1.88       1.94       2.21       2.44       1.87       2.43       2.62       2.51       -9999      2.15       1.38       0.174      2.69       0.09806523 0.1548325  0          0.1393632  0.2242592  0.1834696  1.846938   2.17       3.529      0.07789589 0.3954292  423.95     0.6525124  0.5050248  0.8        0.3307311 
1193.3     0.22       401.6      -9999      -9999      351.521    9.492473   5.91       1.85       2.07       2.07       2.3        2.49       2.17       2.64       3.36       3.02       -9999      2.04       1.38       0.258      3          0.115622   0.1668133  0.0515969  0.1284558  0.2497901  0.3879344  2.437565   2.16       3.98       0.2449523  0.4997669  423.95     0.6254639  0.4509278  0.8        0.3645333 
1193.5     0.222      413.22     -9999      -9999      320.841    9.338462   5.88       2          2.23       2.18       2.25       2.42       2.23       3.02       4.03       3.4        -9999      2.18       1.41       0.183      2.85       0.04438671 0.02836907 0          0.1047911  0.1682687  0.01859121 3.202532   2.4        3.839      0          0.07812479 423.4      0.6016853  0.4033706  0.8        0.3354594 
1193.7     0.224      469.48     -9999      -9999      305.254    9.317067   4.68       1.83       1.98       2.04       1.98       2.13       2.09       2.6        3.05       2.91       -9999      2.26       1.46       0.144      2.11       0.03368492 0.008579803 0          0.09247497 0.1426033  0.01177835 3.326293   2.44       2.909      0          0          422.2      0.5828964  0.3971735  0.7686192  0.3347176 
1193.9     0.223      531.91     -9999      -9999      297.621    9.411777   3.39       1.82       1.93       1.89       1.78       1.88       1.72       1.94       2.34       2.54       -9999      2.35       1.54       0.091      1.79       0.0298752  0.000809965 0          0.08881563 0.1191428  0.01001196 2.812325   2.46       2.343      0          0          420.81     0.5639117  0.4253493  0.7024741  0.3437099 
1194.1     0.224      564.97     -9999      -9999      286.844    9.546964   2.79       1.73       1.83       1.79       1.74       1.77       1.79       2.83       2.52       2.59       -9999      2.59       1.55       0.092      1.65       0.02885271 0.01955403 0          0.06700409 0.1209103  0.009584737 2.213177   2.42       2.074      0          0          420.89     0.5874181  0.4690645  0.7057716  0.290311  
