~Version
 VERS              .         2.0                           : CWLS LOG ASCII STANDARD - VERSION 2.0
 WRAP              .         NO                            : ONE LINE PER DEPTH STEP
 DLM               .         SPACE                         : DELIMITING CHARACTER(SPACE TAB OR COMMA)
~Well Information
#_______________________________________________________________________________
#
#PARAMETER_NAME    .UNIT     VALUE                         : DESCRIPTION
#_______________________________________________________________________________
STRT               .M        0.7                           : First reference value
STOP               .M        1248.1                        : Last reference value
STEP               .M        0.2                           : Step increment
NULL               .         -9999                         : Missing value
COMP               .                                       : Company
WELL               .         4055                          : Well name
FLD                .         Узень                         : Field
LOC                .                                       : Location
CNTY               .                                       : County
STAT               .                                       : State
CTRY               .                                       : Country
SRVC               .                                       : Service Company
DATE               .         20/2/2014                     : Date
UWI                .                                       : Unique Well ID
3кв_для_заказчика  .         5                             : 
Block              .         6а                            : 
Category           .         Нефтяная                      : 
Condition          .         В работе                      : 
Date               .         04.03.2014                    : 
EREF               .m        79.2                          : 100.8
GRP                .                                       : Group name
Gor                .         14                            : 
Gorizont           .         14                            : 14
ISS                .                                       : Well surveys
Interpretator      .         Кайсанов Е.К                  : 
Kupol              .         Основной                      : osnovnoi
Mud                .         полимерный                    : 
Mud_density        .         1,34                          : 
Mud_resistivity    .         0,35                          : 
NGDU               .         НГДУ-2                        : 
ORIGINALWELLNAME   .         4055                          : 
Spud_date          .         2014                          : 1961
TIME               .                                       : LOG TIME
Viscosity          .         40                            : 
X                  .m        44072.64                      : 46154
Y                  .m        85156.06                      : 85761.93
YEAR               .         2019                          : 
временно           .         \                             : 
~Parameter Information Block
#_______________________________________________________________________________
#
#PARAMETER_NAME    .UNIT     VALUE                         : DESCRIPTION
#_______________________________________________________________________________
SET                .         LQC_KAZNIPI_Petrel            : 
TLFamily_CALI      .         Caliper                       : 
TLFamily_CILD      .         Conductivity                  : 
TLFamily_COLL      .         Net Reservoir Flag            : 
TLFamily_CSAT      .         Fluid Code                    : 
TLFamily_DEPT      .         Measured Depth                : 
TLFamily_DT        .         Compressional Slowness        : 
TLFamily_GR        .         Russian Gamma Ray             : 
TLFamily_GZ3       .         Gradient 225                  : 
TLFamily_IK1       .         Resistivity 05                : 
TLFamily_IK2       .         Resistivity 07                : 
TLFamily_IK3       .         Resistivity 10                : 
TLFamily_IK4       .         Resistivity 14                : 
TLFamily_IK5       .         Resistivity 20                : 
TLFamily_LLS       .         Lateral Log Resistivity       : 
TLFamily_MBK       .         Micro Lateral Log Resistivity : 
TLFamily_MINV      .         Micro Gradient Resistivity    : 
TLFamily_MNOR      .         Micro Resistivity             : 
TLFamily_NGLD      .         Neutron Far                   : 
TLFamily_NNKTB_1   .         Neutron Far                   : 
TLFamily_NNKTM_1   .         Neutron Near                  : 
TLFamily_NPHI      .         Neutron Porosity              : 
TLFamily_OGZ3      .         Gradient Inverted 225         : 
TLFamily_PHIE      .         Effective Porosity            : 
TLFamily_PHIED     .         Effective Porosity            : 
TLFamily_PHIEN     .         Effective Porosity            : 
TLFamily_PHIES     .         Effective Porosity            : 
TLFamily_PHIT      .         Porosity                      : 
TLFamily_PRMB      .         Permeability                  : 
TLFamily_PRMB_DGR  .         Permeability                  : 
TLFamily_RHOB      .         Bulk Density                  : 
TLFamily_RT        .         Formation Resistivity         : 
TLFamily_SOIL_ARCHIE .         Oil Saturation                : 
TLFamily_SOIL_DW   .         Oil Saturation                : 
TLFamily_SP        .         Spontaneous Potential         : 
TLFamily_VSH_FIN   .         Shale Volume                  : 
TLFamily_VSH_GR    .         Shale Volume                  : 
TLFamily_VSH_SP    .         Shale Volume                  : 
TLFamily_W         .         Neutron Porosity              : 
~Curve Information
#_______________________________________________________________________________
#
#LOGNAME           .UNIT     LOG_ID                        : DESCRIPTION
#_______________________________________________________________________________
DEPT               .M                                      : Колонка глубины 
CALI               .м                                      : Каверномер 
CILD               .мСм/м                                  : Проводимость 
COLL               .unitless                               :  
CSAT               .unitless                               :  
DT                 .мкс/м                                  : Интервальное время пробега продольной волны 
GR                 .uR/h                                   : Гамма каротаж 
GZ3                .Ohmm                                   : Градиент-зонд  длиной 2.25м 
IK1                .Ohmm                                   : ИК1 
IK2                .Ohmm                                   : ИК2 
IK3                .Ohmm                                   : ИК3 
IK4                .Ohmm                                   : ИК4 
IK5                .Ohmm                                   : ИК5 
LLS                .Ohmm                                   : Боковой каротаж 
MBK                .Ohmm                                   : Микробоковой каротаж 
MINV               .Ohmm                                   : Микро-градиент зонд 
MNOR               .Ohmm                                   : Микро-потенциал зонд 
NGLD               .у.е.                                   : Показания зонда НГК-60 аппаратуры ДРСТ-3-90 
NNKTB_1            .у.е.                                   : Показания большого зонда 2ННКт аппаратуры СРК 
NNKTM_1            .у.е.                                   : Показания малого зонда 2ННКт аппаратуры СРК 
NPHI               .v/v                                    : Total porosity 
OGZ3               .Ohmm                                   : Обращенный градиент-зонд 
PHIE               .v/v                                    : Описание 
PHIED              .v/v                                    :  
PHIEN              .v/v                                    :  
PHIES              .v/v                                    :  
PHIT               .v/v                                    : Описание 
PRMB               .mD                                     :  
PRMB_DGR           .mD                                     :  
RHOB               .G/C3                                   : Плотность по ГГКп 
RT                 .ohmm                                   : Удельное электрическое сопротивление 
SOIL_ARCHIE        .v/v                                    :  
SOIL_DW            .v/v                                    :  
SP                 .мВ                                     : Потенциал самополяризации 
VSH_FIN            .v/v                                    : Описание 
VSH_GR             .v/v                                    : Shale volume 
VSH_SP             .v/v                                    : Shale Volume 
W                  .v/v                                    :  
~Ascii
# ...
1166.5     0.221      675.67     -9999      -9999      350.993    9.869977   1.38       1.350000023841858 1.480000019073486 1.48       1.47       1.48       1.57       1.82       2.68       2.16       -9999      2.52       1.48       0.151      4.04       0.02574662 -0.02851976 0          0.1057596  0.1488493  0.008395527 1.248541   2.46       2.057      0          0          427.83     0.6962918  0.5925836  0.8        0.2802784 
1166.7     0.219      689.65     -9999      -9999      346.504    9.88572    1.35       1.340000033378601 1.460000038146973 1.45       1.45       1.45       1.55       1.8        2.69       2.1        -9999      2.51       1.49       0.123      4.41       0.01118817 -0.0764332 0          0.1099977  0.1221373  0.004512219 1.214188   2.55       2.067      0          0          426.25     0.6693068  0.5993734  0.7392401  0.2859487 
1166.9     0.22       689.65     -9999      -9999      340.282    9.829118   1.3        1.350000023841858 1.470000028610229 1.46       1.46       1.45       1.53       1.84       2.72       2.12       -9999      2.54       1.51       0.08       4.96       0.01120367 -0.09496614 0          0.1285771  0.09961404 0.004515201 1.342304   2.61       2.06       0          0          423.12     0.5907934  0.5753185  0.6062683  0.2867259 
1167.1     0.22       671.14     -9999      -9999      338.003    9.622713   1.2        1.419999957084656 1.519999980926514 1.52       1.5        1.49       1.53       1.89       2.89       2.23       -9999      2.7        1.55       0.091      5.52       0.0520823  -0.001145593 0          0.1573925  0.1337986  0.0258136  1.935148   2.49       1.971      0          0          419.8      0.4916571  0.4954949  0.4878193  0.2685683 
1167.3     0.22       632.91     1          2          334.267    9.248301   1.17       1.529999971389771 1.649999976158142 1.62       1.59       1.58       1.57       2.01       2.73       2.44       -9999      2.74       1.56       0.154      6.28       0.1180308  0.1317365  0.03123497 0.1911209  0.1978317  0.4299071  3.757403   2.45       1.973      0          0.1877863  415.54     0.3720152  0.3778925  0.366138   0.2644296 
1167.5     0.22       571.42     1          2          330.3      8.746618   1.1        1.899999976158142 1.970000028610229 1.85       1.77       1.75       1.72       2.11       2.25       2.5        -9999      2.96       1.56       0.156      7.29       0.1380889  0.1257485  0.0682451  0.2202732  0.1951322  1.011347   9.141498   2.46       1.912      0.08752882 0.2198604  410.93     0.2659239  0.2628444  0.2690035  0.2285698 
1167.7     0.216      483.09     1          2          325.521    8.171477   1.14       2.410000085830688 2.349999904632568 2.08       2.04       2.07       2.07       2.94       2.12       2.92       -9999      3.05       1.61       0.2        9.39       0.1968301  0.2155689  0.1365967  0.2383246  0.2380441  12.38593   25.33292   2.31       2.033      0.3489033  0.4190774  407.03     0.1921311  0.1733575  0.2109047  0.2292629 
1167.9     0.21       373.13     1          2          308.252    7.574084   1.57       3.339999914169312 3.289999961853027 3.07       2.69       2.68       2.44       3.88       1.93       2.92       -9999      3.26       1.64       0.201      11.8       0.1983094  0.2095809  0.1525264  0.2328208  0.2298187  13.19255   73.02654   2.32       2.771      0.4406317  0.4938971  404.29     0.1468897  0.1125105  0.181269   0.2091903 
1168.1     0.203      253.16     1          2          283.51     7.02331    2.16       6.170000076293945 5.940000057220459 5.25       4.18       3.95       4          5.76       1.93       3.31       -9999      3.55       1.68       0.19       12.15      0.1746419  0.1676646  0.1488604  0.2074007  0.2013838  4.807838   193.818    2.39       3.668      0.4522063  0.4990712  403.39     0.1246653  0.07552572 0.1738049  0.1859983 
1168.3     0.201      187.26     1          2          269.464    6.612136   3.03       10.15999984741211 8.739999771118164 7.13       6.130001   5.34       12.7       11.98      2.15       3.89       -9999      3.73       1.76       0.196      10.15      0.1932099  0.233533   0.1573573  0.1887394  0.2183288  10.61387   401.6631   2.28       4.667      0.5519671  0.5939178  403.76     0.1170992  0.05608808 0.1781102  0.1849431 
1168.5     0.201      169.2      1          2          275.09     6.408654   3.49       10.39000034332275 9.710000038146973 7.63       6.5        5.91       21.44      17.31      2.03       3.57       -9999      3.72       1.82       0.197      7.69       0.1935638  0.2275449  0.1570071  0.1961393  0.2195603  10.7753    576.0707   2.29       4.801      0.5585834  0.6012215  405.21     0.1211905  0.0484083  0.1939726  0.198316  
1168.7     0.196      158.47     1          2          288.933    6.393663   3.83       8.850000381469727 9.810000419616701 8.170001   6.89       6.309999   9.91       13.69      1.83       3.35       -9999      3.76       1.83       0.196      6.42       0.1813548  0.1796408  0.1520857  0.212338   0.2099004  6.401616   591.5803   2.37       4.798      0.5326744  0.5791181  407.09     0.1330735  0.047886   0.2182611  0.1963376 
1168.9     0.202      137.55     6          6          284.872    6.473245   3.97       10.02000045776367 12         10.85      8.6        7.27       6.18       8.98       1.97       3.61       -9999      3.9        1.83       0.196      5.95       0.1892468  0.2275449  0.1425559  0.1976395  0.223987   8.96329    513.7621   2.29       4.762      0.5480999  0.600299   410.46     0.1619518  0.05072471 0.2731789  0.1829604 
1169.1     0.205      116.82     6          6          259.822    6.567518   4.46       2666.030000000001 13.23999977111817 13.31      10.88      8.56       10.65      13.08      1.94       3.68       -9999      3.91       1.79       0.168      5.87       0.1441724  0.1856288  0.100921   0.1459675  0.1877758  1.310936   434.7133   2.36       5.069      0.4438272  0.518767   414.08     0.2032697  0.05430601 0.3522333  0.174401  
1169.3     0.209      110.13     6          6          241.269    6.674541   5.11       11.12      11.93000030517578 12.27      11.16      9.08       20.2       22.82      2.04       3.99       -9999      4.09       1.83       0.126      5.46       0.08927584 0.1317365  0.04100417 0.09508684 0.1445256  0.126114   359.609    2.45       5.279      0.1716302  0.329773   417.73     0.2575631  0.05867909 0.4564472  0.1667688 
1169.5     0.218      116.82     6          6          236.98     6.840489   6.08       9.680000000000001 10.58      10.27      10.16      8.56       15.54      20.57      2.56       4.12       -9999      4.32       1.86       0.118      4.89       0.07852886 0.1377245  0.02190349 0.07595858 0.1409944  0.07974492 267.982    2.44       5.42       0.08511099 0.2932663  419.43     0.2912016  0.06616643 0.5162367  0.1546124 
1169.7     0.219      133.15     6          6          245.899    7.091186   6.95       6.51       7.87       8          8.2        7.510001   10.03      15.16      2.77       4.46       -9999      4.28       1.87       0.118      4.24       0.0579881  0.07784434 0.01203132 0.08408865 0.1268709  0.03320767 171.851    2.54       5.267      0          0.139738   420.61     0.3211172  0.07932809 0.5629063  0.1591547 
1169.9     0.22       157.97     6          6          256.113    7.41185    7.93       5.200000000000001 6.290000000000001 6.639999   6.63       6.33       6.37       9.2        4.45       5.97       -9999      4.13       1.85       0.129      3.69       0.0645533  0.07784434 0.01797603 0.09783952 0.1367222  0.04393815 97.35248   2.54       5.036      0          0.1936529  420.77     0.3364362  0.1000474  0.5728251  0.1671407 
1170.1     0.22       194.93     6          6          261.323    7.77488    8.93       3.8        4.63       5.1        5.17       5.130001   5.11       7.42       4.8        5.69       -9999      3.9        1.82       0.129      3.15       0.06802854 0.07784434 0.01875564 0.1074856  0.1396906  0.05095791 51.16038   2.54       4.657      0          0.1889921  419.74     0.3340738  0.1301067  0.5380409  0.1810271 
