~Version
 VERS              .         2.0                           : CWLS LOG ASCII STANDARD - VERSION 2.0
 WRAP              .         NO                            : ONE LINE PER DEPTH STEP
 DLM               .         SPACE                         : DELIMITING CHARACTER(SPACE TAB OR COMMA)
~Well Information
#_______________________________________________________________________________
#
#PARAMETER_NAME    .UNIT     VALUE                         : DESCRIPTION
#_______________________________________________________________________________
STRT               .M        0.7                           : First reference value
STOP               .M        1248.1                        : Last reference value
STEP               .M        0.2                           : Step increment
NULL               .         -9999                         : Missing value
COMP               .                                       : Company
WELL               .         4055                          : Well name
FLD                .         Узень                         : Field
LOC                .                                       : Location
CNTY               .                                       : County
STAT               .                                       : State
CTRY               .                                       : Country
SRVC               .                                       : Service Company
DATE               .         20/2/2014                     : Date
UWI                .                                       : Unique Well ID
3кв_для_заказчика  .         5                             : 
Block              .         6а                            : 
Category           .         Нефтяная                      : 
Condition          .         В работе                      : 
Date               .         04.03.2014                    : 
EREF               .m        79.2                          : 100.8
GRP                .                                       : Group name
Gor                .         14                            : 
Gorizont           .         14                            : 14
ISS                .                                       : Well surveys
Interpretator      .         Кайсанов Е.К                  : 
Kupol              .         Основной                      : osnovnoi
Mud                .         полимерный                    : 
Mud_density        .         1,34                          : 
Mud_resistivity    .         0,35                          : 
NGDU               .         НГДУ-2                        : 
ORIGINALWELLNAME   .         4055                          : 
Spud_date          .         2014                          : 1961
TIME               .                                       : LOG TIME
Viscosity          .         40                            : 
X                  .m        44072.64                      : 46154
Y                  .m        85156.06                      : 85761.93
YEAR               .         2019                          : 
временно           .         \                             : 
~Parameter Information Block
#_______________________________________________________________________________
#
#PARAMETER_NAME    .UNIT     VALUE                         : DESCRIPTION
#_______________________________________________________________________________
SET                .         LQC_KAZNIPI_Petrel            : 
TLFamily_CALI      .         Caliper                       : 
TLFamily_CILD      .         Conductivity                  : 
TLFamily_COLL      .         Net Reservoir Flag            : 
TLFamily_CSAT      .         Fluid Code                    : 
TLFamily_DEPT      .         Measured Depth                : 
TLFamily_DT        .         Compressional Slowness        : 
TLFamily_GR        .         Russian Gamma Ray             : 
TLFamily_GZ3       .         Gradient 225                  : 
TLFamily_IK1       .         Resistivity 05                : 
TLFamily_IK2       .         Resistivity 07                : 
TLFamily_IK3       .         Resistivity 10                : 
TLFamily_IK4       .         Resistivity 14                : 
TLFamily_IK5       .         Resistivity 20                : 
TLFamily_LLS       .         Lateral Log Resistivity       : 
TLFamily_MBK       .         Micro Lateral Log Resistivity : 
TLFamily_MINV      .         Micro Gradient Resistivity    : 
TLFamily_MNOR      .         Micro Resistivity             : 
TLFamily_NGLD      .         Neutron Far                   : 
TLFamily_NNKTB_1   .         Neutron Far                   : 
TLFamily_NNKTM_1   .         Neutron Near                  : 
TLFamily_NPHI      .         Neutron Porosity              : 
TLFamily_OGZ3      .         Gradient Inverted 225         : 
TLFamily_PHIE      .         Effective Porosity            : 
TLFamily_PHIED     .         Effective Porosity            : 
TLFamily_PHIEN     .         Effective Porosity            : 
TLFamily_PHIES     .         Effective Porosity            : 
TLFamily_PHIT      .         Porosity                      : 
TLFamily_PRMB      .         Permeability                  : 
TLFamily_PRMB_DGR  .         Permeability                  : 
TLFamily_RHOB      .         Bulk Density                  : 
TLFamily_RT        .         Formation Resistivity         : 
TLFamily_SOIL_ARCHIE .         Oil Saturation                : 
TLFamily_SOIL_DW   .         Oil Saturation                : 
TLFamily_SP        .         Spontaneous Potential         : 
TLFamily_VSH_FIN   .         Shale Volume                  : 
TLFamily_VSH_GR    .         Shale Volume                  : 
TLFamily_VSH_SP    .         Shale Volume                  : 
TLFamily_W         .         Neutron Porosity              : 
~Curve Information
#_______________________________________________________________________________
#
#LOGNAME           .UNIT     LOG_ID                        : DESCRIPTION
#_______________________________________________________________________________
DEPT               .M                                      : Колонка глубины 
CALI               .м                                      : Каверномер 
CILD               .мСм/м                                  : Проводимость 
COLL               .unitless                               :  
CSAT               .unitless                               :  
DT                 .мкс/м                                  : Интервальное время пробега продольной волны 
GR                 .uR/h                                   : Гамма каротаж 
GZ3                .Ohmm                                   : Градиент-зонд  длиной 2.25м 
IK1                .Ohmm                                   : ИК1 
IK2                .Ohmm                                   : ИК2 
IK3                .Ohmm                                   : ИК3 
IK4                .Ohmm                                   : ИК4 
IK5                .Ohmm                                   : ИК5 
LLS                .Ohmm                                   : Боковой каротаж 
MBK                .Ohmm                                   : Микробоковой каротаж 
MINV               .Ohmm                                   : Микро-градиент зонд 
MNOR               .Ohmm                                   : Микро-потенциал зонд 
NGLD               .у.е.                                   : Показания зонда НГК-60 аппаратуры ДРСТ-3-90 
NNKTB_1            .у.е.                                   : Показания большого зонда 2ННКт аппаратуры СРК 
NNKTM_1            .у.е.                                   : Показания малого зонда 2ННКт аппаратуры СРК 
NPHI               .v/v                                    : Total porosity 
OGZ3               .Ohmm                                   : Обращенный градиент-зонд 
PHIE               .v/v                                    : Описание 
PHIED              .v/v                                    :  
PHIEN              .v/v                                    :  
PHIES              .v/v                                    :  
PHIT               .v/v                                    : Описание 
PRMB               .mD                                     :  
PRMB_DGR           .mD                                     :  
RHOB               .G/C3                                   : Плотность по ГГКп 
RT                 .ohmm                                   : Удельное электрическое сопротивление 
SOIL_ARCHIE        .v/v                                    :  
SOIL_DW            .v/v                                    :  
SP                 .мВ                                     : Потенциал самополяризации 
VSH_FIN            .v/v                                    : Описание 
VSH_GR             .v/v                                    : Shale volume 
VSH_SP             .v/v                                    : Shale Volume 
W                  .v/v                                    :  
~Ascii
# ...
1010.7     0.234      581.39     -9999      -9999      359.149    7.090656   1.98       1.529999971389771 1.669999957084656 1.69       1.7        1.72       1.8        1.99       2.59       2.19       -9999      2.54       1.52       -9999      2.53       0.08401041 0.03056454 -9999      0.1374563  0.1810169  0.1007476  1.017347   2.39       2.221      0          0.06480613 433.7      0.618803   0.6442646  0.5933415  0.2902835 
1010.9     0.249      595.23     -9999      -9999      365.307    7.040391   1.95       1.409999966621399 1.539999961853027 1.59       1.62       1.68       1.68       1.92       2.46       2.18       -9999      2.67       1.53       -9999      2.45       0.07835051 0.009619666 -9999      0.1470813  0.1732292  0.07914063 1.088366   2.43       2.172      0          0.002168497 433.45     0.60523    0.6267548  0.5837052  0.267656  
1011.1     0.248      568.18     -9999      -9999      361.262    7.023442   1.93       1.529999971389771 1.690000057220459 1.74       1.75       1.76       1.58       1.75       2.13       2.09       -9999      2.85       1.55       -9999      2.62       0.07886578 0.01500687 -9999      0.1427247  0.1741696  0.08089909 1.113416   2.42       2.223      0          0.0194264  433.73     0.6079417  0.6209582  0.5949253  0.2425845 
1011.3     0.243      518.13     -9999      -9999      347.183    7.004198   2.14       1.75       1.909999966621399 1.95       1.94       1.93       1.82       1.95       2.68       2.36       -9999      2.86       1.55       -9999      2.64       0.05018362 -0.02798857 -9999      0.1283558  0.1462511  0.02380568 1.142555   2.49       2.364      0          0          434.13     0.6128132  0.6144421  0.6111844  0.2409847 
1011.5     0.234      495.04     -9999      -9999      334.258    6.948513   1.94       1.820000052452087 1.960000038146973 2          2.01       2.02       1.97       2.25       3.13       2.63       -9999      3.02       1.59       -9999      2.91       0.03146951 -0.05224488 -9999      0.1151839  0.1277523  0.01071642 1.231243   2.53       2.328      0          0          434.64     0.6141864  0.5959691  0.6324037  0.2281282 
1011.7     0.233      490.19     -9999      -9999      329.351    6.851945   2.12       1.850000023841858 1.990000009536743 2.01       2.02       2.04       2.03       2.27       3.09       2.64       -9999      3.25       1.65       -9999      2.81       0.03914949 -0.03324772 -9999      0.1115467  0.1347013  0.01486968 1.401672   2.5        2.417      0          0          435.14     0.6095235  0.5652407  0.6538063  0.212879  
1011.9     0.234      483.09     -9999      -9999      329.464    6.726295   2.02       1.840000033378601 2.019999980926514 2.03       2.04       2.07       1.97       2.29       3.13       2.67       -9999      3.17       1.65       -9999      2.89       0.05726851 -0.0007492218 -9999      0.1152862  0.1510101  0.032204   1.659224   2.45       2.378      0          0          435.47     0.5979761  0.527618   0.6683342  0.2232281 
1012.1     0.231      471.69     -9999      -9999      327.275    6.582671   2.19       1.940000057220459 2.130000114440918 2.17       2.13       2.12       2.02       2.29       2.93       2.57       -9999      3.08       1.64       -9999      2.85       0.05722991 0.0001804547 -9999      0.1142794  0.1503137  0.03215103 2.012071   2.45       2.477      0          0          436.1      0.59378    0.4876704  0.6998896  0.2330634 
1012.3     0.238      469.48     -9999      -9999      325.86     6.433315   2.11       1.950000047683716 2.109999895095825 2.15       2.12       2.13       2.14       2.41       3.27       2.67       -9999      3.03       1.64       -9999      2.95       0.02916715 -0.06102522 -9999      0.1193595  0.1189519  0.009714141 2.458802   2.56       2.46       0          0          435.94     0.5727356  0.4493334  0.6961378  0.2403936 
1012.5     0.235      480.76     -9999      -9999      329.357    6.299142   2.21       1.830000042915344 1.990000009536743 2.04       2.06       2.08       2.04       2.36       3.25       2.63       -9999      3.02       1.63       -9999      2.86       0.05949834 -0.005873221 -9999      0.1248699  0.1483916  0.03541698 2.944095   2.47       2.493      0          0          436.31     0.5670493  0.4174702  0.7166284  0.2391199 
1012.7     0.236      483.09     -9999      -9999      333.866    6.212994   2.3        1.850000023841858 2.019999980926514 2.05       2.07       2.07       1.95       2.25       2.95       2.41       -9999      3.05       1.61       -9999      2.95       0.06829536 0.002978017 -9999      0.1336127  0.1551628  0.05154111 3.305061   2.46       2.585      0          0          436.09     0.5541261  0.3982134  0.7100389  0.2292629 
1012.9     0.238      467.28     -9999      -9999      333.469    6.200562   2.35       1.899999976158142 2.089999914169312 2.13       2.12       2.14       1.97       2.24       2.98       2.46       -9999      2.97       1.6        -9999      3.07       0.06383396 -0.01107352 -9999      0.1387414  0.1479331  0.04261062 3.36068    2.49       2.662      0          0          435.29     0.536467   0.3955089  0.677425   0.2382707 
1013.1     0.238      452.48     -9999      -9999      327.417    6.258383   2.18       2.019999980926514 2.170000076293945 2.19       2.19       2.21       2.04       2.33       3.12       2.59       -9999      2.93       1.6        -9999      3.24       0.06829026 -0.00124895 -9999      0.1378295  0.1496748  0.05152991 3.109679   2.48       2.606      0          0          434.11     0.5191506  0.408246   0.6300552  0.2444536 
1013.3     0.232      446.42     -9999      -9999      321.902    6.370277   2.28       2.019999980926514 2.170000076293945 2.2        2.21       2.24       2.16       2.43       3.29       2.63       -9999      3.02       1.63       -9999      3.24       0.04809358 -0.03654734 -9999      0.1327345  0.1290325  0.02177548 2.675946   2.54       2.677      0          0          433.26     0.5163084  0.4340711  0.5985457  0.2391199 
1013.5     0.232      450.45     -9999      -9999      322.096    6.530443   2.23       1.980000019073486 2.150000095367432 2.18       2.19       2.22       2.16       2.42       3.31       2.66       -9999      3.14       1.63       -9999      3.27       0.06100395 -0.008401523 -9999      0.1304094  0.1432124  0.03776584 2.158214   2.49       2.652      0          0          432.58     0.5244069  0.4739061  0.5749076  0.2220908 
1013.7     0.239      460.82     -9999      -9999      324.248    6.72057    2.47       1.980000019073486 2.140000104904175 2.16       2.15       2.17       2.1        2.39       3.24       2.66       -9999      3.19       1.63       -9999      3.43       0.06011377 -0.006606102 -9999      0.1268336  0.1452888  0.03635891 1.672026   2.48       2.872      0          0          432.13     0.5433302  0.5259646  0.5606958  0.2155098 
1013.9     0.236      476.19     -9999      -9999      327.298    6.875164   2.46       1.899999976158142 2.049999952316284 2.08       2.06       2.1        2.09       2.35       3.17       2.6        -9999      3.01       1.63       -9999      3.25       0.03469148 -0.05358047 -9999      0.1229634  0.1234455  0.012295   1.358654   2.55       2.8        0          0          432.03     0.5661606  0.5724813  0.5598399  0.2406237 
1014.1     0.244      487.8      -9999      -9999      335.426    6.908457   2.54       1.779999971389771 1.950000047683716 2          2.01       2.05       1.93       2.2        3.11       2.46       -9999      2.86       1.62       -9999      3.16       0.06817208 0.005724707 -9999      0.1306195  0.1573329  0.05127084 1.299265   2.45       2.816      0          0.01954883 431.81     0.5687559  0.5830255  0.5544863  0.2618973 
1014.3     0.247      473.93     -9999      -9999      333.669    6.77598    2.47       1.889999985694885 2.079999923706055 2.1        2.1        2.11       1.87       2.11       2.93       2.34       -9999      2.78       1.6        -9999      3.08       0.07010566 0.004560919 -9999      0.1356504  0.1558531  0.05567818 1.552161   2.46       2.741      0          0.01069141 431.66     0.5469817  0.542186   0.5517774  0.2698557 
