~Version
 VERS              .         2.0                           : CWLS LOG ASCII STANDARD - VERSION 2.0
 WRAP              .         NO                            : ONE LINE PER DEPTH STEP
 DLM               .         SPACE                         : DELIMITING CHARACTER(SPACE TAB OR COMMA)
~Well Information
#_______________________________________________________________________________
#
#PARAMETER_NAME    .UNIT     VALUE                         : DESCRIPTION
#_______________________________________________________________________________
STRT               .M        0.7                           : First reference value
STOP               .M        1248.1                        : Last reference value
STEP               .M        0.2                           : Step increment
NULL               .         -9999                         : Missing value
COMP               .                                       : Company
WELL               .         4055                          : Well name
FLD                .         Узень                         : Field
LOC                .                                       : Location
CNTY               .                                       : County
STAT               .                                       : State
CTRY               .                                       : Country
SRVC               .                                       : Service Company
DATE               .         20/2/2014                     : Date
UWI                .                                       : Unique Well ID
3кв_для_заказчика  .         5                             : 
Block              .         6а                            : 
Category           .         Нефтяная                      : 
Condition          .         В работе                      : 
Date               .         04.03.2014                    : 
EREF               .m        79.2                          : 100.8
GRP                .                                       : Group name
Gor                .         14                            : 
Gorizont           .         14                            : 14
ISS                .                                       : Well surveys
Interpretator      .         Кайсанов Е.К                  : 
Kupol              .         Основной                      : osnovnoi
Mud                .         полимерный                    : 
Mud_density        .         1,34                          : 
Mud_resistivity    .         0,35                          : 
NGDU               .         НГДУ-2                        : 
ORIGINALWELLNAME   .         4055                          : 
Spud_date          .         2014                          : 1961
TIME               .                                       : LOG TIME
Viscosity          .         40                            : 
X                  .m        44072.64                      : 46154
Y                  .m        85156.06                      : 85761.93
YEAR               .         2019                          : 
временно           .         \                             : 
~Parameter Information Block
#_______________________________________________________________________________
#
#PARAMETER_NAME    .UNIT     VALUE                         : DESCRIPTION
#_______________________________________________________________________________
SET                .         LQC_KAZNIPI_Petrel            : 
TLFamily_CALI      .         Caliper                       : 
TLFamily_CILD      .         Conductivity                  : 
TLFamily_COLL      .         Net Reservoir Flag            : 
TLFamily_CSAT      .         Fluid Code                    : 
TLFamily_DEPT      .         Measured Depth                : 
TLFamily_DT        .         Compressional Slowness        : 
TLFamily_GR        .         Russian Gamma Ray             : 
TLFamily_GZ3       .         Gradient 225                  : 
TLFamily_IK1       .         Resistivity 05                : 
TLFamily_IK2       .         Resistivity 07                : 
TLFamily_IK3       .         Resistivity 10                : 
TLFamily_IK4       .         Resistivity 14                : 
TLFamily_IK5       .         Resistivity 20                : 
TLFamily_LLS       .         Lateral Log Resistivity       : 
TLFamily_MBK       .         Micro Lateral Log Resistivity : 
TLFamily_MINV      .         Micro Gradient Resistivity    : 
TLFamily_MNOR      .         Micro Resistivity             : 
TLFamily_NGLD      .         Neutron Far                   : 
TLFamily_NNKTB_1   .         Neutron Far                   : 
TLFamily_NNKTM_1   .         Neutron Near                  : 
TLFamily_NPHI      .         Neutron Porosity              : 
TLFamily_OGZ3      .         Gradient Inverted 225         : 
TLFamily_PHIE      .         Effective Porosity            : 
TLFamily_PHIED     .         Effective Porosity            : 
TLFamily_PHIEN     .         Effective Porosity            : 
TLFamily_PHIES     .         Effective Porosity            : 
TLFamily_PHIT      .         Porosity                      : 
TLFamily_PRMB      .         Permeability                  : 
TLFamily_PRMB_DGR  .         Permeability                  : 
TLFamily_RHOB      .         Bulk Density                  : 
TLFamily_RT        .         Formation Resistivity         : 
TLFamily_SOIL_ARCHIE .         Oil Saturation                : 
TLFamily_SOIL_DW   .         Oil Saturation                : 
TLFamily_SP        .         Spontaneous Potential         : 
TLFamily_VSH_FIN   .         Shale Volume                  : 
TLFamily_VSH_GR    .         Shale Volume                  : 
TLFamily_VSH_SP    .         Shale Volume                  : 
TLFamily_W         .         Neutron Porosity              : 
~Curve Information
#_______________________________________________________________________________
#
#LOGNAME           .UNIT     LOG_ID                        : DESCRIPTION
#_______________________________________________________________________________
DEPT               .M                                      : Колонка глубины 
CALI               .м                                      : Каверномер 
CILD               .мСм/м                                  : Проводимость 
COLL               .unitless                               :  
CSAT               .unitless                               :  
DT                 .мкс/м                                  : Интервальное время пробега продольной волны 
GR                 .uR/h                                   : Гамма каротаж 
GZ3                .Ohmm                                   : Градиент-зонд  длиной 2.25м 
IK1                .Ohmm                                   : ИК1 
IK2                .Ohmm                                   : ИК2 
IK3                .Ohmm                                   : ИК3 
IK4                .Ohmm                                   : ИК4 
IK5                .Ohmm                                   : ИК5 
LLS                .Ohmm                                   : Боковой каротаж 
MBK                .Ohmm                                   : Микробоковой каротаж 
MINV               .Ohmm                                   : Микро-градиент зонд 
MNOR               .Ohmm                                   : Микро-потенциал зонд 
NGLD               .у.е.                                   : Показания зонда НГК-60 аппаратуры ДРСТ-3-90 
NNKTB_1            .у.е.                                   : Показания большого зонда 2ННКт аппаратуры СРК 
NNKTM_1            .у.е.                                   : Показания малого зонда 2ННКт аппаратуры СРК 
NPHI               .v/v                                    : Total porosity 
OGZ3               .Ohmm                                   : Обращенный градиент-зонд 
PHIE               .v/v                                    : Описание 
PHIED              .v/v                                    :  
PHIEN              .v/v                                    :  
PHIES              .v/v                                    :  
PHIT               .v/v                                    : Описание 
PRMB               .mD                                     :  
PRMB_DGR           .mD                                     :  
RHOB               .G/C3                                   : Плотность по ГГКп 
RT                 .ohmm                                   : Удельное электрическое сопротивление 
SOIL_ARCHIE        .v/v                                    :  
SOIL_DW            .v/v                                    :  
SP                 .мВ                                     : Потенциал самополяризации 
VSH_FIN            .v/v                                    : Описание 
VSH_GR             .v/v                                    : Shale volume 
VSH_SP             .v/v                                    : Shale Volume 
W                  .v/v                                    :  
~Ascii
# ...
1098.1     0.219      280.11     6          6          244.277    7.253412   4.18       3.640000104904174 3.829999923706055 3.75       3.63       3.57       6.47       10.3       9.75       9.24       -9999      4.38       1.88       0.107      5.06       0.01       -0.1106482 0          0.05899384 0.03551548 0.004289259 6.740833   2.71       4.578      0          0          431.49     0.3913041  0.2976616  0.4849466  0.1536673 
1098.3     0.22       338.98     6          6          248.195    7.417149   4.19       3.069999933242798 3.269999980926514 3.23       3.02       2.95       4.05       4.88       4.83       4.26       -9999      4.56       1.96       0.111      4.39       0.03654208 0          0          0.07308416 0.09453606 0.01330473 5.722242   2.86       4.288      0          0          429.56     0.3699428  0.3182545  0.4216311  0.1540934 
1098.5     0.219      425.53     6          6          267.677    7.896433   3.95       2.349999904632568 2.490000009536743 2.49       2.39       2.35       3.63       4.15       3.93       3.69       -9999      4.05       1.87       0.133      3.61       0.08977033 0.07185631 0.01202726 0.1076844  0.1472378  0.1288019  3.542468   2.55       3.772      0.02113691 0.2067312  426.81     0.3665841  0.387092   0.3460762  0.1773252 
1098.7     0.224      526.31     -9999      -9999      305.603    8.467929   3.33       1.600000023841858 1.690000057220459 1.84       1.89       1.9        2.51       3.12       3.3        3.08       -9999      3.64       1.79       0.108      2.81       0.0998912  0.04928158 0          0.1505008  0.1624698  0.1983286  1.999761   2.44       3.048      0.01429243 0.2029532  425.29     0.3991884  0.488894   0.3094827  0.2002752 
1098.9     0.231      568.18     -9999      -9999      335.696    8.908572   2.67       1.519999980926514 1.620000004768372 1.74       1.79       1.76       1.74       1.66       2.08       2.02       -9999      2.97       1.66       0.097      2.3        0.1005035  0.03238532 0          0.1686217  0.1708004  0.2035763  1.286792   2.45       2.471      0          0.1430354  425.49     0.4484229  0.5853266  0.3115192  0.2554055 
1099.1     0.226      558.65     -9999      -9999      340.211    9.097763   2.06       1.5        1.610000014305115 1.68       1.78       1.79       1.72       2.05       2.23       2.16       -9999      2.58       1.56       0.159      2.22       0.1047465  0.04455223 0.002385834 0.1649407  0.1791452  0.2439589  1.06488    2.42       2.137      0          0.1191979  425.84     0.4745884  0.6323629  0.3168139  0.2959463 
1099.3     0.225      518.13     -9999      -9999      334.681    9.044779   1.75       1.570000052452087 1.639999985694885 1.7        1.84       1.93       1.74       2.03       2.23       2.25       -9999      2.66       1.56       0.167      2.39       0.08277569 0.004098029 0.01256331 0.1614534  0.15614    0.09557948 1.122855   2.49       2.021      0          0          425.96     0.46799    0.6188215  0.3171584  0.2795327 
1099.5     0.228      446.42     -9999      -9999      327.43     8.851529   1.79       1.850000023841858 1.980000019073486 2.02       2.14       2.24       1.8        2          2.05       2.3        -9999      2.86       1.58       0.171      2.55       0.05095502 -0.06122249 0.02629799 0.1631325  0.1196949  0.0246019  1.362369   2.61       2.103      0          0          425.5      0.438491   0.5718433  0.3051386  0.2498618 
1099.7     0.228      401.6      -9999      -9999      326.619    8.64721    2.31       2.700000047683716 2.700000047683716 2.55       2.45       2.49       2.3        2.59       1.7        2.42       -9999      3.01       1.6        0.174      2.83       0.0701502  -0.02742428 0.03504448 0.1677247  0.1361603  0.05578403 1.671384   2.56       2.544      0          0          426.12     0.4210773  0.5260472  0.3161075  0.2323127 
1099.9     0.204      436.68     -9999      -9999      331.129    8.53073    2.89       1.940000057220459 2.019999980926514 2.06       2.07       2.29       3.74       3.94       2.01       2.91       -9999      2.99       1.66       0.198      2.69       0.08953252 0.01472031 0.05046586 0.1643447  0.1596178  0.1275021  1.877973   2.48       2.786      0          0.1198532  429.36     0.4470732  0.5016001  0.3925462  0.2521986 
1100.1     0.224      487.8      -9999      -9999      333.905    8.531592   3.19       1.75       1.830000042915344 1.84       1.86       2.05       2.21       2.4        1.98       2.23       -9999      2.93       1.67       0.196      2.27       0.06537513 -0.02401726 0.03536237 0.1547675  0.1416852  0.04550553 1.876354   2.53       2.652      0          0          432.13     0.4867807  0.5017768  0.4717845  0.2649729 
1100.3     0.228      471.69     -9999      -9999      328.748    8.6031     3.08       1.769999980926514 1.980000019073486 2.05       2.08       2.12       1.99       2.22       2.21       2.19       -9999      2.99       1.61       0.159      1.87       0.05883095 -0.02370261 0          0.1413645  0.1391552  0.0344231  1.7468     2.52       2.327      0          0          433.32     0.5123875  0.516652   0.508123   0.2380541 
1100.5     0.23       444.44     -9999      -9999      321.514    8.665966   3.1        2.180000066757202 2.440000057220459 2.5        2.39       2.25       2.17       2.07       3          2.6        -9999      2.97       1.58       0.153      1.89       0.03315781 -0.06277283 0          0.1290884  0.1157053  0.01151651 1.640311   2.58       2.348      0          0          433.85     0.5265695  0.5300936  0.5230454  0.2326648 
1100.7     0.229      487.8      -9999      -9999      318.34     8.668959   3.27       2.160000085830688 2.210000038146973 2.19       2.14       2.05       2.77       2.93       4.14       3.17       -9999      3.05       1.62       0.157      1.8        0.01838597 -0.08757122 0          0.1243431  0.1015323  0.006133533 1.635408   2.62       2.322      0          0          434.15     0.5303893  0.5307421  0.5300365  0.23197   
1100.9     0.228      578.03     -9999      -9999      332.65     8.593763   3.17       1.470000028610229 1.590000033378601 1.61       1.68       1.73       2.47       2.62       3.66       2.74       -9999      2.98       1.63       0.171      1.78       0.07589908 0.009793408 0          0.1420047  0.1579442  0.07128417 1.763193   2.46       2.28       0          0          434.31     0.5233648  0.5146851  0.5320445  0.2452186 
1101.1     0.231      581.39     -9999      -9999      347.373    8.421041   2.77       1.399999976158142 1.590000033378601 1.61       1.66       1.72       1.66       1.58       1.8        1.71       -9999      2.99       1.61       0.172      2.31       0.1109781  0.06087662 0.004024714 0.1610795  0.1907738  0.3182299  2.095809   2.38       2.519      0.01647423 0.2366326  434.59     0.509016   0.479618   0.5384141  0.2380541 
1101.3     0.227      462.96     6          6          334.39     8.136982   3.35       1.539999961853027 1.870000004768372 2.07       2.07       2.16       1.66       1.71       2.21       1.95       -9999      3.07       1.58       0.175      4.11       0.0849877  0.02008751 0.008703362 0.1498879  0.163986   0.1050356  2.784723   2.45       3.691      0          0.2323275  435.82     0.5039292  0.4270658  0.5807925  0.2184818 
1101.5     0.228      338.98     6          6          302.735    7.788791   5.07       2.940000057220459 3.230000019073486 3.32       3.05       2.95       1.97       2.07       3.43       2.55       -9999      3.25       1.59       0.19       6.58       0.1174366  0.1137724  0.07535164 0.1631856  0.1919614  0.4191485  39.20373   2.48       5.727      0.3631985  0.5068763  437.1      0.3474193  0.1450459  0.5497926  0.1983031 
1101.7     0.225      298.5      6          6          289.865    7.493887   5.92       2.970000028610229 3.200000047683716 3.22       3.29       3.35       4.24       6.11       7.91       4.69       -9999      3.82       1.67       0.186      7.51       0.115568   0.1257485  0.07299076 0.1479647  0.1890273  0.3870412  66.05031   2.46       6.621      0.3967337  0.5341372  437.68     0.3424523  0.1172192  0.5676854  0.1593392 
