~Version
 VERS              .         2.0                           : CWLS LOG ASCII STANDARD - VERSION 2.0
 WRAP              .         NO                            : ONE LINE PER DEPTH STEP
 DLM               .         SPACE                         : DELIMITING CHARACTER(SPACE TAB OR COMMA)
~Well Information
#_______________________________________________________________________________
#
#PARAMETER_NAME    .UNIT     VALUE                         : DESCRIPTION
#_______________________________________________________________________________
STRT               .M        0.7                           : First reference value
STOP               .M        1248.1                        : Last reference value
STEP               .M        0.2                           : Step increment
NULL               .         -9999                         : Missing value
COMP               .                                       : Company
WELL               .         4055                          : Well name
FLD                .         Узень                         : Field
LOC                .                                       : Location
CNTY               .                                       : County
STAT               .                                       : State
CTRY               .                                       : Country
SRVC               .                                       : Service Company
DATE               .         20/2/2014                     : Date
UWI                .                                       : Unique Well ID
3кв_для_заказчика  .         5                             : 
Block              .         6а                            : 
Category           .         Нефтяная                      : 
Condition          .         В работе                      : 
Date               .         04.03.2014                    : 
EREF               .m        79.2                          : 100.8
GRP                .                                       : Group name
Gor                .         14                            : 
Gorizont           .         14                            : 14
ISS                .                                       : Well surveys
Interpretator      .         Кайсанов Е.К                  : 
Kupol              .         Основной                      : osnovnoi
Mud                .         полимерный                    : 
Mud_density        .         1,34                          : 
Mud_resistivity    .         0,35                          : 
NGDU               .         НГДУ-2                        : 
ORIGINALWELLNAME   .         4055                          : 
Spud_date          .         2014                          : 1961
TIME               .                                       : LOG TIME
Viscosity          .         40                            : 
X                  .m        44072.64                      : 46154
Y                  .m        85156.06                      : 85761.93
YEAR               .         2019                          : 
временно           .         \                             : 
~Parameter Information Block
#_______________________________________________________________________________
#
#PARAMETER_NAME    .UNIT     VALUE                         : DESCRIPTION
#_______________________________________________________________________________
SET                .         LQC_KAZNIPI_Petrel            : 
TLFamily_CALI      .         Caliper                       : 
TLFamily_CILD      .         Conductivity                  : 
TLFamily_COLL      .         Net Reservoir Flag            : 
TLFamily_CSAT      .         Fluid Code                    : 
TLFamily_DEPT      .         Measured Depth                : 
TLFamily_DT        .         Compressional Slowness        : 
TLFamily_GR        .         Russian Gamma Ray             : 
TLFamily_GZ3       .         Gradient 225                  : 
TLFamily_IK1       .         Resistivity 05                : 
TLFamily_IK2       .         Resistivity 07                : 
TLFamily_IK3       .         Resistivity 10                : 
TLFamily_IK4       .         Resistivity 14                : 
TLFamily_IK5       .         Resistivity 20                : 
TLFamily_LLS       .         Lateral Log Resistivity       : 
TLFamily_MBK       .         Micro Lateral Log Resistivity : 
TLFamily_MINV      .         Micro Gradient Resistivity    : 
TLFamily_MNOR      .         Micro Resistivity             : 
TLFamily_NGLD      .         Neutron Far                   : 
TLFamily_NNKTB_1   .         Neutron Far                   : 
TLFamily_NNKTM_1   .         Neutron Near                  : 
TLFamily_NPHI      .         Neutron Porosity              : 
TLFamily_OGZ3      .         Gradient Inverted 225         : 
TLFamily_PHIE      .         Effective Porosity            : 
TLFamily_PHIED     .         Effective Porosity            : 
TLFamily_PHIEN     .         Effective Porosity            : 
TLFamily_PHIES     .         Effective Porosity            : 
TLFamily_PHIT      .         Porosity                      : 
TLFamily_PRMB      .         Permeability                  : 
TLFamily_PRMB_DGR  .         Permeability                  : 
TLFamily_RHOB      .         Bulk Density                  : 
TLFamily_RT        .         Formation Resistivity         : 
TLFamily_SOIL_ARCHIE .         Oil Saturation                : 
TLFamily_SOIL_DW   .         Oil Saturation                : 
TLFamily_SP        .         Spontaneous Potential         : 
TLFamily_VSH_FIN   .         Shale Volume                  : 
TLFamily_VSH_GR    .         Shale Volume                  : 
TLFamily_VSH_SP    .         Shale Volume                  : 
TLFamily_W         .         Neutron Porosity              : 
~Curve Information
#_______________________________________________________________________________
#
#LOGNAME           .UNIT     LOG_ID                        : DESCRIPTION
#_______________________________________________________________________________
DEPT               .M                                      : Колонка глубины 
CALI               .м                                      : Каверномер 
CILD               .мСм/м                                  : Проводимость 
COLL               .unitless                               :  
CSAT               .unitless                               :  
DT                 .мкс/м                                  : Интервальное время пробега продольной волны 
GR                 .uR/h                                   : Гамма каротаж 
GZ3                .Ohmm                                   : Градиент-зонд  длиной 2.25м 
IK1                .Ohmm                                   : ИК1 
IK2                .Ohmm                                   : ИК2 
IK3                .Ohmm                                   : ИК3 
IK4                .Ohmm                                   : ИК4 
IK5                .Ohmm                                   : ИК5 
LLS                .Ohmm                                   : Боковой каротаж 
MBK                .Ohmm                                   : Микробоковой каротаж 
MINV               .Ohmm                                   : Микро-градиент зонд 
MNOR               .Ohmm                                   : Микро-потенциал зонд 
NGLD               .у.е.                                   : Показания зонда НГК-60 аппаратуры ДРСТ-3-90 
NNKTB_1            .у.е.                                   : Показания большого зонда 2ННКт аппаратуры СРК 
NNKTM_1            .у.е.                                   : Показания малого зонда 2ННКт аппаратуры СРК 
NPHI               .v/v                                    : Total porosity 
OGZ3               .Ohmm                                   : Обращенный градиент-зонд 
PHIE               .v/v                                    : Описание 
PHIED              .v/v                                    :  
PHIEN              .v/v                                    :  
PHIES              .v/v                                    :  
PHIT               .v/v                                    : Описание 
PRMB               .mD                                     :  
PRMB_DGR           .mD                                     :  
RHOB               .G/C3                                   : Плотность по ГГКп 
RT                 .ohmm                                   : Удельное электрическое сопротивление 
SOIL_ARCHIE        .v/v                                    :  
SOIL_DW            .v/v                                    :  
SP                 .мВ                                     : Потенциал самополяризации 
VSH_FIN            .v/v                                    : Описание 
VSH_GR             .v/v                                    : Shale volume 
VSH_SP             .v/v                                    : Shale Volume 
W                  .v/v                                    :  
~Ascii
# ...
1120.9     0.205      171.23     1          2          302.557    6.90304    8.87       4.460000038146973 4.559999942779541 4.84       5.58       5.84       5.56       6.57       1.53       3.18       -9999      2.71       1.61       0.24       8.43       0.2278948  0.239521   0.2052702  0.2388931  0.2504701  46.59312   187.8318   2.27       8.644      0.7053331  0.7391793  399.73     0.1052417  0.07649947 0.1339839  0.2863724 
1121.1     0.208      173.61     1          2          299.53     6.826433   8.69       4.329999923706055 4.309999942779541 4.62       5.28       5.760001   5.47       6.6        1.62       3.23       -9999      2.73       1.63       0.239      8.34       0.2287726  0.245509   0.2050223  0.2357865  0.2508591  48.37058   215.0898   2.26       8.511      0.7041734  0.7378149  399.5      0.1029627  0.07238152 0.1335439  0.2890565 
1121.3     0.206      176.67     1          2          294.93     6.74729    8.64       4.320000171661377 4.119999885559082 4.43       5.02       5.66       5.39       6.81       1.61       3.19       -9999      2.81       1.65       0.248      8.25       0.2483349  0.2994012  0.2149206  0.230683   0.2698375  111.4097   247.4106   2.17       8.44       0.7234911  0.756189   398.99     0.1002406  0.06835994 0.1321214  0.2801775 
1121.5     0.207      179.85     1          2          292.699    6.714845   8.75       4.369999885559082 3.940000057220459 4.2        4.82       5.56       5.51       7.45       1.58       3.16       -9999      2.9        1.66       0.237      8.26       0.2322194  0.263473   0.2047093  0.2284758  0.2532093  56.03046   262.0249   2.23       8.498      0.7077918  0.7406774  397.88     0.0978506  0.0667766  0.1289246  0.2671129 
1121.7     0.205      180.5      1          2          294.05     6.744668   8.88       4.199999809265137 3.75       4.03       4.73       5.54       5.44       7.48       1.57       3.24       -9999      2.86       1.64       0.231      8.11       0.2207561  0.233533   0.1985834  0.2301518  0.2418278  34.36337   248.5608   2.28       8.478      0.6942819  0.7276109  397.53     0.09823217 0.06823059 0.1282337  0.2680004 
1121.9     0.205      177.93     1          2          298.219    6.812136   8.81       3.950000047683715 3.589999914169312 3.94       4.75       5.62       5.51       7.55       1.6        3.31       -9999      2.67       1.63       0.224      8.04       0.2080652  0.1976048  0.1912844  0.2353065  0.2293314  20.00005   220.5985   2.34       8.407      0.6768308  0.710796   396.83     0.09913828 0.07163794 0.1266386  0.3012952 
1122.1     0.205      172.41     1          2          303.545    6.87842    8.8        3.75       3.589999914169312 4.03       4.92       5.800001   5.41       7.12       1.62       3.35       -9999      2.93       1.63       0.236      7.85       0.2158713  0.2035929  0.2026173  0.2414036  0.237571   27.90087   196.1925   2.33       8.298      0.6851103  0.7191834  396.92     0.1011596  0.07515112 0.1271682  0.2531662 
1122.3     0.203      165.56     1          2          305.977    6.91894    8.74       3.650000095367431 3.75       4.29       5.199999   6.039999   5.17       6.73       1.62       3.37       -9999      2.89       1.63       0.246      8.12       0.2278136  0.2275449  0.2120426  0.2438532  0.2498869  46.43208   182.6227   2.29       8.419      0.7015709  0.7353246  397.26     0.1029011  0.07738306 0.1284191  0.2597987 
1122.5     0.204      160.25     1          2          309.446    6.92457    8.85       3.809999942779541 4.059999942779541 4.61       5.420001   6.239999   4.98       6.94       1.62       3.49       -9999      2.75       1.62       0.237      7.97       0.2080882  0.1736526  0.202799   0.2478131  0.2303199  20.01969   180.813    2.38       8.387      0.6765005  0.7111756  397.54     0.1036393  0.07769838 0.1295803  0.281878  
1122.7     0.207      158.73     1          2          312.878    6.885404   9.04       4.150000095367432 4.309999942779541 4.8        5.51       6.3        5.61       7.55       1.71       3.75       -9999      2.8        1.63       0.253      8          0.2309502  0.2215569  0.2191203  0.2521735  0.252973   53.07827   193.784    2.3        8.488      0.7062315  0.7397748  397.5      0.1026658  0.07553113 0.1298005  0.2756872 
1122.9     0.207      159.23     1          2          314.643    6.792834   9.13       4.239999771118164 4.389999866485596 4.87       5.52       6.280001   5.55       7.04       1.84       3.82       -9999      2.73       1.61       0.269      7.85       0.2531604  0.2694611  0.2354666  0.2545536  0.2749581  136.8686   228.2605   2.22       8.442      0.7281175  0.7608038  398.23     0.1016163  0.0706461  0.1325865  0.2824625 
1123.1     0.207      158.73     1          2          313.349    6.664067   8.96       4.380000114440918 4.579999923706056 5.06       5.64       6.3        5.51       7.09       2.09       3.96       -9999      2.82       1.61       0.27       7.91       0.2512108  0.263473   0.2367951  0.2533643  0.272795   125.9481   286.6493   2.23       8.402      0.7256699  0.7583513  399.23     0.1006209  0.06437183 0.13687    0.265808  
1123.3     0.207      155.52     1          2          309.883    6.549133   9.07       4.46999979019165 4.829999923706055 5.34       5.85       6.43       5.67       7.35       2.2        3.8        -9999      2.62       1.6        0.255      8          0.2371036  0.239521   0.2221612  0.2496286  0.2584498  69.00671   351.2723   2.27       8.501      0.7130889  0.7460164  399.78     0.09951162 0.05924379 0.1397794  0.3014794 
1123.5     0.206      153.13     1          2          305.931    6.506457   9.21       4.730000019073486 5.329999923706056 5.800001   6.179999   6.530001   5.52       6.97       2.14       3.69       -9999      2.62       1.58       0.248      8.04       0.2313268  0.233533   0.21538    0.2450675  0.2525308  53.93761   378.816    2.28       8.585      0.7082081  0.7411717  399.77     0.09884863 0.05744549 0.1402518  0.2944888 
1123.7     0.207      154.55     1          2          302.753    6.565264   9.54       4.980000019073486 5.820000171661376 6.16       6.239999   6.47       6.06       7.2        2.06       3.81       -9999      2.72       1.57       0.262      7.93       0.2565918  0.2994012  0.229304   0.2410701  0.2778451  158.4383   341.3909   2.17       8.661      0.734497   0.7666041  399.21     0.09907866 0.05993809 0.1382192  0.2713225 
1123.9     0.204      162.07     1          2          303.281    6.703382   9.67       4.820000171661378 5.849999904632569 6.119999   5.97       6.17       6.02       7.31       1.95       3.74       -9999      2.93       1.58       0.237      7.6        0.2139125  0.1976048  0.2033301  0.2408026  0.235799   25.66472   267.3919   2.34       8.511      0.6863531  0.7204406  399.01     0.1020301  0.06622601 0.1378342  0.238713  
1124.1     0.205      176.05     1          2          305.915    6.855453   9.4        4.699999809265136 5.760000228881837 5.889999   5.58       5.68       5.48       7.04       1.9        3.71       -9999      2.85       1.62       0.229      7.17       0.2013069  0.1676646  0.1937279  0.2425283  0.2242348  14.99168   204.3274   2.39       8.135      0.6622286  0.6979566  399.35     0.1068852  0.07391469 0.1398557  0.263626  
1124.3     0.207      193.05     1          2          307.586    6.955064   9.04       4.860000133514404 5.420000076293945 5.46       5.06       5.179999   5.36       6.68       1.84       3.64       -9999      2.73       1.63       0.234      6.75       0.2091105  0.1856288  0.1979152  0.2437877  0.2325668  20.91186   171.3185   2.36       7.729      0.6652883  0.7014247  399.11     0.109348   0.07942869 0.1392673  0.2890565 
1124.5     0.207      211.41     1          2          306.021    6.97693    8.41       4.820000171661378 4.739999771118165 4.78       4.590001   4.73       5.24       6.5        1.84       3.66       -9999      2.86       1.63       0.241      6.32       0.222423   0.2215569  0.204357   0.2413553  0.2462421  36.89542   164.8186   2.3        7.217      0.6724374  0.7087471  399.45     0.1110395  0.08069313 0.1413859  0.2649417 
