~Version
 VERS              .         2.0                           : CWLS LOG ASCII STANDARD - VERSION 2.0
 WRAP              .         NO                            : ONE LINE PER DEPTH STEP
 DLM               .         SPACE                         : DELIMITING CHARACTER(SPACE TAB OR COMMA)
~Well Information
#_______________________________________________________________________________
#
#PARAMETER_NAME    .UNIT     VALUE                         : DESCRIPTION
#_______________________________________________________________________________
STRT               .M        0.7                           : First reference value
STOP               .M        1248.1                        : Last reference value
STEP               .M        0.2                           : Step increment
NULL               .         -9999                         : Missing value
COMP               .                                       : Company
WELL               .         4055                          : Well name
FLD                .         Узень                         : Field
LOC                .                                       : Location
CNTY               .                                       : County
STAT               .                                       : State
CTRY               .                                       : Country
SRVC               .                                       : Service Company
DATE               .         20/2/2014                     : Date
UWI                .                                       : Unique Well ID
3кв_для_заказчика  .         5                             : 
Block              .         6а                            : 
Category           .         Нефтяная                      : 
Condition          .         В работе                      : 
Date               .         04.03.2014                    : 
EREF               .m        79.2                          : 100.8
GRP                .                                       : Group name
Gor                .         14                            : 
Gorizont           .         14                            : 14
ISS                .                                       : Well surveys
Interpretator      .         Кайсанов Е.К                  : 
Kupol              .         Основной                      : osnovnoi
Mud                .         полимерный                    : 
Mud_density        .         1,34                          : 
Mud_resistivity    .         0,35                          : 
NGDU               .         НГДУ-2                        : 
ORIGINALWELLNAME   .         4055                          : 
Spud_date          .         2014                          : 1961
TIME               .                                       : LOG TIME
Viscosity          .         40                            : 
X                  .m        44072.64                      : 46154
Y                  .m        85156.06                      : 85761.93
YEAR               .         2019                          : 
временно           .         \                             : 
~Parameter Information Block
#_______________________________________________________________________________
#
#PARAMETER_NAME    .UNIT     VALUE                         : DESCRIPTION
#_______________________________________________________________________________
SET                .         LQC_KAZNIPI_Petrel            : 
TLFamily_CALI      .         Caliper                       : 
TLFamily_CILD      .         Conductivity                  : 
TLFamily_COLL      .         Net Reservoir Flag            : 
TLFamily_CSAT      .         Fluid Code                    : 
TLFamily_DEPT      .         Measured Depth                : 
TLFamily_DT        .         Compressional Slowness        : 
TLFamily_GR        .         Russian Gamma Ray             : 
TLFamily_GZ3       .         Gradient 225                  : 
TLFamily_IK1       .         Resistivity 05                : 
TLFamily_IK2       .         Resistivity 07                : 
TLFamily_IK3       .         Resistivity 10                : 
TLFamily_IK4       .         Resistivity 14                : 
TLFamily_IK5       .         Resistivity 20                : 
TLFamily_LLS       .         Lateral Log Resistivity       : 
TLFamily_MBK       .         Micro Lateral Log Resistivity : 
TLFamily_MINV      .         Micro Gradient Resistivity    : 
TLFamily_MNOR      .         Micro Resistivity             : 
TLFamily_NGLD      .         Neutron Far                   : 
TLFamily_NNKTB_1   .         Neutron Far                   : 
TLFamily_NNKTM_1   .         Neutron Near                  : 
TLFamily_NPHI      .         Neutron Porosity              : 
TLFamily_OGZ3      .         Gradient Inverted 225         : 
TLFamily_PHIE      .         Effective Porosity            : 
TLFamily_PHIED     .         Effective Porosity            : 
TLFamily_PHIEN     .         Effective Porosity            : 
TLFamily_PHIES     .         Effective Porosity            : 
TLFamily_PHIT      .         Porosity                      : 
TLFamily_PRMB      .         Permeability                  : 
TLFamily_PRMB_DGR  .         Permeability                  : 
TLFamily_RHOB      .         Bulk Density                  : 
TLFamily_RT        .         Formation Resistivity         : 
TLFamily_SOIL_ARCHIE .         Oil Saturation                : 
TLFamily_SOIL_DW   .         Oil Saturation                : 
TLFamily_SP        .         Spontaneous Potential         : 
TLFamily_VSH_FIN   .         Shale Volume                  : 
TLFamily_VSH_GR    .         Shale Volume                  : 
TLFamily_VSH_SP    .         Shale Volume                  : 
TLFamily_W         .         Neutron Porosity              : 
~Curve Information
#_______________________________________________________________________________
#
#LOGNAME           .UNIT     LOG_ID                        : DESCRIPTION
#_______________________________________________________________________________
DEPT               .M                                      : Колонка глубины 
CALI               .м                                      : Каверномер 
CILD               .мСм/м                                  : Проводимость 
COLL               .unitless                               :  
CSAT               .unitless                               :  
DT                 .мкс/м                                  : Интервальное время пробега продольной волны 
GR                 .uR/h                                   : Гамма каротаж 
GZ3                .Ohmm                                   : Градиент-зонд  длиной 2.25м 
IK1                .Ohmm                                   : ИК1 
IK2                .Ohmm                                   : ИК2 
IK3                .Ohmm                                   : ИК3 
IK4                .Ohmm                                   : ИК4 
IK5                .Ohmm                                   : ИК5 
LLS                .Ohmm                                   : Боковой каротаж 
MBK                .Ohmm                                   : Микробоковой каротаж 
MINV               .Ohmm                                   : Микро-градиент зонд 
MNOR               .Ohmm                                   : Микро-потенциал зонд 
NGLD               .у.е.                                   : Показания зонда НГК-60 аппаратуры ДРСТ-3-90 
NNKTB_1            .у.е.                                   : Показания большого зонда 2ННКт аппаратуры СРК 
NNKTM_1            .у.е.                                   : Показания малого зонда 2ННКт аппаратуры СРК 
NPHI               .v/v                                    : Total porosity 
OGZ3               .Ohmm                                   : Обращенный градиент-зонд 
PHIE               .v/v                                    : Описание 
PHIED              .v/v                                    :  
PHIEN              .v/v                                    :  
PHIES              .v/v                                    :  
PHIT               .v/v                                    : Описание 
PRMB               .mD                                     :  
PRMB_DGR           .mD                                     :  
RHOB               .G/C3                                   : Плотность по ГГКп 
RT                 .ohmm                                   : Удельное электрическое сопротивление 
SOIL_ARCHIE        .v/v                                    :  
SOIL_DW            .v/v                                    :  
SP                 .мВ                                     : Потенциал самополяризации 
VSH_FIN            .v/v                                    : Описание 
VSH_GR             .v/v                                    : Shale volume 
VSH_SP             .v/v                                    : Shale Volume 
W                  .v/v                                    :  
~Ascii
# ...
1033.5     0.247      649.35     -9999      -9999      359.41     8.553919   2.67       1.370000004768372 1.5        1.51       1.54       1.54       1.76       1.47       0.96       1.89       -9999      2.42       1.48       -9999      1.49       0.1584438  0.1657896  -9999      0.151098   0.2487451  2.409472   1.834904   2.18       1.913      0.1792963  0.3521745  427        0.5760306  0.5063747  0.6456866  0.3022926 
1033.7     0.259      724.63     -9999      -9999      374.843    8.81939    2.57       1.110000014305115 1.240000009536743 1.29       1.32       1.38       1.45       1.49       0.97       1.69       -9999      2.51       1.5        -9999      1.58       0.1623601  0.1671152  -9999      0.1576051  0.2559603  2.847486   1.40689    2.17       1.957      0.205093   0.3765015  426.63     0.5970746  0.5643839  0.6297652  0.289545  
1033.9     0.255      746.26     -9999      -9999      384.782    9.104991   2.21       1.070000052452087 1.220000028610229 1.28       1.31       1.34       1.32       1.32       0.82       1.38       -9999      2.39       1.47       -9999      1.5        0.1577259  0.1565048  -9999      0.1589471  0.2545968  2.33682    1.057207   2.18       1.787      0.1492739  0.3377469  425.95     0.6179378  0.634233   0.6016425  0.3055171 
1034.1     0.258      714.28     -9999      -9999      383.575    9.317252   2.25       1.169999957084656 1.340000033378601 1.38       1.38       1.4        1.33       1.42       0.86       1.41       -9999      2.4        1.43       -9999      1.58       0.1453278  0.1396078  -9999      0.1510478  0.2456805  1.377151   0.854924   2.2        1.856      0.1024989  0.3140099  425.63     0.6401486  0.6916882  0.5886089  0.2879393 
1034.3     0.249      689.65     -9999      -9999      377.455    9.392966   2.12       1.179999947547913 1.309999942779541 1.37       1.4        1.45       1.44       1.35       1.1        1.57       -9999      2.28       1.44       -9999      1.49       0.1433031  0.143442   -9999      0.1431642  0.2451797  1.263219   0.7925525  2.19       1.75       0.06604319 0.2887095  425.58     0.6498699  0.7134185  0.5863212  0.3209584 
1034.5     0.248      675.67     -9999      -9999      374.124    9.334366   2.17       1.269999980926514 1.409999966621399 1.44       1.46       1.48       1.43       1.25       1.22       1.66       -9999      2.39       1.46       -9999      1.55       0.1266569  0.1097225  -9999      0.1435912  0.2269708  0.6210849  0.84041    2.25       1.808      0          0.2300886  425.51     0.639901   0.6965413  0.5832607  0.3016557 
1034.7     0.248      666.66     -9999      -9999      373.545    9.206616   2.28       1.340000033378601 1.470000028610229 1.47       1.47       1.5        1.54       1.46       1.22       1.8        -9999      2.46       1.45       -9999      1.55       0.1165439  0.08400094 -9999      0.149087   0.213873   0.4034918  0.9549958  2.3        1.845      0          0.1835836  425.45     0.6208608  0.6611199  0.5806015  0.2821824 
1034.9     0.245      680.27     -9999      -9999      365.544    9.093153   2.15       1.309999942779541 1.409999966621399 1.44       1.43       1.47       1.51       1.34       1.17       1.79       -9999      2.67       1.48       -9999      1.6        0.09240135 0.03871448 -9999      0.1460882  0.1878781  0.1440971  1.069803   2.38       1.835      0          0.03033228 425.62     0.6090451  0.631173   0.5869173  0.2514489 
1035.1     0.251      680.27     -9999      -9999      362.74     9.028083   2.12       1.309999942779541 1.419999957084656 1.45       1.44       1.47       1.51       1.42       1.32       1.88       -9999      2.63       1.46       -9999      1.62       0.08410012 0.0223159  -9999      0.1458843  0.1784692  0.1011338  1.141769   2.41       1.837      0          0          425.69     0.6019794  0.6146148  0.5893439  0.2521551 
1035.3     0.264      680.27     -9999      -9999      368.782    8.975144   1.94       1.210000038146973 1.320000052452087 1.38       1.42       1.47       1.52       1.34       1.05       1.75       -9999      2.62       1.46       -9999      1.59       0.1029284  0.05331168 -9999      0.1525451  0.1965507  0.2257574  1.203875   2.36       1.748      0          0.07304358 425.79     0.5972151  0.6014647  0.5929655  0.2539705 
1035.5     0.276      645.16     -9999      -9999      365.76     8.874348   2.01       1.269999980926514 1.429999947547913 1.51       1.54       1.55       1.38       1.3        1.18       1.52       -9999      2.48       1.48       -9999      1.53       0.1257077  0.1048145  -9999      0.1466009  0.2210206  0.5964447  1.331618   2.27       1.737      0          0.1994036  426.92     0.6079993  0.5771992  0.6387994  0.2887894 
1035.7     0.257      606.06     -9999      -9999      355.751    8.71941    1.94       1.539999961853027 1.700000047683716 1.72       1.71       1.65       1.6        1.5        1.84       1.71       -9999      2.46       1.48       -9999      1.56       0.1016945  0.06401203 -9999      0.139377   0.1962194  0.2141842  1.554905   2.34       1.729      0          0.06262593 427.52     0.602973   0.5417951  0.6641508  0.2931892 
1035.9     0.252      636.94     -9999      -9999      359.494    8.580321   2.03       1.360000014305115 1.480000019073486 1.54       1.56       1.57       1.69       1.94       2.05       1.95       -9999      2.52       1.47       -9999      1.56       0.09919704 0.05354024 -9999      0.1448539  0.1926576  0.1925431  1.787067   2.36       1.764      0          0.05241568 427.9      0.5961835  0.5118663  0.6805007  0.276744  
1036.1     0.257      699.3      -9999      -9999      372.655    8.541145   2.01       1.279999971389771 1.360000014305115 1.42       1.41       1.43       1.5        1.63       1.49       1.75       -9999      2.48       1.48       -9999      1.6        0.106012   0.05453034 -9999      0.1574937  0.198772   0.2574885  1.858506   2.36       1.782      0          0.09862492 427.89     0.5917147  0.503739   0.6796904  0.2887894 
1036.3     0.267      740.74     -9999      -9999      382.816    8.622981   1.87       1.120000004768372 1.259999990463257 1.31       1.32       1.35       1.39       1.64       1.67       1.8        -9999      2.3        1.44       -9999      1.34       0.1134756  0.06435444 -9999      0.1625967  0.2077582  0.3539982  1.712396   2.34       1.561      0          0.08712722 427.95     0.6014275  0.5208656  0.6819893  0.3157886 
1036.5     0.276      757.57     -9999      -9999      387.64     8.780787   1.87       1.100000023841858 1.240000009536743 1.3        1.31       1.32       1.33       1.46       1.61       1.77       -9999      2.26       1.4        -9999      1.4        0.1298593  0.09392537 -9999      0.1657932  0.2244031  0.7119792  1.462291   2.29       1.601      0          0.1842729  427.24     0.6030937  0.5555528  0.6506346  0.3096055 
1036.7     0.274      751.87     -9999      -9999      385.354    8.959618   1.7        1.129999995231628 1.269999980926514 1.32       1.32       1.33       1.33       1.41       1.48       1.77       -9999      2.13       1.41       -9999      1.5        0.1093641  0.05662607 -9999      0.1621021  0.2048781  0.2970613  1.222723   2.35       1.594      0          0.07567014 426.54     0.6092826  0.5976614  0.6209038  0.3502032 
1036.9     0.259      757.57     -9999      -9999      383.672    9.126256   1.82       1.149999976158142 1.269999980926514 1.29       1.32       1.32       1.35       1.44       1.56       1.77       -9999      2.19       1.44       -9999      1.57       0.1202194  0.08369755 -9999      0.1567412  0.2177631  0.4719681  1.034951   2.3        1.686      0          0.1654865  426.15     0.6222301  0.6397671  0.6046931  0.3458662 
1037.1     0.268      787.4      -9999      -9999      388.271    9.263054   1.7        1.090000033378601 1.200000047683716 1.22       1.25       1.27       1.34       1.48       1.69       1.76       -9999      2.38       1.45       -9999      1.56       0.1285468  0.1031658  -9999      0.1539279  0.2292631  0.6732209  0.9025639  2.26       1.627      0          0.1980137  426.25     0.6424678  0.6765408  0.6083947  0.3001524 
