~Version
 VERS              .         2.0                           : CWLS LOG ASCII STANDARD - VERSION 2.0
 WRAP              .         NO                            : ONE LINE PER DEPTH STEP
 DLM               .         SPACE                         : DELIMITING CHARACTER(SPACE TAB OR COMMA)
~Well Information
#_______________________________________________________________________________
#
#PARAMETER_NAME    .UNIT     VALUE                         : DESCRIPTION
#_______________________________________________________________________________
STRT               .M        0.7                           : First reference value
STOP               .M        1248.1                        : Last reference value
STEP               .M        0.2                           : Step increment
NULL               .         -9999                         : Missing value
COMP               .                                       : Company
WELL               .         4055                          : Well name
FLD                .         Узень                         : Field
LOC                .                                       : Location
CNTY               .                                       : County
STAT               .                                       : State
CTRY               .                                       : Country
SRVC               .                                       : Service Company
DATE               .         20/2/2014                     : Date
UWI                .                                       : Unique Well ID
3кв_для_заказчика  .         5                             : 
Block              .         6а                            : 
Category           .         Нефтяная                      : 
Condition          .         В работе                      : 
Date               .         04.03.2014                    : 
EREF               .m        79.2                          : 100.8
GRP                .                                       : Group name
Gor                .         14                            : 
Gorizont           .         14                            : 14
ISS                .                                       : Well surveys
Interpretator      .         Кайсанов Е.К                  : 
Kupol              .         Основной                      : osnovnoi
Mud                .         полимерный                    : 
Mud_density        .         1,34                          : 
Mud_resistivity    .         0,35                          : 
NGDU               .         НГДУ-2                        : 
ORIGINALWELLNAME   .         4055                          : 
Spud_date          .         2014                          : 1961
TIME               .                                       : LOG TIME
Viscosity          .         40                            : 
X                  .m        44072.64                      : 46154
Y                  .m        85156.06                      : 85761.93
YEAR               .         2019                          : 
временно           .         \                             : 
~Parameter Information Block
#_______________________________________________________________________________
#
#PARAMETER_NAME    .UNIT     VALUE                         : DESCRIPTION
#_______________________________________________________________________________
SET                .         LQC_KAZNIPI_Petrel            : 
TLFamily_CALI      .         Caliper                       : 
TLFamily_CILD      .         Conductivity                  : 
TLFamily_COLL      .         Net Reservoir Flag            : 
TLFamily_CSAT      .         Fluid Code                    : 
TLFamily_DEPT      .         Measured Depth                : 
TLFamily_DT        .         Compressional Slowness        : 
TLFamily_GR        .         Russian Gamma Ray             : 
TLFamily_GZ3       .         Gradient 225                  : 
TLFamily_IK1       .         Resistivity 05                : 
TLFamily_IK2       .         Resistivity 07                : 
TLFamily_IK3       .         Resistivity 10                : 
TLFamily_IK4       .         Resistivity 14                : 
TLFamily_IK5       .         Resistivity 20                : 
TLFamily_LLS       .         Lateral Log Resistivity       : 
TLFamily_MBK       .         Micro Lateral Log Resistivity : 
TLFamily_MINV      .         Micro Gradient Resistivity    : 
TLFamily_MNOR      .         Micro Resistivity             : 
TLFamily_NGLD      .         Neutron Far                   : 
TLFamily_NNKTB_1   .         Neutron Far                   : 
TLFamily_NNKTM_1   .         Neutron Near                  : 
TLFamily_NPHI      .         Neutron Porosity              : 
TLFamily_OGZ3      .         Gradient Inverted 225         : 
TLFamily_PHIE      .         Effective Porosity            : 
TLFamily_PHIED     .         Effective Porosity            : 
TLFamily_PHIEN     .         Effective Porosity            : 
TLFamily_PHIES     .         Effective Porosity            : 
TLFamily_PHIT      .         Porosity                      : 
TLFamily_PRMB      .         Permeability                  : 
TLFamily_PRMB_DGR  .         Permeability                  : 
TLFamily_RHOB      .         Bulk Density                  : 
TLFamily_RT        .         Formation Resistivity         : 
TLFamily_SOIL_ARCHIE .         Oil Saturation                : 
TLFamily_SOIL_DW   .         Oil Saturation                : 
TLFamily_SP        .         Spontaneous Potential         : 
TLFamily_VSH_FIN   .         Shale Volume                  : 
TLFamily_VSH_GR    .         Shale Volume                  : 
TLFamily_VSH_SP    .         Shale Volume                  : 
TLFamily_W         .         Neutron Porosity              : 
~Curve Information
#_______________________________________________________________________________
#
#LOGNAME           .UNIT     LOG_ID                        : DESCRIPTION
#_______________________________________________________________________________
DEPT               .M                                      : Колонка глубины 
CALI               .м                                      : Каверномер 
CILD               .мСм/м                                  : Проводимость 
COLL               .unitless                               :  
CSAT               .unitless                               :  
DT                 .мкс/м                                  : Интервальное время пробега продольной волны 
GR                 .uR/h                                   : Гамма каротаж 
GZ3                .Ohmm                                   : Градиент-зонд  длиной 2.25м 
IK1                .Ohmm                                   : ИК1 
IK2                .Ohmm                                   : ИК2 
IK3                .Ohmm                                   : ИК3 
IK4                .Ohmm                                   : ИК4 
IK5                .Ohmm                                   : ИК5 
LLS                .Ohmm                                   : Боковой каротаж 
MBK                .Ohmm                                   : Микробоковой каротаж 
MINV               .Ohmm                                   : Микро-градиент зонд 
MNOR               .Ohmm                                   : Микро-потенциал зонд 
NGLD               .у.е.                                   : Показания зонда НГК-60 аппаратуры ДРСТ-3-90 
NNKTB_1            .у.е.                                   : Показания большого зонда 2ННКт аппаратуры СРК 
NNKTM_1            .у.е.                                   : Показания малого зонда 2ННКт аппаратуры СРК 
NPHI               .v/v                                    : Total porosity 
OGZ3               .Ohmm                                   : Обращенный градиент-зонд 
PHIE               .v/v                                    : Описание 
PHIED              .v/v                                    :  
PHIEN              .v/v                                    :  
PHIES              .v/v                                    :  
PHIT               .v/v                                    : Описание 
PRMB               .mD                                     :  
PRMB_DGR           .mD                                     :  
RHOB               .G/C3                                   : Плотность по ГГКп 
RT                 .ohmm                                   : Удельное электрическое сопротивление 
SOIL_ARCHIE        .v/v                                    :  
SOIL_DW            .v/v                                    :  
SP                 .мВ                                     : Потенциал самополяризации 
VSH_FIN            .v/v                                    : Описание 
VSH_GR             .v/v                                    : Shale volume 
VSH_SP             .v/v                                    : Shale Volume 
W                  .v/v                                    :  
~Ascii
# ...
1143.7     0.207      277.77     1          5          315.731    7.874491   4.22       3.880000114440918 4.090000152587891 3.81       3.55       3.6        5.31       6.67       2.35       4          -9999      2.98       1.61       0.236      5.68       0.2083295  0.2095809  0.1804853  0.2349223  0.2444157  20.22675   33.68928   2.32       4.842      0.5817914  0.6327826  402.41     0.1682263  0.1543079  0.1821446  0.2395668 
1143.9     0.207      285.71     1          5          320.72     7.761666   4.05       3.210000038146972 3.569999933242798 3.42       3.31       3.5        3.49       5.03       2.26       3.84       -9999      2.83       1.61       0.257      5.76       0.224149   0.2215569  0.2060215  0.2448685  0.2572865  39.71375   41.13057   2.3        4.756      0.6043044  0.6512745  400.72     0.1544802  0.1422319  0.1667286  0.2640474 
1144.1     0.206      251.88     1          5          321.911    7.70874    4.06       3.410000085830689 3.910000085830689 4.01       3.8        3.97       3.12       4.69       2.19       3.61       -9999      3.01       1.63       0.229      6.43       0.2368718  0.2814371  0.1805694  0.2486089  0.2683531  68.32786   45.1672    2.2        4.977      0.6308336  0.6749845  399.4      0.1467595  0.1368972  0.1566218  0.2406237 
1144.3     0.206      199.6      1          5          318.873    7.65736    4.19       3.990000009536743 4.710000038146973 5.25       4.97       5.01       5.32       5.22       2.26       3.92       -9999      2.77       1.63       0.244      6.89       0.2279009  0.239521   0.1973075  0.2468744  0.2582525  46.60541   49.46454   2.27       5.211      0.6263524  0.6699085  398.58     0.1414925  0.1319099  0.1510751  0.2813025 
1144.5     0.206      172.11     1          5          299.327    7.576357   4.71       4.579999923706056 5.500000000000001 6.21       6.05       5.81       6.79       7.27       2.31       4.07       -9999      2.85       1.63       0.214      6.54       0.1871326  0.1676646  0.1688348  0.2248983  0.2164913  8.190445   57.08484   2.39       5.476      0.5665851  0.6124722  398.32     0.1368642  0.1244137  0.1493147  0.2666893 
1144.7     0.206      168.63     1          5          295.768    7.500784   5.22       5.130000114440918 6.519999980926514 6.68       6.489999   5.929999   7.18       7.33       2.36       4.13       -9999      2.97       1.64       0.211      5.42       0.193462   0.1916168  0.1671859  0.2215831  0.2219424  10.72859   65.2494    2.35       5.318      0.5731369  0.6177858  398.08     0.1327698  0.1178045  0.1477351  0.2496411 
1144.9     0.207      187.61     1          5          295.498    7.499939   5.9        5.139999866485596 6.369999885559082 6.35       5.98       5.33       7.71       8.71       2.27       4.01       -9999      2.93       1.64       0.216      4.53       0.1949387  0.1916168  0.172075   0.2211242  0.2234913  11.42602   65.34704   2.35       5.125      0.5685344  0.6134609  398.24     0.1331062  0.1177326  0.1484798  0.2560976 
1145.1     0.208      221.23     1          5          293.202    7.622643   5.95       4.389999866485596 5.170000076293946 5.26       5.03       4.52       6.08       8.06       2.17       3.95       -9999      3.01       1.66       0.21       3.9        0.1866591  0.1796408  0.1641105  0.2162262  0.2164887  8.026717   52.59738   2.37       4.712      0.5338934  0.5817813  398.44     0.1390592  0.1286433  0.1494751  0.2490504 
1145.3     0.207      249.37     1          5          289.731    7.855008   5.59       3.819999933242798 4.320000171661377 4.54       4.35       4.01       4.1        5.5        2.15       3.95       -9999      3.12       1.65       0.2        3.27       0.1931157  0.2215569  0.1500737  0.2077165  0.2255693  10.57132   34.87053   2.3        4.126      0.5183983  0.569765   398.63     0.1512919  0.1521517  0.150432   0.2300685 
1145.5     0.208      268.81     1          5          321.14     8.122019   5.28       3.839999914169312 4.010000228881836 4.01       3.95       3.72       3.3        4.2        1.9        3.76       -9999      2.94       1.65       0.201      3.21       0.2009839  0.2155689  0.1459326  0.2414502  0.2367793  14.78657   21.74395   2.31       3.993      0.5276542  0.5818444  398.46     0.1668708  0.1845161  0.1492255  0.257388  
1145.7     0.209      292.39     1          5          330.096    8.337576   5.12       3.759999990463257 3.710000038146973 3.42       3.53       3.42       3.21       4.73       1.85       3.7        -9999      2.96       1.65       0.194      3.19       0.1825389  0.1676646  0.1337555  0.2461965  0.2216996  6.733192   14.85065   2.39       3.931      0.4825598  0.5440474  398.54     0.182559   0.2156013  0.1495167  0.2541253 
1145.9     0.207      310.55     1          5          328.094    8.445809   5.05       3.609999895095825 3.380000114440918 2.92       3.14       3.22       3.05       4.77       1.73       3.41       -9999      3.04       1.66       0.171      3.24       0.1820454  0.1976048  0.1075219  0.2410096  0.2233081  6.592974   12.26308   2.34       3.947      0.4823261  0.5463499  398.91     0.1923579  0.2331324  0.1515833  0.2444346 
1146.1     0.206      305.81     1          5          312.525    8.432395   4.72       3.069999933242798 2.880000114440918 2.65       3.02       3.27       2.78       4.08       1.83       3.58       -9999      3.06       1.67       0.154      3.45       0.1684964  0.1916168  0.0903737  0.2234986  0.2098554  3.699303   12.55754   2.35       3.986      0.4488028  0.5165463  399.43     0.192807   0.2308845  0.1547294  0.2441804 
1146.3     0.206      275.48     1          5          290.075    8.336706   4.66       3.289999961853027 3.190000057220459 3.2        3.57       3.63       2.73       4.08       1.97       3.68       -9999      3.23       1.7        0.175      3.95       0.183885   0.239521   0.1142412  0.1978929  0.2233801  7.131072   14.87351   2.27       4.276      0.5057614  0.5660793  399.16     0.1841177  0.2154659  0.1527694  0.2279849 
1146.5     0.206      254.45     1          5          277.404    8.249414   5.4        4.940000057220458 4.579999923706056 4.36       4.22       3.93       3.7        5.29       2.13       3.84       -9999      3.28       1.7        0.168      4.34       0.1596195  0.1856288  0.1103742  0.1828555  0.197078   2.533369   17.35689   2.36       4.812      0.47107    0.5331783  398.22     0.1746235  0.2023003  0.1469468  0.2214277 
1146.7     0.205      306.74     1          5          287.893    8.250331   6.87       5.849999904632569 4.940000057220458 4.13       3.56       3.26       8.46       9.52       2.26       4.28       -9999      3.49       1.7        0.163      4.19       0.1655942  0.1916168  0.1063542  0.1988116  0.2024157  3.268622   17.32877   2.35       5.205      0.5062593  0.5648286  397.08     0.1716538  0.2024342  0.1408734  0.196651  
1146.9     0.209      427.35     1          5          307.546    8.337495   6.94       4.099999904632568 3.440000057220459 2.75       2.38       2.34       4.28       8.31       2.32       4.04       -9999      3.3        1.72       0.157      3.41       0.1812967  0.2215569  0.09921294 0.2231203  0.21886    6.385765   14.85278   2.3        4.573      0.5151435  0.5728745  395.66     0.1751123  0.2155887  0.1346359  0.2238051 
1147.1     0.207      512.82     1          5          317.089    8.425886   5.63       2.890000104904175 2.569999933242798 2.13       1.89       1.95       2.38       3.78       2.16       3.52       -9999      3.12       1.67       0.16       3.08       0.1789024  0.2035929  0.1004624  0.2326519  0.2176036  5.765867   12.70295   2.33       3.982      0.4765869  0.5381615  394.68     0.180417   0.2298016  0.1310324  0.2353803 
1147.3     0.206      483.09     1          5          322.908    8.411793   4.12       2.680000066757202 2.529999971389771 2.13       1.92       2.07       2.26       3.3        2.23       3.53       -9999      3.13       1.64       0.156      3.05       0.1784072  0.1976048  0.09748847 0.2401283  0.2164415  5.645373   13.02361   2.34       3.505      0.4429472  0.5056345  393.4      0.1773077  0.2274742  0.1271411  0.2260531 
