~Version
 VERS              .         2.0                           : CWLS LOG ASCII STANDARD - VERSION 2.0
 WRAP              .         NO                            : ONE LINE PER DEPTH STEP
 DLM               .         SPACE                         : DELIMITING CHARACTER(SPACE TAB OR COMMA)
~Well Information
#_______________________________________________________________________________
#
#PARAMETER_NAME    .UNIT     VALUE                         : DESCRIPTION
#_______________________________________________________________________________
STRT               .M        0.7                           : First reference value
STOP               .M        1248.1                        : Last reference value
STEP               .M        0.2                           : Step increment
NULL               .         -9999                         : Missing value
COMP               .                                       : Company
WELL               .         4055                          : Well name
FLD                .         Узень                         : Field
LOC                .                                       : Location
CNTY               .                                       : County
STAT               .                                       : State
CTRY               .                                       : Country
SRVC               .                                       : Service Company
DATE               .         20/2/2014                     : Date
UWI                .                                       : Unique Well ID
3кв_для_заказчика  .         5                             : 
Block              .         6а                            : 
Category           .         Нефтяная                      : 
Condition          .         В работе                      : 
Date               .         04.03.2014                    : 
EREF               .m        79.2                          : 100.8
GRP                .                                       : Group name
Gor                .         14                            : 
Gorizont           .         14                            : 14
ISS                .                                       : Well surveys
Interpretator      .         Кайсанов Е.К                  : 
Kupol              .         Основной                      : osnovnoi
Mud                .         полимерный                    : 
Mud_density        .         1,34                          : 
Mud_resistivity    .         0,35                          : 
NGDU               .         НГДУ-2                        : 
ORIGINALWELLNAME   .         4055                          : 
Spud_date          .         2014                          : 1961
TIME               .                                       : LOG TIME
Viscosity          .         40                            : 
X                  .m        44072.64                      : 46154
Y                  .m        85156.06                      : 85761.93
YEAR               .         2019                          : 
временно           .         \                             : 
~Parameter Information Block
#_______________________________________________________________________________
#
#PARAMETER_NAME    .UNIT     VALUE                         : DESCRIPTION
#_______________________________________________________________________________
SET                .         LQC_KAZNIPI_Petrel            : 
TLFamily_CALI      .         Caliper                       : 
TLFamily_CILD      .         Conductivity                  : 
TLFamily_COLL      .         Net Reservoir Flag            : 
TLFamily_CSAT      .         Fluid Code                    : 
TLFamily_DEPT      .         Measured Depth                : 
TLFamily_DT        .         Compressional Slowness        : 
TLFamily_GR        .         Russian Gamma Ray             : 
TLFamily_GZ3       .         Gradient 225                  : 
TLFamily_IK1       .         Resistivity 05                : 
TLFamily_IK2       .         Resistivity 07                : 
TLFamily_IK3       .         Resistivity 10                : 
TLFamily_IK4       .         Resistivity 14                : 
TLFamily_IK5       .         Resistivity 20                : 
TLFamily_LLS       .         Lateral Log Resistivity       : 
TLFamily_MBK       .         Micro Lateral Log Resistivity : 
TLFamily_MINV      .         Micro Gradient Resistivity    : 
TLFamily_MNOR      .         Micro Resistivity             : 
TLFamily_NGLD      .         Neutron Far                   : 
TLFamily_NNKTB_1   .         Neutron Far                   : 
TLFamily_NNKTM_1   .         Neutron Near                  : 
TLFamily_NPHI      .         Neutron Porosity              : 
TLFamily_OGZ3      .         Gradient Inverted 225         : 
TLFamily_PHIE      .         Effective Porosity            : 
TLFamily_PHIED     .         Effective Porosity            : 
TLFamily_PHIEN     .         Effective Porosity            : 
TLFamily_PHIES     .         Effective Porosity            : 
TLFamily_PHIT      .         Porosity                      : 
TLFamily_PRMB      .         Permeability                  : 
TLFamily_PRMB_DGR  .         Permeability                  : 
TLFamily_RHOB      .         Bulk Density                  : 
TLFamily_RT        .         Formation Resistivity         : 
TLFamily_SOIL_ARCHIE .         Oil Saturation                : 
TLFamily_SOIL_DW   .         Oil Saturation                : 
TLFamily_SP        .         Spontaneous Potential         : 
TLFamily_VSH_FIN   .         Shale Volume                  : 
TLFamily_VSH_GR    .         Shale Volume                  : 
TLFamily_VSH_SP    .         Shale Volume                  : 
TLFamily_W         .         Neutron Porosity              : 
~Curve Information
#_______________________________________________________________________________
#
#LOGNAME           .UNIT     LOG_ID                        : DESCRIPTION
#_______________________________________________________________________________
DEPT               .M                                      : Колонка глубины 
CALI               .м                                      : Каверномер 
CILD               .мСм/м                                  : Проводимость 
COLL               .unitless                               :  
CSAT               .unitless                               :  
DT                 .мкс/м                                  : Интервальное время пробега продольной волны 
GR                 .uR/h                                   : Гамма каротаж 
GZ3                .Ohmm                                   : Градиент-зонд  длиной 2.25м 
IK1                .Ohmm                                   : ИК1 
IK2                .Ohmm                                   : ИК2 
IK3                .Ohmm                                   : ИК3 
IK4                .Ohmm                                   : ИК4 
IK5                .Ohmm                                   : ИК5 
LLS                .Ohmm                                   : Боковой каротаж 
MBK                .Ohmm                                   : Микробоковой каротаж 
MINV               .Ohmm                                   : Микро-градиент зонд 
MNOR               .Ohmm                                   : Микро-потенциал зонд 
NGLD               .у.е.                                   : Показания зонда НГК-60 аппаратуры ДРСТ-3-90 
NNKTB_1            .у.е.                                   : Показания большого зонда 2ННКт аппаратуры СРК 
NNKTM_1            .у.е.                                   : Показания малого зонда 2ННКт аппаратуры СРК 
NPHI               .v/v                                    : Total porosity 
OGZ3               .Ohmm                                   : Обращенный градиент-зонд 
PHIE               .v/v                                    : Описание 
PHIED              .v/v                                    :  
PHIEN              .v/v                                    :  
PHIES              .v/v                                    :  
PHIT               .v/v                                    : Описание 
PRMB               .mD                                     :  
PRMB_DGR           .mD                                     :  
RHOB               .G/C3                                   : Плотность по ГГКп 
RT                 .ohmm                                   : Удельное электрическое сопротивление 
SOIL_ARCHIE        .v/v                                    :  
SOIL_DW            .v/v                                    :  
SP                 .мВ                                     : Потенциал самополяризации 
VSH_FIN            .v/v                                    : Описание 
VSH_GR             .v/v                                    : Shale volume 
VSH_SP             .v/v                                    : Shale Volume 
W                  .v/v                                    :  
~Ascii
# ...
965.1      0.22       469.48     -9999      -9999      331.573    5.901552   3.1        1.929999947547913 2.099999904632568 2.11       2.1        2.13       2.2        1.66       1.88       2.59       -9999      3.25       1.79       -9999      2.54       0.1181994  0.06984594 -9999      0.1665529  0.1874119  0.4330097  5.020672   2.39       2.792      0.112904   0.2854152  433.34     0.4415059  0.3357142  0.5472976  0.2484329 
965.3      0.24       502.51     -9999      -9999      345.635    5.985487   3.1        1.559999942779541 1.75       1.82       1.88       1.99       1.92       1.81       2          2.35       -9999      3.13       1.75       -9999      2.4        0.1002603  0.02812635 -9999      0.1723943  0.1735707  0.2014757  4.485638   2.45       2.705      0          0.188061   434.3      0.4676458  0.3515221  0.5837696  0.2555627 
965.5      0.239      492.61     -9999      -9999      345.97     6.042943   2.83       1.590000033378601 1.820000052452087 1.93       1.98       2.03       1.73       1.46       1.49       2.08       -9999      3.05       1.71       -9999      2.68       0.1360625  0.1067629  -9999      0.165362   0.2130492  0.9276094  4.152649   2.31       2.753      0.2100454  0.3701651  435.19     0.4910973  0.36277    0.6194246  0.2568976 
965.7      0.241      460.82     -9999      -9999      329.918    6.053551   2.83       1.899999976158142 2.180000066757202 2.21       2.2        2.17       2          1.52       1.58       2.38       -9999      3.05       1.67       -9999      2.89       0.08229608 0.01977867 -9999      0.1448135  0.1615129  0.09364425 4.093934   2.45       2.86       0          0.1087123  435.82     0.5053232  0.3648855  0.6457608  0.2456935 
965.9      0.226      476.19     -9999      -9999      318.987    6.018932   3.05       1.830000042915344 1.970000028610229 1.99       2.01       2.1        2.35       2.36       2.11       2.67       -9999      3.09       1.71       -9999      2.77       0.05378029 -0.02347609 -9999      0.1310367  0.1339443  0.02775234 4.288689   2.52       2.903      0          0          436.26     0.5113651  0.3580263  0.6647039  0.2506725 
966.1      0.247      497.51     -9999      -9999      325.274    5.945938   2.73       1.629999995231628 1.799999952316284 1.81       1.89       2.01       1.85       2.01       1.8        2.12       -9999      3.2        1.75       -9999      2.8        0.09740396 0.0553914  -9999      0.1394165  0.176844   0.1783675  4.73024    2.39       2.765      0          0.1968383  436.37     0.5067466  0.3439828  0.6695105  0.2451299 
966.3      0.248      456.62     -9999      -9999      332.439    5.828938   2.71       1.889999985694885 2.069999933242798 2.03       2.07       2.19       1.76       1.68       1.61       2.06       -9999      3.4        1.72       -9999      2.92       0.1284728  0.1060505  -9999      0.1508951  0.2059636  0.6710986  5.534754   2.31       2.811      0.1776373  0.3490878  436.29     0.4943127  0.3226134  0.666012   0.2114325 
966.5      0.248      398.4      -9999      -9999      326.574    5.677814   2.75       2.089999914169312 2.259999990463257 2.31       2.39       2.51       2.06       1.58       2.05       2.48       -9999      3.43       1.72       -9999      3.05       0.09068227 0.02819357 -9999      0.153171   0.1639451  0.1339102  6.77969    2.45       2.892      0          0.1542904  435.63     0.4673424  0.2969638  0.6377211  0.2079123 
966.7      0.22       362.31     -9999      -9999      309.482    5.549567   2.87       2.529999971389771 2.690000057220459 2.71       2.74       2.76       2.55       2.85       2.44       3.09       -9999      3.87       1.77       -9999      3.27       0.06879204 -0.002975294 -9999      0.1405594  0.1386874  0.05264456 8.053456   2.51       3.057      0          0          435.08     0.4458615  0.2768034  0.6149197  0.1740774 
966.9      0.219      361.01     -9999      -9999      304.872    5.511775   3.07       2.730000019073486 2.960000038146973 2.82       2.83       2.77       2.98       3.07       3.18       3.82       -9999      4.12       1.82       -9999      3.09       0.07959154 0.01880821 -9999      0.1403749  0.1467844  0.08344232 8.4726     2.48       3.08       0          0.0775319  434.36     0.4286223  0.2711278  0.5861169  0.1626368 
967.1      0.221      396.82     -9999      -9999      320.253    5.580448   3.17       2.339999914169312 2.559999942779541 2.47       2.5        2.52       2.87       3.18       3.37       3.69       -9999      3.96       1.85       -9999      3.13       0.06667139 -0.02391368 -9999      0.1572565  0.1344344  0.04809212 7.726411   2.55       3.15       0          0          434.28     0.4322592  0.281529   0.5829893  0.1814073 
967.3      0.229      442.47     -9999      -9999      337.17     5.710805   2.91       1.940000057220459 2.160000085830688 2.18       2.19       2.26       2.25       2.25       1.83       2.81       -9999      3.77       1.84       -9999      2.61       0.1085013  0.04190015 -9999      0.1751024  0.1763027  0.2863286  6.485964   2.44       2.752      0.03773682 0.2272988  433.75     0.4325046  0.3023833  0.5626258  0.197395  
967.5      0.246      454.54     -9999      -9999      346.052    5.84252    2.76       1.779999971389771 2.069999933242798 2.15       2.14       2.2        1.98       1.58       1.74       2.54       -9999      3.27       1.77       -9999      2.67       0.1239833  0.06865837 -9999      0.1793082  0.1940361  0.5541525  5.434752   2.39       2.714      0.1376675  0.3036422  433.91     0.446866   0.3250242  0.5687078  0.240419  
967.7      0.221      438.59     -9999      -9999      345.197    5.942938   2.63       1.919999957084656 2.190000057220459 2.27       2.28       2.28       2.04       1.68       1.8        2.55       -9999      3.09       1.74       -9999      2.77       0.128185   0.08300288 -9999      0.1733671  0.200799   0.6629111  4.749329   2.36       2.698      0.1600111  0.3248484  434.28     0.4632035  0.3434177  0.5829893  0.2590138 
967.9      0.221      427.35     -9999      -9999      341.455    6.014833   2.68       1.950000047683716 2.150000095367432 2.25       2.32       2.34       2.19       2.4        2.61       3.15       -9999      3.3        1.73       -9999      2.89       0.1183776  0.06936764 -9999      0.1673875  0.1921654  0.4363123  4.312355   2.38       2.781      0.1124242  0.2950618  434.31     0.4706917  0.3572227  0.5841606  0.2262832 
968.1      0.22       421.94     -9999      -9999      336.682    6.073453   2.69       2.009999990463257 2.25       2.27       2.34       2.37       2.16       2.08       2.91       2.96       -9999      3.38       1.72       -9999      2.96       0.1162789  0.07310508 -9999      0.1594528  0.1916593  0.3989569  3.985994   2.37       2.819      0.1042117  0.2936714  434.53     0.4808503  0.3688884  0.5928123  0.2138269 
968.3      0.23       413.22     -9999      -9999      331.28     6.1178     2.74       2.039999961853027 2.299999952316284 2.32       2.37       2.42       2.32       2.37       2.8        2.86       -9999      3.16       1.73       -9999      2.95       0.09077016 0.03322316 -9999      0.1483171  0.168948   0.1344131  3.755615   2.43       2.841      0          0.1625077  435.19     0.4986953  0.377966   0.6194246  0.245632  
968.5      0.228      413.22     -9999      -9999      333.28     6.139494   2.75       2.029999971389771 2.269999980926514 2.31       2.32       2.42       2.25       1.93       1.53       2.73       -9999      3.2        1.72       -9999      2.72       0.0865452  0.02535773 -9999      0.1477327  0.1660514  0.1122497  3.647814   2.44       2.735      0          0.1212139  435.49     0.507169   0.3824877  0.6318503  0.2372507 
968.7      0.225      414.93     -9999      -9999      337.411    6.160149   2.67       1.980000019073486 2.230000019073486 2.29       2.3        2.41       2.25       1.77       1.59       2.8        -9999      3.21       1.73       -9999      2.69       0.09715751 0.04293174 -9999      0.1513833  0.1769397  0.1765025  3.548053   2.41       2.68       0          0.1836576  435.47     0.5089295  0.3868431  0.6310159  0.238455  
