~Version
 VERS              .         2.0                           : CWLS LOG ASCII STANDARD - VERSION 2.0
 WRAP              .         NO                            : ONE LINE PER DEPTH STEP
 DLM               .         SPACE                         : DELIMITING CHARACTER(SPACE TAB OR COMMA)
~Well Information
#_______________________________________________________________________________
#
#PARAMETER_NAME    .UNIT     VALUE                         : DESCRIPTION
#_______________________________________________________________________________
STRT               .M        0.8                           : First reference value
STOP               .M        1244.8                        : Last reference value
STEP               .M        0.1                           : Step increment
NULL               .         -9999                         : Missing value
COMP               .                                       : Company
WELL               .         8384                          : Well name
FLD                .         Узень                         : Field
LOC                .                                       : Location
CNTY               .                                       : County
STAT               .                                       : State
CTRY               .                                       : Country
SRVC               .         AO "UPGF"                     : Service Company
DATE               .         31.07.2020                    : Date
API                .                                       : API number
Block              .         6                             : 
Cartographic_reference_system .         GCS_WGS_1984                  : ESRI,PE_10_3_1- <?xml version="1.0" encoding="utf-16"?><ILateBoundCoordinateReferenceSystem name="GCS_WGS_1984"><AuthorityCode>EPSG,4326</AuthorityCode></ILateBoundCoordinateReferenceSystem>
Category           .         добывающая                    : 
Condition          .                                       : 
EREF               .м        83.697                        : 
GRP                .                                       : Group name
Gorizont           .         14                            : 
HZCS               .GCS_WGS_1984 WGS_1984_EASE-Grid_2.0_Global : ESRI,PE_10_3_1- <?xml version="1.0" encoding="utf-16"?><ILateBoundCoordinateReferenceSystem name="WGS_1984_EASE-Grid_2.0_Global"><AuthorityCode>EPSG,6933</AuthorityCode></ILateBoundCoordinateReferenceSystem>
ISS                .                                       : Well surveys
Interpretator      .         Тлеужанов А.З.                : 
Kupol              .         Основной                      : 
LATI               .dega     0.6690890312                  : GCS_WGS_1984
LONG               .dega     0.4572981763                  : GCS_WGS_1984
Mud                .         полимерный                    : 
Mud_density        .         1.34                          : 
Mud_resistivity    .         0.37                          : 
NGDU               .         НГДУ-2                        : 
TIME               .         12_19                         : LOG TIME
Viscosity          .         45                            : 
X                  .м        44123.00                      : 
Y                  .м        85356.00                      : 
YEAR               .         2020                          : 
kvartal            .         3                             : 
~Parameter Information Block
#_______________________________________________________________________________
#
#PARAMETER_NAME    .UNIT     VALUE                         : DESCRIPTION
#_______________________________________________________________________________
SET                .         LQC_KAZNIPI_Petrel            : 
SET_200            .                                       : 
SET_500            .                                       : 
SET_8384_ВИКИЗ     .                                       : 
SET_АК             .                                       : 
SET_результат      .                                       : 
STEP_200           .M        0.100                         : Depth increment
STEP_500           .M        0.100                         : Depth increment
STEP_8384_ВИКИЗ    .M        0.10                          : Depth increment
STEP_АК            .M        0.100                         : Depth increment
STEP_результат     .M        0.100                         : Depth increment
STOP_200           .M        1244.780                      : Last depth in file
STOP_500           .M        1244.500                      : Last depth in file
STOP_8384_ВИКИЗ    .M        1241.90                       : Last depth in file
STOP_АК            .M        1242.300                      : Last depth in file
STOP_результат     .M        1240.000                      : Last depth in file
STRT_200           .M        199.680                       : First depth in file
STRT_500           .M        0.800                         : First depth in file
STRT_8384_ВИКИЗ    .M        First depth in file           : 
STRT_АК            .M        874.900                       : First depth in file
STRT_результат     .M        880.000                       : First depth in file
TLFamily_CALI      .         Caliper                       : 
TLFamily_COLL      .         Net Reservoir Flag            : 
TLFamily_CSAT      .         Fluid Code                    : 
TLFamily_DT        .         Compressional Slowness        : 
TLFamily_GR        .         Russian Gamma Ray             : 
TLFamily_GZ3       .         Gradient 225                  : 
TLFamily_IK1       .         Resistivity 05                : 
TLFamily_IK2       .         Resistivity 07                : 
TLFamily_IK3       .         Resistivity 10                : 
TLFamily_IK4       .         Resistivity 14                : 
TLFamily_IK5       .         Resistivity 20                : 
TLFamily_LLS       .         Lateral Log Resistivity       : 
TLFamily_MBK       .         Micro Lateral Log Resistivity : 
TLFamily_MD        .         Measured Depth                : 
TLFamily_MINV      .         Micro Gradient Resistivity    : 
TLFamily_MNOR      .         Micro Resistivity             : 
TLFamily_NNKTb     .         Neutron Far                   : 
TLFamily_NNKTm     .         Neutron Near                  : 
TLFamily_NPHI      .         Neutron Porosity              : 
TLFamily_PHIE      .         Effective Porosity            : 
TLFamily_PHIED     .         Effective Porosity            : 
TLFamily_PHIEN     .         Effective Porosity            : 
TLFamily_PHIES     .         Effective Porosity            : 
TLFamily_PHIT      .         Porosity                      : 
TLFamily_PRMB      .         Permeability                  : 
TLFamily_PRMB_DGR  .         Permeability                  : 
TLFamily_RHOB      .         Bulk Density                  : 
TLFamily_RT        .         Formation Resistivity         : 
TLFamily_SOIL_ARCHIE .         Oil Saturation                : 
TLFamily_SOIL_DW   .         Oil Saturation                : 
TLFamily_SP        .         Spontaneous Potential         : 
TLFamily_VSH_FIN   .         Shale Volume                  : 
TLFamily_VSH_GR    .         Shale Volume                  : 
TLFamily_VSH_SP    .         Shale Volume                  : 
~Curve Information
#_______________________________________________________________________________
#
#LOGNAME           .UNIT     LOG_ID                        : DESCRIPTION
#_______________________________________________________________________________
MD                 .M                                      :  
CALI               .MM                                     : Кавернометрия 
COLL               .unitless                               : Описание 
CSAT               .unitless                               : Описание 
DT                 .мкс/м                                  : ДельтаТ - Волна по породе 
GR                 .uR/h                                   : Гамма-активность 
GZ3                .Ом·м                                   : A2.0M0.5N 
IK1                .Ohmm                                   : И0.10И0.40 
IK2                .Ohmm                                   : И0.14И0.56 
IK3                .Ohmm                                   : И0.20И0.80 
IK4                .Ohmm                                   : И0.28И1.12 
IK5                .Ohmm                                   : И0.40И1.60 
LLS                .Ом·м                                   : БК 
MBK                .Ом·м                                   : БМК 
MINV               .Ом·м                                   : Градиент-микрозонд 
MNOR               .Ом·м                                   : Потенциал-микрозонд 
NNKTb              .UE                                     : Большой зонд ННК 
NNKTm              .UE                                     : Малый зонд ННК 
NPHI               .V/V                                    : Neutron porosity index 
PHIE               .v/v                                    : Описание 
PHIED              .v/v                                    :  
PHIEN              .v/v                                    :  
PHIES              .v/v                                    :  
PHIT               .v/v                                    : Описание 
PRMB               .mD                                     :  
PRMB_DGR           .mD                                     :  
RHOB               .G/CM3                                  : ГГКП 
RT                 .ohmm                                   : Description 
SOIL_ARCHIE        .v/v                                    :  
SOIL_DW            .v/v                                    :  
SP                 .мВ                                     : ПС 
VSH_FIN            .v/v                                    : Описание 
VSH_GR             .v/v                                    : Shale volume 
VSH_SP             .v/v                                    : Shale Volume 
~Ascii
# ...
1089.8     230.2      -9999      -9999      328.331    9.023      2.208      1.518      1.782      1.877      2.047      1.96       2.086759   3.092726   2.344979   2.230867   2.438      1.55       0.333      0.1358114  0.04262293 0.1946679  0.1701433  0.2257314  0.917729   4.070359   2.44372    1.96       0.07201572 0.2783673  362.258    0.4191881  0.365747   0.4726292 
1089.9     226.3      -9999      -9999      316.006    8.93       2.192      1.878      2.087      2.152      2.191      2.03       2.536405   3.544713   2.381955   2.491179   2.478      1.563      0.327      0.1305258  0.04165469 0.1910786  0.1588442  0.2188787  0.7325096  4.286705   2.44804    2.03       0.05506047 0.2661224  362.027    0.4118829  0.3580939  0.4656718 
1090       222.8      -9999      -9999      306.434    8.971      2.128      2.002      2.122      2.078      2.123      1.99       2.314139   3.744942   2.447389   2.580143   2.454      1.556      0.331      0.1287518  0.04440833 0.194685   0.1471619  0.2173605  0.67913    4.006873   2.443      1.99       0.03475799 0.2516008  361.746    0.4130757  0.3681023  0.4580491 
1090.1     237.6      -9999      -9999      301.331    8.969      2.13       1.702      1.759      1.8        1.865      1.869      1.801963   3.191751   2.408095   2.0848     2.384      1.532      0.342      0.1339538  0.0588778  0.2038691  0.1391144  0.2237429  0.8478255  3.891458   2.4168     1.869      0.03962947 0.2529715  362.394    0.4185785  0.3725217  0.4646353 
1090.2     245        -9999      -9999      305.356    9.191      2.045      1.459      1.538      1.578      1.659      1.733      1.614546   2.68365    2.291887   1.801985   2.31       1.506      0.354      0.1411269  0.0777628  0.2085003  0.1371176  0.235706   1.151253   3.096079   2.377      1.733      0.0491669  0.2636102  363.14     0.4409082  0.4089773  0.4728391 
1090.3     246.8      -9999      -9999      314.167    9.856      1.861      1.352      1.467      1.49       1.577      1.655      1.5578     2.464251   2.212784   1.754338   2.251      1.495      0.364      0.1364823  0.07973966 0.1998253  0.1298818  0.2432007  0.9443664  1.696404   2.35276    1.655      0          0.2506588  363.312    0.4974992  0.522865   0.4721333 
1090.4     245.4      -9999      -9999      323.3      10.291     1.715      1.298      1.452      1.497      1.578      1.658      1.565898   2.356879   2.200978   1.800107   2.254      1.5        0.363      0.1307078  0.07639907 0.1868928  0.1288315  0.2451827  0.7382153  1.140706   2.34496    1.658      0          0.2422849  362.245    0.5336583  0.6148487  0.452468  
1090.5     247.4      -9999      -9999      328.101    10.142     1.688      1.263      1.488      1.559      1.667      1.747      1.616341   2.453965   2.223196   1.888072   2.325      1.514      0.351      0.1324178  0.07404353 0.1822298  0.1409801  0.2421235  0.7940666  1.290079   2.35712    1.747      0          0.2599435  361.493    0.511425   0.584717   0.438133  
1090.6     247.4      -9999      -9999      328.301    9.721      1.847      1.301      1.584      1.695      1.818      1.9        1.715403   2.717463   2.232      2.015062   2.417      1.532      0.337      0.1395663  0.08032327 0.183077   0.1552987  0.2396208  1.077123   1.85877    2.36328    1.9        0.08048067 0.3005585  361.088    0.4664333  0.5037097  0.4291569 
1090.7     242.2      -9999      -9999      325.201    9.422      1.92       1.473      1.751      1.941      2.018      2.08       1.933093   3.017706   2.236978   2.20646    2.51       1.556      0.322      0.1380157  0.08015378 0.1751737  0.1587195  0.2334571  1.008192   2.402507   2.37152    2.08       0.1101018  0.317911   361.798    0.4449281  0.4536032  0.436253  
1090.8     235.5      -9999      -9999      318.945    9.446      1.963      1.662      1.956      2.185      2.25       2.284      2.184617   3.317906   2.248943   2.40812    2.624      1.578      0.305      0.124545   0.06988469 0.1549724  0.1487779  0.2220674  0.5675891  2.329264   2.38508    2.284      0.06863668 0.3012578  362.941    0.4546289  0.4593742  0.4498837 
1090.9     229.6      -9999      -9999      311.567    9.466      2.2        1.904      2.217      2.441      2.52       2.526      2.497539   3.618074   2.237613   2.557387   2.717      1.594      0.292      0.1073435  0.04626174 0.1386455  0.1371233  0.2070285  0.2725337  2.266308   2.4208     2.526      0          0.2650937  364.147    0.4647106  0.4645426  0.4648786 
1091       228.9      -9999      -9999      304.745    9.301      2.399      2.179      2.488      2.621      2.711      2.695      2.853382   3.898235   2.327573   2.653145   2.775      1.602      0.284      0.09719808 0.03034428 0.1315176  0.1297323  0.1963162  0.1768081  2.599849   2.44836    2.695      0          0.2362157  365.641    0.4620678  0.4392149  0.4849207 
1091.1     224.7      -9999      -9999      300.367    9.12       2.507      2.42       2.659      2.685      2.806      2.8        2.937516   4.042929   2.352992   2.750642   2.779      1.601      0.284      0.09527213 0.02533031 0.1339317  0.1265544  0.192821   0.1628655  3.025264   2.45944    2.8        0          0.2364911  366.583    0.4547524  0.4128597  0.4966451 
1091.2     226.4      -9999      -9999      299.645    8.972      2.784      2.409      2.645      2.662      2.842      2.865      2.777764   3.964539   2.372157   2.638555   2.766      1.595      0.286      0.1029232  0.04270916 0.1382353  0.1278252  0.1989747  0.2257074  3.418372   2.433      2.865      0.01131844 0.2813495  367.173    0.4477719  0.3927697  0.5027742 
1091.3     226.2      -9999      -9999      300.478    8.899      2.848      2.344      2.657      2.697      2.881      2.918      2.742218   3.835958   2.403196   2.547186   2.746      1.591      0.288      0.1056489  0.04599792 0.1411737  0.1297752  0.2010904  0.2535318  3.613075   2.42856    2.918      0.04184895 0.2996397  367.577    0.4449283  0.3839851  0.5058714 
1091.4     222.4      -9999      -9999      299.067    8.976      2.906      2.431      2.831      2.913      2.979      2.965      2.937167   3.841102   2.406777   2.59313    2.724      1.591      0.291      0.1008396  0.04035529 0.1390514  0.1231122  0.1996108  0.2065155  3.341482   2.43224    2.965      0.009623565 0.2893623  368.895    0.4604504  0.3964353  0.5244656 
1091.5     226.8      -9999      -9999      294.212    9.162      3.061      2.621      3.049      3.141      3.093      3.017      3.145139   4.027841   2.378756   2.726662   2.712      1.594      0.293      0.08605721 0.01871645 0.1316179  0.1078373  0.1909604  0.1099376  2.804513   2.4578     3.017      0          0.2309252  370.694    0.4890368  0.4258327  0.5522409 
1091.6     228.4      -9999      -9999      290.423    9.118      3.032      2.673      3.196      3.259      3.142      3.024      3.19995    4.078782   2.347996   2.760882   2.668      1.594      0.299      0.0815317  0.008106462 0.1356212  0.1008674  0.1877328  0.09064065 2.888704   2.47328    3.024      0          0.2077543  371.857    0.4950872  0.4207206  0.5694537 
1091.7     230        -9999      -9999      291.344    9.118      3.02       2.646      3.108      3.199      3.032      2.945      3.020379   3.942646   2.334777   2.651896   2.605      1.585      0.308      0.08423375 0.009732365 0.1426906  0.1002783  0.1916898  0.1017118  2.861122   2.4684     2.945      0          0.2171976  372.615    0.5009377  0.4223721  0.5795034 
1091.8     231.4      -9999      -9999      296.545    9.052      2.972      2.517      2.877      2.907      2.853      2.792      2.663526   3.677977   2.311996   2.511665   2.509      1.566      0.322      0.09656299 0.02798539 0.155587   0.1061166  0.2047364  0.1720834  3.005298   2.43668    2.792      0          0.2670181  373.629    0.5042819  0.4139775  0.5945864 
1091.9     242.2      -9999      -9999      303.423    9.259      2.892      2.21       2.571      2.623      2.636      2.61       2.325502   3.354892   2.298776   2.325144   2.436      1.545      0.334      0.1041069  0.04420178 0.160239   0.1078801  0.2170568  0.2373949  2.475634   2.40136    2.61       0          0.289469   374.387    0.5265486  0.4480834  0.6050138 
