~Version
 VERS              .         2.0                           : CWLS LOG ASCII STANDARD - VERSION 2.0
 WRAP              .         NO                            : ONE LINE PER DEPTH STEP
 DLM               .         SPACE                         : DELIMITING CHARACTER(SPACE TAB OR COMMA)
~Well Information
#_______________________________________________________________________________
#
#PARAMETER_NAME    .UNIT     VALUE                         : DESCRIPTION
#_______________________________________________________________________________
STRT               .M        0.8                           : First reference value
STOP               .M        1244.8                        : Last reference value
STEP               .M        0.1                           : Step increment
NULL               .         -9999                         : Missing value
COMP               .                                       : Company
WELL               .         8384                          : Well name
FLD                .         Узень                         : Field
LOC                .                                       : Location
CNTY               .                                       : County
STAT               .                                       : State
CTRY               .                                       : Country
SRVC               .         AO "UPGF"                     : Service Company
DATE               .         31.07.2020                    : Date
API                .                                       : API number
Block              .         6                             : 
Cartographic_reference_system .         GCS_WGS_1984                  : ESRI,PE_10_3_1- <?xml version="1.0" encoding="utf-16"?><ILateBoundCoordinateReferenceSystem name="GCS_WGS_1984"><AuthorityCode>EPSG,4326</AuthorityCode></ILateBoundCoordinateReferenceSystem>
Category           .         добывающая                    : 
Condition          .                                       : 
EREF               .м        83.697                        : 
GRP                .                                       : Group name
Gorizont           .         14                            : 
HZCS               .GCS_WGS_1984 WGS_1984_EASE-Grid_2.0_Global : ESRI,PE_10_3_1- <?xml version="1.0" encoding="utf-16"?><ILateBoundCoordinateReferenceSystem name="WGS_1984_EASE-Grid_2.0_Global"><AuthorityCode>EPSG,6933</AuthorityCode></ILateBoundCoordinateReferenceSystem>
ISS                .                                       : Well surveys
Interpretator      .         Тлеужанов А.З.                : 
Kupol              .         Основной                      : 
LATI               .dega     0.6690890312                  : GCS_WGS_1984
LONG               .dega     0.4572981763                  : GCS_WGS_1984
Mud                .         полимерный                    : 
Mud_density        .         1.34                          : 
Mud_resistivity    .         0.37                          : 
NGDU               .         НГДУ-2                        : 
TIME               .         12_19                         : LOG TIME
Viscosity          .         45                            : 
X                  .м        44123.00                      : 
Y                  .м        85356.00                      : 
YEAR               .         2020                          : 
kvartal            .         3                             : 
~Parameter Information Block
#_______________________________________________________________________________
#
#PARAMETER_NAME    .UNIT     VALUE                         : DESCRIPTION
#_______________________________________________________________________________
SET                .         LQC_KAZNIPI_Petrel            : 
SET_200            .                                       : 
SET_500            .                                       : 
SET_8384_ВИКИЗ     .                                       : 
SET_АК             .                                       : 
SET_результат      .                                       : 
STEP_200           .M        0.100                         : Depth increment
STEP_500           .M        0.100                         : Depth increment
STEP_8384_ВИКИЗ    .M        0.10                          : Depth increment
STEP_АК            .M        0.100                         : Depth increment
STEP_результат     .M        0.100                         : Depth increment
STOP_200           .M        1244.780                      : Last depth in file
STOP_500           .M        1244.500                      : Last depth in file
STOP_8384_ВИКИЗ    .M        1241.90                       : Last depth in file
STOP_АК            .M        1242.300                      : Last depth in file
STOP_результат     .M        1240.000                      : Last depth in file
STRT_200           .M        199.680                       : First depth in file
STRT_500           .M        0.800                         : First depth in file
STRT_8384_ВИКИЗ    .M        First depth in file           : 
STRT_АК            .M        874.900                       : First depth in file
STRT_результат     .M        880.000                       : First depth in file
TLFamily_CALI      .         Caliper                       : 
TLFamily_COLL      .         Net Reservoir Flag            : 
TLFamily_CSAT      .         Fluid Code                    : 
TLFamily_DT        .         Compressional Slowness        : 
TLFamily_GR        .         Russian Gamma Ray             : 
TLFamily_GZ3       .         Gradient 225                  : 
TLFamily_IK1       .         Resistivity 05                : 
TLFamily_IK2       .         Resistivity 07                : 
TLFamily_IK3       .         Resistivity 10                : 
TLFamily_IK4       .         Resistivity 14                : 
TLFamily_IK5       .         Resistivity 20                : 
TLFamily_LLS       .         Lateral Log Resistivity       : 
TLFamily_MBK       .         Micro Lateral Log Resistivity : 
TLFamily_MD        .         Measured Depth                : 
TLFamily_MINV      .         Micro Gradient Resistivity    : 
TLFamily_MNOR      .         Micro Resistivity             : 
TLFamily_NNKTb     .         Neutron Far                   : 
TLFamily_NNKTm     .         Neutron Near                  : 
TLFamily_NPHI      .         Neutron Porosity              : 
TLFamily_PHIE      .         Effective Porosity            : 
TLFamily_PHIED     .         Effective Porosity            : 
TLFamily_PHIEN     .         Effective Porosity            : 
TLFamily_PHIES     .         Effective Porosity            : 
TLFamily_PHIT      .         Porosity                      : 
TLFamily_PRMB      .         Permeability                  : 
TLFamily_PRMB_DGR  .         Permeability                  : 
TLFamily_RHOB      .         Bulk Density                  : 
TLFamily_RT        .         Formation Resistivity         : 
TLFamily_SOIL_ARCHIE .         Oil Saturation                : 
TLFamily_SOIL_DW   .         Oil Saturation                : 
TLFamily_SP        .         Spontaneous Potential         : 
TLFamily_VSH_FIN   .         Shale Volume                  : 
TLFamily_VSH_GR    .         Shale Volume                  : 
TLFamily_VSH_SP    .         Shale Volume                  : 
~Curve Information
#_______________________________________________________________________________
#
#LOGNAME           .UNIT     LOG_ID                        : DESCRIPTION
#_______________________________________________________________________________
MD                 .M                                      :  
CALI               .MM                                     : Кавернометрия 
COLL               .unitless                               : Описание 
CSAT               .unitless                               : Описание 
DT                 .мкс/м                                  : ДельтаТ - Волна по породе 
GR                 .uR/h                                   : Гамма-активность 
GZ3                .Ом·м                                   : A2.0M0.5N 
IK1                .Ohmm                                   : И0.10И0.40 
IK2                .Ohmm                                   : И0.14И0.56 
IK3                .Ohmm                                   : И0.20И0.80 
IK4                .Ohmm                                   : И0.28И1.12 
IK5                .Ohmm                                   : И0.40И1.60 
LLS                .Ом·м                                   : БК 
MBK                .Ом·м                                   : БМК 
MINV               .Ом·м                                   : Градиент-микрозонд 
MNOR               .Ом·м                                   : Потенциал-микрозонд 
NNKTb              .UE                                     : Большой зонд ННК 
NNKTm              .UE                                     : Малый зонд ННК 
NPHI               .V/V                                    : Neutron porosity index 
PHIE               .v/v                                    : Описание 
PHIED              .v/v                                    :  
PHIEN              .v/v                                    :  
PHIES              .v/v                                    :  
PHIT               .v/v                                    : Описание 
PRMB               .mD                                     :  
PRMB_DGR           .mD                                     :  
RHOB               .G/CM3                                  : ГГКП 
RT                 .ohmm                                   : Description 
SOIL_ARCHIE        .v/v                                    :  
SOIL_DW            .v/v                                    :  
SP                 .мВ                                     : ПС 
VSH_FIN            .v/v                                    : Описание 
VSH_GR             .v/v                                    : Shale volume 
VSH_SP             .v/v                                    : Shale Volume 
~Ascii
# ...
1114       230.1      -9999      -9999      327.678    10.925     3.135      1.623      1.716      1.821      1.851      1.891      1.812479   2.728672   1.872      1.730905   2.234      1.492      0.367      0.1048065  0.04243209 0.163989   0.1079983  0.2367696  0.244584   1.077664   2.37152    1.891      0          0.2112519  372.461    0.6151848  0.6292889  0.6010807 
1114.1     235        -9999      -9999      324.8      11.213     3.176      1.561      1.647      1.764      1.793      1.836      1.765769   2.614295   1.856547   1.678273   2.237      1.491      0.366      0.09676442 0.03886953 0.1545433  0.09688049 0.2342176  0.1735681  0.8310743  2.368      1.836      0          0.1698861  371.381    0.640778   0.6997258  0.5818302 
1114.2     232.3      -9999      -9999      323.201    11.322     3.162      1.521      1.589      1.688      1.746      1.791      1.742593   2.485934   1.768575   1.625989   2.262      1.486      0.362      0.09503298 0.04157577 0.1494366  0.09408654 0.2332055  0.1612127  0.751631   2.36224    1.791      0          0.1516252  370.088    0.6441314  0.7290302  0.5592327 
1114.3     232.5      -9999      -9999      325.412    11.278     3.126      1.476      1.544      1.642      1.709      1.764      1.728981   2.45       1.679278   1.685155   2.29       1.485      0.357      0.09671827 0.04207412 0.1481044  0.09997626 0.2325066  0.1732268  0.7789788  2.36552    1.764      0          0.149025   369.37     0.6330168  0.7184687  0.547565  
1114.4     224.5      -9999      -9999      329.79     11.156     3.053      1.476      1.528      1.608      1.698      1.756      1.7132     2.470649   1.751565   1.727441   2.303      1.488      0.355      0.1033808  0.04531625 0.1533238  0.1115022  0.2344763  0.230155   0.8653753  2.3682     1.756      0          0.1722657  368.532    0.61114    0.6882648  0.5340152 
1114.5     222.5      -9999      -9999      334.801    11.07      3.105      1.493      1.534      1.594      1.717      1.772      1.722319   2.563937   1.801344   1.809477   2.288      1.491      0.358      0.1119086  0.05144532 0.1620992  0.1221813  0.2392499  0.3311135  0.9310316  2.36444    1.772      0          0.2101817  367.606    0.5936388  0.6680163  0.5192613 
1114.6     231.9      -9999      -9999      342.089    10.884     3.074      1.51       1.564      1.632      1.756      1.809      1.784087   2.6        1.917792   1.866569   2.247      1.498      0.365      0.1299719  0.06776036 0.1811987  0.1409565  0.2494482  0.7154055  1.094935   2.35076    1.809      0          0.2806243  365.693    0.5569736  0.6252167  0.4887305 
1114.7     239.5      -9999      -9999      348.211    10.632     2.993      1.604      1.658      1.721      1.826      1.852      1.961434   2.640705   1.91438    1.960725   2.198      1.505      0.368      0.1484422  0.08365089 0.1999114  0.1617644  0.2577048  1.572781   1.365621   2.34184    1.852      0.118029   0.3383576  362.956    0.5093594  0.5712869  0.4474319 
1114.8     224.9      -9999      -9999      354.756    10.31      2.973      1.736      1.789      1.825      1.865      1.867      2.229956   2.886697   1.857799   2.116691   2.167      1.51       0.368      0.1655967  0.09805842 0.2158053  0.1829263  0.2645277  3.268965   1.812747   2.3356     1.867      0.201187   0.3790288  360.517    0.4611961  0.508893   0.4134992 
1114.9     225.5      -9999      -9999      354.634    10.146     2.873      1.747      1.759      1.796      1.811      1.823      2.187764   3.220978   1.868145   2.141692   2.173      1.51       0.368      0.1727407  0.1033263  0.2241511  0.1907446  0.2662467  4.433376   2.100533   2.33616    1.823      0.2213725  0.3846032  358.896    0.4359057  0.4791774  0.3926341 
1115       224.2      -9999      -9999      353.512    10.22      2.748      1.548      1.617      1.646      1.684      1.734      1.890791   3.169574   1.904146   2.045423   2.195      1.506      0.368      0.1720488  0.1022195  0.2241793  0.1897476  0.2655365  4.304464   1.969252   2.33804    1.734      0.2000766  0.3669753  357.821    0.4358203  0.4919729  0.3796678 
1115.1     224.5      -9999      -9999      352.745    10.181     2.772      1.411      1.478      1.523      1.546      1.628      1.733736   2.835318   1.940147   1.943963   2.235      1.5        0.367      0.175997   0.1062416  0.2280643  0.1936851  0.2663094  5.093893   2.041568   2.3368     1.628      0.1921669  0.3538058  355.929    0.4210172  0.484781   0.3572534 
1115.2     219.7      -9999      -9999      355.09     10.194     2.839      1.349      1.382      1.432      1.451      1.531      1.656227   2.591911   1.985907   1.901653   2.247      1.488      0.365      0.1782198  0.1074499  0.2287916  0.198418   0.2667594  5.600433   2.020786   2.33784    1.531      0.1775795  0.3377132  354.259    0.4127528  0.4868107  0.338695  
1115.3     220.9      -9999      -9999      357.39     10.626     3.145      1.28       1.318      1.362      1.391      1.447      1.580344   2.392992   2.036054   1.832792   2.25       1.47       0.364      0.1705359  0.1005408  0.2189633  0.1921037  0.2648141  4.0355     1.377446   2.33948    1.447      0.1224657  0.3034219  351.494    0.4395052  0.5692792  0.3097312 
1115.4     224.1      -9999      -9999      355.168    10.805     3.525      1.245      1.282      1.33       1.377      1.425      1.562115   2.413933   1.945732   1.860116   2.229      1.453      0.368      0.1689607  0.09995925 0.2198139  0.1871089  0.2652861  3.773288   1.176113   2.33692    1.425      0.1089612  0.2961693  349.514    0.4490488  0.607222   0.2908756 
1115.5     223.6      -9999      -9999      352.329    10.459     3.843      1.235      1.285      1.344      1.397      1.423      1.599969   2.528769   1.879996   1.939412   2.188      1.44       0.368      0.185565   0.1251768  0.2337572  0.1977609  0.2728268  7.660757   1.602545   2.31044    1.423      0.1782759  0.3332137  348.103    0.4067963  0.5351595  0.278433  
1115.6     228.1      -9999      -9999      353.517    10.668     3.902      1.244      1.324      1.405      1.445      1.432      1.659615   2.905129   1.886765   1.988166   2.138      1.431      0.368      0.1874236  0.1390295  0.2289533  0.1942879  0.277808   8.292731   1.332248   2.28192    1.432      0.1877842  0.3450564  346.574    0.4213535  0.5770878  0.2656192 
1115.7     221.3      -9999      -9999      355.734    10.769     3.648      1.347      1.427      1.492      1.485      1.426      1.82499    3.028705   1.968136   1.952851   2.087      1.418      0.368      0.1909783  0.155534   0.2249243  0.1924767  0.2839818  9.650272   1.21932    2.24984    1.426      0.1993912  0.3571104  346.873    0.4335629  0.5983419  0.2687839 
1115.8     217.3      -9999      -9999      352.811    10.951     3.244      1.396      1.421      1.419      1.423      1.364      1.735204   2.768723   2.061558   1.83967    2.042      1.4        0.368      0.1870751  0.1628745  0.2165217  0.1818291  0.2855406  8.170393   1.038322   2.22816    1.364      0.16768    0.3392515  347.972    0.4590253  0.6389182  0.2791325 
1115.9     221        -9999      -9999      347.777    10.86      2.524      1.147      1.159      1.223      1.258      1.267      1.425988   1.961049   2.034974   1.539843   1.978      1.381      0.368      0.193033   0.1830154  0.2177659  0.1783178  0.2906896  10.53411   1.127457   2.19592    1.267      0.1615717  0.3302542  349.36     0.4552549  0.6177888  0.2927211 
1116       227.7      7          7          351.634    10.895     2.254      0.992      1.016      1.054      1.098      1.167      1.300811   1.193292   1.803037   1.308568   1.916      1.361      0.368      0.1965995  0.1972683  0.2140934  0.1784368  0.2966433  12.26472   1.094335   2.168      1.167      0.1423768  0.3156063  350.78     0.4663836  0.6253567  0.3074104 
1116.1     233.4      7          7          367.607    11.007     2.281      0.92       0.953      0.98       1.043      1.096      1.253784   0.7297516  1.69251    1.255366   1.872      1.347      0.368      0.200924   0.2086233  0.2076743  0.1864744  0.3051405  14.74883   0.9918131  2.14184    1.096      0.1333199  0.3116367  351.989    0.4858355  0.6509864  0.3206846 
