~Version
 VERS              .         2.0                           : CWLS LOG ASCII STANDARD - VERSION 2.0
 WRAP              .         NO                            : ONE LINE PER DEPTH STEP
 DLM               .         SPACE                         : DELIMITING CHARACTER(SPACE TAB OR COMMA)
~Well Information
#_______________________________________________________________________________
#
#PARAMETER_NAME    .UNIT     VALUE                         : DESCRIPTION
#_______________________________________________________________________________
STRT               .M        0.8                           : First reference value
STOP               .M        1244.8                        : Last reference value
STEP               .M        0.1                           : Step increment
NULL               .         -9999                         : Missing value
COMP               .                                       : Company
WELL               .         8384                          : Well name
FLD                .         Узень                         : Field
LOC                .                                       : Location
CNTY               .                                       : County
STAT               .                                       : State
CTRY               .                                       : Country
SRVC               .         AO "UPGF"                     : Service Company
DATE               .         31.07.2020                    : Date
API                .                                       : API number
Block              .         6                             : 
Cartographic_reference_system .         GCS_WGS_1984                  : ESRI,PE_10_3_1- <?xml version="1.0" encoding="utf-16"?><ILateBoundCoordinateReferenceSystem name="GCS_WGS_1984"><AuthorityCode>EPSG,4326</AuthorityCode></ILateBoundCoordinateReferenceSystem>
Category           .         добывающая                    : 
Condition          .                                       : 
EREF               .м        83.697                        : 
GRP                .                                       : Group name
Gorizont           .         14                            : 
HZCS               .GCS_WGS_1984 WGS_1984_EASE-Grid_2.0_Global : ESRI,PE_10_3_1- <?xml version="1.0" encoding="utf-16"?><ILateBoundCoordinateReferenceSystem name="WGS_1984_EASE-Grid_2.0_Global"><AuthorityCode>EPSG,6933</AuthorityCode></ILateBoundCoordinateReferenceSystem>
ISS                .                                       : Well surveys
Interpretator      .         Тлеужанов А.З.                : 
Kupol              .         Основной                      : 
LATI               .dega     0.6690890312                  : GCS_WGS_1984
LONG               .dega     0.4572981763                  : GCS_WGS_1984
Mud                .         полимерный                    : 
Mud_density        .         1.34                          : 
Mud_resistivity    .         0.37                          : 
NGDU               .         НГДУ-2                        : 
TIME               .         12_19                         : LOG TIME
Viscosity          .         45                            : 
X                  .м        44123.00                      : 
Y                  .м        85356.00                      : 
YEAR               .         2020                          : 
kvartal            .         3                             : 
~Parameter Information Block
#_______________________________________________________________________________
#
#PARAMETER_NAME    .UNIT     VALUE                         : DESCRIPTION
#_______________________________________________________________________________
SET                .         LQC_KAZNIPI_Petrel            : 
SET_200            .                                       : 
SET_500            .                                       : 
SET_8384_ВИКИЗ     .                                       : 
SET_АК             .                                       : 
SET_результат      .                                       : 
STEP_200           .M        0.100                         : Depth increment
STEP_500           .M        0.100                         : Depth increment
STEP_8384_ВИКИЗ    .M        0.10                          : Depth increment
STEP_АК            .M        0.100                         : Depth increment
STEP_результат     .M        0.100                         : Depth increment
STOP_200           .M        1244.780                      : Last depth in file
STOP_500           .M        1244.500                      : Last depth in file
STOP_8384_ВИКИЗ    .M        1241.90                       : Last depth in file
STOP_АК            .M        1242.300                      : Last depth in file
STOP_результат     .M        1240.000                      : Last depth in file
STRT_200           .M        199.680                       : First depth in file
STRT_500           .M        0.800                         : First depth in file
STRT_8384_ВИКИЗ    .M        First depth in file           : 
STRT_АК            .M        874.900                       : First depth in file
STRT_результат     .M        880.000                       : First depth in file
TLFamily_CALI      .         Caliper                       : 
TLFamily_COLL      .         Net Reservoir Flag            : 
TLFamily_CSAT      .         Fluid Code                    : 
TLFamily_DT        .         Compressional Slowness        : 
TLFamily_GR        .         Russian Gamma Ray             : 
TLFamily_GZ3       .         Gradient 225                  : 
TLFamily_IK1       .         Resistivity 05                : 
TLFamily_IK2       .         Resistivity 07                : 
TLFamily_IK3       .         Resistivity 10                : 
TLFamily_IK4       .         Resistivity 14                : 
TLFamily_IK5       .         Resistivity 20                : 
TLFamily_LLS       .         Lateral Log Resistivity       : 
TLFamily_MBK       .         Micro Lateral Log Resistivity : 
TLFamily_MD        .         Measured Depth                : 
TLFamily_MINV      .         Micro Gradient Resistivity    : 
TLFamily_MNOR      .         Micro Resistivity             : 
TLFamily_NNKTb     .         Neutron Far                   : 
TLFamily_NNKTm     .         Neutron Near                  : 
TLFamily_NPHI      .         Neutron Porosity              : 
TLFamily_PHIE      .         Effective Porosity            : 
TLFamily_PHIED     .         Effective Porosity            : 
TLFamily_PHIEN     .         Effective Porosity            : 
TLFamily_PHIES     .         Effective Porosity            : 
TLFamily_PHIT      .         Porosity                      : 
TLFamily_PRMB      .         Permeability                  : 
TLFamily_PRMB_DGR  .         Permeability                  : 
TLFamily_RHOB      .         Bulk Density                  : 
TLFamily_RT        .         Formation Resistivity         : 
TLFamily_SOIL_ARCHIE .         Oil Saturation                : 
TLFamily_SOIL_DW   .         Oil Saturation                : 
TLFamily_SP        .         Spontaneous Potential         : 
TLFamily_VSH_FIN   .         Shale Volume                  : 
TLFamily_VSH_GR    .         Shale Volume                  : 
TLFamily_VSH_SP    .         Shale Volume                  : 
~Curve Information
#_______________________________________________________________________________
#
#LOGNAME           .UNIT     LOG_ID                        : DESCRIPTION
#_______________________________________________________________________________
MD                 .M                                      :  
CALI               .MM                                     : Кавернометрия 
COLL               .unitless                               : Описание 
CSAT               .unitless                               : Описание 
DT                 .мкс/м                                  : ДельтаТ - Волна по породе 
GR                 .uR/h                                   : Гамма-активность 
GZ3                .Ом·м                                   : A2.0M0.5N 
IK1                .Ohmm                                   : И0.10И0.40 
IK2                .Ohmm                                   : И0.14И0.56 
IK3                .Ohmm                                   : И0.20И0.80 
IK4                .Ohmm                                   : И0.28И1.12 
IK5                .Ohmm                                   : И0.40И1.60 
LLS                .Ом·м                                   : БК 
MBK                .Ом·м                                   : БМК 
MINV               .Ом·м                                   : Градиент-микрозонд 
MNOR               .Ом·м                                   : Потенциал-микрозонд 
NNKTb              .UE                                     : Большой зонд ННК 
NNKTm              .UE                                     : Малый зонд ННК 
NPHI               .V/V                                    : Neutron porosity index 
PHIE               .v/v                                    : Описание 
PHIED              .v/v                                    :  
PHIEN              .v/v                                    :  
PHIES              .v/v                                    :  
PHIT               .v/v                                    : Описание 
PRMB               .mD                                     :  
PRMB_DGR           .mD                                     :  
RHOB               .G/CM3                                  : ГГКП 
RT                 .ohmm                                   : Description 
SOIL_ARCHIE        .v/v                                    :  
SOIL_DW            .v/v                                    :  
SP                 .мВ                                     : ПС 
VSH_FIN            .v/v                                    : Описание 
VSH_GR             .v/v                                    : Shale volume 
VSH_SP             .v/v                                    : Shale Volume 
~Ascii
# ...
1239.4     176.7      6          6          288.585    9.979      1.799      2.23       1.856      1.569      1.571      1.639      2.730997   4.274654   1.804973   2.36797    2.813      1.699      0.279      0.1406776  0.04081436 0.2013807  0.1798377  0.1911325  1.1294     7.432463   2.60184    1.639      0.0348564  0.1537059  235.002    0.2352101  0.2860234  0.1843969 
1239.5     183.3      6          6          290.298    10.214     1.812      2.318      2.065      1.775      1.782      1.852      2.734988   4.632004   1.811811   2.411093   2.846      1.703      0.275      0.1390475  0.04519769 0.1934769  0.178468   0.19204    1.053552   6.067007   2.59452    1.852      0.07933797 0.2021865  234.783    0.2470396  0.3107417  0.1833375 
1239.6     200.8      6          6          292.711    10.491     1.768      2.849      2.599      2.162      1.992      1.98       2.719      4.948395   1.763585   2.486194   2.915      1.714      0.266      0.1424286  0.07020366 0.1798047  0.1772776  0.1984582  1.216976   4.770644   2.55276    1.98       0.1262388  0.2506045  233.991    0.261198   0.3427903  0.1796056 
1239.7     202.2      6          6          297.464    10.552     1.8        3.435      2.965      2.414      2.153      2.03       2.722193   5.004739   1.761911   2.467353   2.954      1.724      0.262      0.1498798  0.09207193 0.1749023  0.182665   0.2064959  1.672225   4.54668    2.51624    2.03       0.1739194  0.2920335  233.701    0.2639325  0.3495873  0.1782777 
1239.8     190.9      6          6          302.025    10.624     1.756      3.754      2.992      2.346      2.132      1.994      2.7352     4.555455   1.715285   2.435598   2.989      1.727      0.257      0.1496774  0.09307785 0.1686608  0.1872933  0.2071004  1.657852   4.290999   2.51456    1.994      0.1659729  0.2864875  233.516    0.2676944  0.3579476  0.1774412 
1239.9     171.6      6          6          306.046    10.854     1.755      3.657      2.747      2.114      1.938      1.877      2.7354     4.264572   1.797527   2.425383   2.987      1.718      0.257      0.142185   0.07576039 0.1634631  0.1873315  0.2029868  1.204395   3.518301   2.54348    1.877      0.1027206  0.2398714  233.797    0.2834453  0.3881756  0.178715  
1240       169        -9999      -9999      307.041    11.082     1.704      3.094      2.491      1.866      1.754      1.755      2.735993   4.135961   1.85799    2.392015   2.938      1.702      0.263      0.1377777  0.06567656 0.1641559  0.1835006  0.2020293  0.9980104  2.889888   2.56032    1.755      0.04822498 0.2013896  233.729    0.2995276  0.4206502  0.178405  
1240.1     177        -9999      -9999      307.644    11.27      1.702      2.506      2.207      1.751      1.637      1.645      2.746999   4.1        1.82847    2.319239   2.861      1.684      -9999      -9999      0.06888622 -9999      0.1800211  -9999      -9999      -9999      2.55496    1.645      -9999      -9999      233.339    0.3129549  0.4492612  0.1766486 
1240.2     177.6      -9999      -9999      308.184    11.458     1.777      2.193      1.938      1.705      1.6        1.58       2.740997   4.1        1.753553   2.261992   2.795      1.674      -9999      -9999      0.07772455 -9999      0.1763192  -9999      -9999      -9999      2.5402     1.58       -9999      -9999      232.703    0.3268402  0.479818   0.1738624 
1240.3     173.8      -9999      -9999      307.533    11.613     1.8        2.151      1.848      1.687      1.593      1.547      2.736392   4.1        1.732971   2.25       2.757      1.67       -9999      -9999      0.07130539 -9999      0.1718771  -9999      -9999      -9999      2.55092    1.547      -9999      -9999      231.944    0.3385018  0.5063424  0.1706613 
1240.4     170.6      -9999      -9999      306.509    11.731     1.845      2.103      1.808      1.669      1.595      1.547      2.748198   4.1        1.744926   2.240927   2.759      1.67       -9999      -9999      0.06356891 -9999      0.1676816  -9999      -9999      -9999      2.56384    1.547      -9999      -9999      231.449    0.3479196  0.5271942  0.1686449 
1240.5     173.7      -9999      -9999      305.949    11.586     1.829      2.035      1.746      1.636      1.595      1.556      2.743196   4.1        1.687874   2.178994   2.765      1.666      -9999      -9999      0.05085035 -9999      0.1714768  -9999      -9999      -9999      2.58508    1.556      -9999      -9999      231.392    0.333636   0.4988558  0.1684163 
1240.6     179.4      -9999      -9999      305.816    11.686     1.817      2.134      1.807      1.595      1.592      1.566      2.754993   4.120788   1.587384   2.079199   2.758      1.662      -9999      -9999      0.04926951 -9999      0.1687503  -9999      -9999      -9999      2.58772    1.566      -9999      -9999      231.191    0.3418136  0.5160114  0.1676158 
1240.7     171.2      -9999      -9999      306.135    11.879     1.814      2.148      1.811      1.596      1.596      1.58       2.761982   4.213962   1.589836   2.104589   2.742      1.659      -9999      -9999      0.04804787 -9999      0.1634448  -9999      -9999      -9999      2.58976    1.58       -9999      -9999      231.249    0.3599785  0.552111   0.1678459 
1240.8     170        -9999      -9999      306.798    11.901     1.869      2.141      1.764      1.577      1.611      1.596      2.740198   4.228789   1.670441   2.195165   2.719      1.659      -9999      -9999      0.05935333 -9999      0.1638297  -9999      -9999      -9999      2.57088    1.596      -9999      -9999      231.167    0.3613266  0.5551322  0.1675209 
1240.9     173.5      -9999      -9999      307.366    11.874     1.84       2.139      1.748      1.58       1.608      1.605      2.739766   4.135961   1.713989   2.215381   2.712      1.658      -9999      -9999      0.06898201 -9999      0.1653436  -9999      -9999      -9999      2.5548     1.605      -9999      -9999      231.556    0.3586957  0.5483152  0.1690761 
1241       172.9      -9999      -9999      307.114    11.75      1.827      2.139      1.755      1.594      1.585      1.617      2.76319    4.1        1.694738   2.1865     2.704      1.656      -9999      -9999      0.0842635  -9999      0.1688186  -9999      -9999      -9999      2.52928    1.617      -9999      -9999      231.895    0.3466383  0.5228174  0.1704593 
1241.1     170.2      -9999      -9999      306.116    11.805     1.779      2.142      1.759      1.591      1.569      1.623      2.749398   4.1        1.658737   2.132864   2.683      1.654      -9999      -9999      0.100503   -9999      0.1659468  -9999      -9999      -9999      2.50216    1.623      -9999      -9999      232.224    0.3519246  0.5320225  0.1718266 
1241.2     171.4      -9999      -9999      305.928    11.851     1.807      2.135      1.756      1.589      1.576      1.642      2.752797   4.078782   1.617613   2.063564   2.666      1.657      -9999      -9999      0.1264192  -9999      0.164345   -9999      -9999      -9999      2.45888    1.642      -9999      -9999      232.497    0.3563008  0.5396212  0.1729804 
1241.3     178.3      0          0          306.86     11.887     1.848      2.131      1.766      1.587      1.595      1.671      2.742599   3.985959   1.554328   1.973963   2.658      1.664      -9999      -9999      0.1554731  -9999      0.1644921  -9999      -9999      -9999      2.41036    1.671      -9999      -9999      232.634    0.3594542  0.5453424  0.1735658 
1241.4     174.9      0          0          308.364    11.844     1.792      2.132      1.764      1.589      1.598      1.702      2.738199   3.95       1.497799   1.95       2.653      1.676      -9999      -9999      0.1758802  -9999      0.1675863  -9999      -9999      -9999      2.37628    1.702      -9999      -9999      233.022    0.3553848  0.5355216  0.1752479 
1241.5     172.4      0          0          -9999      11.684     1.764      2.129      1.751      1.591      1.597      1.711      2.7432     3.97078    1.508132   1.95       2.649      1.688      -9999      -9999      0.189485   -9999      -9999      -9999      -9999      -9999      2.35356    1.711      -9999      -9999      233.261    0.3401408  0.5039799  0.1763017 
