~Version
 VERS              .         2.0                           : CWLS LOG ASCII STANDARD - VERSION 2.0
 WRAP              .         NO                            : ONE LINE PER DEPTH STEP
 DLM               .         SPACE                         : DELIMITING CHARACTER(SPACE TAB OR COMMA)
~Well Information
#_______________________________________________________________________________
#
#PARAMETER_NAME    .UNIT     VALUE                         : DESCRIPTION
#_______________________________________________________________________________
STRT               .M        0.8                           : First reference value
STOP               .M        1244.8                        : Last reference value
STEP               .M        0.1                           : Step increment
NULL               .         -9999                         : Missing value
COMP               .                                       : Company
WELL               .         8384                          : Well name
FLD                .         Узень                         : Field
LOC                .                                       : Location
CNTY               .                                       : County
STAT               .                                       : State
CTRY               .                                       : Country
SRVC               .         AO "UPGF"                     : Service Company
DATE               .         31.07.2020                    : Date
API                .                                       : API number
Block              .         6                             : 
Cartographic_reference_system .         GCS_WGS_1984                  : ESRI,PE_10_3_1- <?xml version="1.0" encoding="utf-16"?><ILateBoundCoordinateReferenceSystem name="GCS_WGS_1984"><AuthorityCode>EPSG,4326</AuthorityCode></ILateBoundCoordinateReferenceSystem>
Category           .         добывающая                    : 
Condition          .                                       : 
EREF               .м        83.697                        : 
GRP                .                                       : Group name
Gorizont           .         14                            : 
HZCS               .GCS_WGS_1984 WGS_1984_EASE-Grid_2.0_Global : ESRI,PE_10_3_1- <?xml version="1.0" encoding="utf-16"?><ILateBoundCoordinateReferenceSystem name="WGS_1984_EASE-Grid_2.0_Global"><AuthorityCode>EPSG,6933</AuthorityCode></ILateBoundCoordinateReferenceSystem>
ISS                .                                       : Well surveys
Interpretator      .         Тлеужанов А.З.                : 
Kupol              .         Основной                      : 
LATI               .dega     0.6690890312                  : GCS_WGS_1984
LONG               .dega     0.4572981763                  : GCS_WGS_1984
Mud                .         полимерный                    : 
Mud_density        .         1.34                          : 
Mud_resistivity    .         0.37                          : 
NGDU               .         НГДУ-2                        : 
TIME               .         12_19                         : LOG TIME
Viscosity          .         45                            : 
X                  .м        44123.00                      : 
Y                  .м        85356.00                      : 
YEAR               .         2020                          : 
kvartal            .         3                             : 
~Parameter Information Block
#_______________________________________________________________________________
#
#PARAMETER_NAME    .UNIT     VALUE                         : DESCRIPTION
#_______________________________________________________________________________
SET                .         LQC_KAZNIPI_Petrel            : 
SET_200            .                                       : 
SET_500            .                                       : 
SET_8384_ВИКИЗ     .                                       : 
SET_АК             .                                       : 
SET_результат      .                                       : 
STEP_200           .M        0.100                         : Depth increment
STEP_500           .M        0.100                         : Depth increment
STEP_8384_ВИКИЗ    .M        0.10                          : Depth increment
STEP_АК            .M        0.100                         : Depth increment
STEP_результат     .M        0.100                         : Depth increment
STOP_200           .M        1244.780                      : Last depth in file
STOP_500           .M        1244.500                      : Last depth in file
STOP_8384_ВИКИЗ    .M        1241.90                       : Last depth in file
STOP_АК            .M        1242.300                      : Last depth in file
STOP_результат     .M        1240.000                      : Last depth in file
STRT_200           .M        199.680                       : First depth in file
STRT_500           .M        0.800                         : First depth in file
STRT_8384_ВИКИЗ    .M        First depth in file           : 
STRT_АК            .M        874.900                       : First depth in file
STRT_результат     .M        880.000                       : First depth in file
TLFamily_CALI      .         Caliper                       : 
TLFamily_COLL      .         Net Reservoir Flag            : 
TLFamily_CSAT      .         Fluid Code                    : 
TLFamily_DT        .         Compressional Slowness        : 
TLFamily_GR        .         Russian Gamma Ray             : 
TLFamily_GZ3       .         Gradient 225                  : 
TLFamily_IK1       .         Resistivity 05                : 
TLFamily_IK2       .         Resistivity 07                : 
TLFamily_IK3       .         Resistivity 10                : 
TLFamily_IK4       .         Resistivity 14                : 
TLFamily_IK5       .         Resistivity 20                : 
TLFamily_LLS       .         Lateral Log Resistivity       : 
TLFamily_MBK       .         Micro Lateral Log Resistivity : 
TLFamily_MD        .         Measured Depth                : 
TLFamily_MINV      .         Micro Gradient Resistivity    : 
TLFamily_MNOR      .         Micro Resistivity             : 
TLFamily_NNKTb     .         Neutron Far                   : 
TLFamily_NNKTm     .         Neutron Near                  : 
TLFamily_NPHI      .         Neutron Porosity              : 
TLFamily_PHIE      .         Effective Porosity            : 
TLFamily_PHIED     .         Effective Porosity            : 
TLFamily_PHIEN     .         Effective Porosity            : 
TLFamily_PHIES     .         Effective Porosity            : 
TLFamily_PHIT      .         Porosity                      : 
TLFamily_PRMB      .         Permeability                  : 
TLFamily_PRMB_DGR  .         Permeability                  : 
TLFamily_RHOB      .         Bulk Density                  : 
TLFamily_RT        .         Formation Resistivity         : 
TLFamily_SOIL_ARCHIE .         Oil Saturation                : 
TLFamily_SOIL_DW   .         Oil Saturation                : 
TLFamily_SP        .         Spontaneous Potential         : 
TLFamily_VSH_FIN   .         Shale Volume                  : 
TLFamily_VSH_GR    .         Shale Volume                  : 
TLFamily_VSH_SP    .         Shale Volume                  : 
~Curve Information
#_______________________________________________________________________________
#
#LOGNAME           .UNIT     LOG_ID                        : DESCRIPTION
#_______________________________________________________________________________
MD                 .M                                      :  
CALI               .MM                                     : Кавернометрия 
COLL               .unitless                               : Описание 
CSAT               .unitless                               : Описание 
DT                 .мкс/м                                  : ДельтаТ - Волна по породе 
GR                 .uR/h                                   : Гамма-активность 
GZ3                .Ом·м                                   : A2.0M0.5N 
IK1                .Ohmm                                   : И0.10И0.40 
IK2                .Ohmm                                   : И0.14И0.56 
IK3                .Ohmm                                   : И0.20И0.80 
IK4                .Ohmm                                   : И0.28И1.12 
IK5                .Ohmm                                   : И0.40И1.60 
LLS                .Ом·м                                   : БК 
MBK                .Ом·м                                   : БМК 
MINV               .Ом·м                                   : Градиент-микрозонд 
MNOR               .Ом·м                                   : Потенциал-микрозонд 
NNKTb              .UE                                     : Большой зонд ННК 
NNKTm              .UE                                     : Малый зонд ННК 
NPHI               .V/V                                    : Neutron porosity index 
PHIE               .v/v                                    : Описание 
PHIED              .v/v                                    :  
PHIEN              .v/v                                    :  
PHIES              .v/v                                    :  
PHIT               .v/v                                    : Описание 
PRMB               .mD                                     :  
PRMB_DGR           .mD                                     :  
RHOB               .G/CM3                                  : ГГКП 
RT                 .ohmm                                   : Description 
SOIL_ARCHIE        .v/v                                    :  
SOIL_DW            .v/v                                    :  
SP                 .мВ                                     : ПС 
VSH_FIN            .v/v                                    : Описание 
VSH_GR             .v/v                                    : Shale volume 
VSH_SP             .v/v                                    : Shale Volume 
~Ascii
# ...
1039.2     222.6      -9999      -9999      205.868    4.655      8.021      6.456      6.418001   5.761      5.322      4.799      6.657901   4.73988    3.085036   3.42432    3.792      1.817      0.176      0.04316643 0.05885023 0.07064906 0          0.1097181  0.01764839 31.19298   2.57172    4.799      0          0          404.539    0.3192453  0.1592359  0.4792547 
1039.3     222.9      -9999      -9999      219.845    5.221      7.889      4.914      4.691      4.485001   3.967      3.728      4.57992    4.1948     2.850455   3.051605   3.353      1.721      0.217      0.06933609 0.07453888 0.1076901  0.02577925 0.1403908  0.05388037 19.85228   2.54552    3.728      0          0.09104153 403.825    0.3312421  0.1915027  0.4709814 
1039.4     220.1      -9999      -9999      241.912    5.939      7.405      3.233      3.188      3.131      2.974      2.918      2.76148    3.183826   2.49826    2.461193   2.925      1.628      0.265      0.1097844  0.1171736  0.1470971  0.06508248 0.1864248  0.3024341  11.03556   2.47432    2.918      0.07336117 0.2777215  403.65     0.3572816  0.2433921  0.4711711 
1039.5     234.8      -9999      -9999      271.852    6.721      6.591      1.887      2.15       2.179      2.305      2.404      1.854623   1.967512   2.021414   1.688483   2.583      1.542      0.311      0.1269116  0.09628914 0.1798587  0.1045869  0.2121573  0.6278681  5.794729   2.36216    2.404      0.1055346  0.3051186  403.909    0.3973978  0.3166228  0.4781727 
1039.6     251.4      -9999      -9999      305.768    7.383      5.68       1.502      1.704      1.858      1.944      2.078      1.574989   1.333279   1.503825   1.456349   2.325      1.481      0.351      0.1654238  0.1511289  0.2065361  0.1386065  0.2593297  3.244957   3.385865   2.25564    2.078      0.2396408  0.4041428  403.915    0.4377694  0.3943051  0.4812338 
1039.7     265        -9999      -9999      338.215    8.086      4.943      1.408      1.622      1.778      1.807      1.879      1.5242     1.156756   1.290597   1.39837    2.164      1.451      0.368      0.174711   0.1638898  0.2041559  0.1560871  0.2812145  4.822019   1.907449   2.2126     1.879      0.2398949  0.4159605  404.557    0.4964972  0.4984205  0.4945739 
1039.8     266.4      -9999      -9999      361.535    8.585      4.292      1.36       1.591      1.764      1.815      1.842      1.529968   1.213868   1.30647    1.38869    2.11       1.446      0.368      0.1647766  0.1443261  0.1877171  0.1622866  0.2819659  3.156612   1.28858    2.22684    1.842      0.1926343  0.3971103  405.162    0.5463117  0.5849948  0.5076286 
1039.9     256.4      -9999      -9999      373.987    8.679      3.887      1.322      1.576      1.763      1.85       1.856      1.560652   1.289432   1.437463   1.440035   2.139      1.456      0.368      0.1596625  0.1205936  0.186617   0.171777   0.2775669  2.538024   1.248415   2.26524    1.856      0.1731004  0.3860296  404.918    0.5496454  0.5926082  0.5066826 
1040       247        -9999      -9999      377.557    8.685      3.767      1.319      1.559      1.76       1.886      1.89       1.613682   1.497069   1.640449   1.501776   2.188      1.469      0.368      0.1563604  0.1028298  0.189163   0.1770883  0.2726097  2.204607   1.308069   2.29776    1.89       0.1650542  0.3798067  404.475    0.5419304  0.5814199  0.5024408 
1040.1     247.1      -9999      -9999      376.918    8.777      3.492      1.372      1.553      1.753      1.925      1.936      1.654995   1.703119   1.736161   1.481988   2.21       1.48       0.368      0.1531847  0.09277071 0.1896993  0.1770842  0.2690855  1.925356   1.269557   2.31516    1.936      0.1595368  0.3773461  403.653    0.5403051  0.5885584  0.4920517 
1040.2     247.6      -9999      -9999      372.417    8.909      3.363      1.421      1.543      1.734      1.954      1.993      1.669351   1.984892   1.693145   1.487384   2.213      1.483      0.37       0.1526241  0.09406783 0.1910271  0.1727773  0.2689618  1.879863   1.18907    2.31224    1.993      0.1682515  0.3852535  402.725    0.5423421  0.6045113  0.4801729 
1040.3     250.4      -9999      -9999      366.623    9.035      3.213      1.421      1.552      1.736      1.991      2.051      1.718537   2.38022    1.634377   1.569459   2.22       1.486      0.369      0.1529904  0.1003389  0.1903772  0.1682552  0.2691006  1.909466   1.119652   2.30216    2.051      0.1810848  0.3947709  401.438    0.5412812  0.6195437  0.4630187 
1040.4     244.6      -9999      -9999      359.954    9.24       3.062      1.525      1.695      1.801      2.052      2.125      1.840339   2.736475   1.749164   1.608989   2.26       1.492      0.362      0.1446251  0.09294431 0.1808541  0.1600769  0.2623753  1.336492   0.9826835  2.31168    2.125      0.1541672  0.3826847  400.014    0.5489268  0.6534493  0.4444044 
1040.5     247.6      -9999      -9999      351.684    9.352      3.029      1.673      1.818      1.877      2.118      2.2        1.956936   3.131088   1.917792   1.613073   2.292      1.507      0.357      0.1352696  0.0761756  0.1764572  0.1531762  0.2526278  0.8967678  0.9369183  2.34036    2.2        0.1179136  0.3626893  398.689    0.5470995  0.6662991  0.4278999 
1040.6     237.6      -9999      -9999      343.082    9.382      3.04       1.74       1.881      1.932      2.125      2.23       2.02519    3.385654   1.919507   1.662478   2.289      1.522      0.357      0.1312329  0.06260128 0.1813902  0.1497071  0.2453844  0.7549344  0.960936   2.36856    2.23       0.1000662  0.3479984  396.841    0.5321507  0.6594481  0.4048534 
1040.7     236.8      -9999      -9999      334.864    9.129      3.016      1.775      1.905      1.941      2.068      2.21       2.027492   3.204689   1.864477   1.608072   2.252      1.526      0.364      0.1394601  0.06159956 0.2021673  0.1546133  0.2446561  1.072251   1.267963   2.38568    2.21       0.1428691  0.3593622  395.683    0.4904021  0.5888603  0.3919438 
1040.8     238.7      -9999      -9999      332.36     9.039      3.16       1.733      1.847      1.907      1.974      2.148      1.962238   2.788794   1.740924   1.688829   2.214      1.515      0.37       0.1463069  0.06774674 0.2137913  0.1573827  0.2478472  1.435876   1.447093   2.38172    2.148      0.166861   0.3673931  395.254    0.4733598  0.557928   0.3887916 
1040.9     235.2      -9999      -9999      331.136    8.859      3.305      1.64       1.759      1.827      1.853      2.047      1.854547   2.36172    1.511572   1.852366   2.188      1.5        0.368      0.1493336  0.07609521 0.2138445  0.1580611  0.2495393  1.633726   1.789301   2.37008    2.047      0.1628802  0.3598702  397.571    0.4671378  0.5116053  0.4226704 
1041       241.2      -9999      -9999      331.112    8.806      3.395      1.581      1.693      1.757      1.774      1.961      1.784296   2.092991   1.416987   1.795957   2.198      1.483      0.368      0.1501702  0.07784908 0.2142449  0.1584165  0.2501155  1.693067   1.975912   2.3676     1.961      0.1499944  0.348346   398.629    0.4659245  0.491295   0.440554  
1041.1     241.9      -9999      -9999      335.997    9.007      3.378      1.513      1.638      1.702      1.727      1.87       1.738536   2.070914   1.436128   1.651965   2.195      1.472      0.368      0.1476669  0.0743541  0.2096102  0.1590364  0.250625   1.521624   1.740383   2.36824    1.87       0.1180095  0.3290079  398.575    0.479969   0.5174291  0.4425089 
1041.2     241.2      -9999      -9999      344.69     9.21       3.481      1.415      1.553      1.639      1.684      1.801      1.69186    1.875902   1.491429   1.581918   2.169      1.459      0.368      0.149749   0.08501556 0.2029428  0.1612885  0.257041   1.662923   1.530202   2.34296    1.801      0.1131912  0.3303442  399.226    0.5001733  0.5453497  0.454997  
1041.3     251.7      -9999      -9999      353.312    9.435      3.433      1.32       1.485      1.593      1.659      1.742      1.6248     1.599001   1.612657   1.518372   2.142      1.447      0.368      0.1562759  0.1086069  0.196733   0.1634879  0.2676046  2.19668    1.319308   2.2966     1.742      0.1320774  0.346597   399.276    0.5189911  0.5793924  0.4585897 
