~Version
 VERS              .         2.0                           : CWLS LOG ASCII STANDARD - VERSION 2.0
 WRAP              .         NO                            : ONE LINE PER DEPTH STEP
 DLM               .         SPACE                         : DELIMITING CHARACTER(SPACE TAB OR COMMA)
~Well Information
#_______________________________________________________________________________
#
#PARAMETER_NAME    .UNIT     VALUE                         : DESCRIPTION
#_______________________________________________________________________________
STRT               .M        0.8                           : First reference value
STOP               .M        1244.8                        : Last reference value
STEP               .M        0.1                           : Step increment
NULL               .         -9999                         : Missing value
COMP               .                                       : Company
WELL               .         8384                          : Well name
FLD                .         Узень                         : Field
LOC                .                                       : Location
CNTY               .                                       : County
STAT               .                                       : State
CTRY               .                                       : Country
SRVC               .         AO "UPGF"                     : Service Company
DATE               .         31.07.2020                    : Date
API                .                                       : API number
Block              .         6                             : 
Cartographic_reference_system .         GCS_WGS_1984                  : ESRI,PE_10_3_1- <?xml version="1.0" encoding="utf-16"?><ILateBoundCoordinateReferenceSystem name="GCS_WGS_1984"><AuthorityCode>EPSG,4326</AuthorityCode></ILateBoundCoordinateReferenceSystem>
Category           .         добывающая                    : 
Condition          .                                       : 
EREF               .м        83.697                        : 
GRP                .                                       : Group name
Gorizont           .         14                            : 
HZCS               .GCS_WGS_1984 WGS_1984_EASE-Grid_2.0_Global : ESRI,PE_10_3_1- <?xml version="1.0" encoding="utf-16"?><ILateBoundCoordinateReferenceSystem name="WGS_1984_EASE-Grid_2.0_Global"><AuthorityCode>EPSG,6933</AuthorityCode></ILateBoundCoordinateReferenceSystem>
ISS                .                                       : Well surveys
Interpretator      .         Тлеужанов А.З.                : 
Kupol              .         Основной                      : 
LATI               .dega     0.6690890312                  : GCS_WGS_1984
LONG               .dega     0.4572981763                  : GCS_WGS_1984
Mud                .         полимерный                    : 
Mud_density        .         1.34                          : 
Mud_resistivity    .         0.37                          : 
NGDU               .         НГДУ-2                        : 
TIME               .         12_19                         : LOG TIME
Viscosity          .         45                            : 
X                  .м        44123.00                      : 
Y                  .м        85356.00                      : 
YEAR               .         2020                          : 
kvartal            .         3                             : 
~Parameter Information Block
#_______________________________________________________________________________
#
#PARAMETER_NAME    .UNIT     VALUE                         : DESCRIPTION
#_______________________________________________________________________________
SET                .         LQC_KAZNIPI_Petrel            : 
SET_200            .                                       : 
SET_500            .                                       : 
SET_8384_ВИКИЗ     .                                       : 
SET_АК             .                                       : 
SET_результат      .                                       : 
STEP_200           .M        0.100                         : Depth increment
STEP_500           .M        0.100                         : Depth increment
STEP_8384_ВИКИЗ    .M        0.10                          : Depth increment
STEP_АК            .M        0.100                         : Depth increment
STEP_результат     .M        0.100                         : Depth increment
STOP_200           .M        1244.780                      : Last depth in file
STOP_500           .M        1244.500                      : Last depth in file
STOP_8384_ВИКИЗ    .M        1241.90                       : Last depth in file
STOP_АК            .M        1242.300                      : Last depth in file
STOP_результат     .M        1240.000                      : Last depth in file
STRT_200           .M        199.680                       : First depth in file
STRT_500           .M        0.800                         : First depth in file
STRT_8384_ВИКИЗ    .M        First depth in file           : 
STRT_АК            .M        874.900                       : First depth in file
STRT_результат     .M        880.000                       : First depth in file
TLFamily_CALI      .         Caliper                       : 
TLFamily_COLL      .         Net Reservoir Flag            : 
TLFamily_CSAT      .         Fluid Code                    : 
TLFamily_DT        .         Compressional Slowness        : 
TLFamily_GR        .         Russian Gamma Ray             : 
TLFamily_GZ3       .         Gradient 225                  : 
TLFamily_IK1       .         Resistivity 05                : 
TLFamily_IK2       .         Resistivity 07                : 
TLFamily_IK3       .         Resistivity 10                : 
TLFamily_IK4       .         Resistivity 14                : 
TLFamily_IK5       .         Resistivity 20                : 
TLFamily_LLS       .         Lateral Log Resistivity       : 
TLFamily_MBK       .         Micro Lateral Log Resistivity : 
TLFamily_MD        .         Measured Depth                : 
TLFamily_MINV      .         Micro Gradient Resistivity    : 
TLFamily_MNOR      .         Micro Resistivity             : 
TLFamily_NNKTb     .         Neutron Far                   : 
TLFamily_NNKTm     .         Neutron Near                  : 
TLFamily_NPHI      .         Neutron Porosity              : 
TLFamily_PHIE      .         Effective Porosity            : 
TLFamily_PHIED     .         Effective Porosity            : 
TLFamily_PHIEN     .         Effective Porosity            : 
TLFamily_PHIES     .         Effective Porosity            : 
TLFamily_PHIT      .         Porosity                      : 
TLFamily_PRMB      .         Permeability                  : 
TLFamily_PRMB_DGR  .         Permeability                  : 
TLFamily_RHOB      .         Bulk Density                  : 
TLFamily_RT        .         Formation Resistivity         : 
TLFamily_SOIL_ARCHIE .         Oil Saturation                : 
TLFamily_SOIL_DW   .         Oil Saturation                : 
TLFamily_SP        .         Spontaneous Potential         : 
TLFamily_VSH_FIN   .         Shale Volume                  : 
TLFamily_VSH_GR    .         Shale Volume                  : 
TLFamily_VSH_SP    .         Shale Volume                  : 
~Curve Information
#_______________________________________________________________________________
#
#LOGNAME           .UNIT     LOG_ID                        : DESCRIPTION
#_______________________________________________________________________________
MD                 .M                                      :  
CALI               .MM                                     : Кавернометрия 
COLL               .unitless                               : Описание 
CSAT               .unitless                               : Описание 
DT                 .мкс/м                                  : ДельтаТ - Волна по породе 
GR                 .uR/h                                   : Гамма-активность 
GZ3                .Ом·м                                   : A2.0M0.5N 
IK1                .Ohmm                                   : И0.10И0.40 
IK2                .Ohmm                                   : И0.14И0.56 
IK3                .Ohmm                                   : И0.20И0.80 
IK4                .Ohmm                                   : И0.28И1.12 
IK5                .Ohmm                                   : И0.40И1.60 
LLS                .Ом·м                                   : БК 
MBK                .Ом·м                                   : БМК 
MINV               .Ом·м                                   : Градиент-микрозонд 
MNOR               .Ом·м                                   : Потенциал-микрозонд 
NNKTb              .UE                                     : Большой зонд ННК 
NNKTm              .UE                                     : Малый зонд ННК 
NPHI               .V/V                                    : Neutron porosity index 
PHIE               .v/v                                    : Описание 
PHIED              .v/v                                    :  
PHIEN              .v/v                                    :  
PHIES              .v/v                                    :  
PHIT               .v/v                                    : Описание 
PRMB               .mD                                     :  
PRMB_DGR           .mD                                     :  
RHOB               .G/CM3                                  : ГГКП 
RT                 .ohmm                                   : Description 
SOIL_ARCHIE        .v/v                                    :  
SOIL_DW            .v/v                                    :  
SP                 .мВ                                     : ПС 
VSH_FIN            .v/v                                    : Описание 
VSH_GR             .v/v                                    : Shale volume 
VSH_SP             .v/v                                    : Shale Volume 
~Ascii
# ...
1215.2     213.9      8          3          316.39     9.435      1.24       2.823      2.294      1.32       0.854      0.782      1.631695   4.7        2.628      2.801994   2.846      1.703      0.275      0.180492   0.1692456  0.176958   0.1952723  0.2442222  6.170317   5.576995   2.38736    0.782      0          0.04277885 260.657    0.2970969  0.3216133  0.2725805 
1215.3     213.1      8          3          316.722    9.747      1.31       2.721      2.274      1.262      0.848      0.809      1.613754   4.720815   2.628      2.79       2.801      1.695      0.281      0.1699538  0.1448862  0.1759664  0.1890087  0.2382287  3.936537   4.224435   2.42804    0.809      0          0.02091298 260.961    0.3182835  0.36024    0.276327  
1215.4     214.3      8          3          319.356    10.013     1.408      2.664      2.241      1.265      0.867      0.849      1.706513   4.834632   2.628      2.794386   2.722      1.689      0.292      0.164928   0.1297965  0.1798043  0.1851832  0.2378585  3.177056   3.333668   2.45324    0.849      0          0.0314123  261.595    0.3399868  0.3968145  0.2831591 
1215.5     212.9      8          3          320.721    9.811      1.38       2.634      2.222      1.303      0.91       0.906      1.779106   4.963967   2.628      2.813598   2.651      1.683      0.302      0.169716   0.1255091  0.1934589  0.19018    0.2402709  3.896818   3.990465   2.4604     0.906      0          0.0788822  262.114    0.3289123  0.3687196  0.2891051 
1215.6     213.5      8          3          320.517    9.098      1.488      2.596      2.18       1.389      0.987      0.981      1.826087   5.020826   2.622779   2.82       2.622      1.675      0.306      0.1822454  0.134994   0.2099355  0.2018068  0.2446902  6.649453   7.528328   2.44456    0.981      0.01989502 0.1497593  262.888    0.2911045  0.2845306  0.2976784 
1215.7     213.4      8          3          318.356    9.205      1.637      2.625      2.192      1.505      1.055      1.047      1.87709    5.113968   2.604993   2.824386   2.624      1.665      0.305      0.1807477  0.1403593  0.2056353  0.1962485  0.2453377  6.237977   6.844278   2.4356     1.047      0.04253181 0.1754196  263.647    0.3011052  0.2958162  0.3063942 
1215.8     214.4      8          3          315.465    9.351      1.723      2.701      2.198      1.578      1.127      1.117      1.931606   5.170831   2.624161   2.847975   2.634      1.657      0.304      0.1768033  0.140503   0.200695   0.1892118  0.2439546  5.272097   6.010052   2.43536    1.117      0.05315059 0.1916353  264.286    0.3130454  0.3119408  0.3141501 
1215.9     215.6      8          3          314.265    9.566      1.757      2.764      2.213      1.651      1.212      1.18       2.015567   5.263969   2.660161   2.882325   2.668      1.654      0.299      0.1706542  0.1389222  0.19032    0.1827204  0.2412994  4.055904   4.963072   2.438      1.18       0.0483257  0.1967335  264.854    0.3293333  0.3372998  0.3213668 
1216       215.1      -9999      -9999      316.583    9.849      1.764      2.798      2.24       1.716      1.325      1.241      2.144888   5.320836   2.691196   2.935903   2.691      1.653      0.296      0.1617732  0.1276407  0.1796144  0.1780646  0.2374274  2.777096   3.857724   2.45684    1.241      0.0262862  0.1915906  265.673    0.3526838  0.3738485  0.331519  
1216.1     214.8      -9999      -9999      323.026    10.17      1.763      2.845      2.292      1.811      1.413      1.27       2.15154    5.392947   2.7        2.978177   2.719      1.653      0.292      0.1243008  0.03002974 0.1663768  0.1764957  0.2059596  0.5617067  2.898807   2.479      1.27       0          0.03208652 266.423    0.3806763  0.4201211  0.3412316 
1216.2     216.1      -9999      -9999      329.241    10.173     1.686      2.742      2.275      1.821      1.461      1.268      1.986129   5.314658   2.689722   2.933695   2.733      1.654      0.29       0.120642   0.01778699 0.1626237  0.1815154  0.2034404  0.4805526  2.891075   2.49748    1.268      0          0.01237316 267.186    0.3859887  0.4205796  0.3513978 
1216.3     216.3      8          3          333.512    9.944      1.636      2.668      2.226      1.788      1.467      1.234      1.907752   5.164648   2.644786   2.848398   2.734      1.661      0.29       0.1534348  0.1039762  0.1665925  0.1897358  0.2336533  1.946001   3.544868   2.49636    1.234      0          0.163627   267.871    0.373962   0.3869849  0.360939  
1216.4     214.5      8          3          334.5      9.673      1.559      2.707      2.192      1.717      1.422      1.191      1.951129   5.035968   2.632981   2.847975   2.735      1.674      0.29       0.1610184  0.1166467  0.1712421  0.1951665  0.2382146  2.689119   4.51211    2.4752     1.191      0.003261211 0.1748135  268.42     0.3598723  0.3506784  0.3690662 
1216.5     213.6      8          3          330.839    9.46       1.431      2.652      2.109      1.61       1.367      1.168      2.024346   5          2.660161   2.873598   2.722      1.686      0.292      0.1644324  0.1234731  0.1759087  0.1939154  0.2398952  3.110605   5.454243   2.4638     1.168      0.01231244 0.1773081  269.1      0.3517918  0.3245495  0.3790341 
1216.6     215.5      8          3          324.905    9.612      1.475      2.608      2.013      1.54       1.324      1.175      2.058183   5.020826   2.691196   2.888747   2.695      1.686      0.295      0.159918   0.1227066  0.1740571  0.1829905  0.2385345  2.565831   4.763923   2.46508    1.175      0          0.1675264  269.836    0.3664938  0.3429877  0.3899998 
1216.7     214.9      -9999      -9999      319.68     9.808      1.501      2.587      1.938      1.508      1.329      1.21       2.087059   5.113968   2.709927   2.927193   2.63       1.67       0.305      0.1228786  0.01875286 0.1782063  0.1716768  0.2052983  0.5286503  4.001139   2.49652    1.21       0          0.001858763 270.486    0.3842235  0.3683176  0.4001293 
1216.8     219.7      -9999      -9999      317.734    10.312     1.491      2.544      1.923      1.521      1.394      1.298      2.133595   5.15       2.7492     2.94       2.556      1.65       0.315      0.1034291  -0.01907294 0.1736782  0.1556821  0.1952925  0.2306301  2.554562   2.5434     1.298      0          0          271.398    0.428248   0.4423777  0.4141182 
1216.9     218.9      -9999      -9999      317.467    10.904     1.58       2.515      1.966      1.587      1.487      1.394      2.097129   5.128827   2.743997   2.930944   2.511      1.635      0.322      0.08386613 -0.04609972 0.1610076  0.1366905  0.188516   0.1001295  1.508082   2.56648    1.394      0          0          272.207    0.4878557  0.5486018  0.4271096 
1217       217.9      -9999      -9999      317.758    11.04      1.646      2.312      2.03       1.664      1.585      1.502      1.959492   5.014637   2.740982   2.88736    2.494      1.624      0.325      0.07941063 -0.04821994 0.156533   0.1299189  0.1889192  0.08280101 1.336109   2.56164    1.502      0          0          273.296    0.5105062  0.5764062  0.4446062 
1217.1     219.7      -9999      -9999      319.136    11.063     1.731      2.174      2.074      1.722      1.685      1.606      1.818223   4.842903   2.763196   2.832793   2.512      1.614      0.322      0.08383046 -0.02829311 0.1508552  0.1289293  0.1950797  0.09997734 1.309029   2.52536    1.606      0          0          273.94     0.5186206  0.5812457  0.4559955 
1217.2     223.5      -9999      -9999      321.303    11.058     1.67       2.204      2.189      1.801      1.765      1.692      1.79778    4.621859   2.746329   2.730357   2.614      1.61       0.307      0.08460494 -0.01054223 0.1343962  0.1299608  0.1968025  0.1033349  1.31487    2.49408    1.692      0          0          274.47     0.5230418  0.5801902  0.4658934 
1217.3     221        -9999      -9999      321.069    11.021     1.665      2.429      2.368      2.061      1.824      1.746      1.96154    4.611325   2.614247   2.721844   2.694      1.633      0.295      0.08705568 0.008271487 0.1228054  0.1300901  0.1989873  0.1147203  1.358903   2.46312    1.746      0          0.03150329 274.692    0.5218017  0.5724386  0.4711648 
