~Version
 VERS              .         2.0                           : CWLS LOG ASCII STANDARD - VERSION 2.0
 WRAP              .         NO                            : ONE LINE PER DEPTH STEP
 DLM               .         SPACE                         : DELIMITING CHARACTER(SPACE TAB OR COMMA)
~Well Information
#_______________________________________________________________________________
#
#PARAMETER_NAME    .UNIT     VALUE                         : DESCRIPTION
#_______________________________________________________________________________
STRT               .M        0.8                           : First reference value
STOP               .M        1244.8                        : Last reference value
STEP               .M        0.1                           : Step increment
NULL               .         -9999                         : Missing value
COMP               .                                       : Company
WELL               .         8384                          : Well name
FLD                .         Узень                         : Field
LOC                .                                       : Location
CNTY               .                                       : County
STAT               .                                       : State
CTRY               .                                       : Country
SRVC               .         AO "UPGF"                     : Service Company
DATE               .         31.07.2020                    : Date
API                .                                       : API number
Block              .         6                             : 
Cartographic_reference_system .         GCS_WGS_1984                  : ESRI,PE_10_3_1- <?xml version="1.0" encoding="utf-16"?><ILateBoundCoordinateReferenceSystem name="GCS_WGS_1984"><AuthorityCode>EPSG,4326</AuthorityCode></ILateBoundCoordinateReferenceSystem>
Category           .         добывающая                    : 
Condition          .                                       : 
EREF               .м        83.697                        : 
GRP                .                                       : Group name
Gorizont           .         14                            : 
HZCS               .GCS_WGS_1984 WGS_1984_EASE-Grid_2.0_Global : ESRI,PE_10_3_1- <?xml version="1.0" encoding="utf-16"?><ILateBoundCoordinateReferenceSystem name="WGS_1984_EASE-Grid_2.0_Global"><AuthorityCode>EPSG,6933</AuthorityCode></ILateBoundCoordinateReferenceSystem>
ISS                .                                       : Well surveys
Interpretator      .         Тлеужанов А.З.                : 
Kupol              .         Основной                      : 
LATI               .dega     0.6690890312                  : GCS_WGS_1984
LONG               .dega     0.4572981763                  : GCS_WGS_1984
Mud                .         полимерный                    : 
Mud_density        .         1.34                          : 
Mud_resistivity    .         0.37                          : 
NGDU               .         НГДУ-2                        : 
TIME               .         12_19                         : LOG TIME
Viscosity          .         45                            : 
X                  .м        44123.00                      : 
Y                  .м        85356.00                      : 
YEAR               .         2020                          : 
kvartal            .         3                             : 
~Parameter Information Block
#_______________________________________________________________________________
#
#PARAMETER_NAME    .UNIT     VALUE                         : DESCRIPTION
#_______________________________________________________________________________
SET                .         LQC_KAZNIPI_Petrel            : 
SET_200            .                                       : 
SET_500            .                                       : 
SET_8384_ВИКИЗ     .                                       : 
SET_АК             .                                       : 
SET_результат      .                                       : 
STEP_200           .M        0.100                         : Depth increment
STEP_500           .M        0.100                         : Depth increment
STEP_8384_ВИКИЗ    .M        0.10                          : Depth increment
STEP_АК            .M        0.100                         : Depth increment
STEP_результат     .M        0.100                         : Depth increment
STOP_200           .M        1244.780                      : Last depth in file
STOP_500           .M        1244.500                      : Last depth in file
STOP_8384_ВИКИЗ    .M        1241.90                       : Last depth in file
STOP_АК            .M        1242.300                      : Last depth in file
STOP_результат     .M        1240.000                      : Last depth in file
STRT_200           .M        199.680                       : First depth in file
STRT_500           .M        0.800                         : First depth in file
STRT_8384_ВИКИЗ    .M        First depth in file           : 
STRT_АК            .M        874.900                       : First depth in file
STRT_результат     .M        880.000                       : First depth in file
TLFamily_CALI      .         Caliper                       : 
TLFamily_COLL      .         Net Reservoir Flag            : 
TLFamily_CSAT      .         Fluid Code                    : 
TLFamily_DT        .         Compressional Slowness        : 
TLFamily_GR        .         Russian Gamma Ray             : 
TLFamily_GZ3       .         Gradient 225                  : 
TLFamily_IK1       .         Resistivity 05                : 
TLFamily_IK2       .         Resistivity 07                : 
TLFamily_IK3       .         Resistivity 10                : 
TLFamily_IK4       .         Resistivity 14                : 
TLFamily_IK5       .         Resistivity 20                : 
TLFamily_LLS       .         Lateral Log Resistivity       : 
TLFamily_MBK       .         Micro Lateral Log Resistivity : 
TLFamily_MD        .         Measured Depth                : 
TLFamily_MINV      .         Micro Gradient Resistivity    : 
TLFamily_MNOR      .         Micro Resistivity             : 
TLFamily_NNKTb     .         Neutron Far                   : 
TLFamily_NNKTm     .         Neutron Near                  : 
TLFamily_NPHI      .         Neutron Porosity              : 
TLFamily_PHIE      .         Effective Porosity            : 
TLFamily_PHIED     .         Effective Porosity            : 
TLFamily_PHIEN     .         Effective Porosity            : 
TLFamily_PHIES     .         Effective Porosity            : 
TLFamily_PHIT      .         Porosity                      : 
TLFamily_PRMB      .         Permeability                  : 
TLFamily_PRMB_DGR  .         Permeability                  : 
TLFamily_RHOB      .         Bulk Density                  : 
TLFamily_RT        .         Formation Resistivity         : 
TLFamily_SOIL_ARCHIE .         Oil Saturation                : 
TLFamily_SOIL_DW   .         Oil Saturation                : 
TLFamily_SP        .         Spontaneous Potential         : 
TLFamily_VSH_FIN   .         Shale Volume                  : 
TLFamily_VSH_GR    .         Shale Volume                  : 
TLFamily_VSH_SP    .         Shale Volume                  : 
~Curve Information
#_______________________________________________________________________________
#
#LOGNAME           .UNIT     LOG_ID                        : DESCRIPTION
#_______________________________________________________________________________
MD                 .M                                      :  
CALI               .MM                                     : Кавернометрия 
COLL               .unitless                               : Описание 
CSAT               .unitless                               : Описание 
DT                 .мкс/м                                  : ДельтаТ - Волна по породе 
GR                 .uR/h                                   : Гамма-активность 
GZ3                .Ом·м                                   : A2.0M0.5N 
IK1                .Ohmm                                   : И0.10И0.40 
IK2                .Ohmm                                   : И0.14И0.56 
IK3                .Ohmm                                   : И0.20И0.80 
IK4                .Ohmm                                   : И0.28И1.12 
IK5                .Ohmm                                   : И0.40И1.60 
LLS                .Ом·м                                   : БК 
MBK                .Ом·м                                   : БМК 
MINV               .Ом·м                                   : Градиент-микрозонд 
MNOR               .Ом·м                                   : Потенциал-микрозонд 
NNKTb              .UE                                     : Большой зонд ННК 
NNKTm              .UE                                     : Малый зонд ННК 
NPHI               .V/V                                    : Neutron porosity index 
PHIE               .v/v                                    : Описание 
PHIED              .v/v                                    :  
PHIEN              .v/v                                    :  
PHIES              .v/v                                    :  
PHIT               .v/v                                    : Описание 
PRMB               .mD                                     :  
PRMB_DGR           .mD                                     :  
RHOB               .G/CM3                                  : ГГКП 
RT                 .ohmm                                   : Description 
SOIL_ARCHIE        .v/v                                    :  
SOIL_DW            .v/v                                    :  
SP                 .мВ                                     : ПС 
VSH_FIN            .v/v                                    : Описание 
VSH_GR             .v/v                                    : Shale volume 
VSH_SP             .v/v                                    : Shale Volume 
~Ascii
# ...
1138.2     213.6      1          5          308.516    8.057      6.536      4.545      4.383999   4.585      4.331      4.095      4.067206   5.428836   2.649993   3.45747    2.451      1.598      0.331      0.2584627  0.2742514  0.2750764  0.2260602  0.2948147  171.5986   18.44586   2.212      4.095      0.6250446  0.6728993  306.404    0.1694655  0.1973356  0.1415953 
1138.3     215.1      1          5          310.205    8.251      6.299      3.964      3.904      4.14       4.131      3.94       3.755826   5.314658   2.63076    3.334794   2.444      1.597      0.332      0.2598819  0.2800958  0.2737146  0.2258353  0.2977691  182.3063   15.5408    2.20224    3.94       0.6200101  0.6692021  306.339    0.1766224  0.2116391  0.1416057 
1138.4     215.1      1          5          312.767    8.301      6.043      3.884      3.682      3.982      4.032      3.895      3.689981   5.185969   2.604993   3.341177   2.441      1.595      0.333      0.2618727  0.2832095  0.2741186  0.2282899  0.3001474  198.4611   14.88418   2.19704    3.895      0.620487   0.6698873  306.205    0.1784286  0.2154028  0.1414543 
1138.5     212.6      1          5          317.249    8.478      5.926      3.926      3.588      3.919      4.05       3.922      3.746429   5.15       2.613993   3.43387    2.452      1.595      0.331      0.2621064  0.2852215  0.2698221  0.2312755  0.3018738  200.4492   12.73131   2.19368    3.922      0.6220091  0.6722309  306.019    0.1853875  0.2295925  0.1411825 
1138.6     211.2      1          5          321.829    8.518      5.743      4.004      3.579      3.891      4.131      4.022      3.916662   5.170831   2.599997   3.497194   2.481      1.591      0.327      0.2603227  0.279976   0.2651876  0.2358044  0.3005026  185.7658   12.30241   2.20244    4.022      0.6242206  0.6745389  306.21     0.1873103  0.2328278  0.1417928 
1138.7     212.5      1          5          325.804    8.329      5.714      4.091      3.573      3.867      4.216001   4.144001   4.090021   5.263969   2.592      3.505388   2.515      1.587      0.321      0.2615945  0.2807664  0.2615917  0.2424254  0.3002117  196.1205   14.57633   2.20112    4.144001   0.6310228  0.679853   306.561    0.1800252  0.217249   0.1428014 
1138.8     212.7      1          5          329.689    8.057      5.678      4.174      3.588      3.864      4.306      4.276      4.174373   5.3        2.596981   3.485599   2.555      1.584      0.315      0.2666239  0.2914729  0.2587937  0.2496053  0.3031597  243.0415   18.59506   2.18324    4.276      0.642393   0.6891302  306.959    0.1703223  0.1966875  0.1439571 
1138.9     212.6      1          5          334.019    7.855      5.737      4.303      3.694      3.912      4.404      4.422      4.241332   5.3        2.619196   3.48       2.567      1.581      0.314      0.274731   0.3078083  0.2600949  0.2562899  0.309771   343.4341   22.28859   2.15596    4.422      0.6570476  0.7018986  306.921    0.1633488  0.1826615  0.144036  
1139       211.8      1          5          338.27     7.513      5.778      4.43       3.856      4.011      4.501      4.541      4.428843   5.3        2.632981   3.493101   2.544      1.579      0.317      0.2834106  0.3194971  0.2667079  0.2640266  0.3161019  497.2898   30.26193   2.13644    4.541      0.6703472  0.71306    306.67     0.1524002  0.1612184  0.143582  
1139.1     211.4      1          5          341.395    7.425      5.862      4.489      3.996      4.121      4.548999   4.66       4.599053   5.3        2.655196   3.5462     2.506      1.576      0.323      0.2863349  0.3168623  0.2738936  0.2682488  0.3182555  563.3452   32.77211   2.14084    4.66       0.6772234  0.7190826  305.763    0.1488073  0.156057   0.1415577 
1139.2     210.7      1          5          342.707    7.346      5.987      4.46       4.098      4.197      4.548999   4.701      4.732045   5.320836   2.664      3.540979   2.488      1.574      0.326      0.2868028  0.3125269  0.2776403  0.2702412  0.318238   574.7007   35.20722   2.14808    4.701      0.6790044  0.7204971  305.683    0.1465444  0.1515559  0.141533  
1139.3     212.4      1          5          342.994    7.379      6.115      4.405      4.185      4.225      4.484      4.692      4.786796   5.392947   2.664      3.515599   2.49       1.574      0.325      0.2870117  0.3143235  0.27641    0.2703017  0.3185966  579.8442   34.23387   2.14508    4.692      0.6789193  0.7204964  305.464    0.1472423  0.1533009  0.1411837 
1139.4     211.1      1          5          341.686    7.354      6.211      4.308      4.212      4.264      4.4        4.62       4.654568   5.335969   2.664      3.51       2.522      1.572      0.32       0.286986   0.3202395  0.2715554  0.269163   0.3184764  579.2078   35.05137   2.1352     4.62       0.6765555  0.7182553  305.646    0.1468018  0.1518307  0.1417729 
1139.5     213        1          5          340.413    7.242      6.308001   4.272      4.192      4.292      4.314      4.527999   4.431519   5.3        2.658779   3.505388   2.553      1.565      0.316      0.2851952  0.3186826  0.2682921  0.2686108  0.3162068  536.6172   38.77861   2.1378     4.527999   0.6717031  0.7134743  306.268    0.1445696  0.1456931  0.143446  
1139.6     215.1      1          5          338.961    7.062      6.45       4.32       4.196001   4.32       4.251      4.422      4.233184   5.3        2.63076    3.485599   2.559      1.557      0.315      0.2830069  0.3123114  0.2684438  0.2682655  0.3132698  488.8022   45.57964   2.14844    4.422      0.665799   0.7075465  307.108    0.1410793  0.13639    0.1457686 
1139.7     215        1          5          337.768    7.17       6.501      4.397      4.2        4.332      4.227      4.312      4.245593   5.3        2.604993   3.493101   2.529      1.551      0.319      0.2804488  0.304      0.2713306  0.2660158  0.3114353  438.2785   41.45687   2.16232    4.312      0.6591399  0.7016855  307.548    0.1444529  0.1417737  0.1471321 
1139.8     212.8      1          5          336.768    7.365      6.457      4.464      4.212      4.348      4.22       4.225      4.404714   5.320836   2.629088   3.555153   2.482      1.551      0.326      0.2810219  0.3027544  0.2767771  0.2635341  0.3130182  449.123    34.89677   2.1644     4.225      0.6564754  0.6997645  307.138    0.1491603  0.152105   0.1462156 
1139.9     212.3      1          5          335.815    7.445      6.373      4.489      4.231      4.344      4.227      4.144001   4.450762   5.41397    2.687335   3.593599   2.443      1.555      0.332      0.2810561  0.2985628  0.2823968  0.2622088  0.3132997  449.7788   32.54143   2.1714     4.144001   0.6533774  0.6970161  306.259    0.1503128  0.1565077  0.1441178 
1140       212.6      1          5          335.535    7.627      6.315001   4.524      4.259      4.336      4.223      4.084001   4.411197   5.45       2.721993   3.595388   2.407      1.564      0.338      0.280872   0.2958563  0.2865705  0.2601893  0.3143027  446.2613   27.71095   2.17592    4.084001   0.6507977  0.6952705  306.369    0.1558471  0.1671212  0.1445731 
1140.1     212.8      1          5          334.975    7.557      6.184      4.58       4.31       4.324      4.227      4.033      4.407971   5.45       2.707997   3.57098    2.396      1.574      0.34       0.2800139  0.2900838  0.2894772  0.2604808  0.3128553  430.2251   29.53243   2.18556    4.033      0.6477951  0.6921362  305.819    0.1530994  0.1628328  0.143366  
1140.2     212.9      1          5          334.035    7.385      6.053      4.606999   4.347      4.292      4.204      3.982      4.447177   5.45       2.7        3.545599   2.384      1.583      0.342      0.2798255  0.2854849  0.2930128  0.2609787  0.3116686  426.7808   34.4655    2.19324    3.982      0.6454776  0.6894074  306.009    0.1484461  0.1528793  0.1440129 
1140.3     213.1      1          5          332.802    7.307      5.962999   4.674      4.351      4.264      4.185      3.947      4.474399   5.45       2.7        3.535388   2.36       1.589      0.346      0.278032   0.2767186  0.2973485  0.2600288  0.3096569  395.3528   36.99351   2.20788    3.947      0.6420066  0.6860127  306.835    0.1474286  0.1485238  0.1463334 
