~Version
 VERS              .         2.0                           : CWLS LOG ASCII STANDARD - VERSION 2.0
 WRAP              .         NO                            : ONE LINE PER DEPTH STEP
 DLM               .         SPACE                         : DELIMITING CHARACTER(SPACE TAB OR COMMA)
~Well Information
#_______________________________________________________________________________
#
#PARAMETER_NAME    .UNIT     VALUE                         : DESCRIPTION
#_______________________________________________________________________________
STRT               .M        0.8                           : First reference value
STOP               .M        1244.8                        : Last reference value
STEP               .M        0.1                           : Step increment
NULL               .         -9999                         : Missing value
COMP               .                                       : Company
WELL               .         8384                          : Well name
FLD                .         Узень                         : Field
LOC                .                                       : Location
CNTY               .                                       : County
STAT               .                                       : State
CTRY               .                                       : Country
SRVC               .         AO "UPGF"                     : Service Company
DATE               .         31.07.2020                    : Date
API                .                                       : API number
Block              .         6                             : 
Cartographic_reference_system .         GCS_WGS_1984                  : ESRI,PE_10_3_1- <?xml version="1.0" encoding="utf-16"?><ILateBoundCoordinateReferenceSystem name="GCS_WGS_1984"><AuthorityCode>EPSG,4326</AuthorityCode></ILateBoundCoordinateReferenceSystem>
Category           .         добывающая                    : 
Condition          .                                       : 
EREF               .м        83.697                        : 
GRP                .                                       : Group name
Gorizont           .         14                            : 
HZCS               .GCS_WGS_1984 WGS_1984_EASE-Grid_2.0_Global : ESRI,PE_10_3_1- <?xml version="1.0" encoding="utf-16"?><ILateBoundCoordinateReferenceSystem name="WGS_1984_EASE-Grid_2.0_Global"><AuthorityCode>EPSG,6933</AuthorityCode></ILateBoundCoordinateReferenceSystem>
ISS                .                                       : Well surveys
Interpretator      .         Тлеужанов А.З.                : 
Kupol              .         Основной                      : 
LATI               .dega     0.6690890312                  : GCS_WGS_1984
LONG               .dega     0.4572981763                  : GCS_WGS_1984
Mud                .         полимерный                    : 
Mud_density        .         1.34                          : 
Mud_resistivity    .         0.37                          : 
NGDU               .         НГДУ-2                        : 
TIME               .         12_19                         : LOG TIME
Viscosity          .         45                            : 
X                  .м        44123.00                      : 
Y                  .м        85356.00                      : 
YEAR               .         2020                          : 
kvartal            .         3                             : 
~Parameter Information Block
#_______________________________________________________________________________
#
#PARAMETER_NAME    .UNIT     VALUE                         : DESCRIPTION
#_______________________________________________________________________________
SET                .         LQC_KAZNIPI_Petrel            : 
SET_200            .                                       : 
SET_500            .                                       : 
SET_8384_ВИКИЗ     .                                       : 
SET_АК             .                                       : 
SET_результат      .                                       : 
STEP_200           .M        0.100                         : Depth increment
STEP_500           .M        0.100                         : Depth increment
STEP_8384_ВИКИЗ    .M        0.10                          : Depth increment
STEP_АК            .M        0.100                         : Depth increment
STEP_результат     .M        0.100                         : Depth increment
STOP_200           .M        1244.780                      : Last depth in file
STOP_500           .M        1244.500                      : Last depth in file
STOP_8384_ВИКИЗ    .M        1241.90                       : Last depth in file
STOP_АК            .M        1242.300                      : Last depth in file
STOP_результат     .M        1240.000                      : Last depth in file
STRT_200           .M        199.680                       : First depth in file
STRT_500           .M        0.800                         : First depth in file
STRT_8384_ВИКИЗ    .M        First depth in file           : 
STRT_АК            .M        874.900                       : First depth in file
STRT_результат     .M        880.000                       : First depth in file
TLFamily_CALI      .         Caliper                       : 
TLFamily_COLL      .         Net Reservoir Flag            : 
TLFamily_CSAT      .         Fluid Code                    : 
TLFamily_DT        .         Compressional Slowness        : 
TLFamily_GR        .         Russian Gamma Ray             : 
TLFamily_GZ3       .         Gradient 225                  : 
TLFamily_IK1       .         Resistivity 05                : 
TLFamily_IK2       .         Resistivity 07                : 
TLFamily_IK3       .         Resistivity 10                : 
TLFamily_IK4       .         Resistivity 14                : 
TLFamily_IK5       .         Resistivity 20                : 
TLFamily_LLS       .         Lateral Log Resistivity       : 
TLFamily_MBK       .         Micro Lateral Log Resistivity : 
TLFamily_MD        .         Measured Depth                : 
TLFamily_MINV      .         Micro Gradient Resistivity    : 
TLFamily_MNOR      .         Micro Resistivity             : 
TLFamily_NNKTb     .         Neutron Far                   : 
TLFamily_NNKTm     .         Neutron Near                  : 
TLFamily_NPHI      .         Neutron Porosity              : 
TLFamily_PHIE      .         Effective Porosity            : 
TLFamily_PHIED     .         Effective Porosity            : 
TLFamily_PHIEN     .         Effective Porosity            : 
TLFamily_PHIES     .         Effective Porosity            : 
TLFamily_PHIT      .         Porosity                      : 
TLFamily_PRMB      .         Permeability                  : 
TLFamily_PRMB_DGR  .         Permeability                  : 
TLFamily_RHOB      .         Bulk Density                  : 
TLFamily_RT        .         Formation Resistivity         : 
TLFamily_SOIL_ARCHIE .         Oil Saturation                : 
TLFamily_SOIL_DW   .         Oil Saturation                : 
TLFamily_SP        .         Spontaneous Potential         : 
TLFamily_VSH_FIN   .         Shale Volume                  : 
TLFamily_VSH_GR    .         Shale Volume                  : 
TLFamily_VSH_SP    .         Shale Volume                  : 
~Curve Information
#_______________________________________________________________________________
#
#LOGNAME           .UNIT     LOG_ID                        : DESCRIPTION
#_______________________________________________________________________________
MD                 .M                                      :  
CALI               .MM                                     : Кавернометрия 
COLL               .unitless                               : Описание 
CSAT               .unitless                               : Описание 
DT                 .мкс/м                                  : ДельтаТ - Волна по породе 
GR                 .uR/h                                   : Гамма-активность 
GZ3                .Ом·м                                   : A2.0M0.5N 
IK1                .Ohmm                                   : И0.10И0.40 
IK2                .Ohmm                                   : И0.14И0.56 
IK3                .Ohmm                                   : И0.20И0.80 
IK4                .Ohmm                                   : И0.28И1.12 
IK5                .Ohmm                                   : И0.40И1.60 
LLS                .Ом·м                                   : БК 
MBK                .Ом·м                                   : БМК 
MINV               .Ом·м                                   : Градиент-микрозонд 
MNOR               .Ом·м                                   : Потенциал-микрозонд 
NNKTb              .UE                                     : Большой зонд ННК 
NNKTm              .UE                                     : Малый зонд ННК 
NPHI               .V/V                                    : Neutron porosity index 
PHIE               .v/v                                    : Описание 
PHIED              .v/v                                    :  
PHIEN              .v/v                                    :  
PHIES              .v/v                                    :  
PHIT               .v/v                                    : Описание 
PRMB               .mD                                     :  
PRMB_DGR           .mD                                     :  
RHOB               .G/CM3                                  : ГГКП 
RT                 .ohmm                                   : Description 
SOIL_ARCHIE        .v/v                                    :  
SOIL_DW            .v/v                                    :  
SP                 .мВ                                     : ПС 
VSH_FIN            .v/v                                    : Описание 
VSH_GR             .v/v                                    : Shale volume 
VSH_SP             .v/v                                    : Shale Volume 
~Ascii
# ...
938        220.1      1          3          323.392    3.625      1.729      3.816      2.555      1.976      1.78       1.718      1.882183   3.95       2.327325   2.449451   3.653      2.066      0.188      0.2615052  0.2870898  0.1245017  0.2359207  0.2916698  195.3751   19.29095   2.19056    1.718      0.4420781  0.4944187  381.156    0.1924192  0.1937588  0.1910797 
938.1      219.5      1          3          315.961    3.518      1.693      3.843      2.52       1.988      1.792      1.711      1.94537    3.95       2.367196   2.511554   3.677      2.068      0.186      0.2469352  0.2659642  0.122823   0.2279062  0.2769471  104.9535   21.17682   2.22584    1.711      0.412389   0.4651888  382.191    0.1914454  0.1865181  0.1963727 
938.2000000000001 219.7      1          3          310.76     3.35       1.719      3.806      2.475      1.99       1.803      1.705      1.960761   3.95       2.376      2.538993   3.727      2.071      0.182      0.2409477  0.2590659  0.1198577  0.2228295  0.2704681  81.30063   24.54442   2.23736    1.705      0.3987011  0.4512097  383.065    0.18831    0.1756103  0.2010097 
938.3      220        1          3          308.386    3.214      1.713      3.623      2.422      1.975      1.803      1.702      1.927933   3.928773   2.370777   2.516513   3.766      2.075      0.179      0.243415   0.2657964  0.1179502  0.2210336  0.2724164  90.32224   27.64857   2.22612    1.702      0.4035203  0.4553566  383.407    0.1849993  0.1672751  0.2027235 
938.4      219.5      1          3          308.223    3.134      1.622      3.577      2.428      1.967      1.805      1.691      1.89158    3.835958   2.337671   2.462882   3.796      2.079      0.176      0.2463787  0.2711137  0.1157988  0.2216436  0.2749769  102.4917   29.63055   2.21724    1.691      0.4079756  0.4593121  383.367    0.182428   0.1626124  0.2022435 
938.5      218.9      1          3          310.233    3.093      1.61       3.562      2.454      1.971      1.796      1.678      1.871795   3.8        2.284785   2.407352   3.805      2.08       0.175      0.246954   0.2691977  0.1154956  0.2247104  0.2752213  105.0379   30.67105   2.22044    1.678      0.4070335  0.4580388  383.069    0.1803164  0.1603368  0.200296  
938.6      219.2      1          3          313.748    3.107      1.694      3.629      2.529      1.994      1.786      1.658      1.863799   3.8        2.268      2.379992   3.832      2.074      0.173      0.2459641  0.2630419  0.1135427  0.2288864  0.274209   100.6956   30.23097   2.23072    1.658      0.401598   0.4526894  382.893    0.1801737  0.1612858  0.1990615 
938.7000000000001 219.3      1          3          317.297    3.079      1.625      3.847      2.616      2.008      1.773      1.641      1.882152   3.8        2.272978   2.388993   3.872      2.069      0.17       0.2467576  0.259952   0.1111725  0.2335631  0.2747033  104.1614   30.93244   2.23588    1.641      0.4003812  0.4511854  382.519    0.1782653  0.1597822  0.1967484 
938.8      219.6      1          3          320.752    2.991      1.541      4.084001   2.699      1.99       1.736      1.605      1.929382   3.8        2.295196   2.375598   3.87       2.06       0.17       0.2503678  0.2619162  0.1126172  0.2388194  0.2776272  121.5004   33.38682   2.2326     1.605      0.4017236  0.4518344  381.848    0.1738872  0.1548773  0.1928971 
938.9      219.2      1          3          323.364    2.968      1.416      3.94       2.59       1.909      1.655      1.547      1.848203   3.778764   2.298776   2.360931   3.827      2.053      0.174      0.2560949  0.2697964  0.1173465  0.2423933  0.2830078  155.1159   34.00982   2.21944    1.547      0.4031735  0.4530711  381.267    0.1716772  0.1537125  0.189642  
939        219.3      1          3          325.261    3.058      1.389      3.502      2.416      1.787      1.586      1.507      1.75299    3.6645     2.270754   2.321992   3.76       2.045      0.179      0.2596787  0.2750659  0.1221727  0.2442915  0.2866742  180.733    31.32875   2.21064    1.507      0.4030604  0.4531877  380.477    0.1722039  0.1589537  0.185454  
939.1      219.8      1          3          328.504    3.098      1.424      3.421      2.347      1.735      1.534      1.479      1.748141   3.535954   2.244992   2.31       3.725      2.036      0.182      0.262598   0.2770779  0.1255458  0.2481181  0.2894163  204.6964   30.17266   2.20728    1.479      0.4036187  0.4536545  379.536    0.1710733  0.161413   0.1807335 
939.2000000000001 220.1      1          3          331.996    3.041      1.412      3.421      2.307      1.712      1.515      1.465      1.766681   3.5        2.259196   2.31       3.692      2.027      0.185      0.2655002  0.2779402  0.1298921  0.2530601  0.2916788  231.6675   31.68025   2.20584    1.465      0.4066582  0.4560565  378.483    0.1669936  0.1582312  0.175756  
939.3      220.3      1          3          333.235    3.037      1.339      3.278      2.22       1.691      1.507      1.466      1.72899    3.5        2.262776   2.305382   3.664      2.018      0.187      0.2709821  0.2868982  0.1326548  0.2550659  0.2967984  292.6868   31.73011   2.19088    1.466      0.4173127  0.4663177  377.471    0.1646823  0.1581296  0.1712351 
939.4      219.8      1          3          330.986    3.116      1.423      3.106      2.133      1.683      1.52       1.485      1.750104   3.5        2.239996   2.294353   3.634      2.01       0.19       0.2721516  0.2916887  0.1355298  0.2526145  0.2980274  307.6563   29.51641   2.18288    1.485      0.4229915  0.4719689  376.531    0.1650611  0.1628689  0.1672532 
939.5      220.2      1          3          327.733    3.16       1.397      2.961      2.12       1.715      1.551      1.506      1.793946   3.5        2.232      2.335878   3.635      2.002      0.19       0.2715111  0.2939641  0.1353974  0.2490581  0.2974497  299.3656   28.32616   2.17908    1.506      0.4256037  0.4745512  376.07     0.1654623  0.1656294  0.1652952 
939.6      220.5      1          3          325.719    3.235      1.533      2.936      2.186      1.793      1.604      1.53       1.832088   3.520753   2.236978   2.395881   3.678      1.994      0.186      0.2639362  0.2820119  0.1303037  0.2458605  0.2903944  216.7188   26.44393   2.19904    1.53       0.4156241  0.4650391  376.606    0.1687768  0.1703456  0.1672079 
939.7000000000001 220.3      1          3          323.751    3.207      1.608      3.064      2.291      1.862      1.642      1.546      1.857547   3.592919   2.253992   2.433714   3.701      1.982      0.184      0.2557507  0.2682874  0.1277652  0.2432139  0.2824647  152.8554   27.05754   2.22196    1.546      0.4022926  0.4519777  377.841    0.1704085  0.1687575  0.1720596 
939.8      219.9      1          3          321.833    3.201      1.686      2.996      2.289      1.879      1.647      1.547      1.791365   3.535954   2.234753   2.388382   3.705      1.97       0.184      0.2479413  0.2551856  0.1273326  0.2406971  0.2748609  109.5553   27.14841   2.24384    1.547      0.3861155  0.4361001  378.55     0.1717194  0.1685266  0.1749121 
939.9      220.5      1          3          321.321    3.166      1.675      2.915      2.291      1.878      1.64       1.54       1.780646   3.520753   2.213943   2.374384   3.692      1.955      0.185      0.2467385  0.253437   0.1282372  0.24004    0.2737034  104.0769   27.95203   2.24676    1.54       0.3821965  0.4322734  379.174    0.1720086  0.1665311  0.1774861 
940        220.4      1          3          323.317    3.133      1.688      3.094      2.418      1.918      1.64       1.538      1.831784   3.634513   2.245199   2.388993   3.671      1.946      0.187      0.2509356  0.2601676  0.1296748  0.2417037  0.2781676  124.4785   28.72822   2.23552    1.538      0.3908346  0.4411865  380.351    0.1737126  0.1646789  0.1827464 
940.1      219.5      1          3          325.995    2.979      1.63       3.259      2.558      1.96       1.642      1.528      1.842377   3.763957   2.249943   2.375598   3.652      1.947      0.188      0.2571252  0.2686945  0.13167    0.2455558  0.2838845  162.0842   32.88425   2.22128    1.528      0.4017979  0.4515976  380.973    0.170697   0.1558395  0.1855545 
