~Version
 VERS              .         2.0                           : CWLS LOG ASCII STANDARD - VERSION 2.0
 WRAP              .         NO                            : ONE LINE PER DEPTH STEP
 DLM               .         SPACE                         : DELIMITING CHARACTER(SPACE TAB OR COMMA)
~Well Information
#_______________________________________________________________________________
#
#PARAMETER_NAME    .UNIT     VALUE                         : DESCRIPTION
#_______________________________________________________________________________
STRT               .M        0.8                           : First reference value
STOP               .M        1244.8                        : Last reference value
STEP               .M        0.1                           : Step increment
NULL               .         -9999                         : Missing value
COMP               .                                       : Company
WELL               .         8384                          : Well name
FLD                .         Узень                         : Field
LOC                .                                       : Location
CNTY               .                                       : County
STAT               .                                       : State
CTRY               .                                       : Country
SRVC               .         AO "UPGF"                     : Service Company
DATE               .         31.07.2020                    : Date
API                .                                       : API number
Block              .         6                             : 
Cartographic_reference_system .         GCS_WGS_1984                  : ESRI,PE_10_3_1- <?xml version="1.0" encoding="utf-16"?><ILateBoundCoordinateReferenceSystem name="GCS_WGS_1984"><AuthorityCode>EPSG,4326</AuthorityCode></ILateBoundCoordinateReferenceSystem>
Category           .         добывающая                    : 
Condition          .                                       : 
EREF               .м        83.697                        : 
GRP                .                                       : Group name
Gorizont           .         14                            : 
HZCS               .GCS_WGS_1984 WGS_1984_EASE-Grid_2.0_Global : ESRI,PE_10_3_1- <?xml version="1.0" encoding="utf-16"?><ILateBoundCoordinateReferenceSystem name="WGS_1984_EASE-Grid_2.0_Global"><AuthorityCode>EPSG,6933</AuthorityCode></ILateBoundCoordinateReferenceSystem>
ISS                .                                       : Well surveys
Interpretator      .         Тлеужанов А.З.                : 
Kupol              .         Основной                      : 
LATI               .dega     0.6690890312                  : GCS_WGS_1984
LONG               .dega     0.4572981763                  : GCS_WGS_1984
Mud                .         полимерный                    : 
Mud_density        .         1.34                          : 
Mud_resistivity    .         0.37                          : 
NGDU               .         НГДУ-2                        : 
TIME               .         12_19                         : LOG TIME
Viscosity          .         45                            : 
X                  .м        44123.00                      : 
Y                  .м        85356.00                      : 
YEAR               .         2020                          : 
kvartal            .         3                             : 
~Parameter Information Block
#_______________________________________________________________________________
#
#PARAMETER_NAME    .UNIT     VALUE                         : DESCRIPTION
#_______________________________________________________________________________
SET                .         LQC_KAZNIPI_Petrel            : 
SET_200            .                                       : 
SET_500            .                                       : 
SET_8384_ВИКИЗ     .                                       : 
SET_АК             .                                       : 
SET_результат      .                                       : 
STEP_200           .M        0.100                         : Depth increment
STEP_500           .M        0.100                         : Depth increment
STEP_8384_ВИКИЗ    .M        0.10                          : Depth increment
STEP_АК            .M        0.100                         : Depth increment
STEP_результат     .M        0.100                         : Depth increment
STOP_200           .M        1244.780                      : Last depth in file
STOP_500           .M        1244.500                      : Last depth in file
STOP_8384_ВИКИЗ    .M        1241.90                       : Last depth in file
STOP_АК            .M        1242.300                      : Last depth in file
STOP_результат     .M        1240.000                      : Last depth in file
STRT_200           .M        199.680                       : First depth in file
STRT_500           .M        0.800                         : First depth in file
STRT_8384_ВИКИЗ    .M        First depth in file           : 
STRT_АК            .M        874.900                       : First depth in file
STRT_результат     .M        880.000                       : First depth in file
TLFamily_CALI      .         Caliper                       : 
TLFamily_COLL      .         Net Reservoir Flag            : 
TLFamily_CSAT      .         Fluid Code                    : 
TLFamily_DT        .         Compressional Slowness        : 
TLFamily_GR        .         Russian Gamma Ray             : 
TLFamily_GZ3       .         Gradient 225                  : 
TLFamily_IK1       .         Resistivity 05                : 
TLFamily_IK2       .         Resistivity 07                : 
TLFamily_IK3       .         Resistivity 10                : 
TLFamily_IK4       .         Resistivity 14                : 
TLFamily_IK5       .         Resistivity 20                : 
TLFamily_LLS       .         Lateral Log Resistivity       : 
TLFamily_MBK       .         Micro Lateral Log Resistivity : 
TLFamily_MD        .         Measured Depth                : 
TLFamily_MINV      .         Micro Gradient Resistivity    : 
TLFamily_MNOR      .         Micro Resistivity             : 
TLFamily_NNKTb     .         Neutron Far                   : 
TLFamily_NNKTm     .         Neutron Near                  : 
TLFamily_NPHI      .         Neutron Porosity              : 
TLFamily_PHIE      .         Effective Porosity            : 
TLFamily_PHIED     .         Effective Porosity            : 
TLFamily_PHIEN     .         Effective Porosity            : 
TLFamily_PHIES     .         Effective Porosity            : 
TLFamily_PHIT      .         Porosity                      : 
TLFamily_PRMB      .         Permeability                  : 
TLFamily_PRMB_DGR  .         Permeability                  : 
TLFamily_RHOB      .         Bulk Density                  : 
TLFamily_RT        .         Formation Resistivity         : 
TLFamily_SOIL_ARCHIE .         Oil Saturation                : 
TLFamily_SOIL_DW   .         Oil Saturation                : 
TLFamily_SP        .         Spontaneous Potential         : 
TLFamily_VSH_FIN   .         Shale Volume                  : 
TLFamily_VSH_GR    .         Shale Volume                  : 
TLFamily_VSH_SP    .         Shale Volume                  : 
~Curve Information
#_______________________________________________________________________________
#
#LOGNAME           .UNIT     LOG_ID                        : DESCRIPTION
#_______________________________________________________________________________
MD                 .M                                      :  
CALI               .MM                                     : Кавернометрия 
COLL               .unitless                               : Описание 
CSAT               .unitless                               : Описание 
DT                 .мкс/м                                  : ДельтаТ - Волна по породе 
GR                 .uR/h                                   : Гамма-активность 
GZ3                .Ом·м                                   : A2.0M0.5N 
IK1                .Ohmm                                   : И0.10И0.40 
IK2                .Ohmm                                   : И0.14И0.56 
IK3                .Ohmm                                   : И0.20И0.80 
IK4                .Ohmm                                   : И0.28И1.12 
IK5                .Ohmm                                   : И0.40И1.60 
LLS                .Ом·м                                   : БК 
MBK                .Ом·м                                   : БМК 
MINV               .Ом·м                                   : Градиент-микрозонд 
MNOR               .Ом·м                                   : Потенциал-микрозонд 
NNKTb              .UE                                     : Большой зонд ННК 
NNKTm              .UE                                     : Малый зонд ННК 
NPHI               .V/V                                    : Neutron porosity index 
PHIE               .v/v                                    : Описание 
PHIED              .v/v                                    :  
PHIEN              .v/v                                    :  
PHIES              .v/v                                    :  
PHIT               .v/v                                    : Описание 
PRMB               .mD                                     :  
PRMB_DGR           .mD                                     :  
RHOB               .G/CM3                                  : ГГКП 
RT                 .ohmm                                   : Description 
SOIL_ARCHIE        .v/v                                    :  
SOIL_DW            .v/v                                    :  
SP                 .мВ                                     : ПС 
VSH_FIN            .v/v                                    : Описание 
VSH_GR             .v/v                                    : Shale volume 
VSH_SP             .v/v                                    : Shale Volume 
~Ascii
# ...
988.6      222.2      -9999      -9999      310.29     6.557      3.263      2.701      2.741      2.83       2.958      3.045      2.834733   3.778764   2.151196   2.688384   3.488      1.9        0.203      0.069345   0.06709851 0.02691771 0.1140188  0.1838037  0.05390087 2.942095   2.36052    3.045      0          0.1511671  415.133    0.5335827  0.4175861  0.6495793 
988.7000000000001 222.4      -9999      -9999      304.979    6.583      3.284      2.794      2.806      2.927      2.997      3.05       2.889042   3.706923   2.16       2.674386   3.535      1.9        0.199      0.06416628 0.05796634 0.02497733 0.1095552  0.1772862  0.04321885 2.941756   2.37808    3.05       0          0.1076163  414.485    0.5273414  0.4176057  0.6370771 
988.8      222.1      -9999      -9999      302.046    6.688      3.391      2.873      2.921      3.014      3.032      3.038      2.959341   3.763957   2.16       2.688993   3.538      1.891      0.199      0.0578361  0.04391504 0.02431236 0.1052809  0.1713883  0.03299309 2.741652   2.4008     3.038      0          0.0521667  414.044    0.5293565  0.4297928  0.6289202 
988.9      222.1      -9999      -9999      299.19     6.875      3.454      2.913      2.985      3.062      3.044      2.972      3.004166   3.8        2.16       2.666518   3.487      1.87       0.204      0.05215238 0.03242278 0.02575178 0.09828259 0.168019   0.02589087 2.375272   2.416      2.972      0          0          413.79     0.5401461  0.4557198  0.6245724 
989        222.5      -9999      -9999      301.645    7.005      3.547      2.904      2.955      2.977      2.942      2.847      2.983832   3.8        2.164977   2.603656   3.36       1.838      0.216      0.04879249 0.01412211 0.03421812 0.09803724 0.1669561  0.02243434 2.164974   2.4426     2.847      0          0          413.945    0.5508542  0.4733013  0.6284072 
989.1      222.5      -9999      -9999      307.312    7.213      3.655      2.592      2.697      2.742      2.733      2.662      2.719199   3.75704    2.192153   2.457584   3.173      1.796      0.236      0.04911306 -0.0004915866 0.04836287 0.0994679  0.1710828  0.02274317 1.840918   2.46044    2.662      0          0          414.062    0.5685974  0.5056986  0.6314962 
989.2000000000001 222.7      -9999      -9999      314.946    7.245      3.589      2.216      2.272      2.405      2.479      2.446      2.376128   3.527888   2.212942   2.165946   2.949      1.741      0.262      0.05827639 -0.003810791 0.07220191 0.106438   0.1816508  0.03361849 1.8309     2.46356    2.446      0          0          414.615    0.5751457  0.5068266  0.6434648 
989.3      221.9      -9999      -9999      322.734    7.319      3.563      1.901      1.979      2.122      2.185      2.207      2.09451    3.227683   2.128977   1.891346   2.765      1.678      0.286      0.06845953 0.0000227  0.09309979 0.1122561  0.1938504  0.05190327 1.754108   2.45368    2.207      0          0.03225353 415.057    0.5845461  0.515772   0.6533202 
989.4      227.9      -9999      -9999      332.623    7.407      3.333      1.623      1.761      1.881      2.014      2.049      1.846405   2.927436   1.851395   1.660347   2.603      1.628      0.308      0.08177894 0.01393216 0.1117718  0.1196328  0.2093331  0.09160148 1.659718   2.42672    2.049      0          0.1027331  415.423    0.5946308  0.5275539  0.6617077 
989.5      242.3      -9999      -9999      343.435    7.579      3.111      1.507      1.668      1.787      1.921      1.976      1.700552   2.627129   1.528072   1.632598   2.473      1.601      0.328      0.09077929 0.02259154 0.125369   0.1243773  0.2224954  0.1344655  1.457254   2.40508    1.976      0          0.1538134  415.862    0.6140332  0.556336   0.6717305 
989.6      254.5      -9999      -9999      354.135    7.723      2.956      1.5        1.668      1.799      1.929      1.959      1.691473   2.392992   1.421911   1.634334   2.384      1.593      0.342      0.1001775  0.03564052 0.1347954  0.1300965  0.2348666  0.2007649  1.311782   2.37816    1.959      0          0.2079435  415.981    0.6278928  0.5807474  0.6750382 
989.7000000000001 253.5      -9999      -9999      362.313    7.891      2.902      1.547      1.736      1.852      1.996      1.996      1.771812   2.434278   1.468123   1.680086   2.37       1.592      0.344      0.103299   0.04770405 0.1306468  0.1315463  0.241985   0.2293543  1.15587    2.35112    1.996      0          0.2386345  416.247    0.646525   0.6115421  0.6815079 
989.8      247.4      -9999      -9999      366.234    7.971      2.863      1.596      1.783      1.928      2.055      2.049      1.834674   2.584319   1.535286   1.76364    2.42       1.589      0.336      0.1037244  0.05849697 0.1201354  0.1325408  0.2440428  0.2335531  1.101489   2.33028    2.049      0          0.2536812  416.353    0.6541351  0.623695   0.6845752 
989.9      249.8      -9999      -9999      365.835    7.899      2.917      1.599      1.806      1.961      2.098      2.107      1.887699   2.734356   1.575194   1.853657   2.464      1.582      0.329      0.1062054  0.06679117 0.1164632  0.1353618  0.2443606  0.2596208  1.20177    2.32016    2.107      0          0.2710375  416.392    0.6440509  0.6018946  0.6862073 
990        238.8      -9999      -9999      368.135    7.801      2.971      1.629      1.825      1.967      2.116      2.139      1.927      2.842898   1.598724   1.939412   2.5        1.575      0.324      0.1069992  0.06274681 0.1163205  0.1419304  0.2419971  0.2685612  1.341884   2.33236    2.139      0          0.274098   416.219    0.6293319  0.5753921  0.6832717 
990.1      236.2      -9999      -9999      373.768    7.852      3.038      1.667      1.846      1.977      2.126      2.146      1.929195   2.764335   1.684786   1.988166   2.512      1.569      0.322      0.1008002  0.04350585 0.1132747  0.1456201  0.2364779  0.2061687  1.301147   2.36332    2.146      0          0.2482179  416.138    0.6325009  0.5826811  0.6823208 
990.2000000000001 240.4      -9999      -9999      381.968    8.028      3.038      1.745      1.886      1.972      2.095      2.132      1.940792   2.591911   1.800715   1.948319   2.549      1.566      0.316      0.08963138 0.02009646 0.1018043  0.1469934  0.228865   0.1280409  1.128777   2.39628    2.132      0          0.1961619  416.024    0.649078   0.6174937  0.6806623 
990.3      239.3      -9999      -9999      386.768    7.966      3.052      1.745      1.867      1.918      2.036      2.095      1.938412   2.326739   1.810078   1.8828     2.559      1.57       0.315      0.09100965 0.01320779 0.1050638  0.1547574  0.2274744  0.1357931  1.210347   2.41256    2.095      0          0.1904254  415.59     0.6361703  0.6001493  0.6721913 
990.4      240.6      -9999      -9999      389.068    8.065      3.119      1.666      1.767      1.827      1.947      2.037      1.868928   2.049457   1.688464   1.860724   2.541      1.572      0.318      0.09368671 0.0186633  0.1069496  0.1554473  0.2308758  0.152217   1.124509   2.4022     2.037      0          0.1952324  415.005    0.6395468  0.6184496  0.6606439 
990.5      250.2      -9999      -9999      389.435    8.265      3.123      1.529      1.66       1.736      1.835      1.957      1.791365   1.885913   1.600778   1.751629   2.515      1.572      0.321      0.09307925 0.02548215 0.1038379  0.1499177  0.2342411  0.1483241  0.9549142  2.38396    1.957      0          0.1845462  414.697    0.658067   0.6611429  0.6549911 
990.6      254.3      -9999      -9999      387.235    8.214      3.085      1.426      1.569      1.657      1.768      1.904      1.725109   1.85       1.578766   1.639261   2.471      1.573      0.328      0.09926823 0.03346893 0.1135296  0.1508061  0.2386804  0.1931285  1.013943   2.37364    1.904      0          0.2020412  414.645    0.6499103  0.6451469  0.6546738 
990.7000000000001 247.5      -9999      -9999      389.757    8.172      3.092      1.363      1.537      1.647      1.756      1.888      1.695168   1.870539   1.550732   1.608629   2.459      1.584      0.33       0.1008877  0.02938165 0.118111   0.1551704  0.2386218  0.2069392  1.068028   2.38336    1.888      0          0.2033012  414.507    0.6420878  0.6316011  0.6525745 
