~Version
 VERS              .         2.0                           : CWLS LOG ASCII STANDARD - VERSION 2.0
 WRAP              .         NO                            : ONE LINE PER DEPTH STEP
 DLM               .         SPACE                         : DELIMITING CHARACTER(SPACE TAB OR COMMA)
~Well Information
#_______________________________________________________________________________
#
#PARAMETER_NAME    .UNIT     VALUE                         : DESCRIPTION
#_______________________________________________________________________________
STRT               .M        0.8                           : First reference value
STOP               .M        1244.8                        : Last reference value
STEP               .M        0.1                           : Step increment
NULL               .         -9999                         : Missing value
COMP               .                                       : Company
WELL               .         8384                          : Well name
FLD                .         Узень                         : Field
LOC                .                                       : Location
CNTY               .                                       : County
STAT               .                                       : State
CTRY               .                                       : Country
SRVC               .         AO "UPGF"                     : Service Company
DATE               .         31.07.2020                    : Date
API                .                                       : API number
Block              .         6                             : 
Cartographic_reference_system .         GCS_WGS_1984                  : ESRI,PE_10_3_1- <?xml version="1.0" encoding="utf-16"?><ILateBoundCoordinateReferenceSystem name="GCS_WGS_1984"><AuthorityCode>EPSG,4326</AuthorityCode></ILateBoundCoordinateReferenceSystem>
Category           .         добывающая                    : 
Condition          .                                       : 
EREF               .м        83.697                        : 
GRP                .                                       : Group name
Gorizont           .         14                            : 
HZCS               .GCS_WGS_1984 WGS_1984_EASE-Grid_2.0_Global : ESRI,PE_10_3_1- <?xml version="1.0" encoding="utf-16"?><ILateBoundCoordinateReferenceSystem name="WGS_1984_EASE-Grid_2.0_Global"><AuthorityCode>EPSG,6933</AuthorityCode></ILateBoundCoordinateReferenceSystem>
ISS                .                                       : Well surveys
Interpretator      .         Тлеужанов А.З.                : 
Kupol              .         Основной                      : 
LATI               .dega     0.6690890312                  : GCS_WGS_1984
LONG               .dega     0.4572981763                  : GCS_WGS_1984
Mud                .         полимерный                    : 
Mud_density        .         1.34                          : 
Mud_resistivity    .         0.37                          : 
NGDU               .         НГДУ-2                        : 
TIME               .         12_19                         : LOG TIME
Viscosity          .         45                            : 
X                  .м        44123.00                      : 
Y                  .м        85356.00                      : 
YEAR               .         2020                          : 
kvartal            .         3                             : 
~Parameter Information Block
#_______________________________________________________________________________
#
#PARAMETER_NAME    .UNIT     VALUE                         : DESCRIPTION
#_______________________________________________________________________________
SET                .         LQC_KAZNIPI_Petrel            : 
SET_200            .                                       : 
SET_500            .                                       : 
SET_8384_ВИКИЗ     .                                       : 
SET_АК             .                                       : 
SET_результат      .                                       : 
STEP_200           .M        0.100                         : Depth increment
STEP_500           .M        0.100                         : Depth increment
STEP_8384_ВИКИЗ    .M        0.10                          : Depth increment
STEP_АК            .M        0.100                         : Depth increment
STEP_результат     .M        0.100                         : Depth increment
STOP_200           .M        1244.780                      : Last depth in file
STOP_500           .M        1244.500                      : Last depth in file
STOP_8384_ВИКИЗ    .M        1241.90                       : Last depth in file
STOP_АК            .M        1242.300                      : Last depth in file
STOP_результат     .M        1240.000                      : Last depth in file
STRT_200           .M        199.680                       : First depth in file
STRT_500           .M        0.800                         : First depth in file
STRT_8384_ВИКИЗ    .M        First depth in file           : 
STRT_АК            .M        874.900                       : First depth in file
STRT_результат     .M        880.000                       : First depth in file
TLFamily_CALI      .         Caliper                       : 
TLFamily_COLL      .         Net Reservoir Flag            : 
TLFamily_CSAT      .         Fluid Code                    : 
TLFamily_DT        .         Compressional Slowness        : 
TLFamily_GR        .         Russian Gamma Ray             : 
TLFamily_GZ3       .         Gradient 225                  : 
TLFamily_IK1       .         Resistivity 05                : 
TLFamily_IK2       .         Resistivity 07                : 
TLFamily_IK3       .         Resistivity 10                : 
TLFamily_IK4       .         Resistivity 14                : 
TLFamily_IK5       .         Resistivity 20                : 
TLFamily_LLS       .         Lateral Log Resistivity       : 
TLFamily_MBK       .         Micro Lateral Log Resistivity : 
TLFamily_MD        .         Measured Depth                : 
TLFamily_MINV      .         Micro Gradient Resistivity    : 
TLFamily_MNOR      .         Micro Resistivity             : 
TLFamily_NNKTb     .         Neutron Far                   : 
TLFamily_NNKTm     .         Neutron Near                  : 
TLFamily_NPHI      .         Neutron Porosity              : 
TLFamily_PHIE      .         Effective Porosity            : 
TLFamily_PHIED     .         Effective Porosity            : 
TLFamily_PHIEN     .         Effective Porosity            : 
TLFamily_PHIES     .         Effective Porosity            : 
TLFamily_PHIT      .         Porosity                      : 
TLFamily_PRMB      .         Permeability                  : 
TLFamily_PRMB_DGR  .         Permeability                  : 
TLFamily_RHOB      .         Bulk Density                  : 
TLFamily_RT        .         Formation Resistivity         : 
TLFamily_SOIL_ARCHIE .         Oil Saturation                : 
TLFamily_SOIL_DW   .         Oil Saturation                : 
TLFamily_SP        .         Spontaneous Potential         : 
TLFamily_VSH_FIN   .         Shale Volume                  : 
TLFamily_VSH_GR    .         Shale Volume                  : 
TLFamily_VSH_SP    .         Shale Volume                  : 
~Curve Information
#_______________________________________________________________________________
#
#LOGNAME           .UNIT     LOG_ID                        : DESCRIPTION
#_______________________________________________________________________________
MD                 .M                                      :  
CALI               .MM                                     : Кавернометрия 
COLL               .unitless                               : Описание 
CSAT               .unitless                               : Описание 
DT                 .мкс/м                                  : ДельтаТ - Волна по породе 
GR                 .uR/h                                   : Гамма-активность 
GZ3                .Ом·м                                   : A2.0M0.5N 
IK1                .Ohmm                                   : И0.10И0.40 
IK2                .Ohmm                                   : И0.14И0.56 
IK3                .Ohmm                                   : И0.20И0.80 
IK4                .Ohmm                                   : И0.28И1.12 
IK5                .Ohmm                                   : И0.40И1.60 
LLS                .Ом·м                                   : БК 
MBK                .Ом·м                                   : БМК 
MINV               .Ом·м                                   : Градиент-микрозонд 
MNOR               .Ом·м                                   : Потенциал-микрозонд 
NNKTb              .UE                                     : Большой зонд ННК 
NNKTm              .UE                                     : Малый зонд ННК 
NPHI               .V/V                                    : Neutron porosity index 
PHIE               .v/v                                    : Описание 
PHIED              .v/v                                    :  
PHIEN              .v/v                                    :  
PHIES              .v/v                                    :  
PHIT               .v/v                                    : Описание 
PRMB               .mD                                     :  
PRMB_DGR           .mD                                     :  
RHOB               .G/CM3                                  : ГГКП 
RT                 .ohmm                                   : Description 
SOIL_ARCHIE        .v/v                                    :  
SOIL_DW            .v/v                                    :  
SP                 .мВ                                     : ПС 
VSH_FIN            .v/v                                    : Описание 
VSH_GR             .v/v                                    : Shale volume 
VSH_SP             .v/v                                    : Shale Volume 
~Ascii
# ...
887.4      220.3      -9999      -9999      346.633    10.967     4.794      3.975      3.481      3.326      3.463      3.393      3.160639   4.471506   2.272398   2.486279   2.711      1.758      0.293      -9999      -9999      -9999      -9999      -9999      -9999      -9999      2.2688     -9999      -9999      -9999      385.291    -9999      0.8        0.8       
887.5      222.3      -9999      -9999      345.22     10.601     4.646      3.467      3.073      2.895      3.435      3.362      2.752465   4.278269   2.270754   2.372038   2.744      1.751      0.289      -9999      -9999      -9999      -9999      -9999      -9999      -9999      2.2388     -9999      -9999      -9999      385.1      -9999      0.8        0.8       
887.6      222.4      -9999      -9999      348.521    10.263     4.405      3.251      2.853      2.672      2.739      3.184      2.570642   4.000224   2.234753   2.306505   2.754      1.742      0.287      -9999      -9999      -9999      -9999      -9999      -9999      -9999      2.19488    -9999      -9999      -9999      385.337    -9999      0.8        0.8       
887.7000000000001 221.3      -9999      -9999      354.712    10.278     3.987      3.166      2.729      2.564      2.596      2.954      2.504732   3.835958   2.203996   2.261992   2.754      1.743      0.287      -9999      -9999      -9999      -9999      -9999      -9999      -9999      2.15084    -9999      -9999      -9999      385.139    -9999      0.8        0.8       
887.8      221.6      -9999      -9999      361.267    10.253     3.783      3.052      2.618      2.481      2.486      2.785      2.46015    3.778764   2.200978   2.254383   2.759      1.748      0.287      -9999      -9999      -9999      -9999      -9999      -9999      -9999      2.14236    -9999      -9999      -9999      385.638    -9999      0.8        0.8       
887.9      220.8      -9999      -9999      365.572    9.971      3.578      2.851      2.475      2.37       2.41       2.64       2.405552   3.685956   2.223196   2.268992   2.779      1.748      0.284      -9999      -9999      -9999      -9999      -9999      -9999      -9999      2.15872    -9999      -9999      -9999      386.241    -9999      0.8        0.8       
888        220.6      -9999      -9999      366.954    9.946      3.503      2.552      2.319      2.282      2.342      2.472      2.301056   3.628754   2.226776   2.246503   2.784      1.744      0.283      -9999      -9999      -9999      -9999      -9999      -9999      -9999      2.18728    -9999      -9999      -9999      387.773    -9999      0.8        0.8       
888.1      221.8      -9999      -9999      365.866    10.18      3.546      2.503      2.24       2.256      2.316      2.455      2.259126   3.535954   2.203996   2.21077    2.784      1.734      0.283      -9999      -9999      -9999      -9999      -9999      -9999      -9999      2.20668    -9999      -9999      -9999      388.991    -9999      0.8        0.8       
888.2000000000001 221.1      -9999      -9999      363.778    10.54      3.508      2.621      2.289      2.295      2.355      2.481      2.316047   3.520753   2.200978   2.241549   2.754      1.724      0.287      -9999      -9999      -9999      -9999      -9999      -9999      -9999      2.2212     -9999      -9999      -9999      390.421    -9999      0.8        0.8       
888.3      221        -9999      -9999      361.906    10.84      3.416      2.707      2.356      2.359      2.418      2.53       2.4089     3.613955   2.223196   2.277969   2.711      1.704      0.293      -9999      -9999      -9999      -9999      -9999      -9999      -9999      2.2344     -9999      -9999      -9999      391.581    -9999      0.8        0.8       
888.4      223.2      -9999      -9999      361        11.313     3.56       2.602      2.365      2.377      2.479      2.598      2.460356   3.628754   2.236978   2.303598   2.682      1.679      0.297      -9999      -9999      -9999      -9999      -9999      -9999      -9999      2.257      -9999      -9999      -9999      392.681    -9999      0.8        0.8       
888.5      222        -9999      -9999      361.65     11.896     3.605      2.564      2.381      2.405      2.543      2.675      2.497949   3.535954   2.259196   2.31       2.657      1.651      0.301      -9999      -9999      -9999      -9999      -9999      -9999      -9999      2.2844     -9999      -9999      -9999      393.411    -9999      0.8        0.8       
888.6      227.5      -9999      -9999      363.4      12.365     3.582      2.542      2.435      2.465      2.636      2.775      2.543652   3.5        2.268      2.323052   2.66       1.623      0.3        -9999      -9999      -9999      -9999      -9999      -9999      -9999      2.32328    -9999      -9999      -9999      394.742    -9999      0.8        0.8       
888.7000000000001 240.3      -9999      -9999      365.283    12.655     3.601      2.691      2.56       2.602      2.737      2.858      2.616172   3.5        2.257707   2.385129   2.641      1.604      0.303      -9999      -9999      -9999      -9999      -9999      -9999      -9999      2.36728    -9999      -9999      -9999      395.763    -9999      0.8        0.8       
888.8      235.6      -9999      -9999      366.572    12.76      3.563      2.836      2.673      2.701      2.808      2.92       2.686999   3.5        2.22277    2.414554   2.629      1.592      0.305      -9999      -9999      -9999      -9999      -9999      -9999      -9999      2.39876    -9999      -9999      -9999      397.003    -9999      0.8        0.8       
888.9      237        -9999      -9999      368.017    12.647     3.616      2.817      2.693      2.738      2.846      2.982      2.68578    3.5        2.250383   2.381992   2.611      1.584      0.307      -9999      -9999      -9999      -9999      -9999      -9999      -9999      2.41224    -9999      -9999      -9999      398.347    -9999      0.8        0.8       
889        239.1      -9999      -9999      369.161    12.653     3.642      2.771      2.683      2.76       2.875      3.029      2.6652     3.5        2.268      2.37       2.61       1.583      0.307      -9999      -9999      -9999      -9999      -9999      -9999      -9999      2.4006     -9999      -9999      -9999      398.693    -9999      0.8        0.8       
889.1      239.3      -9999      -9999      369.133    12.497     3.774      2.764      2.711      2.815      2.915      3.055      2.67494    3.5        2.268      2.374384   2.589      1.589      0.31       -9999      -9999      -9999      -9999      -9999      -9999      -9999      2.38936    -9999      -9999      -9999      398.781    -9999      0.8        0.8       
889.2000000000001 241.4      -9999      -9999      366.978    12.076     3.83       2.767      2.731      2.875      2.967      3.084      2.71737    3.520753   2.268      2.402311   2.573      1.598      0.313      -9999      -9999      -9999      -9999      -9999      -9999      -9999      2.38116    -9999      -9999      -9999      399.007    -9999      0.8        0.8       
889.3      241.2      -9999      -9999      363.311    11.985     3.912      2.819      2.78       2.947      3.035      3.101      2.759988   3.613955   2.262776   2.447191   2.551      1.603      0.316      -9999      -9999      -9999      -9999      -9999      -9999      -9999      2.38952    -9999      -9999      -9999      398.958    -9999      0.8        0.8       
889.4      236.8      -9999      -9999      359.778    11.804     4.095      2.88       2.859      3.019      3.081      3.077      2.854921   3.65       2.239996   2.464385   2.542      1.607      0.317      -9999      -9999      -9999      -9999      -9999      -9999      -9999      2.40112    -9999      -9999      -9999      398.721    -9999      0.8        0.8       
889.5      238.5      -9999      -9999      357.028    11.401     4.182      2.9        2.851      3.007      3.042      3.005      2.93079    3.628754   2.236978   2.478993   2.542      1.608      0.317      -9999      -9999      -9999      -9999      -9999      -9999      -9999      2.41396    -9999      -9999      -9999      398.039    -9999      0.8        0.8       
