~Version
 VERS              .         2.0                           : CWLS LOG ASCII STANDARD - VERSION 2.0
 WRAP              .         NO                            : ONE LINE PER DEPTH STEP
 DLM               .         SPACE                         : DELIMITING CHARACTER(SPACE TAB OR COMMA)
~Well Information
#_______________________________________________________________________________
#
#PARAMETER_NAME    .UNIT     VALUE                         : DESCRIPTION
#_______________________________________________________________________________
STRT               .M        0.8                           : First reference value
STOP               .M        1244.8                        : Last reference value
STEP               .M        0.1                           : Step increment
NULL               .         -9999                         : Missing value
COMP               .                                       : Company
WELL               .         8384                          : Well name
FLD                .         Узень                         : Field
LOC                .                                       : Location
CNTY               .                                       : County
STAT               .                                       : State
CTRY               .                                       : Country
SRVC               .         AO "UPGF"                     : Service Company
DATE               .         31.07.2020                    : Date
API                .                                       : API number
Block              .         6                             : 
Cartographic_reference_system .         GCS_WGS_1984                  : ESRI,PE_10_3_1- <?xml version="1.0" encoding="utf-16"?><ILateBoundCoordinateReferenceSystem name="GCS_WGS_1984"><AuthorityCode>EPSG,4326</AuthorityCode></ILateBoundCoordinateReferenceSystem>
Category           .         добывающая                    : 
Condition          .                                       : 
EREF               .м        83.697                        : 
GRP                .                                       : Group name
Gorizont           .         14                            : 
HZCS               .GCS_WGS_1984 WGS_1984_EASE-Grid_2.0_Global : ESRI,PE_10_3_1- <?xml version="1.0" encoding="utf-16"?><ILateBoundCoordinateReferenceSystem name="WGS_1984_EASE-Grid_2.0_Global"><AuthorityCode>EPSG,6933</AuthorityCode></ILateBoundCoordinateReferenceSystem>
ISS                .                                       : Well surveys
Interpretator      .         Тлеужанов А.З.                : 
Kupol              .         Основной                      : 
LATI               .dega     0.6690890312                  : GCS_WGS_1984
LONG               .dega     0.4572981763                  : GCS_WGS_1984
Mud                .         полимерный                    : 
Mud_density        .         1.34                          : 
Mud_resistivity    .         0.37                          : 
NGDU               .         НГДУ-2                        : 
TIME               .         12_19                         : LOG TIME
Viscosity          .         45                            : 
X                  .м        44123.00                      : 
Y                  .м        85356.00                      : 
YEAR               .         2020                          : 
kvartal            .         3                             : 
~Parameter Information Block
#_______________________________________________________________________________
#
#PARAMETER_NAME    .UNIT     VALUE                         : DESCRIPTION
#_______________________________________________________________________________
SET                .         LQC_KAZNIPI_Petrel            : 
SET_200            .                                       : 
SET_500            .                                       : 
SET_8384_ВИКИЗ     .                                       : 
SET_АК             .                                       : 
SET_результат      .                                       : 
STEP_200           .M        0.100                         : Depth increment
STEP_500           .M        0.100                         : Depth increment
STEP_8384_ВИКИЗ    .M        0.10                          : Depth increment
STEP_АК            .M        0.100                         : Depth increment
STEP_результат     .M        0.100                         : Depth increment
STOP_200           .M        1244.780                      : Last depth in file
STOP_500           .M        1244.500                      : Last depth in file
STOP_8384_ВИКИЗ    .M        1241.90                       : Last depth in file
STOP_АК            .M        1242.300                      : Last depth in file
STOP_результат     .M        1240.000                      : Last depth in file
STRT_200           .M        199.680                       : First depth in file
STRT_500           .M        0.800                         : First depth in file
STRT_8384_ВИКИЗ    .M        First depth in file           : 
STRT_АК            .M        874.900                       : First depth in file
STRT_результат     .M        880.000                       : First depth in file
TLFamily_CALI      .         Caliper                       : 
TLFamily_COLL      .         Net Reservoir Flag            : 
TLFamily_CSAT      .         Fluid Code                    : 
TLFamily_DT        .         Compressional Slowness        : 
TLFamily_GR        .         Russian Gamma Ray             : 
TLFamily_GZ3       .         Gradient 225                  : 
TLFamily_IK1       .         Resistivity 05                : 
TLFamily_IK2       .         Resistivity 07                : 
TLFamily_IK3       .         Resistivity 10                : 
TLFamily_IK4       .         Resistivity 14                : 
TLFamily_IK5       .         Resistivity 20                : 
TLFamily_LLS       .         Lateral Log Resistivity       : 
TLFamily_MBK       .         Micro Lateral Log Resistivity : 
TLFamily_MD        .         Measured Depth                : 
TLFamily_MINV      .         Micro Gradient Resistivity    : 
TLFamily_MNOR      .         Micro Resistivity             : 
TLFamily_NNKTb     .         Neutron Far                   : 
TLFamily_NNKTm     .         Neutron Near                  : 
TLFamily_NPHI      .         Neutron Porosity              : 
TLFamily_PHIE      .         Effective Porosity            : 
TLFamily_PHIED     .         Effective Porosity            : 
TLFamily_PHIEN     .         Effective Porosity            : 
TLFamily_PHIES     .         Effective Porosity            : 
TLFamily_PHIT      .         Porosity                      : 
TLFamily_PRMB      .         Permeability                  : 
TLFamily_PRMB_DGR  .         Permeability                  : 
TLFamily_RHOB      .         Bulk Density                  : 
TLFamily_RT        .         Formation Resistivity         : 
TLFamily_SOIL_ARCHIE .         Oil Saturation                : 
TLFamily_SOIL_DW   .         Oil Saturation                : 
TLFamily_SP        .         Spontaneous Potential         : 
TLFamily_VSH_FIN   .         Shale Volume                  : 
TLFamily_VSH_GR    .         Shale Volume                  : 
TLFamily_VSH_SP    .         Shale Volume                  : 
~Curve Information
#_______________________________________________________________________________
#
#LOGNAME           .UNIT     LOG_ID                        : DESCRIPTION
#_______________________________________________________________________________
MD                 .M                                      :  
CALI               .MM                                     : Кавернометрия 
COLL               .unitless                               : Описание 
CSAT               .unitless                               : Описание 
DT                 .мкс/м                                  : ДельтаТ - Волна по породе 
GR                 .uR/h                                   : Гамма-активность 
GZ3                .Ом·м                                   : A2.0M0.5N 
IK1                .Ohmm                                   : И0.10И0.40 
IK2                .Ohmm                                   : И0.14И0.56 
IK3                .Ohmm                                   : И0.20И0.80 
IK4                .Ohmm                                   : И0.28И1.12 
IK5                .Ohmm                                   : И0.40И1.60 
LLS                .Ом·м                                   : БК 
MBK                .Ом·м                                   : БМК 
MINV               .Ом·м                                   : Градиент-микрозонд 
MNOR               .Ом·м                                   : Потенциал-микрозонд 
NNKTb              .UE                                     : Большой зонд ННК 
NNKTm              .UE                                     : Малый зонд ННК 
NPHI               .V/V                                    : Neutron porosity index 
PHIE               .v/v                                    : Описание 
PHIED              .v/v                                    :  
PHIEN              .v/v                                    :  
PHIES              .v/v                                    :  
PHIT               .v/v                                    : Описание 
PRMB               .mD                                     :  
PRMB_DGR           .mD                                     :  
RHOB               .G/CM3                                  : ГГКП 
RT                 .ohmm                                   : Description 
SOIL_ARCHIE        .v/v                                    :  
SOIL_DW            .v/v                                    :  
SP                 .мВ                                     : ПС 
VSH_FIN            .v/v                                    : Описание 
VSH_GR             .v/v                                    : Shale volume 
VSH_SP             .v/v                                    : Shale Volume 
~Ascii
# ...
1164.6     218.7      1          5          308.71     8.961      3.365      3.881      2.985      2.224      1.829      1.661      2.902217   4.741017   2.634751   2.999181   2.579      1.671      0.312      0.2082847  0.192479   0.2304394  0.2019358  0.2613015  20.18814   11.75791   2.34856    1.661      0.3089334  0.3966843  311.531    0.2471534  0.2371715  0.2571353 
1164.7     222.5      1          5          298.168    9.193      3.096      3.488      2.697      2.035      1.679      1.592      2.495571   4.289495   2.528271   2.656362   2.494      1.635      0.325      0.1970369  0.1731497  0.2361001  0.1818608  0.2548245  12.49565   9.576641   2.38084    1.592      0.260113   0.3599687  314.207    0.2693937  0.2579004  0.2808869 
1164.8     220.9      1          5          290.597    9.502      3.001      2.589      2.199      1.735      1.528      1.509      1.945509   3.793133   2.356866   2.245272   2.397      1.593      0.34       0.1875307  0.1562395  0.2425814  0.1637713  0.2508557  8.330711   7.283234   2.40908    1.509      0.2078976  0.3227274  316.354    0.2952079  0.2884021  0.3020137 
1164.9     232.1      1          5          292.138    9.861      2.902      1.917      1.734      1.484      1.394      1.443      1.654591   3.159079   2.131705   1.839133   2.306      1.545      0.355      0.1874692  0.158994   0.2473174  0.1560962  0.2574661  8.308874   5.297897   2.40448    1.443      0.1908669  0.317772   318.429    0.326311   0.3284267  0.3241953 
1165       249.7      -9999      -9999      307.005    10.168     2.837      1.527      1.496      1.367      1.331      1.403      1.52524    2.532844   1.792099   1.706472   2.231      1.499      0.367      0.2014422  0.1883593  0.2498769  0.1660903  0.2775757  15.07842   4.03634    2.35544    1.403      0.2298817  0.3573576  320.041    0.3549185  0.3670026  0.3428344 
1165.1     261.9      -9999      -9999      332.014    10.551     2.783      1.339      1.423      1.362      1.352      1.41       1.461198   1.770695   1.63149    1.683772   2.179      1.471      0.368      0.1905572  0.152747   0.2374872  0.1814374  0.2753944  9.478501   2.874008   2.26858    1.41       0.1935918  0.341051   322.208    0.3954934  0.4215977  0.3693891 
1165.2     265.9      -9999      -9999      360.011    10.759     2.872      1.316      1.461      1.439      1.422      1.452      1.4662     1.456806   1.606793   1.781516   2.159      1.463      0.368      0.2114546  0.2051217  0.2290372  0.2002048  0.3017845  23.11052   2.391387   2.17164    1.452      0.2735376  0.4104842  323.59     0.4210995  0.4544632  0.3877358 
1165.3     279.3      -9999      -9999      382.29     10.905     2.962      1.313      1.503      1.528      1.511      1.525      1.476477   1.570959   1.675277   1.892251   2.15       1.47       0.368      0.2240712  0.2357657  0.223236   0.213212   0.3181722  39.58229   2.102729   2.11396    1.525      0.3250132  0.4555336  324.332    0.4386789  0.4789729  0.3983849 
1165.4     305        -9999      -9999      389.493    10.744     3.015      1.329      1.595      1.634      1.634      1.61       1.561107   1.981506   1.775302   2.066561   2.144      1.481      0.368      0.2268115  0.2315183  0.2267917  0.2221244  0.318601   44.48942   2.430051   2.12504    1.61       0.3489061  0.4731677  324.705    0.4279039  0.4514966  0.4043111 
1165.5     286.7      -9999      -9999      380.826    10.892     3.302      1.501      1.789      1.822      1.721      1.653      1.78147    2.659815   1.969954   2.4257     2.125      1.49       0.368      0.2102566  0.1969734  0.2224661  0.2113302  0.3048579  21.95938   2.132926   2.17788    1.653      0.3130269  0.4494904  324.748    0.4410117  0.4761923  0.4058312 
1165.6     242.3      -9999      -9999      362.701    11.19      3.464      1.644      1.87       1.82       1.731      1.645      1.834907   3.298656   2.239563   2.76011    2.105      1.486      0.368      0.1888778  0.165541   0.2133935  0.1876987  0.2893766  8.823328   1.6381     2.2202     1.645      0.2440594  0.4053961  324.737    0.4685045  0.5303857  0.4066233 
1165.7     248.4      -9999      -9999      349.83     11.056     3.428      1.475      1.612      1.671      1.65       1.598      1.699397   3.385952   2.316835   2.779127   2.087      1.46       0.368      0.1933461  0.1824586  0.2175431  0.1800365  0.2911475  10.6757    1.848132   2.1966     1.598      0.2491535  0.4045873  324.693    0.4559301  0.5048915  0.4069687 
1165.8     255.3      -9999      -9999      353.306    11.07      3.264      1.33       1.454      1.505      1.494      1.498      1.701122   3.237722   2.033402   2.578472   2.067      1.422      0.368      0.2112733  0.2330931  0.2175071  0.1832197  0.3090982  22.93255   1.827694   2.112      1.498      0.2835577  0.4275368  324.47     0.4560391  0.5071894  0.4048888 
1165.9     249.3      -9999      -9999      370.534    10.831     2.993      1.251      1.322      1.342      1.385      1.419      1.688471   2.655941   1.813255   2.141794   2.052      1.397      0.368      0.2439151  0.3007857  0.2252902  0.2056694  0.3366807  92.26928   2.264088   2.00768    1.419      0.351544   0.4727942  324.05     0.432454   0.4647285  0.4001794 
1166       233.6      -9999      -9999      383.47     10.738     2.582      1.084      1.182      1.226      1.317      1.375      1.48869    1.979627   1.68497    1.840972   2.062      1.397      0.368      0.2621403  0.3402732  0.2277377  0.2184099  0.3533149  200.7391   2.46283    1.94448    1.375      0.3819219  0.4946621  324.045    0.4250372  0.4490331  0.4010413 
1166.1     253.5      -9999      -9999      374.539    10.844     2.098      0.992      1.122      1.209      1.315      1.384      1.396065   1.663327   1.617613   1.741516   2.107      1.421      0.368      0.2551814  0.3332829  0.2242648  0.2079966  0.3486136  149.1892   2.244056   1.95226    1.384      0.3692017  0.4866436  324.248    0.4355611  0.4664181  0.4047041 
1166.2     276.6      -9999      -9999      347.898    10.977     1.717      1.073      1.24       1.302      1.416      1.458      1.540852   1.777643   1.569799   1.789396   2.185      1.457      0.368      0.2308418  0.2905049  0.2207516  0.1812689  0.3265576  52.8333    1.996151   2.01976    1.458      0.3282746  0.4583016  324.064    0.4462073  0.4892548  0.4031599 
1166.3     289.1      -9999      -9999      319.033    11.231     1.52       1.235      1.407      1.478      1.544      1.54       1.810346   1.890213   1.580135   1.851538   2.231      1.482      0.367      0.1957394  0.2312315  0.2119149  0.1440718  0.2965493  11.82297   1.592161   2.10996    1.54       0.2441558  0.4030495  324.007    0.4699548  0.5365821  0.4033274 
1166.4     278.1      -9999      -9999      298.333    11.409     1.456      1.393      1.52       1.573      1.626      1.614      1.708552   2.116782   1.635512   1.887962   2.218      1.493      0.37       0.1687483  0.18456    0.2085454  0.1131396  0.2736987  3.73927    1.358829   2.18076    1.614      0.1586234  0.3505398  324.14     0.4892564  0.5724513  0.4060614 
1166.5     272.4      -9999      -9999      287.653    11.432     1.499      1.385      1.481      1.554      1.625      1.639      1.678375   2.377731   1.756669   1.917963   2.149      1.492      0.368      0.1584013  0.1721092  0.2053388  0.09775596 0.264136   2.40511    1.331288   2.2002     1.639      0.1173423  0.3247196  324.255    0.4929128  0.5772577  0.4085679 
1166.6     279.7      -9999      -9999      288.314    11.226     1.516      1.322      1.426      1.507      1.575      1.598      1.644514   2.42863    1.8        1.95229    2.092      1.482      0.368      0.1685475  0.1857293  0.2134957  0.1064175  0.2689799  3.707371   1.599264   2.1866     1.598      0.1538032  0.3401633  323.609    0.468195   0.5356076  0.4007824 
1166.7     278.3      -9999      -9999      300.801    10.83      1.54       1.355      1.431      1.472      1.517      1.533      1.563264   2.268122   1.79477    2.001543   2.081      1.472      0.368      0.1880097  0.2057114  0.2247428  0.133575   0.2811312  8.502649   2.275254   2.16584    1.533      0.2154862  0.3722369  323.811    0.4341128  0.463796   0.4044297 
