~Version
 VERS              .         2.0                           : CWLS LOG ASCII STANDARD - VERSION 2.0
 WRAP              .         NO                            : ONE LINE PER DEPTH STEP
 DLM               .         SPACE                         : DELIMITING CHARACTER(SPACE TAB OR COMMA)
~Well Information
#_______________________________________________________________________________
#
#PARAMETER_NAME    .UNIT     VALUE                         : DESCRIPTION
#_______________________________________________________________________________
STRT               .M        0.8                           : First reference value
STOP               .M        1244.8                        : Last reference value
STEP               .M        0.1                           : Step increment
NULL               .         -9999                         : Missing value
COMP               .                                       : Company
WELL               .         8384                          : Well name
FLD                .         Узень                         : Field
LOC                .                                       : Location
CNTY               .                                       : County
STAT               .                                       : State
CTRY               .                                       : Country
SRVC               .         AO "UPGF"                     : Service Company
DATE               .         31.07.2020                    : Date
API                .                                       : API number
Block              .         6                             : 
Cartographic_reference_system .         GCS_WGS_1984                  : ESRI,PE_10_3_1- <?xml version="1.0" encoding="utf-16"?><ILateBoundCoordinateReferenceSystem name="GCS_WGS_1984"><AuthorityCode>EPSG,4326</AuthorityCode></ILateBoundCoordinateReferenceSystem>
Category           .         добывающая                    : 
Condition          .                                       : 
EREF               .м        83.697                        : 
GRP                .                                       : Group name
Gorizont           .         14                            : 
HZCS               .GCS_WGS_1984 WGS_1984_EASE-Grid_2.0_Global : ESRI,PE_10_3_1- <?xml version="1.0" encoding="utf-16"?><ILateBoundCoordinateReferenceSystem name="WGS_1984_EASE-Grid_2.0_Global"><AuthorityCode>EPSG,6933</AuthorityCode></ILateBoundCoordinateReferenceSystem>
ISS                .                                       : Well surveys
Interpretator      .         Тлеужанов А.З.                : 
Kupol              .         Основной                      : 
LATI               .dega     0.6690890312                  : GCS_WGS_1984
LONG               .dega     0.4572981763                  : GCS_WGS_1984
Mud                .         полимерный                    : 
Mud_density        .         1.34                          : 
Mud_resistivity    .         0.37                          : 
NGDU               .         НГДУ-2                        : 
TIME               .         12_19                         : LOG TIME
Viscosity          .         45                            : 
X                  .м        44123.00                      : 
Y                  .м        85356.00                      : 
YEAR               .         2020                          : 
kvartal            .         3                             : 
~Parameter Information Block
#_______________________________________________________________________________
#
#PARAMETER_NAME    .UNIT     VALUE                         : DESCRIPTION
#_______________________________________________________________________________
SET                .         LQC_KAZNIPI_Petrel            : 
SET_200            .                                       : 
SET_500            .                                       : 
SET_8384_ВИКИЗ     .                                       : 
SET_АК             .                                       : 
SET_результат      .                                       : 
STEP_200           .M        0.100                         : Depth increment
STEP_500           .M        0.100                         : Depth increment
STEP_8384_ВИКИЗ    .M        0.10                          : Depth increment
STEP_АК            .M        0.100                         : Depth increment
STEP_результат     .M        0.100                         : Depth increment
STOP_200           .M        1244.780                      : Last depth in file
STOP_500           .M        1244.500                      : Last depth in file
STOP_8384_ВИКИЗ    .M        1241.90                       : Last depth in file
STOP_АК            .M        1242.300                      : Last depth in file
STOP_результат     .M        1240.000                      : Last depth in file
STRT_200           .M        199.680                       : First depth in file
STRT_500           .M        0.800                         : First depth in file
STRT_8384_ВИКИЗ    .M        First depth in file           : 
STRT_АК            .M        874.900                       : First depth in file
STRT_результат     .M        880.000                       : First depth in file
TLFamily_CALI      .         Caliper                       : 
TLFamily_COLL      .         Net Reservoir Flag            : 
TLFamily_CSAT      .         Fluid Code                    : 
TLFamily_DT        .         Compressional Slowness        : 
TLFamily_GR        .         Russian Gamma Ray             : 
TLFamily_GZ3       .         Gradient 225                  : 
TLFamily_IK1       .         Resistivity 05                : 
TLFamily_IK2       .         Resistivity 07                : 
TLFamily_IK3       .         Resistivity 10                : 
TLFamily_IK4       .         Resistivity 14                : 
TLFamily_IK5       .         Resistivity 20                : 
TLFamily_LLS       .         Lateral Log Resistivity       : 
TLFamily_MBK       .         Micro Lateral Log Resistivity : 
TLFamily_MD        .         Measured Depth                : 
TLFamily_MINV      .         Micro Gradient Resistivity    : 
TLFamily_MNOR      .         Micro Resistivity             : 
TLFamily_NNKTb     .         Neutron Far                   : 
TLFamily_NNKTm     .         Neutron Near                  : 
TLFamily_NPHI      .         Neutron Porosity              : 
TLFamily_PHIE      .         Effective Porosity            : 
TLFamily_PHIED     .         Effective Porosity            : 
TLFamily_PHIEN     .         Effective Porosity            : 
TLFamily_PHIES     .         Effective Porosity            : 
TLFamily_PHIT      .         Porosity                      : 
TLFamily_PRMB      .         Permeability                  : 
TLFamily_PRMB_DGR  .         Permeability                  : 
TLFamily_RHOB      .         Bulk Density                  : 
TLFamily_RT        .         Formation Resistivity         : 
TLFamily_SOIL_ARCHIE .         Oil Saturation                : 
TLFamily_SOIL_DW   .         Oil Saturation                : 
TLFamily_SP        .         Spontaneous Potential         : 
TLFamily_VSH_FIN   .         Shale Volume                  : 
TLFamily_VSH_GR    .         Shale Volume                  : 
TLFamily_VSH_SP    .         Shale Volume                  : 
~Curve Information
#_______________________________________________________________________________
#
#LOGNAME           .UNIT     LOG_ID                        : DESCRIPTION
#_______________________________________________________________________________
MD                 .M                                      :  
CALI               .MM                                     : Кавернометрия 
COLL               .unitless                               : Описание 
CSAT               .unitless                               : Описание 
DT                 .мкс/м                                  : ДельтаТ - Волна по породе 
GR                 .uR/h                                   : Гамма-активность 
GZ3                .Ом·м                                   : A2.0M0.5N 
IK1                .Ohmm                                   : И0.10И0.40 
IK2                .Ohmm                                   : И0.14И0.56 
IK3                .Ohmm                                   : И0.20И0.80 
IK4                .Ohmm                                   : И0.28И1.12 
IK5                .Ohmm                                   : И0.40И1.60 
LLS                .Ом·м                                   : БК 
MBK                .Ом·м                                   : БМК 
MINV               .Ом·м                                   : Градиент-микрозонд 
MNOR               .Ом·м                                   : Потенциал-микрозонд 
NNKTb              .UE                                     : Большой зонд ННК 
NNKTm              .UE                                     : Малый зонд ННК 
NPHI               .V/V                                    : Neutron porosity index 
PHIE               .v/v                                    : Описание 
PHIED              .v/v                                    :  
PHIEN              .v/v                                    :  
PHIES              .v/v                                    :  
PHIT               .v/v                                    : Описание 
PRMB               .mD                                     :  
PRMB_DGR           .mD                                     :  
RHOB               .G/CM3                                  : ГГКП 
RT                 .ohmm                                   : Description 
SOIL_ARCHIE        .v/v                                    :  
SOIL_DW            .v/v                                    :  
SP                 .мВ                                     : ПС 
VSH_FIN            .v/v                                    : Описание 
VSH_GR             .v/v                                    : Shale volume 
VSH_SP             .v/v                                    : Shale Volume 
~Ascii
# ...
863.2000000000001 222.2      -9999      -9999      -9999      10.395     3.355      1.863      2.032      2.242      2.422      2.506      2.4498     3.178719   2.236978   1.89       1.972      1.449      -9999      -9999      -9999      -9999      -9999      -9999      -9999      -9999      -9999      -9999      -9999      -9999      406.715    -9999      0.8        0.8       
863.3      221.5      -9999      -9999      -9999      10.379     3.417      1.918      2.065      2.26       2.42       2.501      2.447999   3.106908   2.253992   1.89438    1.988      1.445      -9999      -9999      -9999      -9999      -9999      -9999      -9999      -9999      -9999      -9999      -9999      -9999      406.564    -9999      0.8        0.8       
863.4      224.1      -9999      -9999      -9999      10.314     3.495      1.864      2.047      2.25       2.413      2.503      2.444999   3.142908   2.229665   1.904542   1.976      1.446      -9999      -9999      -9999      -9999      -9999      -9999      -9999      -9999      -9999      -9999      -9999      -9999      406.166    -9999      0.8        0.8       
863.5      223.6      -9999      -9999      -9999      10.234     3.6        1.851      2.037      2.243      2.411      2.503      2.450598   3.106908   2.181799   1.880765   1.944      1.449      -9999      -9999      -9999      -9999      -9999      -9999      -9999      -9999      -9999      -9999      -9999      -9999      405.928    -9999      0.8        0.8       
863.6      222.9      -9999      -9999      -9999      10.294     3.59       1.838      2.022      2.234      2.405      2.492      2.452383   3.184445   2.187196   1.915852   1.898      1.455      -9999      -9999      -9999      -9999      -9999      -9999      -9999      -9999      -9999      -9999      -9999      -9999      405.416    -9999      0.8        0.8       
863.7000000000001 226.1      -9999      -9999      -9999      10.263     3.414      1.775      1.991      2.213      2.398      2.481      2.4346     3.313952   2.185704   1.962598   1.857      1.461      -9999      -9999      -9999      -9999      -9999      -9999      -9999      -9999      -9999      -9999      -9999      -9999      404.547    -9999      0.8        0.8       
863.8      226        -9999      -9999      -9999      10.611     3.413      1.826      2.02       2.224      2.396      2.474      2.430768   3.35       2.135517   1.950963   1.857      1.469      -9999      -9999      -9999      -9999      -9999      -9999      -9999      -9999      -9999      -9999      -9999      -9999      403.954    -9999      0.8        0.8       
863.9      226.7      -9999      -9999      -9999      10.72      3.41       1.844      2.024      2.233      2.4        2.478      2.406      3.328732   2.095996   1.925598   1.874      1.475      -9999      -9999      -9999      -9999      -9999      -9999      -9999      -9999      -9999      -9999      -9999      -9999      403.41     -9999      0.8        0.8       
864        229.6      -9999      -9999      -9999      10.478     3.298      1.857      2.034      2.242      2.41       2.485      2.406      3.256912   2.092976   1.92438    1.921      1.481      -9999      -9999      -9999      -9999      -9999      -9999      -9999      -9999      -9999      -9999      -9999      -9999      403.289    -9999      0.8        0.8       
864.1      237        -9999      -9999      -9999      10.283     3.289      1.84       2.036      2.245      2.416      2.495      2.403595   3.292912   2.120151   1.947963   1.976      1.485      -9999      -9999      -9999      -9999      -9999      -9999      -9999      -9999      -9999      -9999      -9999      -9999      403.336    -9999      0.8        0.8       
864.2000000000001 243        -9999      -9999      -9999      10.401     3.435      1.866      2.047      2.263      2.432      2.508      2.397589   3.256912   2.145992   1.973598   2.035      1.488      -9999      -9999      -9999      -9999      -9999      -9999      -9999      -9999      -9999      -9999      -9999      -9999      403.514    -9999      0.8        0.8       
864.3      246        -9999      -9999      -9999      10.419     3.448      1.932      2.091      2.31       2.463      2.526      2.419947   3.292912   2.126751   1.984381   2.095      1.49       -9999      -9999      -9999      -9999      -9999      -9999      -9999      -9999      -9999      -9999      -9999      -9999      404.022    -9999      0.8        0.8       
864.4      238.4      -9999      -9999      -9999      10.167     3.436      2.029      2.143      2.336      2.486      2.537      2.461132   3.235949   2.100991   1.998991   2.151      1.489      -9999      -9999      -9999      -9999      -9999      -9999      -9999      -9999      -9999      -9999      -9999      -9999      404.09     -9999      0.8        0.8       
864.5      231.6      -9999      -9999      -9999      10.374     3.502      1.985      2.122      2.326      2.481      2.542      2.486291   3.2        2.120151   1.989991   2.204      1.485      -9999      -9999      -9999      -9999      -9999      -9999      -9999      -9999      -9999      -9999      -9999      -9999      403.972    -9999      0.8        0.8       
864.6      225.1      -9999      -9999      -9999      10.582     3.522      1.899      2.057      2.27       2.451      2.546      2.440799   3.178719   2.156152   1.994545   2.219      1.481      -9999      -9999      -9999      -9999      -9999      -9999      -9999      -9999      -9999      -9999      -9999      -9999      403.876    -9999      0.8        0.8       
864.7000000000001 226.9      -9999      -9999      -9999      10.67      3.374      1.872      2.034      2.26       2.435      2.531      2.451553   3.106908   2.181992   1.961991   2.201      1.48       -9999      -9999      -9999      -9999      -9999      -9999      -9999      -9999      -9999      -9999      -9999      -9999      403.959    -9999      0.8        0.8       
864.8      227.3      -9999      -9999      -9999      10.594     3.428      1.928      2.074      2.279      2.439      2.528      2.479595   3.163949   2.152521   1.945378   2.163      1.483      -9999      -9999      -9999      -9999      -9999      -9999      -9999      -9999      -9999      -9999      -9999      -9999      404.297    -9999      0.8        0.8       
864.9      227.9      -9999      -9999      -9999      10.585     3.413      1.966      2.089      2.293      2.454      2.528      2.471997   3.2        2.07756    1.934344   2.123      1.49       -9999      -9999      -9999      -9999      -9999      -9999      -9999      -9999      -9999      -9999      -9999      -9999      404.803    -9999      0.8        0.8       
865        227        -9999      -9999      -9999      10.464     3.364      1.959      2.086      2.291      2.451      2.53       2.475383   3.2        2.03657    1.980133   2.116      1.496      -9999      -9999      -9999      -9999      -9999      -9999      -9999      -9999      -9999      -9999      -9999      -9999      404.915    -9999      0.8        0.8       
865.1      228.4      -9999      -9999      -9999      10.399     3.286      1.938      2.071      2.273      2.439      2.524      2.459395   3.178719   1.969558   2.0462     2.138      1.496      -9999      -9999      -9999      -9999      -9999      -9999      -9999      -9999      -9999      -9999      -9999      -9999      405.234    -9999      0.8        0.8       
865.2000000000001 223.6      -9999      -9999      -9999      10.334     3.279      1.947      2.064      2.257      2.422      2.513      2.466595   3.085947   1.953899   2.040964   2.176      1.491      -9999      -9999      -9999      -9999      -9999      -9999      -9999      -9999      -9999      -9999      -9999      -9999      405.738    -9999      0.8        0.8       
865.3      226.1      -9999      -9999      -9999      10.193     3.378      1.977      2.072      2.248      2.405      2.497      2.459594   3.070717   1.998381   2.019991   2.187      1.482      -9999      -9999      -9999      -9999      -9999      -9999      -9999      -9999      -9999      -9999      -9999      -9999      405.924    -9999      0.8        0.8       
