~Version
 VERS              .         2.0                           : CWLS LOG ASCII STANDARD - VERSION 2.0
 WRAP              .         NO                            : ONE LINE PER DEPTH STEP
 DLM               .         SPACE                         : DELIMITING CHARACTER(SPACE TAB OR COMMA)
~Well Information
#_______________________________________________________________________________
#
#PARAMETER_NAME    .UNIT     VALUE                         : DESCRIPTION
#_______________________________________________________________________________
STRT               .M        0.8                           : First reference value
STOP               .M        1244.8                        : Last reference value
STEP               .M        0.1                           : Step increment
NULL               .         -9999                         : Missing value
COMP               .                                       : Company
WELL               .         8384                          : Well name
FLD                .         Узень                         : Field
LOC                .                                       : Location
CNTY               .                                       : County
STAT               .                                       : State
CTRY               .                                       : Country
SRVC               .         AO "UPGF"                     : Service Company
DATE               .         31.07.2020                    : Date
API                .                                       : API number
Block              .         6                             : 
Cartographic_reference_system .         GCS_WGS_1984                  : ESRI,PE_10_3_1- <?xml version="1.0" encoding="utf-16"?><ILateBoundCoordinateReferenceSystem name="GCS_WGS_1984"><AuthorityCode>EPSG,4326</AuthorityCode></ILateBoundCoordinateReferenceSystem>
Category           .         добывающая                    : 
Condition          .                                       : 
EREF               .м        83.697                        : 
GRP                .                                       : Group name
Gorizont           .         14                            : 
HZCS               .GCS_WGS_1984 WGS_1984_EASE-Grid_2.0_Global : ESRI,PE_10_3_1- <?xml version="1.0" encoding="utf-16"?><ILateBoundCoordinateReferenceSystem name="WGS_1984_EASE-Grid_2.0_Global"><AuthorityCode>EPSG,6933</AuthorityCode></ILateBoundCoordinateReferenceSystem>
ISS                .                                       : Well surveys
Interpretator      .         Тлеужанов А.З.                : 
Kupol              .         Основной                      : 
LATI               .dega     0.6690890312                  : GCS_WGS_1984
LONG               .dega     0.4572981763                  : GCS_WGS_1984
Mud                .         полимерный                    : 
Mud_density        .         1.34                          : 
Mud_resistivity    .         0.37                          : 
NGDU               .         НГДУ-2                        : 
TIME               .         12_19                         : LOG TIME
Viscosity          .         45                            : 
X                  .м        44123.00                      : 
Y                  .м        85356.00                      : 
YEAR               .         2020                          : 
kvartal            .         3                             : 
~Parameter Information Block
#_______________________________________________________________________________
#
#PARAMETER_NAME    .UNIT     VALUE                         : DESCRIPTION
#_______________________________________________________________________________
SET                .         LQC_KAZNIPI_Petrel            : 
SET_200            .                                       : 
SET_500            .                                       : 
SET_8384_ВИКИЗ     .                                       : 
SET_АК             .                                       : 
SET_результат      .                                       : 
STEP_200           .M        0.100                         : Depth increment
STEP_500           .M        0.100                         : Depth increment
STEP_8384_ВИКИЗ    .M        0.10                          : Depth increment
STEP_АК            .M        0.100                         : Depth increment
STEP_результат     .M        0.100                         : Depth increment
STOP_200           .M        1244.780                      : Last depth in file
STOP_500           .M        1244.500                      : Last depth in file
STOP_8384_ВИКИЗ    .M        1241.90                       : Last depth in file
STOP_АК            .M        1242.300                      : Last depth in file
STOP_результат     .M        1240.000                      : Last depth in file
STRT_200           .M        199.680                       : First depth in file
STRT_500           .M        0.800                         : First depth in file
STRT_8384_ВИКИЗ    .M        First depth in file           : 
STRT_АК            .M        874.900                       : First depth in file
STRT_результат     .M        880.000                       : First depth in file
TLFamily_CALI      .         Caliper                       : 
TLFamily_COLL      .         Net Reservoir Flag            : 
TLFamily_CSAT      .         Fluid Code                    : 
TLFamily_DT        .         Compressional Slowness        : 
TLFamily_GR        .         Russian Gamma Ray             : 
TLFamily_GZ3       .         Gradient 225                  : 
TLFamily_IK1       .         Resistivity 05                : 
TLFamily_IK2       .         Resistivity 07                : 
TLFamily_IK3       .         Resistivity 10                : 
TLFamily_IK4       .         Resistivity 14                : 
TLFamily_IK5       .         Resistivity 20                : 
TLFamily_LLS       .         Lateral Log Resistivity       : 
TLFamily_MBK       .         Micro Lateral Log Resistivity : 
TLFamily_MD        .         Measured Depth                : 
TLFamily_MINV      .         Micro Gradient Resistivity    : 
TLFamily_MNOR      .         Micro Resistivity             : 
TLFamily_NNKTb     .         Neutron Far                   : 
TLFamily_NNKTm     .         Neutron Near                  : 
TLFamily_NPHI      .         Neutron Porosity              : 
TLFamily_PHIE      .         Effective Porosity            : 
TLFamily_PHIED     .         Effective Porosity            : 
TLFamily_PHIEN     .         Effective Porosity            : 
TLFamily_PHIES     .         Effective Porosity            : 
TLFamily_PHIT      .         Porosity                      : 
TLFamily_PRMB      .         Permeability                  : 
TLFamily_PRMB_DGR  .         Permeability                  : 
TLFamily_RHOB      .         Bulk Density                  : 
TLFamily_RT        .         Formation Resistivity         : 
TLFamily_SOIL_ARCHIE .         Oil Saturation                : 
TLFamily_SOIL_DW   .         Oil Saturation                : 
TLFamily_SP        .         Spontaneous Potential         : 
TLFamily_VSH_FIN   .         Shale Volume                  : 
TLFamily_VSH_GR    .         Shale Volume                  : 
TLFamily_VSH_SP    .         Shale Volume                  : 
~Curve Information
#_______________________________________________________________________________
#
#LOGNAME           .UNIT     LOG_ID                        : DESCRIPTION
#_______________________________________________________________________________
MD                 .M                                      :  
CALI               .MM                                     : Кавернометрия 
COLL               .unitless                               : Описание 
CSAT               .unitless                               : Описание 
DT                 .мкс/м                                  : ДельтаТ - Волна по породе 
GR                 .uR/h                                   : Гамма-активность 
GZ3                .Ом·м                                   : A2.0M0.5N 
IK1                .Ohmm                                   : И0.10И0.40 
IK2                .Ohmm                                   : И0.14И0.56 
IK3                .Ohmm                                   : И0.20И0.80 
IK4                .Ohmm                                   : И0.28И1.12 
IK5                .Ohmm                                   : И0.40И1.60 
LLS                .Ом·м                                   : БК 
MBK                .Ом·м                                   : БМК 
MINV               .Ом·м                                   : Градиент-микрозонд 
MNOR               .Ом·м                                   : Потенциал-микрозонд 
NNKTb              .UE                                     : Большой зонд ННК 
NNKTm              .UE                                     : Малый зонд ННК 
NPHI               .V/V                                    : Neutron porosity index 
PHIE               .v/v                                    : Описание 
PHIED              .v/v                                    :  
PHIEN              .v/v                                    :  
PHIES              .v/v                                    :  
PHIT               .v/v                                    : Описание 
PRMB               .mD                                     :  
PRMB_DGR           .mD                                     :  
RHOB               .G/CM3                                  : ГГКП 
RT                 .ohmm                                   : Description 
SOIL_ARCHIE        .v/v                                    :  
SOIL_DW            .v/v                                    :  
SP                 .мВ                                     : ПС 
VSH_FIN            .v/v                                    : Описание 
VSH_GR             .v/v                                    : Shale volume 
VSH_SP             .v/v                                    : Shale Volume 
~Ascii
# ...
913.8      226.4      -9999      -9999      221.757    6.963      7.178      4.738      4.874      5.651      6.44       6.831      5.828128   5.377881   2.882764   3.667323   7.285      2.556      0.166      0.04483281 0.0597605  0.0563104  0.02990512 0.09694026 0.01894831 2.524149   2.5702     6.831      0          0.002935461 375.648    0.3323927  0.4445465  0.220239  
913.9      227.1      -9999      -9999      215.184    6.914      7.398      4.205      4.927      5.836      6.959      7.241      5.630333   5.491367   2.826266   3.605378   7.396      2.587      0.166      0.03062    0.05063478 0.05258248 0.01060523 0.08449838 0.0103351  2.094163   2.58544    7.241      0          0          373.686    0.3436894  0.4797719  0.207607  
914        226.2      -9999      -9999      208.098    6.483      7.445001   7.854      7.572999   7.854      8.502      8.169      9.501988   5.777978   2.751561   3.784875   7.502      2.607      0.166      0.01719759 0.03439519 0.05794973 0          0.06732711 0.005830411 2.441196   2.61256    8.169      0          0          373.154    0.327425   0.4506538  0.2041963 
914.1      225.6      -9999      -9999      200.725    5.7        7.813001   8.582      9.287      10.236     10.116     9.016      15.35384   6.319368   2.8894     4.071197   7.569      2.612      0.166      0.01148504 0.02297009 0.07691646 0          0.05151806 0.004569713 4.89191    2.63164    9.016      0          0          372.574    0.2699501  0.3392948  0.2006054 
914.2000000000001 225.9      -9999      -9999      196.401    4.869      7.969      7.873001   9.026001   10.631     10.948     9.933001   15.88458   6.5        2.862798   4.069344   7.533      2.597      0.166      0.01148504 0.02297009 0.09178899 0          0.04524416 0.004569713 10.23088   2.63164    9.933001   0          0          372.284    0.2248818  0.2510343  0.1987294 
914.3      225.3      -9999      -9999      199.675    4.474      8.294      7.903      8.774999   10.837     10.964     10.4       14.45537   6.5        2.76157    4.020982   7.409      2.572      0.166      0.02315519 0.0341078  0.09772595 0.01220257 0.0555884  0.007517064 14.51352   2.61304    10.4       0          0          371.86     0.206891   0.2176324  0.1961496 
914.4      222.4      -9999      -9999      209.96     4.405      8.768      8.148001   8.774999   11.183     11.13      10.461     13.41868   6.5        2.740982   3.990982   7.238      2.549      0.166      0.0443939  0.04711375 0.09920597 0.04167406 0.07612404 0.01859691 15.40237   2.59132    10.461     0          0.06216251 371.204    0.2024061  0.2124137  0.1923985 
914.5      220.7      -9999      -9999      220.08     4.509      9.379      8.848      9.063001   11.618     11.526     10.584     12.98479   6.5        2.768163   3.965599   7.123      2.534      0.166      0.05902426 0.05190425 0.09859078 0.06614427 0.09104664 0.03470808 14.01242   2.58332    10.584     0.1309239  0.2528918  370.348    0.2042703  0.2207774  0.1877633 
914.6      220.3      -9999      -9999      223.325    4.739      10.325     10.09      9.832      12.156     12.096     10.821     13.38384   6.5        2.793993   3.96       7.084      2.533      0.166      0.06616069 0.06107794 0.09600801 0.07124345 0.09941    0.04705596 11.3952    2.568      10.821     0.2212969  0.330471   369.623    0.2120969  0.2402256  0.1839682 
914.7000000000001 220.4      -9999      -9999      221.848    4.776      11.224     11.033     11.249     12.692     12.772     10.885     15.22201   6.520865   2.774762   3.968761   7.105      2.539      0.166      0.06616516 0.06476658 0.09572461 0.06756375 0.0995491  0.04706493 11.00406   2.56184    10.885     0.2234944  0.3330131  369.305    0.2129557  0.2436763  0.1822351 
914.8      220.2      -9999      -9999      220.392    4.768      12.344     12.042     12.486     13.07      13.197     10.789     19.66084   6.634731   2.743997   4.015929   7.101      2.548      0.166      0.06913644 0.07338934 0.09648931 0.06488355 0.1021571  0.05342354 11.06069   2.54744    10.789     0.2495284  0.3519548  368.46     0.2106384  0.2431661  0.1781108 
914.9      219.7      -9999      -9999      222.308    4.678      13.296     12.529     12.813     12.858     12.939     10.461     22.843     6.763977   2.750838   4.071572   6.985      2.543      0.166      0.07155018 0.07200008 0.09832387 0.07110029 0.1036994  0.05921626 11.9596    2.54976    10.461     0.2609979  0.3567776  367.719    0.2050792  0.2355302  0.1746281 
915        217.9      -9999      -9999      228.579    4.527      14.106     11.745     12.172     12.099     11.945     9.848999   19.35431   6.77887    2.812399   4.090132   6.815      2.518      0.166      0.08107488 0.07468265 0.1006909  0.08746711 0.1120996  0.08889176 13.65323   2.54528    9.848999   0.3181952  0.3985562  367.309    0.1979063  0.2231309  0.1726817 
915.1      218.7      -9999      -9999      236.924    4.158      14.571     10.773     10.52      11.016     10.628     9.151      13.55227   6.664727   2.815997   4.020143   6.59       2.485      0.166      0.09916641 0.08898205 0.1051699  0.1093508  0.1280634  0.1922917  18.92527   2.5214     9.151      0.4078235  0.4691284  367.518    0.1843335  0.1952789  0.1733882 
915.2000000000001 218.4      1          3          242.392    3.72       14.762     9.711      9.339      9.863      9.186      8.307      8.785573   6.493186   2.797725   3.892075   6.368      2.449      0.166      0.1216995  0.1188743  0.1096763  0.1245247  0.1484558  0.5027221  27.89506   2.47148    8.307      0.4815309  0.5307336  367.862    0.1706779  0.1666699  0.174686  
915.3      218.4      1          3          245.703    3.472      14.85      8.481      8.348      8.56       8.22       7.66       7.264592   6.250507   2.747535   3.723987   6.165      2.423      0.166      0.1407351  0.1485988  0.1117674  0.1328714  0.166498   1.132176   34.71767   2.42184    7.66       0.525453   0.5698872  368.263    0.1643413  0.1524249  0.1762576 
915.4      218.3      1          3          253.661    3.47       15.078     8.275      7.754001   7.824      7.527      7.078      6.650994   6.085973   2.717953   3.62845    5.947      2.405      0.166      0.1558866  0.1641437  0.1119262  0.1476295  0.181574   2.160508   34.71046   2.39588    7.078      0.5494866  0.5924101  368.085    0.16386    0.1524379  0.175282  
915.5      217.6      1          3          265.938    3.379      15.73      7.717      7.034      7.223      7.009      6.545001   5.694332   6.007405   2.754386   3.558388   5.766      2.396      0.166      0.1646248  0.1596887  0.1130958  0.1695608  0.1897566  3.136234   37.56478   2.40332    6.545001   0.5543096  0.5962186  367.608    0.1603157  0.1475974  0.1730339 
915.6      217        1          3          276.248    3.337      16.147     7.003      6.491001   6.651      6.491001   6.117      5.160727   5.821888   2.76678    3.535388   5.592      2.394      0.166      0.1691223  0.1518323  0.1139344  0.1864123  0.1938558  3.799392   38.9185    2.41644    6.117      0.5506126  0.5921348  366.942    0.1577747  0.145479   0.1700703 
915.7000000000001 219        1          3          275.766    3.27       16.188     6.831      6.338      6.269001   6.177001   5.88       5.395074   5.770849   2.753954   3.528722   5.467      2.395      0.166      0.1692661  0.1521199  0.1146962  0.1864123  0.1936377  3.822755   41.22849   2.41596    5.88       0.5425404  0.5838784  366.682    0.1554661  0.1420938  0.1688384 
915.8      217.9      1          3          265.348    3.31       16.235     7.112      6.303      6.11       5.943      5.687      5.747953   5.863973   2.7852     3.57179    5.384      2.395      0.166      0.1661085  0.1626347  0.1141251  0.1695822  0.1907514  3.341102   39.70711   2.3984     5.687      0.5276357  0.5697749  367.036    0.1571967  0.1442922  0.1701012 
915.9      218.6      1          3          256.946    3.469      16.167     7.103      6.129      5.855      5.674      5.492      5.665906   5.878849   2.774762   3.547367   5.352      2.387      0.166      0.165348   0.1767425  0.1125137  0.1539535  0.1907564  3.234481   34.39764   2.37484    5.492      0.5179154  0.5613533  367.335    0.1620797  0.1530024  0.171157  
