~Version
 VERS              .         2.0                           : CWLS LOG ASCII STANDARD - VERSION 2.0
 WRAP              .         NO                            : ONE LINE PER DEPTH STEP
 DLM               .         SPACE                         : DELIMITING CHARACTER(SPACE TAB OR COMMA)
~Well Information
#_______________________________________________________________________________
#
#PARAMETER_NAME    .UNIT     VALUE                         : DESCRIPTION
#_______________________________________________________________________________
STRT               .M        0.8                           : First reference value
STOP               .M        1244.8                        : Last reference value
STEP               .M        0.1                           : Step increment
NULL               .         -9999                         : Missing value
COMP               .                                       : Company
WELL               .         8384                          : Well name
FLD                .         Узень                         : Field
LOC                .                                       : Location
CNTY               .                                       : County
STAT               .                                       : State
CTRY               .                                       : Country
SRVC               .         AO "UPGF"                     : Service Company
DATE               .         31.07.2020                    : Date
API                .                                       : API number
Block              .         6                             : 
Cartographic_reference_system .         GCS_WGS_1984                  : ESRI,PE_10_3_1- <?xml version="1.0" encoding="utf-16"?><ILateBoundCoordinateReferenceSystem name="GCS_WGS_1984"><AuthorityCode>EPSG,4326</AuthorityCode></ILateBoundCoordinateReferenceSystem>
Category           .         добывающая                    : 
Condition          .                                       : 
EREF               .м        83.697                        : 
GRP                .                                       : Group name
Gorizont           .         14                            : 
HZCS               .GCS_WGS_1984 WGS_1984_EASE-Grid_2.0_Global : ESRI,PE_10_3_1- <?xml version="1.0" encoding="utf-16"?><ILateBoundCoordinateReferenceSystem name="WGS_1984_EASE-Grid_2.0_Global"><AuthorityCode>EPSG,6933</AuthorityCode></ILateBoundCoordinateReferenceSystem>
ISS                .                                       : Well surveys
Interpretator      .         Тлеужанов А.З.                : 
Kupol              .         Основной                      : 
LATI               .dega     0.6690890312                  : GCS_WGS_1984
LONG               .dega     0.4572981763                  : GCS_WGS_1984
Mud                .         полимерный                    : 
Mud_density        .         1.34                          : 
Mud_resistivity    .         0.37                          : 
NGDU               .         НГДУ-2                        : 
TIME               .         12_19                         : LOG TIME
Viscosity          .         45                            : 
X                  .м        44123.00                      : 
Y                  .м        85356.00                      : 
YEAR               .         2020                          : 
kvartal            .         3                             : 
~Parameter Information Block
#_______________________________________________________________________________
#
#PARAMETER_NAME    .UNIT     VALUE                         : DESCRIPTION
#_______________________________________________________________________________
SET                .         LQC_KAZNIPI_Petrel            : 
SET_200            .                                       : 
SET_500            .                                       : 
SET_8384_ВИКИЗ     .                                       : 
SET_АК             .                                       : 
SET_результат      .                                       : 
STEP_200           .M        0.100                         : Depth increment
STEP_500           .M        0.100                         : Depth increment
STEP_8384_ВИКИЗ    .M        0.10                          : Depth increment
STEP_АК            .M        0.100                         : Depth increment
STEP_результат     .M        0.100                         : Depth increment
STOP_200           .M        1244.780                      : Last depth in file
STOP_500           .M        1244.500                      : Last depth in file
STOP_8384_ВИКИЗ    .M        1241.90                       : Last depth in file
STOP_АК            .M        1242.300                      : Last depth in file
STOP_результат     .M        1240.000                      : Last depth in file
STRT_200           .M        199.680                       : First depth in file
STRT_500           .M        0.800                         : First depth in file
STRT_8384_ВИКИЗ    .M        First depth in file           : 
STRT_АК            .M        874.900                       : First depth in file
STRT_результат     .M        880.000                       : First depth in file
TLFamily_CALI      .         Caliper                       : 
TLFamily_COLL      .         Net Reservoir Flag            : 
TLFamily_CSAT      .         Fluid Code                    : 
TLFamily_DT        .         Compressional Slowness        : 
TLFamily_GR        .         Russian Gamma Ray             : 
TLFamily_GZ3       .         Gradient 225                  : 
TLFamily_IK1       .         Resistivity 05                : 
TLFamily_IK2       .         Resistivity 07                : 
TLFamily_IK3       .         Resistivity 10                : 
TLFamily_IK4       .         Resistivity 14                : 
TLFamily_IK5       .         Resistivity 20                : 
TLFamily_LLS       .         Lateral Log Resistivity       : 
TLFamily_MBK       .         Micro Lateral Log Resistivity : 
TLFamily_MD        .         Measured Depth                : 
TLFamily_MINV      .         Micro Gradient Resistivity    : 
TLFamily_MNOR      .         Micro Resistivity             : 
TLFamily_NNKTb     .         Neutron Far                   : 
TLFamily_NNKTm     .         Neutron Near                  : 
TLFamily_NPHI      .         Neutron Porosity              : 
TLFamily_PHIE      .         Effective Porosity            : 
TLFamily_PHIED     .         Effective Porosity            : 
TLFamily_PHIEN     .         Effective Porosity            : 
TLFamily_PHIES     .         Effective Porosity            : 
TLFamily_PHIT      .         Porosity                      : 
TLFamily_PRMB      .         Permeability                  : 
TLFamily_PRMB_DGR  .         Permeability                  : 
TLFamily_RHOB      .         Bulk Density                  : 
TLFamily_RT        .         Formation Resistivity         : 
TLFamily_SOIL_ARCHIE .         Oil Saturation                : 
TLFamily_SOIL_DW   .         Oil Saturation                : 
TLFamily_SP        .         Spontaneous Potential         : 
TLFamily_VSH_FIN   .         Shale Volume                  : 
TLFamily_VSH_GR    .         Shale Volume                  : 
TLFamily_VSH_SP    .         Shale Volume                  : 
~Curve Information
#_______________________________________________________________________________
#
#LOGNAME           .UNIT     LOG_ID                        : DESCRIPTION
#_______________________________________________________________________________
MD                 .M                                      :  
CALI               .MM                                     : Кавернометрия 
COLL               .unitless                               : Описание 
CSAT               .unitless                               : Описание 
DT                 .мкс/м                                  : ДельтаТ - Волна по породе 
GR                 .uR/h                                   : Гамма-активность 
GZ3                .Ом·м                                   : A2.0M0.5N 
IK1                .Ohmm                                   : И0.10И0.40 
IK2                .Ohmm                                   : И0.14И0.56 
IK3                .Ohmm                                   : И0.20И0.80 
IK4                .Ohmm                                   : И0.28И1.12 
IK5                .Ohmm                                   : И0.40И1.60 
LLS                .Ом·м                                   : БК 
MBK                .Ом·м                                   : БМК 
MINV               .Ом·м                                   : Градиент-микрозонд 
MNOR               .Ом·м                                   : Потенциал-микрозонд 
NNKTb              .UE                                     : Большой зонд ННК 
NNKTm              .UE                                     : Малый зонд ННК 
NPHI               .V/V                                    : Neutron porosity index 
PHIE               .v/v                                    : Описание 
PHIED              .v/v                                    :  
PHIEN              .v/v                                    :  
PHIES              .v/v                                    :  
PHIT               .v/v                                    : Описание 
PRMB               .mD                                     :  
PRMB_DGR           .mD                                     :  
RHOB               .G/CM3                                  : ГГКП 
RT                 .ohmm                                   : Description 
SOIL_ARCHIE        .v/v                                    :  
SOIL_DW            .v/v                                    :  
SP                 .мВ                                     : ПС 
VSH_FIN            .v/v                                    : Описание 
VSH_GR             .v/v                                    : Shale volume 
VSH_SP             .v/v                                    : Shale Volume 
~Ascii
# ...
964.4      235        -9999      -9999      324.346    7.407      3.266      2.177      2.258      2.344      2.423      2.462      2.375351   3.58568    1.959509   2.378171   2.693      1.659      0.296      0.1074787  0.09036759 0.1107666  0.121302   0.2278859  0.2741099  1.653824   2.3114     2.462      0          0.2987247  424.203    0.5613134  0.5283207  0.5943061 
964.5      228.7      -9999      -9999      340.468    7.893      3.25       2.191      2.234      2.273      2.302      2.352      2.338565   3.364455   1.973918   2.329034   2.614      1.635      0.307      0.1138873  0.1110214  0.1068289  0.1238115  0.2440045  0.3602694  1.071374   2.26016    2.352      0.006935278 0.3272592  423.684    0.606579   0.6307949  0.5823631 
964.6      222        -9999      -9999      356.379    8.041      3.187      2.069      2.157      2.182      2.214      2.276      2.296774   3.235949   2.207283   2.197158   2.61       1.629      0.307      0.1196437  0.1229877  0.1018555  0.1340878  0.2529937  0.4605205  0.9377287  2.2346     2.276      0.03390304 0.3436905  423.521    0.6216501  0.666064   0.5772362 
964.7000000000001 221.8      -9999      -9999      367.179    8.123      3.035      1.881      1.952      2.03       2.106      2.218      2.163167   3.156852   2.217285   2.032883   2.672      1.639      0.299      0.1135709  0.107743   0.09159125 0.1413785  0.2483928  0.3554407  0.8704258  2.25752    2.218      0          0.3141647  423.263    0.6285114  0.6866313  0.5703914 
964.8      223.7      -9999      -9999      368.224    8.038      2.922      1.603      1.717      1.873      2.023      2.193      1.87826    2.880231   1.988974   1.849432   2.798      1.667      0.281      0.1027086  0.0843415  0.07765792 0.1461264  0.234887   0.223651   0.9374653  2.30116    2.193      0          0.2583282  423.148    0.6161881  0.6661404  0.5662358 
964.9      241.6      -9999      -9999      364.757    7.59       2.858      1.491      1.692      1.924      2.111      2.28       1.840919   2.506431   1.625989   1.817266   2.959      1.716      0.261      0.1037973  0.07831682 0.07419249 0.1588827  0.2252278  0.2342808  1.394855   2.32976    2.28       0          0.2561999  423.235    0.5660834  0.5663671  0.5657997 
965        244.3      -9999      -9999      357.957    7.248      2.871      1.916      2.013      2.27       2.373      2.436      2.225453   2.786252   1.517809   1.963684   3.112      1.778      0.243      0.1020552  0.07547034 0.06725758 0.1634376  0.216293   0.217504   1.88851    2.34692    2.436      0          0.2573265  423.283    0.5325528  0.5004555  0.56465   
965.1      227.7      -9999      -9999      350.502    6.923      2.917      2.445      2.579      2.66       2.731      2.648      2.677312   3.679345   1.708413   2.35273    3.278      1.828      0.225      0.09572586 0.06475308 0.05773251 0.164692   0.2044547  0.1660478  2.518468   2.37432    2.648      0          0.2442195  423.619    0.5068712  0.4449557  0.5687866 
965.2000000000001 226.8      -9999      -9999      336.901    6.632      2.954      2.495      2.609      2.794      2.944      2.871      2.775579   4.063961   1.963311   2.621552   3.412      1.856      0.211      0.08433417 0.04336114 0.05111346 0.1585279  0.1882652  0.1021484  3.258428   2.41832    2.871      0          0.1985236  423.713    0.4845046  0.4005307  0.5684786 
965.3      235.4      -9999      -9999      321.501    6.457      3.032      2.458      2.613      2.775      3.006      2.977      2.788143   4.1        2.001799   2.777783   3.49       1.856      0.203      0.07460203 0.03039212 0.04723527 0.1461787  0.1758537  0.06744793 3.80215    2.4446     2.977      0          0.1401522  423.61     0.4720143  0.3760702  0.5679584 
965.4      223.8      -9999      -9999      311.635    6.028      3.062      2.713      2.727      2.828      3.021      2.977      2.935372   4.1        2.050306   2.768214   3.454      1.843      0.207      0.08080302 0.03799712 0.06060056 0.1438114  0.175967   0.08786705 5.562335   2.4424     2.977      0          0.1657125  423.391    0.4436347  0.3219592  0.5653101 
965.5      225.5      -9999      -9999      308.401    5.741      3.07       2.738      2.737      2.838      2.999      2.938      2.96638    4.1        2.251322   2.618982   3.333      1.824      0.219      0.08781262 0.04008372 0.07813451 0.1452196  0.1793794  0.1184843  7.171034   2.44512    2.938      0          0.1959354  423.217    0.4268651  0.2902362  0.563494  
965.6      223.4      -9999      -9999      308.235    6.146      3.106      2.654      2.659      2.748      2.879      2.867      2.956962   4.1        2.274415   2.457526   3.203      1.797      0.233      0.08341595 0.02898415 0.08398584 0.1372779  0.1802796  0.09822539 4.992885   2.45452    2.867      0          0.172573   423.314    0.4515581  0.3364759  0.5666402 
965.7000000000001 223.4      -9999      -9999      310.201    6.264      3.193      2.383      2.516      2.581      2.717      2.76       2.756014   4.057112   2.192044   2.377351   3.103      1.758      0.244      0.08426653 0.02443628 0.09177949 0.1365838  0.1832144  0.1018541  4.488349   2.45852    2.76       0          0.1683149  423.482    0.4612743  0.3514353  0.5711132 
965.8      233.2      -9999      -9999      317.301    6.702      3.192      2.139      2.335      2.431      2.575      2.65       2.433725   3.805399   2.049026   2.322702   3.003      1.718      0.256      0.08534753 0.02677949 0.09385564 0.1354075  0.1907462  0.10666    3.034568   2.44348    2.65       0          0.1762696  423.366    0.4913466  0.4123423  0.5703508 
965.9      243.2      -9999      -9999      334.001    7.131      3.186      2.181      2.335      2.414      2.47       2.546      2.357892   3.478979   1.85435    2.229199   2.879      1.679      0.271      0.09102403 0.03096763 0.09850451 0.1436     0.2031512  0.1358764  2.068172   2.42488    2.546      0          0.2113394  422.902    0.5227136  0.4822248  0.5632024 
966        225        -9999      -9999      353.301    7.198      3.279      2.262      2.352      2.404      2.388      2.427      2.404443   3.421351   1.819956   2.219      2.77       1.65       0.285      0.1070745  0.0473232  0.1120353  0.1618649  0.2195067  0.2694243  1.945545   2.39704    2.427      0          0.2760679  422.312    0.5241355  0.4944119  0.5538591 
966.1      223.7      -9999      -9999      365.068    7.224      3.257      2.018      2.134      2.213      2.261      2.326      2.225479   3.181015   2.027273   2.091831   2.699      1.631      0.295      0.123278   0.07533212 0.1221197  0.1723821  0.2356553  0.5377311  1.898224   2.35036    2.326      0.06830584 0.3295009  421.93     0.5238796  0.4994081  0.548351  
966.2000000000001 226.1      -9999      -9999      363.001    7.212      3.149      1.67       1.841      2.007      2.132      2.24       2.009097   2.673087   2.042729   1.824129   2.672      1.622      0.299      0.1307016  0.09447322 0.1265885  0.1710431  0.2427742  0.7380221  1.915783   2.31892    2.24       0.09877547 0.3441631  421.801    0.522459   0.497534   0.547384  
966.3      236        -9999      -9999      353.613    6.926      3.057      1.611      1.785      1.965      2.102      2.179      2.067498   2.257338   1.904526   1.776557   2.663      1.63       0.3        0.134206   0.0965046  0.1357157  0.1703978  0.2409957  0.8569975  2.467652   2.32464    2.179      0.1078216  0.3389644  421.704    0.4978311  0.4486746  0.5469877 
966.4      243.3      -9999      -9999      347.024    6.775      3.009      1.747      1.921      2.073      2.164      2.171      2.124608   2.209603   1.801173   1.857873   2.679      1.647      0.298      0.1258736  0.07257053 0.137346   0.1677042  0.2303034  0.6006782  2.818553   2.36868    2.171      0.05496814 0.3018867  421.725    0.4868303  0.4249652  0.5486954 
966.5      251        -9999      -9999      347.424    6.907      3.024      1.881      2.022      2.158      2.216      2.181      2.036026   2.491427   1.73739    1.962968   2.715      1.662      0.293      0.114778   0.05158039 0.1284097  0.1643439  0.2217666  0.3742185  2.50235    2.39932    2.181      0          0.2611467  421.801    0.4987584  0.4461237  0.5513932 
